[{"id": 5790966, "name": "Cosmopolis", "state": "WA", "country": "US", "coord": {"lon": -123.773781, "lat": 46.955372}}, {"id": 5790971, "name": "Cottage Lake", "state": "WA", "country": "US", "coord": {"lon": -122.077347, "lat": 47.74427}}, {"id": 5791102, "name": "Coulee Dam", "state": "WA", "country": "US", "coord": {"lon": -118.976128, "lat": 47.965431}}, {"id": 5791127, "name": "Country Homes", "state": "WA", "country": "US", "coord": {"lon": -117.400253, "lat": 47.750751}}, {"id": 5791132, "name": "Coupeville", "state": "WA", "country": "US", "coord": {"lon": -122.686279, "lat": 48.219818}}, {"id": 5791159, "name": "Covington", "state": "WA", "country": "US", "coord": {"lon": -122.122162, "lat": 47.358181}}, {"id": 5791201, "name": "Cowlitz", "state": "WA", "country": "US", "coord": {"lon": -122.842621, "lat": 46.458721}}, {"id": 5791206, "name": "Cowlitz County", "state": "WA", "country": "US", "coord": {"lon": -122.684547, "lat": 46.199829}}, {"id": 5791724, "name": "Dallesport", "state": "WA", "country": "US", "coord": {"lon": -121.17952, "lat": 45.61734}}, {"id": 5791791, "name": "Darrington", "state": "WA", "country": "US", "coord": {"lon": -121.601509, "lat": 48.25539}}, {"id": 5791805, "name": "Davenport", "state": "WA", "country": "US", "coord": {"lon": -118.149971, "lat": 47.654049}}, {"id": 5791896, "name": "Dayton", "state": "WA", "country": "US", "coord": {"lon": -117.972443, "lat": 46.32375}}, {"id": 5792143, "name": "Deer Park", "state": "WA", "country": "US", "coord": {"lon": -117.476891, "lat": 47.954342}}, {"id": 5792201, "name": "Delta", "state": "WA", "country": "US", "coord": {"lon": -122.524887, "lat": 48.980949}}, {"id": 5792244, "name": "Des Moines", "state": "WA", "country": "US", "coord": {"lon": -122.324287, "lat": 47.401772}}, {"id": 5792262, "name": "Desert Aire", "state": "WA", "country": "US", "coord": {"lon": -119.917267, "lat": 46.679298}}, {"id": 5792466, "name": "Disautel", "state": "WA", "country": "US", "coord": {"lon": -119.237259, "lat": 48.360432}}, {"id": 5792474, "name": "Dishman", "state": "WA", "country": "US", "coord": {"lon": -117.275963, "lat": 47.660069}}, {"id": 5792563, "name": "Dollar Corner", "state": "", "country": "US", "coord": {"lon": -122.600098, "lat": 45.780121}}, {"id": 5792869, "name": "DuPont", "state": "WA", "country": "US", "coord": {"lon": -122.631241, "lat": 47.09676}}, {"id": 5792990, "name": "Duvall", "state": "WA", "country": "US", "coord": {"lon": -121.98568, "lat": 47.742321}}, {"id": 5793237, "name": "East Port Orchard", "state": "WA", "country": "US", "coord": {"lon": -122.624298, "lat": 47.52343}}, {"id": 5793242, "name": "East Renton Highlands", "state": "WA", "country": "US", "coord": {"lon": -122.112343, "lat": 47.484821}}, {"id": 5793271, "name": "East Wenatchee", "state": "WA", "country": "US", "coord": {"lon": -120.293129, "lat": 47.41568}}, {"id": 5793272, "name": "East Wenatchee Bench", "state": "WA", "country": "US", "coord": {"lon": -120.281181, "lat": 47.425678}}, {"id": 5793278, "name": "Eastgate", "state": "WA", "country": "US", "coord": {"lon": -122.145782, "lat": 47.572659}}, {"id": 5793294, "name": "Easton", "state": "WA", "country": "US", "coord": {"lon": -121.178978, "lat": 47.237061}}, {"id": 5793321, "name": "Eatonville", "state": "WA", "country": "US", "coord": {"lon": -122.266502, "lat": 46.867329}}, {"id": 5793406, "name": "Edgewood", "state": "WA", "country": "US", "coord": {"lon": -122.293732, "lat": 47.250099}}, {"id": 5793427, "name": "Edmonds", "state": "WA", "country": "US", "coord": {"lon": -122.377357, "lat": 47.81065}}, {"id": 5793571, "name": "Elk", "state": "WA", "country": "US", "coord": {"lon": -117.276604, "lat": 48.016289}}, {"id": 5793609, "name": "Elk Plain", "state": "WA", "country": "US", "coord": {"lon": -122.397621, "lat": 47.053162}}, {"id": 5793639, "name": "Ellensburg", "state": "WA", "country": "US", "coord": {"lon": -120.547852, "lat": 46.99651}}, {"id": 5793687, "name": "Elma", "state": "WA", "country": "US", "coord": {"lon": -123.408768, "lat": 47.003429}}, {"id": 5793780, "name": "Enetai", "state": "WA", "country": "US", "coord": {"lon": -122.598747, "lat": 47.58482}}, {"id": 5793817, "name": "Entiat", "state": "WA", "country": "US", "coord": {"lon": -120.208412, "lat": 47.675961}}, {"id": 5793822, "name": "Enumclaw", "state": "WA", "country": "US", "coord": {"lon": -121.991501, "lat": 47.204269}}, {"id": 5793832, "name": "Ephrata", "state": "WA", "country": "US", "coord": {"lon": -119.55365, "lat": 47.317638}}, {"id": 5793876, "name": "Esperance", "state": "WA", "country": "US", "coord": {"lon": -122.355408, "lat": 47.78899}}, {"id": 5793933, "name": "Everett", "state": "WA", "country": "US", "coord": {"lon": -122.20208, "lat": 47.978981}}, {"id": 5794011, "name": "Everson", "state": "WA", "country": "US", "coord": {"lon": -122.342659, "lat": 48.92012}}, {"id": 5794097, "name": "Fairwood", "state": "WA", "country": "US", "coord": {"lon": -122.157341, "lat": 47.448429}}, {"id": 5794098, "name": "Fairwood", "state": "WA", "country": "US", "coord": {"lon": -117.417442, "lat": 47.766842}}, {"id": 5794114, "name": "Fall City", "state": "WA", "country": "US", "coord": {"lon": -121.888733, "lat": 47.567322}}, {"id": 5794208, "name": "Farron", "state": "WA", "country": "US", "coord": {"lon": -120.521446, "lat": 46.404572}}, {"id": 5794242, "name": "Felida", "state": "WA", "country": "US", "coord": {"lon": -122.707321, "lat": 45.70956}}, {"id": 5794245, "name": "Federal Way", "state": "WA", "country": "US", "coord": {"lon": -122.312622, "lat": 47.322319}}, {"id": 5794273, "name": "Fern Prairie", "state": "WA", "country": "US", "coord": {"lon": -122.398697, "lat": 45.636509}}, {"id": 5794276, "name": "Ferndale", "state": "WA", "country": "US", "coord": {"lon": -122.591011, "lat": 48.8465}}, {"id": 5794328, "name": "Fife", "state": "WA", "country": "US", "coord": {"lon": -122.357071, "lat": 47.239269}}, {"id": 5794330, "name": "Fife Heights", "state": "WA", "country": "US", "coord": {"lon": -122.34568, "lat": 47.258991}}, {"id": 5794369, "name": "Finley", "state": "WA", "country": "US", "coord": {"lon": -119.033897, "lat": 46.154018}}, {"id": 5794416, "name": "Fircrest", "state": "WA", "country": "US", "coord": {"lon": -122.515961, "lat": 47.23954}}, {"id": 5794559, "name": "Five Corners", "state": "WA", "country": "US", "coord": {"lon": -122.575104, "lat": 45.684559}}, {"id": 5794675, "name": "Fobes Hill", "state": "WA", "country": "US", "coord": {"lon": -122.11985, "lat": 47.94899}}, {"id": 5794716, "name": "Fords Prairie", "state": "WA", "country": "US", "coord": {"lon": -122.989021, "lat": 46.7351}}, {"id": 5794761, "name": "Forks", "state": "WA", "country": "US", "coord": {"lon": -124.38549, "lat": 47.950359}}, {"id": 5794877, "name": "Four Corners", "state": "WA", "country": "US", "coord": {"lon": -122.819344, "lat": 48.049259}}, {"id": 5794940, "name": "Fox Island", "state": "WA", "country": "US", "coord": {"lon": -122.629021, "lat": 47.251492}}, {"id": 5794976, "name": "Franklin County", "state": "WA", "country": "US", "coord": {"lon": -118.934448, "lat": 46.516529}}, {"id": 5795011, "name": "Frederickson", "state": "WA", "country": "US", "coord": {"lon": -122.358727, "lat": 47.09621}}, {"id": 5795013, "name": "Fredonia", "state": "WA", "country": "US", "coord": {"lon": -122.444054, "lat": 48.44622}}, {"id": 5795025, "name": "Freeland", "state": "WA", "country": "US", "coord": {"lon": -122.525978, "lat": 48.009541}}, {"id": 5795104, "name": "Friday Harbor", "state": "WA", "country": "US", "coord": {"lon": -123.01712, "lat": 48.534271}}, {"id": 5795265, "name": "Garfield County", "state": "WA", "country": "US", "coord": {"lon": -117.551018, "lat": 46.449871}}, {"id": 5795292, "name": "Garrett", "state": "WA", "country": "US", "coord": {"lon": -118.402748, "lat": 46.052078}}, {"id": 5795348, "name": "Geneva", "state": "WA", "country": "US", "coord": {"lon": -122.401833, "lat": 48.74567}}, {"id": 5795440, "name": "Gig Harbor", "state": "WA", "country": "US", "coord": {"lon": -122.580132, "lat": 47.329262}}, {"id": 5795542, "name": "Gleed", "state": "WA", "country": "US", "coord": {"lon": -120.613403, "lat": 46.65818}}, {"id": 5795678, "name": "Gold Bar", "state": "WA", "country": "US", "coord": {"lon": -121.69706, "lat": 47.85677}}, {"id": 5795741, "name": "Goldendale", "state": "WA", "country": "US", "coord": {"lon": -120.821732, "lat": 45.820679}}, {"id": 5795906, "name": "Graham", "state": "WA", "country": "US", "coord": {"lon": -122.294281, "lat": 47.052879}}, {"id": 5795933, "name": "Grand Mound", "state": "WA", "country": "US", "coord": {"lon": -123.011253, "lat": 46.78788}}, {"id": 5795969, "name": "Grandview", "state": "WA", "country": "US", "coord": {"lon": -119.901703, "lat": 46.250969}}, {"id": 5795972, "name": "Granger", "state": "WA", "country": "US", "coord": {"lon": -120.187271, "lat": 46.342072}}, {"id": 5795988, "name": "Granite Falls", "state": "WA", "country": "US", "coord": {"lon": -120.213692, "lat": 47.890129}}, {"id": 5795991, "name": "Granite Falls", "state": "WA", "country": "US", "coord": {"lon": -121.968742, "lat": 48.083988}}, {"id": 5796034, "name": "Grant County", "state": "WA", "country": "US", "coord": {"lon": -119.484482, "lat": 47.14986}}, {"id": 5796126, "name": "Grays Harbor County", "state": "WA", "country": "US", "coord": {"lon": -123.83461, "lat": 47.083149}}, {"id": 5796685, "name": "Hansville", "state": "WA", "country": "US", "coord": {"lon": -122.554314, "lat": 47.918701}}, {"id": 5796700, "name": "Harbert", "state": "WA", "country": "US", "coord": {"lon": -118.24218, "lat": 46.087921}}, {"id": 5796977, "name": "Hazard", "state": "WA", "country": "US", "coord": {"lon": -117.518837, "lat": 47.87767}}, {"id": 5796984, "name": "Hazel Dell", "state": "WA", "country": "US", "coord": {"lon": -122.66288, "lat": 45.671509}}, {"id": 5797300, "name": "Highland", "state": "WA", "country": "US", "coord": {"lon": -119.114182, "lat": 46.131519}}, {"id": 5797430, "name": "Hobart", "state": "WA", "country": "US", "coord": {"lon": -121.972893, "lat": 47.421768}}, {"id": 5797435, "name": "Hockinson", "state": "WA", "country": "US", "coord": {"lon": -122.487038, "lat": 45.737888}}, {"id": 5797582, "name": "Home", "state": "WA", "country": "US", "coord": {"lon": -122.763748, "lat": 47.274818}}, {"id": 5797693, "name": "Hoquiam", "state": "WA", "country": "US", "coord": {"lon": -123.889328, "lat": 46.980919}}, {"id": 5798318, "name": "Indianola", "state": "WA", "country": "US", "coord": {"lon": -122.525688, "lat": 47.74704}}, {"id": 5798453, "name": "Island County", "state": "WA", "country": "US", "coord": {"lon": -122.584602, "lat": 48.133148}}, {"id": 5798487, "name": "Issaquah", "state": "WA", "country": "US", "coord": {"lon": -122.032623, "lat": 47.530102}}, {"id": 5798663, "name": "Jefferson County", "state": "WA", "country": "US", "coord": {"lon": -123.08461, "lat": 47.616482}}, {"id": 5799410, "name": "Kalama", "state": "WA", "country": "US", "coord": {"lon": -122.844551, "lat": 46.00845}}, {"id": 5799571, "name": "Kelso", "state": "WA", "country": "US", "coord": {"lon": -122.90844, "lat": 46.146778}}, {"id": 5799587, "name": "Kenmore", "state": "WA", "country": "US", "coord": {"lon": -122.244011, "lat": 47.75732}}, {"id": 5799610, "name": "Kennewick", "state": "WA", "country": "US", "coord": {"lon": -119.13723, "lat": 46.21125}}, {"id": 5799625, "name": "Kent", "state": "WA", "country": "US", "coord": {"lon": -122.23484, "lat": 47.380932}}, {"id": 5799687, "name": "Kettle Falls", "state": "WA", "country": "US", "coord": {"lon": -118.055817, "lat": 48.610741}}, {"id": 5799692, "name": "Key Center", "state": "WA", "country": "US", "coord": {"lon": -122.745407, "lat": 47.340649}}, {"id": 5799783, "name": "King County", "state": "WA", "country": "US", "coord": {"lon": -121.817886, "lat": 47.466492}}, {"id": 5799801, "name": "King Hill", "state": "WA", "country": "US", "coord": {"lon": -123.274902, "lat": 48.038151}}, {"id": 5799815, "name": "Kingston", "state": "WA", "country": "US", "coord": {"lon": -122.498192, "lat": 47.79871}}, {"id": 5799819, "name": "Kingsgate", "state": "WA", "country": "US", "coord": {"lon": -122.179573, "lat": 47.727039}}, {"id": 5799841, "name": "Kirkland", "state": "WA", "country": "US", "coord": {"lon": -122.20874, "lat": 47.681492}}, {"id": 5799853, "name": "Kitsap County", "state": "WA", "country": "US", "coord": {"lon": -122.667923, "lat": 47.616482}}, {"id": 5799869, "name": "Kittitas", "state": "WA", "country": "US", "coord": {"lon": -120.417007, "lat": 46.983181}}, {"id": 5799884, "name": "Klahanie", "state": "", "country": "US", "coord": {"lon": -122.436523, "lat": 47.43121}}, {"id": 5799889, "name": "Kittitas County", "state": "WA", "country": "US", "coord": {"lon": -120.684517, "lat": 47.116508}}, {"id": 5799909, "name": "Klickitat County", "state": "WA", "country": "US", "coord": {"lon": -120.767838, "lat": 45.866508}}, {"id": 5800069, "name": "La Center", "state": "WA", "country": "US", "coord": {"lon": -122.67038, "lat": 45.862339}}, {"id": 5800112, "name": "Lacey", "state": "WA", "country": "US", "coord": {"lon": -122.823189, "lat": 47.03426}}, {"id": 5800190, "name": "Lairds", "state": "WA", "country": "US", "coord": {"lon": -117.087387, "lat": 46.91378}}, {"id": 5800227, "name": "Lake Forest Park", "state": "WA", "country": "US", "coord": {"lon": -122.28096, "lat": 47.75676}}, {"id": 5800235, "name": "Lake Goodwin", "state": "", "country": "US", "coord": {"lon": -122.279587, "lat": 48.138988}}, {"id": 5800314, "name": "Lake Shore", "state": "WA", "country": "US", "coord": {"lon": -122.690933, "lat": 45.69067}}, {"id": 5800317, "name": "Lake Stevens", "state": "WA", "country": "US", "coord": {"lon": -122.063744, "lat": 48.015099}}, {"id": 5800420, "name": "Lakewood", "state": "WA", "country": "US", "coord": {"lon": -122.518463, "lat": 47.171761}}, {"id": 5800475, "name": "Langley", "state": "WA", "country": "US", "coord": {"lon": -122.406258, "lat": 48.040089}}, {"id": 5800683, "name": "Leavenworth", "state": "WA", "country": "US", "coord": {"lon": -120.661484, "lat": 47.59623}}, {"id": 5800813, "name": "Lewis County", "state": "WA", "country": "US", "coord": {"lon": -122.401222, "lat": 46.58316}}, {"id": 5800840, "name": "Lewisville", "state": "WA", "country": "US", "coord": {"lon": -122.523148, "lat": 45.809841}}, {"id": 5800870, "name": "Liberty Lake", "state": "WA", "country": "US", "coord": {"lon": -117.11821, "lat": 47.675911}}, {"id": 5801412, "name": "Lochsloy", "state": "WA", "country": "US", "coord": {"lon": -122.032082, "lat": 48.051491}}, {"id": 5801441, "name": "Lofall", "state": "WA", "country": "US", "coord": {"lon": -122.658211, "lat": 47.812038}}, {"id": 5801520, "name": "Long Beach", "state": "WA", "country": "US", "coord": {"lon": -124.054321, "lat": 46.352322}}, {"id": 5801595, "name": "Longbranch", "state": "WA", "country": "US", "coord": {"lon": -122.756798, "lat": 47.208981}}, {"id": 5801617, "name": "Longview", "state": "WA", "country": "US", "coord": {"lon": -122.938171, "lat": 46.138168}}, {"id": 5801621, "name": "Longview Heights", "state": "WA", "country": "US", "coord": {"lon": -122.957062, "lat": 46.180389}}, {"id": 5802035, "name": "Lynden", "state": "WA", "country": "US", "coord": {"lon": -122.45211, "lat": 48.946499}}, {"id": 5802049, "name": "Lynnwood", "state": "WA", "country": "US", "coord": {"lon": -122.315132, "lat": 47.82093}}, {"id": 5802087, "name": "Mabton", "state": "WA", "country": "US", "coord": {"lon": -119.996712, "lat": 46.214851}}, {"id": 5802098, "name": "Machias", "state": "WA", "country": "US", "coord": {"lon": -122.045959, "lat": 47.981491}}, {"id": 5802209, "name": "Malaga", "state": "WA", "country": "US", "coord": {"lon": -120.20118, "lat": 47.372349}}, {"id": 5802236, "name": "Maltby", "state": "WA", "country": "US", "coord": {"lon": -122.113182, "lat": 47.805099}}, {"id": 5802247, "name": "Manchester", "state": "WA", "country": "US", "coord": {"lon": -122.544861, "lat": 47.555931}}, {"id": 5802291, "name": "Manson", "state": "WA", "country": "US", "coord": {"lon": -120.158409, "lat": 47.884861}}, {"id": 5802340, "name": "Maple Valley", "state": "WA", "country": "US", "coord": {"lon": -122.04641, "lat": 47.392719}}, {"id": 5802349, "name": "Maplewood", "state": "WA", "country": "US", "coord": {"lon": -122.557068, "lat": 47.40176}}, {"id": 5802418, "name": "Marietta", "state": "WA", "country": "US", "coord": {"lon": -122.580452, "lat": 48.787048}}, {"id": 5802493, "name": "Martha Lake", "state": "WA", "country": "US", "coord": {"lon": -122.239304, "lat": 47.850929}}, {"id": 5802570, "name": "Marysville", "state": "WA", "country": "US", "coord": {"lon": -122.177078, "lat": 48.051762}}, {"id": 5802584, "name": "Mason County", "state": "WA", "country": "US", "coord": {"lon": -123.184601, "lat": 47.349812}}, {"id": 5802636, "name": "Mattawa", "state": "WA", "country": "US", "coord": {"lon": -119.902817, "lat": 46.737911}}, {"id": 5802694, "name": "Mazama", "state": "WA", "country": "US", "coord": {"lon": -120.403976, "lat": 48.592091}}, {"id": 5802758, "name": "McCleary", "state": "WA", "country": "US", "coord": {"lon": -123.265427, "lat": 47.05315}}, {"id": 5802950, "name": "McMillin", "state": "WA", "country": "US", "coord": {"lon": -122.236511, "lat": 47.13982}}, {"id": 5802984, "name": "Mead", "state": "WA", "country": "US", "coord": {"lon": -117.354942, "lat": 47.767391}}, {"id": 5803025, "name": "Meadow Glade", "state": "WA", "country": "US", "coord": {"lon": -122.560379, "lat": 45.75845}}, {"id": 5803055, "name": "Meadowdale", "state": "WA", "country": "US", "coord": {"lon": -122.333473, "lat": 47.852871}}, {"id": 5803066, "name": "Medical Lake", "state": "WA", "country": "US", "coord": {"lon": -117.682159, "lat": 47.572941}}, {"id": 5803092, "name": "Medina", "state": "WA", "country": "US", "coord": {"lon": -122.227623, "lat": 47.62093}}, {"id": 5803139, "name": "Mercer Island", "state": "WA", "country": "US", "coord": {"lon": -122.222069, "lat": 47.570648}}, {"id": 5803357, "name": "Midland", "state": "WA", "country": "US", "coord": {"lon": -122.404839, "lat": 47.167042}}, {"id": 5803457, "name": "Mill Creek", "state": "WA", "country": "US", "coord": {"lon": -122.2043, "lat": 47.8601}}, {"id": 5803482, "name": "Mill Plain", "state": "WA", "country": "US", "coord": {"lon": -122.49398, "lat": 45.642899}}, {"id": 5803545, "name": "Millwood", "state": "WA", "country": "US", "coord": {"lon": -117.282707, "lat": 47.681278}}, {"id": 5803556, "name": "Milton", "state": "WA", "country": "US", "coord": {"lon": -122.312897, "lat": 47.248161}}, {"id": 5803574, "name": "Mineral", "state": "WA", "country": "US", "coord": {"lon": -122.180939, "lat": 46.717049}}, {"id": 5803622, "name": "Minnehaha", "state": "WA", "country": "US", "coord": {"lon": -122.648712, "lat": 45.659012}}, {"id": 5803666, "name": "Mirrormont", "state": "WA", "country": "US", "coord": {"lon": -121.995667, "lat": 47.462318}}, {"id": 5803757, "name": "Molson", "state": "WA", "country": "US", "coord": {"lon": -119.2006, "lat": 48.981022}}, {"id": 5803786, "name": "Monroe", "state": "WA", "country": "US", "coord": {"lon": -121.970963, "lat": 47.855381}}, {"id": 5803818, "name": "Montesano", "state": "WA", "country": "US", "coord": {"lon": -123.602661, "lat": 46.981209}}, {"id": 5803964, "name": "Morton", "state": "WA", "country": "US", "coord": {"lon": -122.275101, "lat": 46.558441}}, {"id": 5803990, "name": "Moses Lake", "state": "WA", "country": "US", "coord": {"lon": -119.278084, "lat": 47.130138}}, {"id": 5804127, "name": "Mount Vernon", "state": "WA", "country": "US", "coord": {"lon": -122.334053, "lat": 48.421219}}, {"id": 5804135, "name": "Mount Vista", "state": "WA", "country": "US", "coord": {"lon": -122.632881, "lat": 45.73428}}, {"id": 5804191, "name": "Mountlake Terrace", "state": "WA", "country": "US", "coord": {"lon": -122.308739, "lat": 47.788151}}, {"id": 5804306, "name": "Mukilteo", "state": "WA", "country": "US", "coord": {"lon": -122.304581, "lat": 47.944538}}, {"id": 5804467, "name": "Napavine", "state": "WA", "country": "US", "coord": {"lon": -122.90818, "lat": 46.574551}}, {"id": 5804540, "name": "Navy Yard City", "state": "WA", "country": "US", "coord": {"lon": -122.664581, "lat": 47.553429}}, {"id": 5804676, "name": "Newcastle", "state": "WA", "country": "US", "coord": {"lon": -122.155678, "lat": 47.53899}}, {"id": 5804693, "name": "Newport", "state": "WA", "country": "US", "coord": {"lon": -122.180679, "lat": 47.571209}}, {"id": 5804694, "name": "Newport", "state": "WA", "country": "US", "coord": {"lon": -117.043259, "lat": 48.17963}}, {"id": 5804715, "name": "Newton", "state": "WA", "country": "US", "coord": {"lon": -124.05545, "lat": 47.0812}}, {"id": 5804860, "name": "Nooksack", "state": "WA", "country": "US", "coord": {"lon": -122.321548, "lat": 48.92762}}, {"id": 5804885, "name": "Normandy Park", "state": "WA", "country": "US", "coord": {"lon": -122.340683, "lat": 47.436211}}, {"id": 5804915, "name": "North Bend", "state": "WA", "country": "US", "coord": {"lon": -121.786781, "lat": 47.495659}}, {"id": 5804953, "name": "North Creek", "state": "WA", "country": "US", "coord": {"lon": -122.176239, "lat": 47.819538}}, {"id": 5805240, "name": "North Pine", "state": "WA", "country": "US", "coord": {"lon": -117.364906, "lat": 47.281841}}, {"id": 5805248, "name": "North Puyallup", "state": "WA", "country": "US", "coord": {"lon": -122.282341, "lat": 47.206772}}, {"id": 5805317, "name": "North Yelm", "state": "WA", "country": "US", "coord": {"lon": -122.602898, "lat": 46.96315}}, {"id": 5805441, "name": "Oak Harbor", "state": "WA", "country": "US", "coord": {"lon": -122.643219, "lat": 48.293159}}, {"id": 5805503, "name": "Ocean Park", "state": "WA", "country": "US", "coord": {"lon": -124.050163, "lat": 46.491489}}, {"id": 5805505, "name": "Ocean Shores", "state": "WA", "country": "US", "coord": {"lon": -124.156288, "lat": 46.973701}}, {"id": 5805550, "name": "Okanogan", "state": "WA", "country": "US", "coord": {"lon": -119.583389, "lat": 48.361259}}, {"id": 5805553, "name": "Okanogan County", "state": "WA", "country": "US", "coord": {"lon": -119.734512, "lat": 48.54987}}, {"id": 5805687, "name": "Olympia", "state": "WA", "country": "US", "coord": {"lon": -122.900703, "lat": 47.037868}}, {"id": 5805734, "name": "Omak", "state": "WA", "country": "US", "coord": {"lon": -119.52755, "lat": 48.410992}}, {"id": 5805782, "name": "Opportunity", "state": "WA", "country": "US", "coord": {"lon": -117.239906, "lat": 47.649948}}, {"id": 5805815, "name": "Orchards", "state": "WA", "country": "US", "coord": {"lon": -122.560928, "lat": 45.666512}}, {"id": 5805838, "name": "Oroville", "state": "WA", "country": "US", "coord": {"lon": -119.435623, "lat": 48.939049}}, {"id": 5805849, "name": "Orting", "state": "WA", "country": "US", "coord": {"lon": -122.204277, "lat": 47.097881}}, {"id": 5805879, "name": "Othello", "state": "WA", "country": "US", "coord": {"lon": -119.175293, "lat": 46.82597}}, {"id": 5806017, "name": "Pacific", "state": "WA", "country": "US", "coord": {"lon": -122.250122, "lat": 47.264549}}, {"id": 5806253, "name": "Parkland", "state": "WA", "country": "US", "coord": {"lon": -122.434013, "lat": 47.15538}}, {"id": 5806274, "name": "Parkwood", "state": "WA", "country": "US", "coord": {"lon": -122.610138, "lat": 47.53315}}, {"id": 5806298, "name": "Pasco", "state": "WA", "country": "US", "coord": {"lon": -119.100571, "lat": 46.239578}}, {"id": 5806341, "name": "Patit", "state": "WA", "country": "US", "coord": {"lon": -117.859367, "lat": 46.335701}}, {"id": 5806508, "name": "Penn Cove Park", "state": "WA", "country": "US", "coord": {"lon": -122.673218, "lat": 48.239819}}, {"id": 5806769, "name": "Pierce County", "state": "WA", "country": "US", "coord": {"lon": -122.117889, "lat": 47.033161}}, {"id": 5807107, "name": "Point Roberts", "state": "WA", "country": "US", "coord": {"lon": -123.077972, "lat": 48.985378}}, {"id": 5807169, "name": "Pomeroy", "state": "WA", "country": "US", "coord": {"lon": -117.602692, "lat": 46.474869}}, {"id": 5807212, "name": "Port Angeles", "state": "WA", "country": "US", "coord": {"lon": -123.43074, "lat": 48.118149}}, {"id": 5807228, "name": "Port Ludlow", "state": "WA", "country": "US", "coord": {"lon": -122.683487, "lat": 47.925369}}, {"id": 5807236, "name": "Port Orchard", "state": "WA", "country": "US", "coord": {"lon": -122.636253, "lat": 47.540371}}, {"id": 5807239, "name": "Port Townsend", "state": "WA", "country": "US", "coord": {"lon": -122.760452, "lat": 48.117039}}, {"id": 5807337, "name": "Poulsbo", "state": "WA", "country": "US", "coord": {"lon": -122.646538, "lat": 47.735931}}, {"id": 5807367, "name": "Prairie Ridge", "state": "WA", "country": "US", "coord": {"lon": -122.148727, "lat": 47.1376}}, {"id": 5807487, "name": "Prosser", "state": "WA", "country": "US", "coord": {"lon": -119.768921, "lat": 46.206799}}, {"id": 5807540, "name": "Pullman", "state": "WA", "country": "US", "coord": {"lon": -117.179619, "lat": 46.73127}}, {"id": 5807558, "name": "Purdy", "state": "WA", "country": "US", "coord": {"lon": -122.625412, "lat": 47.388988}}, {"id": 5807575, "name": "Puyallup", "state": "WA", "country": "US", "coord": {"lon": -122.2929, "lat": 47.185379}}, {"id": 5807713, "name": "Quincy", "state": "WA", "country": "US", "coord": {"lon": -119.852547, "lat": 47.234299}}, {"id": 5807732, "name": "R Corner", "state": "WA", "country": "US", "coord": {"lon": -123.274902, "lat": 48.093979}}, {"id": 5807825, "name": "Rainier", "state": "WA", "country": "US", "coord": {"lon": -122.688461, "lat": 46.888161}}, {"id": 5807972, "name": "Ravensdale", "state": "WA", "country": "US", "coord": {"lon": -121.983727, "lat": 47.352322}}, {"id": 5807986, "name": "Raymond", "state": "WA", "country": "US", "coord": {"lon": -123.732941, "lat": 46.686489}}, {"id": 5808079, "name": "Redmond", "state": "WA", "country": "US", "coord": {"lon": -122.121513, "lat": 47.673988}}, {"id": 5808140, "name": "Regal", "state": "WA", "country": "US", "coord": {"lon": -120.46701, "lat": 46.990131}}, {"id": 5808189, "name": "Renton", "state": "WA", "country": "US", "coord": {"lon": -122.217072, "lat": 47.48288}}, {"id": 5808201, "name": "Republic", "state": "WA", "country": "US", "coord": {"lon": -118.737808, "lat": 48.64822}}, {"id": 5808276, "name": "Richland", "state": "WA", "country": "US", "coord": {"lon": -119.284462, "lat": 46.28569}}, {"id": 5808311, "name": "Ridgefield", "state": "WA", "country": "US", "coord": {"lon": -122.742599, "lat": 45.815121}}, {"id": 5808402, "name": "Riverbend", "state": "WA", "country": "US", "coord": {"lon": -121.750389, "lat": 47.466492}}, {"id": 5808432, "name": "Riverton", "state": "WA", "country": "US", "coord": {"lon": -122.294571, "lat": 47.484268}}, {"id": 5808453, "name": "Ritzville", "state": "WA", "country": "US", "coord": {"lon": -118.379982, "lat": 47.127369}}, {"id": 5808524, "name": "Rochester", "state": "WA", "country": "US", "coord": {"lon": -123.096252, "lat": 46.82177}}, {"id": 5808691, "name": "Rocky Point", "state": "WA", "country": "US", "coord": {"lon": -122.66848, "lat": 47.592869}}, {"id": 5808834, "name": "Rosedale", "state": "WA", "country": "US", "coord": {"lon": -122.652351, "lat": 47.33149}}, {"id": 5808939, "name": "Royal City", "state": "WA", "country": "US", "coord": {"lon": -119.630592, "lat": 46.90097}}, {"id": 5809016, "name": "Russell", "state": "WA", "country": "US", "coord": {"lon": -118.346077, "lat": 46.133751}}, {"id": 5809333, "name": "Salmon Creek", "state": "WA", "country": "US", "coord": {"lon": -122.648987, "lat": 45.71067}}, {"id": 5809402, "name": "Sammamish", "state": "WA", "country": "US", "coord": {"lon": -122.080399, "lat": 47.641769}}, {"id": 5809805, "name": "SeaTac", "state": "WA", "country": "US", "coord": {"lon": -122.292168, "lat": 47.44846}}, {"id": 5809806, "name": "Seabeck", "state": "WA", "country": "US", "coord": {"lon": -122.828491, "lat": 47.639542}}, {"id": 5809844, "name": "Seattle", "state": "WA", "country": "US", "coord": {"lon": -122.332069, "lat": 47.606209}}, {"id": 5809902, "name": "Sedro-Woolley", "state": "WA", "country": "US", "coord": {"lon": -122.236107, "lat": 48.503891}}, {"id": 5809928, "name": "Selah", "state": "WA", "country": "US", "coord": {"lon": -120.530067, "lat": 46.654018}}, {"id": 5809983, "name": "Sequim", "state": "WA", "country": "US", "coord": {"lon": -123.101837, "lat": 48.07954}}, {"id": 5810176, "name": "Shelton", "state": "WA", "country": "US", "coord": {"lon": -123.100708, "lat": 47.215092}}, {"id": 5810301, "name": "Shoreline", "state": "WA", "country": "US", "coord": {"lon": -122.341522, "lat": 47.75565}}, {"id": 5810490, "name": "Silverdale", "state": "WA", "country": "US", "coord": {"lon": -122.69487, "lat": 47.644539}}, {"id": 5810559, "name": "Sisco Heights", "state": "WA", "country": "US", "coord": {"lon": -122.097076, "lat": 48.115379}}, {"id": 5810608, "name": "Skagit County", "state": "WA", "country": "US", "coord": {"lon": -121.784576, "lat": 48.466499}}, {"id": 5810915, "name": "Smokey Point", "state": "WA", "country": "US", "coord": {"lon": -122.18264, "lat": 48.152321}}, {"id": 5810982, "name": "Snohomish County", "state": "WA", "country": "US", "coord": {"lon": -121.717903, "lat": 48.049831}}, {"id": 5810988, "name": "Snohomish", "state": "WA", "country": "US", "coord": {"lon": -122.098183, "lat": 47.91288}}, {"id": 5810995, "name": "Snoqualmie", "state": "WA", "country": "US", "coord": {"lon": -121.825394, "lat": 47.528709}}, {"id": 5811089, "name": "Soap Lake", "state": "WA", "country": "US", "coord": {"lon": -119.490593, "lat": 47.389309}}, {"id": 5811211, "name": "South Bend", "state": "WA", "country": "US", "coord": {"lon": -123.804611, "lat": 46.663151}}, {"id": 5811225, "name": "South Broadway", "state": "WA", "country": "US", "coord": {"lon": -120.516731, "lat": 46.566238}}, {"id": 5811456, "name": "South Hill", "state": "WA", "country": "US", "coord": {"lon": -122.270119, "lat": 47.141209}}, {"id": 5811567, "name": "Southworth", "state": "WA", "country": "US", "coord": {"lon": -122.501801, "lat": 47.512039}}, {"id": 5811581, "name": "Spanaway", "state": "WA", "country": "US", "coord": {"lon": -122.43457, "lat": 47.103989}}, {"id": 5811696, "name": "Spokane", "state": "WA", "country": "US", "coord": {"lon": -117.429077, "lat": 47.65966}}, {"id": 5811704, "name": "Spokane County", "state": "WA", "country": "US", "coord": {"lon": -117.367706, "lat": 47.616562}}, {"id": 5811729, "name": "Spokane Valley", "state": "WA", "country": "US", "coord": {"lon": -117.239372, "lat": 47.673229}}, {"id": 5811995, "name": "Stanwood", "state": "WA", "country": "US", "coord": {"lon": -122.370712, "lat": 48.241211}}, {"id": 5812017, "name": "Startup", "state": "WA", "country": "US", "coord": {"lon": -121.740402, "lat": 47.867882}}, {"id": 5812092, "name": "Steilacoom", "state": "WA", "country": "US", "coord": {"lon": -122.602631, "lat": 47.169819}}, {"id": 5812148, "name": "Stevens County", "state": "WA", "country": "US", "coord": {"lon": -117.834419, "lat": 48.433231}}, {"id": 5812177, "name": "Stevenson", "state": "WA", "country": "US", "coord": {"lon": -121.884521, "lat": 45.695671}}, {"id": 5812434, "name": "Sudden Valley", "state": "WA", "country": "US", "coord": {"lon": -122.34655, "lat": 48.722889}}, {"id": 5812483, "name": "Sultan", "state": "WA", "country": "US", "coord": {"lon": -121.816513, "lat": 47.862598}}, {"id": 5812494, "name": "Sumas", "state": "WA", "country": "US", "coord": {"lon": -122.264877, "lat": 49.000118}}, {"id": 5812505, "name": "Summit", "state": "WA", "country": "US", "coord": {"lon": -122.357071, "lat": 47.16177}}, {"id": 5812543, "name": "Sumner", "state": "WA", "country": "US", "coord": {"lon": -122.240402, "lat": 47.203159}}, {"id": 5812604, "name": "Sunnyside", "state": "WA", "country": "US", "coord": {"lon": -120.008652, "lat": 46.323738}}, {"id": 5812626, "name": "Sunnyslope", "state": "WA", "country": "US", "coord": {"lon": -120.336739, "lat": 47.4729}}, {"id": 5812723, "name": "Suquamish", "state": "WA", "country": "US", "coord": {"lon": -122.552361, "lat": 47.731209}}, {"id": 5812944, "name": "Tacoma", "state": "WA", "country": "US", "coord": {"lon": -122.44429, "lat": 47.25288}}, {"id": 5813063, "name": "Tanner", "state": "WA", "country": "US", "coord": {"lon": -121.746223, "lat": 47.47538}}, {"id": 5813207, "name": "Tenino", "state": "WA", "country": "US", "coord": {"lon": -122.852913, "lat": 46.85677}}, {"id": 5813249, "name": "Terrace Heights", "state": "WA", "country": "US", "coord": {"lon": -120.439789, "lat": 46.606239}}, {"id": 5813459, "name": "Three Lakes", "state": "WA", "country": "US", "coord": {"lon": -122.01152, "lat": 47.94482}}, {"id": 5813521, "name": "Thurston County", "state": "WA", "country": "US", "coord": {"lon": -122.817909, "lat": 46.916489}}, {"id": 5813532, "name": "Tieton", "state": "WA", "country": "US", "coord": {"lon": -120.755348, "lat": 46.702068}}, {"id": 5813726, "name": "Tonasket", "state": "WA", "country": "US", "coord": {"lon": -119.439499, "lat": 48.705151}}, {"id": 5813747, "name": "Toppenish", "state": "WA", "country": "US", "coord": {"lon": -120.30867, "lat": 46.37735}}, {"id": 5813814, "name": "Town and Country", "state": "WA", "country": "US", "coord": {"lon": -117.421608, "lat": 47.72739}}, {"id": 5813832, "name": "Tracyton", "state": "WA", "country": "US", "coord": {"lon": -122.655144, "lat": 47.608978}}, {"id": 5813889, "name": "Trentwood", "state": "WA", "country": "US", "coord": {"lon": -117.210762, "lat": 47.69656}}, {"id": 5814043, "name": "Tukwila", "state": "WA", "country": "US", "coord": {"lon": -122.260963, "lat": 47.473991}}, {"id": 5814047, "name": "Tulalip", "state": "WA", "country": "US", "coord": {"lon": -122.291809, "lat": 48.068432}}, {"id": 5814048, "name": "Tulalip Bay", "state": "WA", "country": "US", "coord": {"lon": -122.310143, "lat": 48.037319}}, {"id": 5814095, "name": "Tumwater", "state": "WA", "country": "US", "coord": {"lon": -122.909309, "lat": 47.00732}}, {"id": 5814419, "name": "Union Gap", "state": "WA", "country": "US", "coord": {"lon": -120.47506, "lat": 46.55735}}, {"id": 5814450, "name": "University Place", "state": "WA", "country": "US", "coord": {"lon": -122.5504, "lat": 47.235649}}, {"id": 5814616, "name": "Vancouver", "state": "WA", "country": "US", "coord": {"lon": -122.661491, "lat": 45.638729}}, {"id": 5814647, "name": "Vashon", "state": "WA", "country": "US", "coord": {"lon": -122.459846, "lat": 47.447319}}, {"id": 5814686, "name": "Veradale", "state": "WA", "country": "US", "coord": {"lon": -117.207382, "lat": 47.649948}}, {"id": 5814695, "name": "Venersborg", "state": "WA", "country": "US", "coord": {"lon": -122.424538, "lat": 45.773731}}, {"id": 5814838, "name": "Wagner", "state": "WA", "country": "US", "coord": {"lon": -121.936508, "lat": 47.87899}}, {"id": 5814871, "name": "Waitsburg", "state": "WA", "country": "US", "coord": {"lon": -118.15329, "lat": 46.27042}}, {"id": 5814916, "name": "Walla Walla", "state": "WA", "country": "US", "coord": {"lon": -118.343018, "lat": 46.064579}}, {"id": 5814921, "name": "Walla Walla County", "state": "WA", "country": "US", "coord": {"lon": -118.484421, "lat": 46.283192}}, {"id": 5814941, "name": "Waller", "state": "WA", "country": "US", "coord": {"lon": -122.369293, "lat": 47.200661}}, {"id": 5814950, "name": "Walnut Grove", "state": "WA", "country": "US", "coord": {"lon": -122.598991, "lat": 45.667889}}, {"id": 5814992, "name": "Wapato", "state": "WA", "country": "US", "coord": {"lon": -120.420341, "lat": 46.447632}}, {"id": 5815020, "name": "Warden", "state": "WA", "country": "US", "coord": {"lon": -119.039726, "lat": 46.96764}}, {"id": 5815033, "name": "Warm Beach", "state": "WA", "country": "US", "coord": {"lon": -122.364601, "lat": 48.17065}}, {"id": 5815135, "name": "Washington", "state": "WA", "country": "US", "coord": {"lon": -120.501472, "lat": 47.500118}}, {"id": 5815136, "name": "Washougal", "state": "WA", "country": "US", "coord": {"lon": -122.353416, "lat": 45.582619}}, {"id": 5815184, "name": "Waterville", "state": "WA", "country": "US", "coord": {"lon": -120.071182, "lat": 47.647079}}, {"id": 5815213, "name": "Wauna", "state": "WA", "country": "US", "coord": {"lon": -122.642632, "lat": 47.37899}}, {"id": 5815237, "name": "Weallup Lake", "state": "WA", "country": "US", "coord": {"lon": -122.306259, "lat": 48.1101}}, {"id": 5815342, "name": "Wenatchee", "state": "WA", "country": "US", "coord": {"lon": -120.310349, "lat": 47.423458}}, {"id": 5815538, "name": "West Lake Sammamish", "state": "WA", "country": "US", "coord": {"lon": -122.101227, "lat": 47.577599}}, {"id": 5815539, "name": "West Lake Stevens", "state": "WA", "country": "US", "coord": {"lon": -122.101799, "lat": 47.993431}}, {"id": 5815544, "name": "West Longview", "state": "WA", "country": "US", "coord": {"lon": -122.999001, "lat": 46.167889}}, {"id": 5815550, "name": "West Pasco", "state": "WA", "country": "US", "coord": {"lon": -119.182793, "lat": 46.245411}}, {"id": 5815599, "name": "West Richland", "state": "WA", "country": "US", "coord": {"lon": -119.361412, "lat": 46.304298}}, {"id": 5815605, "name": "West Valley", "state": "WA", "country": "US", "coord": {"lon": -120.605072, "lat": 46.592072}}, {"id": 5815609, "name": "West Wenatchee", "state": "WA", "country": "US", "coord": {"lon": -120.353409, "lat": 47.443741}}, {"id": 5815665, "name": "Westport", "state": "WA", "country": "US", "coord": {"lon": -124.104057, "lat": 46.890091}}, {"id": 5815675, "name": "Whatcom County", "state": "WA", "country": "US", "coord": {"lon": -121.784592, "lat": 48.916512}}, {"id": 5815759, "name": "White Center", "state": "WA", "country": "US", "coord": {"lon": -122.354851, "lat": 47.517319}}, {"id": 5815842, "name": "White Salmon", "state": "WA", "country": "US", "coord": {"lon": -121.486458, "lat": 45.727619}}, {"id": 5815891, "name": "Whitman County", "state": "WA", "country": "US", "coord": {"lon": -117.48436, "lat": 46.91655}}, {"id": 5816011, "name": "Wildcat Lake", "state": "WA", "country": "US", "coord": {"lon": -122.766823, "lat": 47.604542}}, {"id": 5816314, "name": "Winlock", "state": "WA", "country": "US", "coord": {"lon": -122.937897, "lat": 46.491219}}, {"id": 5816320, "name": "Bainbridge Island", "state": "WA", "country": "US", "coord": {"lon": -122.52124, "lat": 47.626209}}, {"id": 5816413, "name": "Wollochet", "state": "WA", "country": "US", "coord": {"lon": -122.584023, "lat": 47.268711}}, {"id": 5816449, "name": "Woodinville", "state": "WA", "country": "US", "coord": {"lon": -122.16346, "lat": 47.754269}}, {"id": 5816457, "name": "Woodland", "state": "WA", "country": "US", "coord": {"lon": -122.743988, "lat": 45.90456}}, {"id": 5816494, "name": "Woods Creek", "state": "WA", "country": "US", "coord": {"lon": -121.89846, "lat": 47.878712}}, {"id": 5816508, "name": "Woodway", "state": "WA", "country": "US", "coord": {"lon": -122.382912, "lat": 47.796211}}, {"id": 5816582, "name": "Yacolt", "state": "WA", "country": "US", "coord": {"lon": -122.406212, "lat": 45.865952}}, {"id": 5816597, "name": "Yakima County", "state": "WA", "country": "US", "coord": {"lon": -120.667847, "lat": 46.466511}}, {"id": 5816605, "name": "Yakima", "state": "WA", "country": "US", "coord": {"lon": -120.505898, "lat": 46.60207}}, {"id": 5816621, "name": "Yardley", "state": "WA", "country": "US", "coord": {"lon": -117.333542, "lat": 47.667122}}, {"id": 5816626, "name": "Yarrow Point", "state": "WA", "country": "US", "coord": {"lon": -122.217346, "lat": 47.64621}}, {"id": 5816656, "name": "Yelm", "state": "WA", "country": "US", "coord": {"lon": -122.605957, "lat": 46.942039}}, {"id": 5816719, "name": "Zillah", "state": "WA", "country": "US", "coord": {"lon": -120.262001, "lat": 46.402069}}, {"id": 5816861, "name": "Afton", "state": "WY", "country": "US", "coord": {"lon": -110.93187, "lat": 42.72493}}, {"id": 5816882, "name": "Air Base Acres", "state": "WY", "country": "US", "coord": {"lon": -106.441139, "lat": 42.882191}}, {"id": 5816884, "name": "Airport Road", "state": "WY", "country": "US", "coord": {"lon": -107.949257, "lat": 43.99329}}, {"id": 5816904, "name": "Albany County", "state": "WY", "country": "US", "coord": {"lon": -105.700546, "lat": 41.666641}}, {"id": 5817269, "name": "Antelope Hills", "state": "WY", "country": "US", "coord": {"lon": -106.324188, "lat": 43.081631}}, {"id": 5817340, "name": "Arapahoe", "state": "WY", "country": "US", "coord": {"lon": -108.48983, "lat": 42.962181}}, {"id": 5817809, "name": "Bar Nunn", "state": "WY", "country": "US", "coord": {"lon": -106.343361, "lat": 42.913582}}, {"id": 5817923, "name": "Basin", "state": "WY", "country": "US", "coord": {"lon": -108.038986, "lat": 44.379959}}, {"id": 5818658, "name": "Big Horn County", "state": "WY", "country": "US", "coord": {"lon": -108.083992, "lat": 44.533291}}, {"id": 5819347, "name": "Boulder", "state": "WY", "country": "US", "coord": {"lon": -109.717651, "lat": 42.74828}}, {"id": 5819656, "name": "Bronx", "state": "WY", "country": "US", "coord": {"lon": -110.115723, "lat": 42.992722}}, {"id": 5819841, "name": "Buckhorn", "state": "WY", "country": "US", "coord": {"lon": -104.095772, "lat": 44.149429}}, {"id": 5819881, "name": "Buffalo", "state": "WY", "country": "US", "coord": {"lon": -106.698936, "lat": 44.348309}}, {"id": 5820441, "name": "Campbell County", "state": "WY", "country": "US", "coord": {"lon": -105.55056, "lat": 44.250542}}, {"id": 5820552, "name": "Carbon County", "state": "WY", "country": "US", "coord": {"lon": -106.833931, "lat": 41.66663}}, {"id": 5820705, "name": "Casper", "state": "WY", "country": "US", "coord": {"lon": -106.31308, "lat": 42.866631}}, {"id": 5820898, "name": "Centennial", "state": "WY", "country": "US", "coord": {"lon": -106.141678, "lat": 41.298309}}, {"id": 5821086, "name": "Cheyenne", "state": "WY", "country": "US", "coord": {"lon": -104.820251, "lat": 41.13998}}, {"id": 5821593, "name": "Cody", "state": "WY", "country": "US", "coord": {"lon": -109.056534, "lat": 44.52634}}, {"id": 5821791, "name": "Converse County", "state": "WY", "country": "US", "coord": {"lon": -105.533882, "lat": 42.966629}}, {"id": 5823516, "name": "Douglas", "state": "WY", "country": "US", "coord": {"lon": -105.38221, "lat": 42.759689}}, {"id": 5823980, "name": "Dwyer Junction", "state": "WY", "country": "US", "coord": {"lon": -104.994972, "lat": 42.234692}}, {"id": 5824768, "name": "Esterbrook", "state": "WY", "country": "US", "coord": {"lon": -105.360817, "lat": 42.41164}}, {"id": 5824773, "name": "Ethete", "state": "WY", "country": "US", "coord": {"lon": -108.772621, "lat": 43.02496}}, {"id": 5824805, "name": "Evanston", "state": "WY", "country": "US", "coord": {"lon": -110.963242, "lat": 41.26828}}, {"id": 5824810, "name": "Evansville", "state": "WY", "country": "US", "coord": {"lon": -106.268356, "lat": 42.85997}}, {"id": 5825405, "name": "Fort LaClede (historical)", "state": "WY", "country": "US", "coord": {"lon": -108.389267, "lat": 41.415241}}, {"id": 5825424, "name": "Fort Washakie", "state": "WY", "country": "US", "coord": {"lon": -108.882347, "lat": 43.006351}}, {"id": 5825643, "name": "Fremont County", "state": "WY", "country": "US", "coord": {"lon": -108.667343, "lat": 42.91663}}, {"id": 5826027, "name": "Gillette", "state": "WY", "country": "US", "coord": {"lon": -105.50222, "lat": 44.291088}}, {"id": 5826088, "name": "Glenrock", "state": "WY", "country": "US", "coord": {"lon": -105.872231, "lat": 42.861359}}, {"id": 5826220, "name": "Goshen County", "state": "WY", "country": "US", "coord": {"lon": -104.35051, "lat": 42.083302}}, {"id": 5826559, "name": "Green River", "state": "WY", "country": "US", "coord": {"lon": -109.466248, "lat": 41.52858}}, {"id": 5826603, "name": "Greybull", "state": "WY", "country": "US", "coord": {"lon": -108.056213, "lat": 44.48912}}, {"id": 5826723, "name": "Guernsey", "state": "WY", "country": "US", "coord": {"lon": -104.741631, "lat": 42.269691}}, {"id": 5827703, "name": "Hoback", "state": "WY", "country": "US", "coord": {"lon": -110.783813, "lat": 43.281872}}, {"id": 5828620, "name": "Jack Pine", "state": "WY", "country": "US", "coord": {"lon": -110.434067, "lat": 43.32605}}, {"id": 5828648, "name": "Jackson", "state": "WY", "country": "US", "coord": {"lon": -110.762428, "lat": 43.479931}}, {"id": 5828759, "name": "Jeffrey City", "state": "WY", "country": "US", "coord": {"lon": -107.827301, "lat": 42.494678}}, {"id": 5828957, "name": "Johnson County", "state": "WY", "country": "US", "coord": {"lon": -106.567261, "lat": 44.03331}}, {"id": 5829425, "name": "Kemmerer", "state": "WY", "country": "US", "coord": {"lon": -110.537666, "lat": 41.79245}}, {"id": 5829832, "name": "La Grange", "state": "WY", "country": "US", "coord": {"lon": -104.163841, "lat": 41.640251}}, {"id": 5829855, "name": "Lake", "state": "WY", "country": "US", "coord": {"lon": -110.396591, "lat": 44.55827}}, {"id": 5830007, "name": "Lander", "state": "WY", "country": "US", "coord": {"lon": -108.730667, "lat": 42.833012}}, {"id": 5830051, "name": "Laramie County", "state": "WY", "country": "US", "coord": {"lon": -104.667191, "lat": 41.349979}}, {"id": 5830062, "name": "Laramie", "state": "WY", "country": "US", "coord": {"lon": -105.591103, "lat": 41.311371}}, {"id": 5830426, "name": "Linstead Place", "state": "WY", "country": "US", "coord": {"lon": -106.52282, "lat": 43.58247}}, {"id": 5831176, "name": "Lovell", "state": "WY", "country": "US", "coord": {"lon": -108.389557, "lat": 44.837448}}, {"id": 5831333, "name": "Lusk", "state": "WY", "country": "US", "coord": {"lon": -104.452171, "lat": 42.76247}}, {"id": 5831346, "name": "Lyman", "state": "WY", "country": "US", "coord": {"lon": -110.292931, "lat": 41.32745}}, {"id": 5831530, "name": "Marbleton", "state": "WY", "country": "US", "coord": {"lon": -110.109322, "lat": 42.553551}}, {"id": 5832096, "name": "Meriden", "state": "WY", "country": "US", "coord": {"lon": -104.31913, "lat": 41.543591}}, {"id": 5832481, "name": "Mills", "state": "WY", "country": "US", "coord": {"lon": -106.36586, "lat": 42.840519}}, {"id": 5832698, "name": "Moorcroft", "state": "WY", "country": "US", "coord": {"lon": -104.950249, "lat": 44.263309}}, {"id": 5832732, "name": "Moose", "state": "WY", "country": "US", "coord": {"lon": -110.718262, "lat": 43.655769}}, {"id": 5832759, "name": "Moose Wilson Road", "state": "WY", "country": "US", "coord": {"lon": -110.844658, "lat": 43.525211}}, {"id": 5832901, "name": "Mountain View", "state": "WY", "country": "US", "coord": {"lon": -110.339882, "lat": 41.268841}}, {"id": 5833224, "name": "Natrona County", "state": "WY", "country": "US", "coord": {"lon": -106.783943, "lat": 42.966629}}, {"id": 5833349, "name": "Newcastle", "state": "WY", "country": "US", "coord": {"lon": -104.204941, "lat": 43.854698}}, {"id": 5833892, "name": "North Rock Springs", "state": "WY", "country": "US", "coord": {"lon": -109.265678, "lat": 41.643581}}, {"id": 5834587, "name": "Park County", "state": "WY", "country": "US", "coord": {"lon": -109.667397, "lat": 44.416611}}, {"id": 5835069, "name": "Pine Bluffs", "state": "WY", "country": "US", "coord": {"lon": -104.069122, "lat": 41.181931}}, {"id": 5835178, "name": "Pinedale", "state": "WY", "country": "US", "coord": {"lon": -109.860992, "lat": 42.866611}}, {"id": 5835308, "name": "Platte County", "state": "WY", "country": "US", "coord": {"lon": -104.967194, "lat": 42.133301}}, {"id": 5835322, "name": "Pleasantdale", "state": "WY", "country": "US", "coord": {"lon": -105.719452, "lat": 44.076092}}, {"id": 5835606, "name": "Powell", "state": "WY", "country": "US", "coord": {"lon": -108.757347, "lat": 44.753841}}, {"id": 5835865, "name": "Rafter J Ranch", "state": "WY", "country": "US", "coord": {"lon": -110.799088, "lat": 43.426041}}, {"id": 5835956, "name": "Ranchettes", "state": "WY", "country": "US", "coord": {"lon": -104.790253, "lat": 41.21859}}, {"id": 5836068, "name": "Rawlins", "state": "WY", "country": "US", "coord": {"lon": -107.238663, "lat": 41.791069}}, {"id": 5836665, "name": "Riverton", "state": "WY", "country": "US", "coord": {"lon": -108.380096, "lat": 43.02496}}, {"id": 5836898, "name": "Rock Springs", "state": "WY", "country": "US", "coord": {"lon": -109.202904, "lat": 41.58746}}, {"id": 5837342, "name": "Sales Place", "state": "WY", "country": "US", "coord": {"lon": -108.536232, "lat": 44.189949}}, {"id": 5837377, "name": "Salt Wells", "state": "WY", "country": "US", "coord": {"lon": -108.985947, "lat": 41.65469}}, {"id": 5837593, "name": "Saratoga", "state": "WY", "country": "US", "coord": {"lon": -106.806427, "lat": 41.45496}}, {"id": 5838198, "name": "Sheridan", "state": "WY", "country": "US", "coord": {"lon": -106.956177, "lat": 44.797192}}, {"id": 5838199, "name": "Sheridan County", "state": "WY", "country": "US", "coord": {"lon": -106.91729, "lat": 44.833309}}, {"id": 5838261, "name": "Shirley (historical)", "state": "WY", "country": "US", "coord": {"lon": -106.481972, "lat": 42.18885}}, {"id": 5838312, "name": "Shoshoni", "state": "WY", "country": "US", "coord": {"lon": -108.110367, "lat": 43.23579}}, {"id": 5838557, "name": "Skull Creek", "state": "WY", "country": "US", "coord": {"lon": -104.367172, "lat": 44.10915}}, {"id": 5838617, "name": "Sleepy Hollow", "state": "WY", "country": "US", "coord": {"lon": -105.422218, "lat": 44.241089}}, {"id": 5838969, "name": "South Baxter", "state": "WY", "country": "US", "coord": {"lon": -109.121788, "lat": 41.368019}}, {"id": 5839233, "name": "South Greeley", "state": "WY", "country": "US", "coord": {"lon": -104.806358, "lat": 41.096931}}, {"id": 5839264, "name": "South Park", "state": "WY", "country": "US", "coord": {"lon": -110.793259, "lat": 43.42215}}, {"id": 5839391, "name": "Speer", "state": "WY", "country": "US", "coord": {"lon": -104.895523, "lat": 41.054428}}, {"id": 5840177, "name": "Sublette County", "state": "WY", "country": "US", "coord": {"lon": -109.867371, "lat": 42.69994}}, {"id": 5840284, "name": "Sundance", "state": "WY", "country": "US", "coord": {"lon": -104.375778, "lat": 44.406368}}, {"id": 5840426, "name": "Sweetwater County", "state": "WY", "country": "US", "coord": {"lon": -108.917343, "lat": 41.66663}}, {"id": 5840669, "name": "Teckla", "state": "WY", "country": "US", "coord": {"lon": -105.349983, "lat": 43.5583}}, {"id": 5840786, "name": "Teton County", "state": "WY", "country": "US", "coord": {"lon": -110.584099, "lat": 43.916611}}, {"id": 5840846, "name": "Thermopolis", "state": "WY", "country": "US", "coord": {"lon": -108.212044, "lat": 43.646069}}, {"id": 5840981, "name": "Three River Junction", "state": "WY", "country": "US", "coord": {"lon": -110.89299, "lat": 44.289101}}, {"id": 5841207, "name": "Torrington", "state": "WY", "country": "US", "coord": {"lon": -104.184387, "lat": 42.062462}}, {"id": 5841693, "name": "Uinta County", "state": "WY", "country": "US", "coord": {"lon": -110.568398, "lat": 41.262501}}, {"id": 5841818, "name": "Upton", "state": "WY", "country": "US", "coord": {"lon": -104.628021, "lat": 44.099701}}, {"id": 5842257, "name": "Washakie County", "state": "WY", "country": "US", "coord": {"lon": -107.583969, "lat": 43.91663}}, {"id": 5842684, "name": "West Thumb", "state": "WY", "country": "US", "coord": {"lon": -110.575478, "lat": 44.415501}}, {"id": 5842707, "name": "Weston County", "state": "WY", "country": "US", "coord": {"lon": -104.567177, "lat": 43.849979}}, {"id": 5842753, "name": "Wheatland", "state": "WY", "country": "US", "coord": {"lon": -104.952751, "lat": 42.054409}}, {"id": 5843239, "name": "Wilson", "state": "WY", "country": "US", "coord": {"lon": -110.875214, "lat": 43.500759}}, {"id": 5843495, "name": "Worland", "state": "WY", "country": "US", "coord": {"lon": -107.955368, "lat": 44.016899}}, {"id": 5843515, "name": "Wright", "state": "WY", "country": "US", "coord": {"lon": -105.470551, "lat": 43.746922}}, {"id": 5843591, "name": "Wyoming", "state": "WY", "country": "US", "coord": {"lon": -107.5009, "lat": 43.00024}}, {"id": 5843946, "name": "Max", "state": "NE", "country": "US", "coord": {"lon": -101.402657, "lat": 40.11388}}, {"id": 5843993, "name": "Fruitdale", "state": "OR", "country": "US", "coord": {"lon": -123.308113, "lat": 42.422058}}, {"id": 5843997, "name": "Gold Beach", "state": "OR", "country": "US", "coord": {"lon": -124.421768, "lat": 42.40733}}, {"id": 5844096, "name": "American Fork", "state": "UT", "country": "US", "coord": {"lon": -111.795761, "lat": 40.3769}}, {"id": 5844411, "name": "Annette Island Reserve", "state": "AK", "country": "US", "coord": {"lon": -131.496536, "lat": 55.128399}}, {"id": 5844734, "name": "Big Port Walter (historical)", "state": "AK", "country": "US", "coord": {"lon": -134.73111, "lat": 56.378609}}, {"id": 5845279, "name": "Chatham", "state": "AK", "country": "US", "coord": {"lon": -134.943604, "lat": 57.515282}}, {"id": 5845544, "name": "Craig", "state": "AK", "country": "US", "coord": {"lon": -133.148331, "lat": 55.476391}}, {"id": 5846117, "name": "Excursion Inlet", "state": "AK", "country": "US", "coord": {"lon": -135.426666, "lat": 58.418892}}, {"id": 5846147, "name": "Fish Creek (historical)", "state": "AK", "country": "US", "coord": {"lon": -134.591675, "lat": 58.330559}}, {"id": 5846871, "name": "Gustavus", "state": "AK", "country": "US", "coord": {"lon": -135.736938, "lat": 58.41333}}, {"id": 5846893, "name": "Haines Borough", "state": "AK", "country": "US", "coord": {"lon": -135.500565, "lat": 59.250561}}, {"id": 5846901, "name": "Haines", "state": "AK", "country": "US", "coord": {"lon": -135.444107, "lat": 59.228588}}, {"id": 5847155, "name": "Hoonah", "state": "AK", "country": "US", "coord": {"lon": -135.443604, "lat": 58.110001}}, {"id": 5847207, "name": "Kahalu\u2018u", "state": "HI", "country": "US", "coord": {"lon": -157.83667, "lat": 21.463329}}, {"id": 5847387, "name": "Kahuku", "state": "HI", "country": "US", "coord": {"lon": -157.951111, "lat": 21.680281}}, {"id": 5847411, "name": "Kahului", "state": "HI", "country": "US", "coord": {"lon": -156.470001, "lat": 20.89472}}, {"id": 5847486, "name": "Kailua", "state": "HI", "country": "US", "coord": {"lon": -157.739441, "lat": 21.40222}}, {"id": 5847504, "name": "Kailua-Kona", "state": "HI", "country": "US", "coord": {"lon": -155.99556, "lat": 19.64056}}, {"id": 5847662, "name": "Kal\u0101heo", "state": "HI", "country": "US", "coord": {"lon": -159.526855, "lat": 21.92416}}, {"id": 5847746, "name": "Kalaoa", "state": "HI", "country": "US", "coord": {"lon": -155.981674, "lat": 19.728609}}, {"id": 5848189, "name": "Kaneohe", "state": "HI", "country": "US", "coord": {"lon": -157.803604, "lat": 21.41806}}, {"id": 5848280, "name": "Kapa\u2018a", "state": "HI", "country": "US", "coord": {"lon": -159.318954, "lat": 22.075211}}, {"id": 5848308, "name": "Kapaau", "state": "HI", "country": "US", "coord": {"lon": -155.801941, "lat": 20.233891}}, {"id": 5848652, "name": "Kaunakakai", "state": "HI", "country": "US", "coord": {"lon": -157.023895, "lat": 21.09333}}, {"id": 5848891, "name": "Kea\u2018au", "state": "HI", "country": "US", "coord": {"lon": -155.041672, "lat": 19.625561}}, {"id": 5848956, "name": "Kealakekua", "state": "HI", "country": "US", "coord": {"lon": -155.922501, "lat": 19.52083}}, {"id": 5849164, "name": "Kekaha", "state": "HI", "country": "US", "coord": {"lon": -159.713181, "lat": 21.968309}}, {"id": 5849207, "name": "K\u0113\u014dkea", "state": "HI", "country": "US", "coord": {"lon": -156.358337, "lat": 20.708611}}, {"id": 5849297, "name": "K\u012bhei", "state": "HI", "country": "US", "coord": {"lon": -156.465561, "lat": 20.785}}, {"id": 5849346, "name": "K\u012blauea", "state": "HI", "country": "US", "coord": {"lon": -159.407227, "lat": 22.209681}}, {"id": 5849616, "name": "Koloa", "state": "HI", "country": "US", "coord": {"lon": -159.464157, "lat": 21.902361}}, {"id": 5849718, "name": "Kualapu\u2018u", "state": "HI", "country": "US", "coord": {"lon": -157.039719, "lat": 21.155279}}, {"id": 5849961, "name": "Kurtistown", "state": "HI", "country": "US", "coord": {"lon": -155.05722, "lat": 19.603609}}, {"id": 5849996, "name": "Lahaina", "state": "HI", "country": "US", "coord": {"lon": -156.682495, "lat": 20.87833}}, {"id": 5850027, "name": "L\u0101\u2018ie", "state": "HI", "country": "US", "coord": {"lon": -157.925323, "lat": 21.647699}}, {"id": 5850059, "name": "Lanai City", "state": "HI", "country": "US", "coord": {"lon": -156.922226, "lat": 20.830561}}, {"id": 5850181, "name": "Lawai", "state": "HI", "country": "US", "coord": {"lon": -159.506165, "lat": 21.919991}}, {"id": 5850212, "name": "Leilani Estates", "state": "HI", "country": "US", "coord": {"lon": -154.917786, "lat": 19.469721}}, {"id": 5850213, "name": "Leilani Estates", "state": "", "country": "US", "coord": {"lon": -154.917221, "lat": 19.467501}}, {"id": 5850248, "name": "Lihue", "state": "HI", "country": "US", "coord": {"lon": -159.367188, "lat": 21.978861}}, {"id": 5850431, "name": "Mahaiula", "state": "HI", "country": "US", "coord": {"lon": -156.039169, "lat": 19.78611}}, {"id": 5850492, "name": "M\u0101\u2018ili", "state": "HI", "country": "US", "coord": {"lon": -158.180283, "lat": 21.42194}}, {"id": 5850511, "name": "M\u0101kaha", "state": "HI", "country": "US", "coord": {"lon": -158.217499, "lat": 21.46944}}, {"id": 5850522, "name": "M\u0101kaha Valley", "state": "HI", "country": "US", "coord": {"lon": -158.203888, "lat": 21.48222}}, {"id": 5850554, "name": "Makakilo City", "state": "HI", "country": "US", "coord": {"lon": -158.085831, "lat": 21.346939}}, {"id": 5850616, "name": "Makawao", "state": "HI", "country": "US", "coord": {"lon": -156.313065, "lat": 20.856939}}, {"id": 5850871, "name": "Maui County", "state": "HI", "country": "US", "coord": {"lon": -156.500565, "lat": 20.866671}}, {"id": 5850943, "name": "Maunalani Heights", "state": "HI", "country": "US", "coord": {"lon": -157.792496, "lat": 21.296671}}, {"id": 5850966, "name": "Maunawili", "state": "HI", "country": "US", "coord": {"lon": -157.770554, "lat": 21.37278}}, {"id": 5851030, "name": "Mililani Town", "state": "HI", "country": "US", "coord": {"lon": -158.001114, "lat": 21.450001}}, {"id": 5851156, "name": "Mokul\u0113ia", "state": "HI", "country": "US", "coord": {"lon": -158.151947, "lat": 21.584169}}, {"id": 5851253, "name": "Mountain View", "state": "HI", "country": "US", "coord": {"lon": -155.108063, "lat": 19.55583}}, {"id": 5851349, "name": "N\u0101n\u0101kuli", "state": "HI", "country": "US", "coord": {"lon": -158.154724, "lat": 21.39056}}, {"id": 5851364, "name": "Nanawale Estates", "state": "HI", "country": "US", "coord": {"lon": -154.911942, "lat": 19.506109}}, {"id": 5851365, "name": "Nanawale Estates", "state": "", "country": "US", "coord": {"lon": -154.91333, "lat": 19.506941}}, {"id": 5851719, "name": "\u2018\u014cma\u2018o", "state": "HI", "country": "US", "coord": {"lon": -159.482773, "lat": 21.92972}}, {"id": 5851821, "name": "Orchidlands Estates", "state": "HI", "country": "US", "coord": {"lon": -155.016937, "lat": 19.56333}}, {"id": 5851902, "name": "P\u0101hala", "state": "HI", "country": "US", "coord": {"lon": -155.479996, "lat": 19.20528}}, {"id": 5851942, "name": "Paia", "state": "HI", "country": "US", "coord": {"lon": -156.369446, "lat": 20.90333}}, {"id": 5852140, "name": "P\u0101pa\u2018ikou", "state": "HI", "country": "US", "coord": {"lon": -155.095825, "lat": 19.788891}}, {"id": 5852275, "name": "Pearl City", "state": "HI", "country": "US", "coord": {"lon": -157.973328, "lat": 21.397221}}, {"id": 5852322, "name": "Pepeekeo", "state": "HI", "country": "US", "coord": {"lon": -155.107224, "lat": 19.833611}}, {"id": 5852602, "name": "Princeville", "state": "HI", "country": "US", "coord": {"lon": -159.478882, "lat": 22.217581}}, {"id": 5852676, "name": "Puhi", "state": "HI", "country": "US", "coord": {"lon": -159.392395, "lat": 21.965389}}, {"id": 5852697, "name": "Pukalani", "state": "HI", "country": "US", "coord": {"lon": -156.33667, "lat": 20.83667}}, {"id": 5852773, "name": "Punalu\u2018u", "state": "HI", "country": "US", "coord": {"lon": -157.878616, "lat": 21.573891}}, {"id": 5852774, "name": "Punaluu", "state": "HI", "country": "US", "coord": {"lon": -157.878616, "lat": 21.573891}}, {"id": 5852819, "name": "Puopelu", "state": "HI", "country": "US", "coord": {"lon": -155.683334, "lat": 20.01667}}, {"id": 5852824, "name": "Pupukea", "state": "HI", "country": "US", "coord": {"lon": -158.052414, "lat": 21.663731}}, {"id": 5853965, "name": "Village Park", "state": "HI", "country": "US", "coord": {"lon": -158.030273, "lat": 21.39806}}, {"id": 5853971, "name": "Volcano", "state": "HI", "country": "US", "coord": {"lon": -155.237778, "lat": 19.43083}}, {"id": 5853992, "name": "Wahiaw\u0101", "state": "HI", "country": "US", "coord": {"lon": -158.023605, "lat": 21.502781}}, {"id": 5854171, "name": "Waialua", "state": "HI", "country": "US", "coord": {"lon": -158.13028, "lat": 21.57667}}, {"id": 5854173, "name": "Waialua", "state": "HI", "country": "US", "coord": {"lon": -156.761383, "lat": 21.100281}}, {"id": 5854189, "name": "Waianae", "state": "HI", "country": "US", "coord": {"lon": -158.185867, "lat": 21.443399}}, {"id": 5854354, "name": "Waikap\u016b", "state": "HI", "country": "US", "coord": {"lon": -156.506943, "lat": 20.858061}}, {"id": 5854410, "name": "Waikoloa", "state": "HI", "country": "US", "coord": {"lon": -155.790283, "lat": 19.94306}}, {"id": 5854421, "name": "Waikoloa Village", "state": "", "country": "US", "coord": {"lon": -155.827774, "lat": 19.932501}}, {"id": 5854469, "name": "Wailua", "state": "HI", "country": "US", "coord": {"lon": -159.33522, "lat": 22.049219}}, {"id": 5854471, "name": "Wailua", "state": "HI", "country": "US", "coord": {"lon": -156.136383, "lat": 20.84861}}, {"id": 5854496, "name": "Wailuku", "state": "HI", "country": "US", "coord": {"lon": -156.504715, "lat": 20.891109}}, {"id": 5854530, "name": "Waimalu", "state": "HI", "country": "US", "coord": {"lon": -157.943329, "lat": 21.40472}}, {"id": 5854532, "name": "Waimanalo", "state": "HI", "country": "US", "coord": {"lon": -157.720825, "lat": 21.35}}, {"id": 5854535, "name": "Waim\u0101nalo Beach", "state": "HI", "country": "US", "coord": {"lon": -157.702774, "lat": 21.340281}}, {"id": 5854564, "name": "Waimea", "state": "HI", "country": "US", "coord": {"lon": -159.66893, "lat": 21.957069}}, {"id": 5854571, "name": "Waimea", "state": "HI", "country": "US", "coord": {"lon": -155.671677, "lat": 20.02306}}, {"id": 5854599, "name": "Wainaku", "state": "HI", "country": "US", "coord": {"lon": -155.095001, "lat": 19.74472}}, {"id": 5854686, "name": "Waipahu", "state": "HI", "country": "US", "coord": {"lon": -158.009171, "lat": 21.386669}}, {"id": 5854717, "name": "Waipio", "state": "HI", "country": "US", "coord": {"lon": -158.000565, "lat": 21.418329}}, {"id": 5854718, "name": "Waipi\u2018o Acres", "state": "HI", "country": "US", "coord": {"lon": -158.016388, "lat": 21.467501}}, {"id": 5854857, "name": "Whitmore Village", "state": "HI", "country": "US", "coord": {"lon": -158.023056, "lat": 21.513889}}, {"id": 5855028, "name": "\u2018Ele\u2018ele", "state": "HI", "country": "US", "coord": {"lon": -159.583221, "lat": 21.907379}}, {"id": 5855051, "name": "\u2018Ewa Beach", "state": "HI", "country": "US", "coord": {"lon": -158.007217, "lat": 21.315559}}, {"id": 5855070, "name": "\u2018Ewa Gentry", "state": "HI", "country": "US", "coord": {"lon": -158.030823, "lat": 21.34417}}, {"id": 5855073, "name": "\u2018Ewa Villages", "state": "HI", "country": "US", "coord": {"lon": -158.040833, "lat": 21.34556}}, {"id": 5855088, "name": "Fern Acres", "state": "HI", "country": "US", "coord": {"lon": -155.080276, "lat": 19.51222}}, {"id": 5855319, "name": "H\u0101lawa", "state": "HI", "country": "US", "coord": {"lon": -157.921677, "lat": 21.37944}}, {"id": 5855321, "name": "H\u0101lawa Hills", "state": "HI", "country": "US", "coord": {"lon": -157.906677, "lat": 21.38472}}, {"id": 5855327, "name": "H\u0101lawa Heights", "state": "HI", "country": "US", "coord": {"lon": -157.918335, "lat": 21.38167}}, {"id": 5855420, "name": "Hale\u2018iwa", "state": "HI", "country": "US", "coord": {"lon": -158.112503, "lat": 21.590281}}, {"id": 5855471, "name": "Hana", "state": "HI", "country": "US", "coord": {"lon": -155.99028, "lat": 20.75806}}, {"id": 5855629, "name": "Hanam\u0101\u2018ulu", "state": "HI", "country": "US", "coord": {"lon": -159.354156, "lat": 21.993191}}, {"id": 5855631, "name": "Hanap\u0113p\u0113", "state": "HI", "country": "US", "coord": {"lon": -159.591583, "lat": 21.909571}}, {"id": 5855644, "name": "Hanap\u0113p\u0113 Heights", "state": "HI", "country": "US", "coord": {"lon": -159.589951, "lat": 21.91633}}, {"id": 5855741, "name": "Hau\u2018ula", "state": "HI", "country": "US", "coord": {"lon": -157.910828, "lat": 21.610559}}, {"id": 5855765, "name": "Hawaii County", "state": "HI", "country": "US", "coord": {"lon": -155.500565, "lat": 19.500561}}, {"id": 5855797, "name": "Hawaii", "state": "HI", "country": "US", "coord": {"lon": -156.500275, "lat": 20.75028}}, {"id": 5855802, "name": "Hawaiian Beaches", "state": "HI", "country": "US", "coord": {"lon": -154.915833, "lat": 19.54306}}, {"id": 5855803, "name": "Hawaiian Acres", "state": "HI", "country": "US", "coord": {"lon": -155.052216, "lat": 19.538059}}, {"id": 5855809, "name": "Hawaiian Paradise Park", "state": "HI", "country": "US", "coord": {"lon": -154.973053, "lat": 19.59333}}, {"id": 5855815, "name": "Hawaiian Ocean View", "state": "HI", "country": "US", "coord": {"lon": -155.764999, "lat": 19.068609}}, {"id": 5855818, "name": "Hawaiian Paradise Park", "state": "", "country": "US", "coord": {"lon": -154.970566, "lat": 19.50139}}, {"id": 5855841, "name": "H\u0101w\u012b", "state": "HI", "country": "US", "coord": {"lon": -155.832779, "lat": 20.24139}}, {"id": 5855847, "name": "He\u2018eia", "state": "HI", "country": "US", "coord": {"lon": -157.810562, "lat": 21.43083}}, {"id": 5855886, "name": "Hickam Village", "state": "HI", "country": "US", "coord": {"lon": -157.945007, "lat": 21.34528}}, {"id": 5855927, "name": "Hilo", "state": "HI", "country": "US", "coord": {"lon": -155.089996, "lat": 19.729719}}, {"id": 5856050, "name": "H\u014dlualoa", "state": "HI", "country": "US", "coord": {"lon": -155.952225, "lat": 19.62278}}, {"id": 5856094, "name": "Honalo", "state": "HI", "country": "US", "coord": {"lon": -155.931946, "lat": 19.546391}}, {"id": 5856111, "name": "Honoka\u2018a", "state": "HI", "country": "US", "coord": {"lon": -155.472504, "lat": 20.082781}}, {"id": 5856194, "name": "Honolulu County", "state": "HI", "country": "US", "coord": {"lon": -157.966675, "lat": 21.466669}}, {"id": 5856195, "name": "Honolulu", "state": "HI", "country": "US", "coord": {"lon": -157.858337, "lat": 21.30694}}, {"id": 5856430, "name": "\u2018Aiea", "state": "HI", "country": "US", "coord": {"lon": -157.933609, "lat": 21.382219}}, {"id": 5856516, "name": "\u2018\u0100huimanu", "state": "HI", "country": "US", "coord": {"lon": -157.837784, "lat": 21.444719}}, {"id": 5856563, "name": "Iroquois Point", "state": "HI", "country": "US", "coord": {"lon": -157.980286, "lat": 21.327499}}, {"id": 5856759, "name": "Ka\u2018a\u2018awa", "state": "HI", "country": "US", "coord": {"lon": -157.853607, "lat": 21.55722}}, {"id": 5856844, "name": "K\u0101\u2018anapali", "state": "HI", "country": "US", "coord": {"lon": -156.69722, "lat": 20.931669}}, {"id": 5856852, "name": "Kaanapali Landing", "state": "HI", "country": "US", "coord": {"lon": -156.687775, "lat": 20.930901}}, {"id": 5857040, "name": "Ainaloa", "state": "HI", "country": "US", "coord": {"lon": -154.993057, "lat": 19.526939}}, {"id": 5857051, "name": "Akolea Plantation Estates", "state": "HI", "country": "US", "coord": {"lon": -155.134445, "lat": 19.703329}}, {"id": 5857052, "name": "Akupu", "state": "HI", "country": "US", "coord": {"lon": -158.103058, "lat": 21.394171}}, {"id": 5857121, "name": "Anahola", "state": "HI", "country": "US", "coord": {"lon": -159.313873, "lat": 22.14226}}, {"id": 5857264, "name": "Captain Cook", "state": "HI", "country": "US", "coord": {"lon": -155.921677, "lat": 19.496941}}, {"id": 5858042, "name": "Bristol Bay Borough", "state": "AK", "country": "US", "coord": {"lon": -156.833328, "lat": 58.750561}}, {"id": 5858176, "name": "Buckland", "state": "AK", "country": "US", "coord": {"lon": -161.123062, "lat": 65.979721}}, {"id": 5858289, "name": "Butte", "state": "AK", "country": "US", "coord": {"lon": -149.033325, "lat": 61.542221}}, {"id": 5858555, "name": "Cantwell", "state": "AK", "country": "US", "coord": {"lon": -148.950836, "lat": 63.39167}}, {"id": 5858896, "name": "Central", "state": "AK", "country": "US", "coord": {"lon": -144.803055, "lat": 65.572502}}, {"id": 5859033, "name": "Cheching (historical)", "state": "AK", "country": "US", "coord": {"lon": -164.216675, "lat": 60.066669}}, {"id": 5859060, "name": "Chena Hot Springs", "state": "AK", "country": "US", "coord": {"lon": -146.055557, "lat": 65.053062}}, {"id": 5859065, "name": "Chena (historical)", "state": "AK", "country": "US", "coord": {"lon": -147.933334, "lat": 64.800003}}, {"id": 5859114, "name": "Chevak", "state": "AK", "country": "US", "coord": {"lon": -165.586395, "lat": 61.527779}}, {"id": 5859193, "name": "Chignik", "state": "AK", "country": "US", "coord": {"lon": -158.402222, "lat": 56.29528}}, {"id": 5859279, "name": "Chisana", "state": "AK", "country": "US", "coord": {"lon": -142.040833, "lat": 62.066109}}, {"id": 5859370, "name": "Chugiak", "state": "AK", "country": "US", "coord": {"lon": -149.481934, "lat": 61.388889}}, {"id": 5859419, "name": "Circle Hot Springs Station", "state": "AK", "country": "US", "coord": {"lon": -144.689163, "lat": 65.470284}}, {"id": 5859460, "name": "Clarks Point", "state": "AK", "country": "US", "coord": {"lon": -158.550827, "lat": 58.84417}}, {"id": 5859679, "name": "Cohoe", "state": "AK", "country": "US", "coord": {"lon": -151.306396, "lat": 60.36861}}, {"id": 5859691, "name": "Coldfoot", "state": "AK", "country": "US", "coord": {"lon": -150.184174, "lat": 67.256393}}, {"id": 5859699, "name": "College", "state": "AK", "country": "US", "coord": {"lon": -147.80278, "lat": 64.856941}}, {"id": 5859888, "name": "Cordova", "state": "AK", "country": "US", "coord": {"lon": -145.757507, "lat": 60.542782}}, {"id": 5859921, "name": "Cottonwood", "state": "AK", "country": "US", "coord": {"lon": -149.564163, "lat": 61.513329}}, {"id": 5860260, "name": "Dahl", "state": "AK", "country": "US", "coord": {"lon": -149.477219, "lat": 60.665562}}, {"id": 5860524, "name": "Delta Junction", "state": "AK", "country": "US", "coord": {"lon": -145.732224, "lat": 64.037781}}, {"id": 5860541, "name": "Denali Borough", "state": "AK", "country": "US", "coord": {"lon": -150.191666, "lat": 63.788891}}, {"id": 5860661, "name": "Diamond Ridge", "state": "AK", "country": "US", "coord": {"lon": -151.557495, "lat": 59.676109}}, {"id": 5860695, "name": "Dillingham", "state": "AK", "country": "US", "coord": {"lon": -158.457504, "lat": 59.039719}}, {"id": 5860696, "name": "Dillingham Census Area", "state": "AK", "country": "US", "coord": {"lon": -156.000565, "lat": 58.750561}}, {"id": 5861021, "name": "Dry Creek", "state": "AK", "country": "US", "coord": {"lon": -144.665283, "lat": 63.653332}}, {"id": 5861073, "name": "Duck Village", "state": "AK", "country": "US", "coord": {"lon": -152.550003, "lat": 58.10833}}, {"id": 5861117, "name": "Dutch Harbor", "state": "AK", "country": "US", "coord": {"lon": -166.542206, "lat": 53.889801}}, {"id": 5861187, "name": "Eagle River", "state": "AK", "country": "US", "coord": {"lon": -149.56778, "lat": 61.321388}}, {"id": 5861202, "name": "Eagle Village", "state": "AK", "country": "US", "coord": {"lon": -141.113617, "lat": 64.780563}}, {"id": 5861423, "name": "Egegik", "state": "AK", "country": "US", "coord": {"lon": -157.375824, "lat": 58.215561}}, {"id": 5861493, "name": "Eklutna", "state": "AK", "country": "US", "coord": {"lon": -149.362213, "lat": 61.458061}}, {"id": 5861573, "name": "Elephant Point", "state": "AK", "country": "US", "coord": {"lon": -161.346115, "lat": 66.25972}}, {"id": 5861668, "name": "Emmonak", "state": "AK", "country": "US", "coord": {"lon": -164.523056, "lat": 62.777779}}, {"id": 5861769, "name": "Ester", "state": "AK", "country": "US", "coord": {"lon": -148.014435, "lat": 64.847221}}, {"id": 5861836, "name": "Eureka Roadhouse", "state": "AK", "country": "US", "coord": {"lon": -147.16806, "lat": 61.93861}}, {"id": 5861886, "name": "Eyak (historical)", "state": "AK", "country": "US", "coord": {"lon": -145.635117, "lat": 60.526291}}, {"id": 5861897, "name": "Fairbanks", "state": "AK", "country": "US", "coord": {"lon": -147.716385, "lat": 64.837784}}, {"id": 5861900, "name": "Fairbanks North Star Borough", "state": "AK", "country": "US", "coord": {"lon": -146.416672, "lat": 64.833328}}, {"id": 5861918, "name": "Faith Creek (historical)", "state": "AK", "country": "US", "coord": {"lon": -146.379166, "lat": 65.288887}}, {"id": 5862371, "name": "Fort Yukon", "state": "AK", "country": "US", "coord": {"lon": -145.273895, "lat": 66.56472}}, {"id": 5862590, "name": "Fritz Creek", "state": "AK", "country": "US", "coord": {"lon": -151.295273, "lat": 59.736111}}, {"id": 5862727, "name": "Gateway", "state": "AK", "country": "US", "coord": {"lon": -149.240829, "lat": 61.572781}}, {"id": 5862936, "name": "Glennallen", "state": "AK", "country": "US", "coord": {"lon": -145.546387, "lat": 62.109169}}, {"id": 5863074, "name": "Golovin", "state": "AK", "country": "US", "coord": {"lon": -163.029175, "lat": 64.543327}}, {"id": 5863850, "name": "Healy", "state": "AK", "country": "US", "coord": {"lon": -148.96611, "lat": 63.856941}}, {"id": 5864145, "name": "Homer", "state": "AK", "country": "US", "coord": {"lon": -151.548325, "lat": 59.642502}}, {"id": 5864197, "name": "Hooper Bay", "state": "AK", "country": "US", "coord": {"lon": -166.096664, "lat": 61.531109}}, {"id": 5864312, "name": "Houston", "state": "AK", "country": "US", "coord": {"lon": -149.818054, "lat": 61.63028}}, {"id": 5864431, "name": "Huslia", "state": "AK", "country": "US", "coord": {"lon": -156.399719, "lat": 65.698608}}, {"id": 5864720, "name": "Indian", "state": "AK", "country": "US", "coord": {"lon": -149.513611, "lat": 60.987221}}, {"id": 5865670, "name": "Kaktovik", "state": "AK", "country": "US", "coord": {"lon": -143.623886, "lat": 70.131943}}, {"id": 5865702, "name": "Kalifornsky", "state": "AK", "country": "US", "coord": {"lon": -151.289993, "lat": 60.418331}}, {"id": 5866063, "name": "Kenai", "state": "AK", "country": "US", "coord": {"lon": -151.258331, "lat": 60.55444}}, {"id": 5866071, "name": "Kenai Peninsula Borough", "state": "AK", "country": "US", "coord": {"lon": -151.250565, "lat": 60.416672}}, {"id": 5866155, "name": "Kiana", "state": "AK", "country": "US", "coord": {"lon": -160.422775, "lat": 66.974998}}, {"id": 5866302, "name": "Kinegnak (historical)", "state": "AK", "country": "US", "coord": {"lon": -162.199997, "lat": 58.650002}}, {"id": 5866308, "name": "King Cove", "state": "AK", "country": "US", "coord": {"lon": -162.310287, "lat": 55.061668}}, {"id": 5866330, "name": "King Salmon", "state": "AK", "country": "US", "coord": {"lon": -156.661392, "lat": 58.688332}}, {"id": 5866574, "name": "Kodiak Island Borough", "state": "AK", "country": "US", "coord": {"lon": -153.333328, "lat": 57.333328}}, {"id": 5866583, "name": "Kodiak", "state": "AK", "country": "US", "coord": {"lon": -152.407227, "lat": 57.790001}}, {"id": 5866635, "name": "Koliganek", "state": "AK", "country": "US", "coord": {"lon": -157.284439, "lat": 59.728611}}, {"id": 5866726, "name": "Kotzebue", "state": "AK", "country": "US", "coord": {"lon": -162.596664, "lat": 66.898331}}, {"id": 5867107, "name": "Lake Minchumina", "state": "AK", "country": "US", "coord": {"lon": -152.312225, "lat": 63.882778}}, {"id": 5867113, "name": "Lake and Peninsula Borough", "state": "AK", "country": "US", "coord": {"lon": -158.000565, "lat": 57.000561}}, {"id": 5867241, "name": "Lazy Mountain", "state": "AK", "country": "US", "coord": {"lon": -148.945557, "lat": 61.62611}}, {"id": 5868247, "name": "Manokotak", "state": "AK", "country": "US", "coord": {"lon": -159.058334, "lat": 58.981392}}, {"id": 5868437, "name": "Matanuska-Susitna Borough", "state": "AK", "country": "US", "coord": {"lon": -150.005554, "lat": 62.500561}}, {"id": 5868651, "name": "Meadow Lakes", "state": "AK", "country": "US", "coord": {"lon": -149.601105, "lat": 61.624722}}, {"id": 5868684, "name": "Mekoryuk", "state": "AK", "country": "US", "coord": {"lon": -166.184998, "lat": 60.388062}}, {"id": 5868927, "name": "Millers Landing", "state": "AK", "country": "US", "coord": {"lon": -151.434723, "lat": 59.6675}}, {"id": 5869541, "name": "Nabesna", "state": "AK", "country": "US", "coord": {"lon": -143.008606, "lat": 62.371941}}, {"id": 5869635, "name": "Napaimute (historical)", "state": "AK", "country": "US", "coord": {"lon": -154.866669, "lat": 59.433331}}, {"id": 5869649, "name": "Napaskiak", "state": "AK", "country": "US", "coord": {"lon": -161.766113, "lat": 60.708061}}, {"id": 5869805, "name": "Nelson Lagoon", "state": "AK", "country": "US", "coord": {"lon": -161.20697, "lat": 56.000622}}, {"id": 5869822, "name": "Nenana", "state": "AK", "country": "US", "coord": {"lon": -149.093063, "lat": 64.563889}}, {"id": 5869874, "name": "New Stuyahok", "state": "AK", "country": "US", "coord": {"lon": -157.311935, "lat": 59.452782}}, {"id": 5869956, "name": "Nikiski", "state": "AK", "country": "US", "coord": {"lon": -151.288895, "lat": 60.690281}}, {"id": 5870133, "name": "Nome", "state": "AK", "country": "US", "coord": {"lon": -165.406387, "lat": 64.501106}}, {"id": 5870134, "name": "Nome Census Area", "state": "AK", "country": "US", "coord": {"lon": -163.750565, "lat": 64.833328}}, {"id": 5870294, "name": "North Pole", "state": "AK", "country": "US", "coord": {"lon": -147.349442, "lat": 64.751106}}, {"id": 5870308, "name": "North Slope Borough", "state": "AK", "country": "US", "coord": {"lon": -152.000565, "lat": 69.250557}}, {"id": 5870351, "name": "Northwest Arctic Borough", "state": "AK", "country": "US", "coord": {"lon": -161.000565, "lat": 66.833328}}, {"id": 5870441, "name": "Nuiqsut", "state": "AK", "country": "US", "coord": {"lon": -150.976395, "lat": 70.217499}}, {"id": 5870660, "name": "Ohogamiut", "state": "AK", "country": "US", "coord": {"lon": -161.863617, "lat": 61.56778}}, {"id": 5870787, "name": "Old Village (historical)", "state": "AK", "country": "US", "coord": {"lon": -154.036392, "lat": 60.963329}}, {"id": 5870790, "name": "Old Valdez", "state": "AK", "country": "US", "coord": {"lon": -146.266388, "lat": 61.115829}}, {"id": 5871128, "name": "Paimiut", "state": "AK", "country": "US", "coord": {"lon": -160.231934, "lat": 61.964169}}, {"id": 5871146, "name": "Palmer", "state": "AK", "country": "US", "coord": {"lon": -149.112778, "lat": 61.59972}}, {"id": 5871330, "name": "Paxson", "state": "AK", "country": "US", "coord": {"lon": -145.613068, "lat": 63.089722}}, {"id": 5871598, "name": "Pilot Point", "state": "AK", "country": "US", "coord": {"lon": -157.579163, "lat": 57.564171}}, {"id": 5871704, "name": "Pitkas Point", "state": "AK", "country": "US", "coord": {"lon": -163.287781, "lat": 62.03278}}, {"id": 5871778, "name": "Point Lay", "state": "AK", "country": "US", "coord": {"lon": -163.008438, "lat": 69.743858}}, {"id": 5871932, "name": "Port O'Brien", "state": "AK", "country": "US", "coord": {"lon": -153.316666, "lat": 57.731941}}, {"id": 5872033, "name": "Potter Hill", "state": "AK", "country": "US", "coord": {"lon": -149.816666, "lat": 61.083328}}, {"id": 5872126, "name": "Prudhoe Bay", "state": "AK", "country": "US", "coord": {"lon": -148.337219, "lat": 70.25528}}, {"id": 5872537, "name": "Red Dog Mine", "state": "AK", "country": "US", "coord": {"lon": -162.85611, "lat": 68.075562}}, {"id": 5872730, "name": "Ridgeway", "state": "AK", "country": "US", "coord": {"lon": -151.085281, "lat": 60.53194}}, {"id": 5873030, "name": "Ruby", "state": "AK", "country": "US", "coord": {"lon": -155.486938, "lat": 64.739441}}, {"id": 5873095, "name": "Russian Mission", "state": "AK", "country": "US", "coord": {"lon": -161.320282, "lat": 61.785}}, {"id": 5873349, "name": "Sand Point", "state": "AK", "country": "US", "coord": {"lon": -160.498795, "lat": 55.336552}}, {"id": 5873663, "name": "Selawik", "state": "AK", "country": "US", "coord": {"lon": -160.006943, "lat": 66.603889}}, {"id": 5873776, "name": "Seward", "state": "AK", "country": "US", "coord": {"lon": -149.442215, "lat": 60.104172}}, {"id": 5874205, "name": "Silvertip", "state": "AK", "country": "US", "coord": {"lon": -149.36972, "lat": 60.750561}}, {"id": 5874434, "name": "Skwentna", "state": "AK", "country": "US", "coord": {"lon": -151.397781, "lat": 61.99028}}, {"id": 5874678, "name": "Soldotna", "state": "AK", "country": "US", "coord": {"lon": -151.058334, "lat": 60.487782}}, {"id": 5874713, "name": "Soo City (historical)", "state": "AK", "country": "US", "coord": {"lon": -151.483337, "lat": 66.716667}}, {"id": 5874863, "name": "Southeast Fairbanks Census Area", "state": "AK", "country": "US", "coord": {"lon": -143.250565, "lat": 63.750561}}, {"id": 5875173, "name": "Sterling", "state": "AK", "country": "US", "coord": {"lon": -150.764725, "lat": 60.53722}}, {"id": 5875188, "name": "Stevens Village", "state": "AK", "country": "US", "coord": {"lon": -149.090836, "lat": 66.006393}}, {"id": 5875796, "name": "Tanaina", "state": "AK", "country": "US", "coord": {"lon": -149.428055, "lat": 61.626942}}, {"id": 5875969, "name": "Teller", "state": "AK", "country": "US", "coord": {"lon": -166.360825, "lat": 65.263611}}, {"id": 5876206, "name": "Tiekel (historical)", "state": "AK", "country": "US", "coord": {"lon": -145.308609, "lat": 61.326111}}, {"id": 5876265, "name": "Tin City", "state": "AK", "country": "US", "coord": {"lon": -167.948059, "lat": 65.558609}}, {"id": 5876363, "name": "Tok", "state": "AK", "country": "US", "coord": {"lon": -142.985565, "lat": 63.33667}}, {"id": 5876385, "name": "Toksook Bay", "state": "AK", "country": "US", "coord": {"lon": -165.103653, "lat": 60.533779}}, {"id": 5876855, "name": "Turnagain Heights", "state": "AK", "country": "US", "coord": {"lon": -149.941391, "lat": 61.195831}}, {"id": 5876887, "name": "Tutlut (historical)", "state": "AK", "country": "US", "coord": {"lon": -149.983337, "lat": 64.75}}, {"id": 5877087, "name": "Uganik", "state": "", "country": "US", "coord": {"lon": -153.399994, "lat": 57.76667}}, {"id": 5877112, "name": "Uhaiak (historical)", "state": "AK", "country": "US", "coord": {"lon": -153.916672, "lat": 57}}, {"id": 5877173, "name": "Umiat", "state": "AK", "country": "US", "coord": {"lon": -152.144165, "lat": 69.366943}}, {"id": 5877208, "name": "Unalaska", "state": "AK", "country": "US", "coord": {"lon": -166.536667, "lat": 53.873611}}, {"id": 5877389, "name": "Valdez", "state": "AK", "country": "US", "coord": {"lon": -146.348328, "lat": 61.130829}}, {"id": 5877395, "name": "Valdez-Cordova Census Area", "state": "AK", "country": "US", "coord": {"lon": -144.500565, "lat": 61.500561}}, {"id": 5877533, "name": "Wade Hampton Census Area", "state": "AK", "country": "US", "coord": {"lon": -163.000565, "lat": 62.250561}}, {"id": 5877543, "name": "Wainwright", "state": "AK", "country": "US", "coord": {"lon": -160.03833, "lat": 70.63694}}, {"id": 5877563, "name": "Wales", "state": "AK", "country": "US", "coord": {"lon": -168.087494, "lat": 65.609169}}, {"id": 5877641, "name": "Wasilla", "state": "AK", "country": "US", "coord": {"lon": -149.439438, "lat": 61.58139}}, {"id": 5878018, "name": "Whittier", "state": "AK", "country": "US", "coord": {"lon": -148.683884, "lat": 60.77306}}, {"id": 5878102, "name": "Willow", "state": "AK", "country": "US", "coord": {"lon": -150.037506, "lat": 61.747219}}, {"id": 5878364, "name": "Woodchopper Creek", "state": "AK", "country": "US", "coord": {"lon": -143.411942, "lat": 65.293892}}, {"id": 5878558, "name": "Yukon-Koyukuk Census Area", "state": "AK", "country": "US", "coord": {"lon": -152.716675, "lat": 65.699997}}, {"id": 5878818, "name": "Adak", "state": "AK", "country": "US", "coord": {"lon": -176.658066, "lat": 51.880001}}, {"id": 5878982, "name": "Akhiok", "state": "AK", "country": "US", "coord": {"lon": -154.170273, "lat": 56.94556}}, {"id": 5879048, "name": "Akutan", "state": "AK", "country": "US", "coord": {"lon": -165.773056, "lat": 54.135559}}, {"id": 5879092, "name": "Alaska", "state": "AK", "country": "US", "coord": {"lon": -150.000275, "lat": 64.000282}}, {"id": 5879164, "name": "Aleutians West Census Area", "state": "AK", "country": "US", "coord": {"lon": -175.129715, "lat": 52.242779}}, {"id": 5879166, "name": "Aleutians East Borough", "state": "AK", "country": "US", "coord": {"lon": -163.416672, "lat": 54.849998}}, {"id": 5879267, "name": "Alyeska", "state": "AK", "country": "US", "coord": {"lon": -149.110825, "lat": 60.960831}}, {"id": 5879302, "name": "Ambler", "state": "AK", "country": "US", "coord": {"lon": -157.851395, "lat": 67.086113}}, {"id": 5879348, "name": "Anchorage Municipality", "state": "AK", "country": "US", "coord": {"lon": -149.250565, "lat": 61.166672}}, {"id": 5879390, "name": "Anaktuvuk Pass", "state": "AK", "country": "US", "coord": {"lon": -151.735825, "lat": 68.143333}}, {"id": 5879400, "name": "Anchorage", "state": "AK", "country": "US", "coord": {"lon": -149.900284, "lat": 61.21806}}, {"id": 5879403, "name": "Anchor Point", "state": "AK", "country": "US", "coord": {"lon": -151.83139, "lat": 59.776669}}, {"id": 5879636, "name": "Arctic Village", "state": "AK", "country": "US", "coord": {"lon": -145.537781, "lat": 68.126938}}, {"id": 5879756, "name": "Atqasuk", "state": "AK", "country": "US", "coord": {"lon": -157.399445, "lat": 70.46917}}, {"id": 5879898, "name": "Badger", "state": "AK", "country": "US", "coord": {"lon": -147.533325, "lat": 64.800003}}, {"id": 5880054, "name": "Barrow", "state": "AK", "country": "US", "coord": {"lon": -156.788727, "lat": 71.290581}}, {"id": 5880107, "name": "Batzulnetas (historical)", "state": "AK", "country": "US", "coord": {"lon": -143.771393, "lat": 62.614719}}, {"id": 5880147, "name": "Bear Creek", "state": "AK", "country": "US", "coord": {"lon": -149.395004, "lat": 60.164169}}, {"id": 5880568, "name": "Bethel", "state": "AK", "country": "US", "coord": {"lon": -161.755829, "lat": 60.792221}}, {"id": 5880573, "name": "Bethel Census Area", "state": "AK", "country": "US", "coord": {"lon": -160.500565, "lat": 60.750561}}, {"id": 5880661, "name": "Big Lake", "state": "AK", "country": "US", "coord": {"lon": -149.954437, "lat": 61.521389}}, {"id": 5880801, "name": "American Samoa, Territory of", "state": "", "country": "AS", "coord": {"lon": -169.477676, "lat": -14.23377}}, {"id": 5880828, "name": "A\u016ba", "state": "", "country": "AS", "coord": {"lon": -170.663895, "lat": -14.27611}}, {"id": 5880873, "name": "Western District", "state": "", "country": "AS", "coord": {"lon": -170.766663, "lat": -14.31667}}, {"id": 5880891, "name": "Vaitogi", "state": "", "country": "AS", "coord": {"lon": -170.734726, "lat": -14.35889}}, {"id": 5880944, "name": "Vailoatai", "state": "", "country": "AS", "coord": {"lon": -170.783295, "lat": -14.3552}}, {"id": 5881150, "name": "Taulaga", "state": "", "country": "AS", "coord": {"lon": -171.088333, "lat": -11.05528}}, {"id": 5881165, "name": "Ta`\u016b", "state": "", "country": "AS", "coord": {"lon": -169.514435, "lat": -14.23361}}, {"id": 5881192, "name": "T\u0101funa", "state": "", "country": "AS", "coord": {"lon": -170.720001, "lat": -14.33583}}, {"id": 5881199, "name": "Swains Island", "state": "", "country": "AS", "coord": {"lon": -171.082001, "lat": -11.056}}, {"id": 5881219, "name": "Eastern District", "state": "", "country": "AS", "coord": {"lon": -170.649994, "lat": -14.26667}}, {"id": 5881224, "name": "Faleniu", "state": "", "country": "AS", "coord": {"lon": -170.744446, "lat": -14.3325}}, {"id": 5881241, "name": "Fagatogo", "state": "", "country": "AS", "coord": {"lon": -170.690002, "lat": -14.2825}}, {"id": 5881254, "name": "Fale\u0101sao", "state": "", "country": "AS", "coord": {"lon": -169.512787, "lat": -14.2222}}, {"id": 5881347, "name": "Leone", "state": "", "country": "AS", "coord": {"lon": -170.785004, "lat": -14.34389}}, {"id": 5881410, "name": "Malaeimi", "state": "", "country": "AS", "coord": {"lon": -170.733887, "lat": -14.32278}}, {"id": 5881436, "name": "Manu'a District", "state": "", "country": "AS", "coord": {"lon": -169.474579, "lat": -14.23327}}, {"id": 5881442, "name": "Mapusagafou", "state": "", "country": "AS", "coord": {"lon": -170.752777, "lat": -14.33056}}, {"id": 5881544, "name": "Ofu", "state": "", "country": "AS", "coord": {"lon": -169.677505, "lat": -14.17528}}, {"id": 5881576, "name": "Pago Pago", "state": "", "country": "AS", "coord": {"lon": -170.702499, "lat": -14.27806}}, {"id": 5881688, "name": "Fort St. James", "state": "", "country": "CA", "coord": {"lon": -124.262749, "lat": 54.455971}}, {"id": 5881774, "name": "Abbey", "state": "", "country": "CA", "coord": {"lon": -108.751427, "lat": 50.733391}}, {"id": 5881791, "name": "Abbotsford", "state": "", "country": "CA", "coord": {"lon": -122.252571, "lat": 49.05798}}, {"id": 5881792, "name": "Abbotsford", "state": "", "country": "CA", "coord": {"lon": -122.285873, "lat": 49.049679}}, {"id": 5881868, "name": "Aberdeen", "state": "", "country": "CA", "coord": {"lon": -106.284477, "lat": 52.31678}}, {"id": 5881941, "name": "Abitibi-T\u00e9miscamingue", "state": "", "country": "CA", "coord": {"lon": -77.782799, "lat": 48.100182}}, {"id": 5881954, "name": "Aboushagan Road", "state": "", "country": "CA", "coord": {"lon": -64.348747, "lat": 45.983452}}, {"id": 5882033, "name": "Acadia Valley", "state": "", "country": "CA", "coord": {"lon": -110.218323, "lat": 51.150131}}, {"id": 5882100, "name": "Acme", "state": "", "country": "CA", "coord": {"lon": -113.501953, "lat": 51.500118}}, {"id": 5882134, "name": "Acton", "state": "", "country": "CA", "coord": {"lon": -80.041489, "lat": 43.629688}}, {"id": 5882142, "name": "Acton Vale", "state": "", "country": "CA", "coord": {"lon": -72.565819, "lat": 45.65007}}, {"id": 5882351, "name": "Aden", "state": "", "country": "CA", "coord": {"lon": -111.318336, "lat": 49.033291}}, {"id": 5882375, "name": "Admiral", "state": "", "country": "CA", "coord": {"lon": -108.018059, "lat": 49.716759}}, {"id": 5882534, "name": "Agassiz", "state": "", "country": "CA", "coord": {"lon": -121.769257, "lat": 49.232979}}, {"id": 5882599, "name": "Agincourt", "state": "", "country": "CA", "coord": {"lon": -79.282898, "lat": 43.783421}}, {"id": 5882640, "name": "Aguanish", "state": "", "country": "CA", "coord": {"lon": -62.081829, "lat": 50.216839}}, {"id": 5882799, "name": "Airdrie", "state": "", "country": "CA", "coord": {"lon": -114.035278, "lat": 51.30011}}, {"id": 5882873, "name": "Ajax", "state": "", "country": "CA", "coord": {"lon": -79.032883, "lat": 43.850121}}, {"id": 5882953, "name": "Aklavik", "state": "", "country": "CA", "coord": {"lon": -135.010712, "lat": 68.219131}}, {"id": 5882994, "name": "Akulivik", "state": "", "country": "CA", "coord": {"lon": -78.199348, "lat": 60.80056}}, {"id": 5883027, "name": "Alameda", "state": "", "country": "CA", "coord": {"lon": -102.284203, "lat": 49.26675}}, {"id": 5883074, "name": "Albanel", "state": "", "country": "CA", "coord": {"lon": -72.448669, "lat": 48.88324}}, {"id": 5883078, "name": "Albany", "state": "", "country": "CA", "coord": {"lon": -65.048798, "lat": 44.800152}}, {"id": 5883089, "name": "Albatross", "state": "", "country": "CA", "coord": {"lon": -104.667831, "lat": 50.533409}}, {"id": 5883093, "name": "Alberni", "state": "", "country": "CA", "coord": {"lon": -124.802803, "lat": 49.24963}}, {"id": 5883102, "name": "Alberta", "state": "", "country": "CA", "coord": {"lon": -117.469002, "lat": 52.283329}}, {"id": 5883166, "name": "Alberton", "state": "", "country": "CA", "coord": {"lon": -64.065422, "lat": 46.816849}}, {"id": 5883171, "name": "Alberton South", "state": "", "country": "CA", "coord": {"lon": -64.07653, "lat": 46.797352}}, {"id": 5883187, "name": "Albertville", "state": "", "country": "CA", "coord": {"lon": -105.550987, "lat": 53.400089}}, {"id": 5883213, "name": "Albrights Corner", "state": "", "country": "CA", "coord": {"lon": -66.182182, "lat": 46.01683}}, {"id": 5883218, "name": "Albury", "state": "", "country": "CA", "coord": {"lon": -77.516182, "lat": 44.08342}}, {"id": 5883335, "name": "Alderson", "state": "", "country": "CA", "coord": {"lon": -111.335037, "lat": 50.283401}}, {"id": 5883385, "name": "Alert Bay", "state": "", "country": "CA", "coord": {"lon": -126.919792, "lat": 50.582932}}, {"id": 5883397, "name": "Alexander", "state": "", "country": "CA", "coord": {"lon": -100.296188, "lat": 49.830009}}, {"id": 5883490, "name": "Alexandria", "state": "", "country": "CA", "coord": {"lon": -74.632568, "lat": 45.316792}}, {"id": 5883519, "name": "Alexis Creek", "state": "", "country": "CA", "coord": {"lon": -123.286209, "lat": 52.083111}}, {"id": 5883589, "name": "Alfred", "state": "", "country": "CA", "coord": {"lon": -74.87738, "lat": 45.558998}}, {"id": 5883647, "name": "Algonquin Park", "state": "", "country": "CA", "coord": {"lon": -78.58287, "lat": 45.55011}}, {"id": 5883699, "name": "Alida", "state": "", "country": "CA", "coord": {"lon": -101.867607, "lat": 49.383339}}, {"id": 5883712, "name": "Alix", "state": "", "country": "CA", "coord": {"lon": -113.185249, "lat": 52.40012}}, {"id": 5883752, "name": "Allan", "state": "", "country": "CA", "coord": {"lon": -106.067902, "lat": 51.883369}}, {"id": 5883906, "name": "Allenford", "state": "", "country": "CA", "coord": {"lon": -81.166428, "lat": 44.550091}}, {"id": 5883987, "name": "Alliance", "state": "", "country": "CA", "coord": {"lon": -111.785027, "lat": 52.433449}}, {"id": 5884051, "name": "Alliston", "state": "", "country": "CA", "coord": {"lon": -79.866348, "lat": 44.150108}}, {"id": 5884083, "name": "Alma", "state": "", "country": "CA", "coord": {"lon": -71.649101, "lat": 48.550091}}, {"id": 5884107, "name": "Almdals Cove", "state": "", "country": "CA", "coord": {"lon": -96.57621, "lat": 50.47031}}, {"id": 5884208, "name": "Alsask", "state": "", "country": "CA", "coord": {"lon": -109.984901, "lat": 51.350128}}, {"id": 5884260, "name": "Altona", "state": "", "country": "CA", "coord": {"lon": -97.559608, "lat": 49.104691}}, {"id": 5884282, "name": "Alvena", "state": "", "country": "CA", "coord": {"lon": -106.017853, "lat": 52.516769}}, {"id": 5884342, "name": "Amaranth", "state": "", "country": "CA", "coord": {"lon": -98.739059, "lat": 50.595619}}, {"id": 5884467, "name": "Amherst", "state": "", "country": "CA", "coord": {"lon": -64.198738, "lat": 45.83345}}, {"id": 5884469, "name": "Amherst", "state": "", "country": "CA", "coord": {"lon": -74.765961, "lat": 46.050091}}, {"id": 5884472, "name": "Amherstburg", "state": "", "country": "CA", "coord": {"lon": -83.099854, "lat": 42.10009}}, {"id": 5884473, "name": "Amherstburg", "state": "", "country": "CA", "coord": {"lon": -83.04985, "lat": 42.116791}}, {"id": 5884588, "name": "Amos", "state": "", "country": "CA", "coord": {"lon": -78.116241, "lat": 48.566879}}, {"id": 5884667, "name": "Amyot", "state": "", "country": "CA", "coord": {"lon": -84.949821, "lat": 48.483391}}, {"id": 5885030, "name": "Andrew", "state": "", "country": "CA", "coord": {"lon": -112.351891, "lat": 53.883461}}, {"id": 5885237, "name": "Angliers", "state": "", "country": "CA", "coord": {"lon": -79.232948, "lat": 47.550152}}, {"id": 5885280, "name": "Angus", "state": "", "country": "CA", "coord": {"lon": -79.88295, "lat": 44.316811}}, {"id": 5885421, "name": "Annapolis Royal", "state": "", "country": "CA", "coord": {"lon": -65.515533, "lat": 44.750149}}, {"id": 5886182, "name": "Antigonish", "state": "", "country": "CA", "coord": {"lon": -61.998581, "lat": 45.616852}}, {"id": 5886432, "name": "Applegrove", "state": "", "country": "CA", "coord": {"lon": -118.085571, "lat": 49.783169}}, {"id": 5886492, "name": "Apsley", "state": "", "country": "CA", "coord": {"lon": -78.099518, "lat": 44.750118}}, {"id": 5886559, "name": "Arborfield", "state": "", "country": "CA", "coord": {"lon": -103.650917, "lat": 53.10006}}, {"id": 5886561, "name": "Arborg", "state": "", "country": "CA", "coord": {"lon": -97.217567, "lat": 50.907211}}, {"id": 5886590, "name": "Arcadia", "state": "", "country": "CA", "coord": {"lon": -116.135757, "lat": 55.400101}}, {"id": 5886730, "name": "Arcola", "state": "", "country": "CA", "coord": {"lon": -102.484253, "lat": 49.633339}}, {"id": 5886735, "name": "Arctic Bay", "state": "", "country": "CA", "coord": {"lon": -85.166298, "lat": 73.034714}}, {"id": 5886786, "name": "Ardmore", "state": "", "country": "CA", "coord": {"lon": -110.485031, "lat": 54.333469}}, {"id": 5886795, "name": "Ardrossan", "state": "", "country": "CA", "coord": {"lon": -113.135292, "lat": 53.55014}}, {"id": 5886799, "name": "Arelee", "state": "", "country": "CA", "coord": {"lon": -107.501289, "lat": 52.250111}}, {"id": 5886863, "name": "Argyle", "state": "", "country": "CA", "coord": {"lon": -65.848846, "lat": 43.800159}}, {"id": 5886889, "name": "Argyle Shore", "state": "", "country": "CA", "coord": {"lon": -63.348701, "lat": 46.166821}}, {"id": 5887013, "name": "Armley", "state": "", "country": "CA", "coord": {"lon": -104.034241, "lat": 53.11676}}, {"id": 5887023, "name": "Armour Heights", "state": "", "country": "CA", "coord": {"lon": -79.431068, "lat": 43.745991}}, {"id": 5887048, "name": "Armstrong", "state": "", "country": "CA", "coord": {"lon": -119.202347, "lat": 50.449791}}, {"id": 5887116, "name": "Armstrong Station", "state": "", "country": "CA", "coord": {"lon": -89.033371, "lat": 50.300121}}, {"id": 5887214, "name": "Arnprior", "state": "", "country": "CA", "coord": {"lon": -76.349388, "lat": 45.433411}}, {"id": 5887355, "name": "Arthur", "state": "", "country": "CA", "coord": {"lon": -80.536911, "lat": 43.832111}}, {"id": 5887448, "name": "Arviat", "state": "", "country": "CA", "coord": {"lon": -94.058479, "lat": 61.108829}}, {"id": 5887470, "name": "Asbestos", "state": "", "country": "CA", "coord": {"lon": -71.932404, "lat": 45.766781}}, {"id": 5887483, "name": "Ascot Corner", "state": "", "country": "CA", "coord": {"lon": -71.76577, "lat": 45.450081}}, {"id": 5887531, "name": "Ashcroft", "state": "", "country": "CA", "coord": {"lon": -121.285896, "lat": 50.716461}}, {"id": 5887546, "name": "Ashern", "state": "", "country": "CA", "coord": {"lon": -98.346329, "lat": 51.182209}}, {"id": 5887609, "name": "Ashmont", "state": "", "country": "CA", "coord": {"lon": -111.56852, "lat": 54.133469}}, {"id": 5887645, "name": "Ashville", "state": "", "country": "CA", "coord": {"lon": -100.296638, "lat": 51.175011}}, {"id": 5887666, "name": "Asinkaanumevatt", "state": "", "country": "CA", "coord": {"lon": -96.852524, "lat": 52.25811}}, {"id": 5887766, "name": "Asquith", "state": "", "country": "CA", "coord": {"lon": -107.217972, "lat": 52.116791}}, {"id": 5887798, "name": "Assiniboia", "state": "", "country": "CA", "coord": {"lon": -105.984459, "lat": 49.633362}}, {"id": 5887916, "name": "Athabasca", "state": "", "country": "CA", "coord": {"lon": -113.28537, "lat": 54.716869}}, {"id": 5887973, "name": "Atikameg", "state": "", "country": "CA", "coord": {"lon": -115.652458, "lat": 55.933449}}, {"id": 5888001, "name": "Atikokan", "state": "", "country": "CA", "coord": {"lon": -91.621597, "lat": 48.755508}}, {"id": 5888081, "name": "Atlin", "state": "", "country": "CA", "coord": {"lon": -133.689453, "lat": 59.578072}}, {"id": 5888093, "name": "Atmore", "state": "", "country": "CA", "coord": {"lon": -112.551971, "lat": 54.816891}}, {"id": 5888100, "name": "Atnarko", "state": "", "country": "CA", "coord": {"lon": -125.836418, "lat": 52.399761}}, {"id": 5888355, "name": "Aupaluk", "state": "", "country": "CA", "coord": {"lon": -69.598534, "lat": 59.300411}}, {"id": 5888377, "name": "Aurora", "state": "", "country": "CA", "coord": {"lon": -79.466316, "lat": 44.000111}}, {"id": 5888406, "name": "Austin", "state": "", "country": "CA", "coord": {"lon": -98.936882, "lat": 49.950329}}, {"id": 5888441, "name": "Authier", "state": "", "country": "CA", "coord": {"lon": -78.849602, "lat": 48.733479}}, {"id": 5888444, "name": "Authier-Nord", "state": "", "country": "CA", "coord": {"lon": -78.86631, "lat": 48.833481}}, {"id": 5888501, "name": "Avenir", "state": "", "country": "CA", "coord": {"lon": -112.268639, "lat": 55.033508}}, {"id": 5888548, "name": "Avola", "state": "", "country": "CA", "coord": {"lon": -119.31913, "lat": 51.783199}}, {"id": 5888569, "name": "Avonlea", "state": "", "country": "CA", "coord": {"lon": -105.06781, "lat": 50.016769}}, {"id": 5888574, "name": "Avonport", "state": "", "country": "CA", "coord": {"lon": -64.248749, "lat": 45.100151}}, {"id": 5888681, "name": "Ayer's Cliff", "state": "", "country": "CA", "coord": {"lon": -72.04908, "lat": 45.16679}}, {"id": 5888701, "name": "Aylesbury", "state": "", "country": "CA", "coord": {"lon": -105.684471, "lat": 50.933361}}, {"id": 5888703, "name": "Aylesford", "state": "", "country": "CA", "coord": {"lon": -64.832092, "lat": 45.033451}}, {"id": 5888714, "name": "Aylmer, Gatineau", "state": "", "country": "CA", "coord": {"lon": -75.839661, "lat": 45.397301}}, {"id": 5888716, "name": "Aylmer", "state": "", "country": "CA", "coord": {"lon": -80.983017, "lat": 42.766788}}, {"id": 5888726, "name": "Aylsham", "state": "", "country": "CA", "coord": {"lon": -103.817619, "lat": 53.200062}}, {"id": 5888737, "name": "Ayr", "state": "", "country": "CA", "coord": {"lon": -80.449677, "lat": 43.283401}}, {"id": 5888745, "name": "Ayton", "state": "", "country": "CA", "coord": {"lon": -80.916428, "lat": 44.050091}}, {"id": 5889167, "name": "Baden", "state": "", "country": "CA", "coord": {"lon": -80.649696, "lat": 43.400101}}, {"id": 5889189, "name": "Badger", "state": "", "country": "CA", "coord": {"lon": -56.03154, "lat": 48.98325}}, {"id": 5889745, "name": "Baie-Comeau", "state": "", "country": "CA", "coord": {"lon": -68.148941, "lat": 49.216789}}, {"id": 5890542, "name": "Baie-D'Urf\u00e9", "state": "", "country": "CA", "coord": {"lon": -73.915863, "lat": 45.413971}}, {"id": 5891492, "name": "Baie-Trinit\u00e9", "state": "", "country": "CA", "coord": {"lon": -67.298866, "lat": 49.41679}}, {"id": 5891545, "name": "Baie Verte", "state": "", "country": "CA", "coord": {"lon": -56.181519, "lat": 49.93325}}, {"id": 5891628, "name": "Bailey", "state": "", "country": "CA", "coord": {"lon": -66.582169, "lat": 45.63343}}, {"id": 5891871, "name": "Baker Lake", "state": "", "country": "CA", "coord": {"lon": -96.021233, "lat": 64.320091}}, {"id": 5891925, "name": "Bakers Narrows", "state": "", "country": "CA", "coord": {"lon": -101.661079, "lat": 54.67733}}, {"id": 5891964, "name": "Balcarres", "state": "", "country": "CA", "coord": {"lon": -103.551018, "lat": 50.80006}}, {"id": 5892066, "name": "Baldonnel", "state": "", "country": "CA", "coord": {"lon": -120.686203, "lat": 56.199879}}, {"id": 5892114, "name": "Baldur", "state": "", "country": "CA", "coord": {"lon": -99.24472, "lat": 49.385319}}, {"id": 5892174, "name": "Balfour", "state": "", "country": "CA", "coord": {"lon": -116.968887, "lat": 49.6166}}, {"id": 5892426, "name": "Balzac", "state": "", "country": "CA", "coord": {"lon": -114.018677, "lat": 51.216808}}, {"id": 5892444, "name": "Bamfield", "state": "", "country": "CA", "coord": {"lon": -125.136093, "lat": 48.832909}}, {"id": 5892509, "name": "Bancroft", "state": "", "country": "CA", "coord": {"lon": -77.849503, "lat": 45.050129}}, {"id": 5892510, "name": "Bancroft", "state": "", "country": "CA", "coord": {"lon": -77.857018, "lat": 45.057522}}, {"id": 5892532, "name": "Banff", "state": "", "country": "CA", "coord": {"lon": -115.569817, "lat": 51.17622}}, {"id": 5892761, "name": "Baragar", "state": "", "country": "CA", "coord": {"lon": -99.916656, "lat": 49.87112}}, {"id": 5893004, "name": "Barich", "state": "", "country": "CA", "coord": {"lon": -112.635246, "lat": 54.200169}}, {"id": 5893064, "name": "Barkerville", "state": "", "country": "CA", "coord": {"lon": -121.519478, "lat": 53.066608}}, {"id": 5893148, "name": "Barnaby River", "state": "", "country": "CA", "coord": {"lon": -65.51545, "lat": 46.883411}}, {"id": 5893325, "name": "Barons", "state": "", "country": "CA", "coord": {"lon": -113.085167, "lat": 50.000019}}, {"id": 5894033, "name": "Barraute", "state": "", "country": "CA", "coord": {"lon": -77.63279, "lat": 48.433491}}, {"id": 5894162, "name": "Barrhaven", "state": "", "country": "CA", "coord": {"lon": -75.749191, "lat": 45.274891}}, {"id": 5894164, "name": "Barrhead", "state": "", "country": "CA", "coord": {"lon": -114.402107, "lat": 54.13345}}, {"id": 5894171, "name": "Barrie", "state": "", "country": "CA", "coord": {"lon": -79.666344, "lat": 44.400108}}, {"id": 5894228, "name": "Barrington", "state": "", "country": "CA", "coord": {"lon": -65.565529, "lat": 43.56686}}, {"id": 5894299, "name": "Barrows", "state": "", "country": "CA", "coord": {"lon": -101.442009, "lat": 52.829449}}, {"id": 5894506, "name": "Barwick", "state": "", "country": "CA", "coord": {"lon": -93.98365, "lat": 48.650002}}, {"id": 5894570, "name": "Bashaw", "state": "", "country": "CA", "coord": {"lon": -112.968651, "lat": 52.58342}}, {"id": 5894642, "name": "Bassano", "state": "", "country": "CA", "coord": {"lon": -112.468536, "lat": 50.783421}}, {"id": 5894886, "name": "Bateman", "state": "", "country": "CA", "coord": {"lon": -106.751251, "lat": 50.009762}}, {"id": 5894924, "name": "Bath", "state": "", "country": "CA", "coord": {"lon": -76.78273, "lat": 44.183418}}, {"id": 5894962, "name": "Batiscan", "state": "", "country": "CA", "coord": {"lon": -72.251503, "lat": 46.494701}}, {"id": 5895070, "name": "Battleford", "state": "", "country": "CA", "coord": {"lon": -108.318062, "lat": 52.733429}}, {"id": 5895200, "name": "Bauline", "state": "", "country": "CA", "coord": {"lon": -52.831348, "lat": 47.716591}}, {"id": 5895263, "name": "Bay Bulls", "state": "", "country": "CA", "coord": {"lon": -52.814751, "lat": 47.316589}}, {"id": 5895309, "name": "Bayfield", "state": "", "country": "CA", "coord": {"lon": -81.699783, "lat": 43.566792}}, {"id": 5895424, "name": "Bay Roberts", "state": "", "country": "CA", "coord": {"lon": -53.264778, "lat": 47.599892}}, {"id": 5895502, "name": "Beachburg", "state": "", "country": "CA", "coord": {"lon": -76.849426, "lat": 45.73341}}, {"id": 5895613, "name": "Beaconia", "state": "", "country": "CA", "coord": {"lon": -96.558113, "lat": 50.44561}}, {"id": 5895650, "name": "Beaconsfield", "state": "", "country": "CA", "coord": {"lon": -73.86586, "lat": 45.433411}}, {"id": 5895710, "name": "Beamsville", "state": "", "country": "CA", "coord": {"lon": -79.48291, "lat": 43.166809}}, {"id": 5896151, "name": "B\u00e9arn", "state": "", "country": "CA", "coord": {"lon": -79.332962, "lat": 47.283451}}, {"id": 5896216, "name": "Bear River", "state": "", "country": "CA", "coord": {"lon": -65.648842, "lat": 44.566849}}, {"id": 5896263, "name": "Bearskin Lake", "state": "", "country": "CA", "coord": {"lon": -90.96685, "lat": 53.91684}}, {"id": 5896390, "name": "Beatty", "state": "", "country": "CA", "coord": {"lon": -104.80098, "lat": 52.900028}}, {"id": 5896495, "name": "Beauharnois", "state": "", "country": "CA", "coord": {"lon": -73.865898, "lat": 45.31678}}, {"id": 5896501, "name": "Beaulac-Garthby", "state": "", "country": "CA", "coord": {"lon": -71.382393, "lat": 45.83337}}, {"id": 5896522, "name": "Beaumont", "state": "", "country": "CA", "coord": {"lon": -113.418709, "lat": 53.350128}}, {"id": 5896549, "name": "Beausejour", "state": "", "country": "CA", "coord": {"lon": -96.516693, "lat": 50.062199}}, {"id": 5896578, "name": "Beauval", "state": "", "country": "CA", "coord": {"lon": -107.618073, "lat": 55.150181}}, {"id": 5896584, "name": "Beaux-Rivages--Lac-des-\u00c9corces--Val-Barrette", "state": "", "country": "CA", "coord": {"lon": -75.299294, "lat": 46.533409}}, {"id": 5896660, "name": "Beaver Cove", "state": "", "country": "CA", "coord": {"lon": -54.381409, "lat": 49.416618}}, {"id": 5896732, "name": "Beaver Crossing", "state": "", "country": "CA", "coord": {"lon": -110.218391, "lat": 54.35017}}, {"id": 5896969, "name": "Beaverlodge", "state": "", "country": "CA", "coord": {"lon": -119.43605, "lat": 55.21664}}, {"id": 5896992, "name": "Beaver Mines", "state": "", "country": "CA", "coord": {"lon": -114.201958, "lat": 49.450001}}, {"id": 5897183, "name": "Beaverton", "state": "", "country": "CA", "coord": {"lon": -79.149597, "lat": 44.433418}}, {"id": 5897201, "name": "Beazer", "state": "", "country": "CA", "coord": {"lon": -113.485199, "lat": 49.116661}}, {"id": 5897209, "name": "B\u00e9cancour", "state": "", "country": "CA", "coord": {"lon": -72.432411, "lat": 46.333359}}, {"id": 5897310, "name": "Beddington", "state": "", "country": "CA", "coord": {"lon": -114.051979, "lat": 51.150108}}, {"id": 5897321, "name": "Bedford", "state": "", "country": "CA", "coord": {"lon": -63.66732, "lat": 44.725521}}, {"id": 5897323, "name": "Bedford", "state": "", "country": "CA", "coord": {"lon": -72.982437, "lat": 45.116779}}, {"id": 5897324, "name": "Bedford", "state": "", "country": "CA", "coord": {"lon": -72.965843, "lat": 45.133381}}, {"id": 5897469, "name": "Beechy", "state": "", "country": "CA", "coord": {"lon": -107.384613, "lat": 50.883369}}, {"id": 5897594, "name": "Beiseker", "state": "", "country": "CA", "coord": {"lon": -113.535248, "lat": 51.383419}}, {"id": 5897622, "name": "Belanger", "state": "", "country": "CA", "coord": {"lon": -109.318176, "lat": 49.56675}}, {"id": 5897670, "name": "Belcourt", "state": "", "country": "CA", "coord": {"lon": -77.349457, "lat": 48.400188}}, {"id": 5897730, "name": "Bella Bella", "state": "", "country": "CA", "coord": {"lon": -128.147705, "lat": 52.163528}}, {"id": 5897766, "name": "Bellburns", "state": "", "country": "CA", "coord": {"lon": -57.531551, "lat": 50.333328}}, {"id": 5897854, "name": "Belleoram", "state": "", "country": "CA", "coord": {"lon": -55.415009, "lat": 47.51664}}, {"id": 5897858, "name": "Belle Plaine", "state": "", "country": "CA", "coord": {"lon": -105.151123, "lat": 50.40007}}, {"id": 5897865, "name": "Belle River", "state": "", "country": "CA", "coord": {"lon": -82.71653, "lat": 42.300079}}, {"id": 5897884, "name": "Belleville", "state": "", "country": "CA", "coord": {"lon": -77.382767, "lat": 44.166821}}, {"id": 5897885, "name": "Belleville", "state": "", "country": "CA", "coord": {"lon": -77.370529, "lat": 44.178761}}, {"id": 5897898, "name": "Bellevue", "state": "", "country": "CA", "coord": {"lon": -114.36869, "lat": 49.583321}}, {"id": 5897934, "name": "Bellis", "state": "", "country": "CA", "coord": {"lon": -112.151901, "lat": 54.150169}}, {"id": 5897959, "name": "Bell Island Front", "state": "", "country": "CA", "coord": {"lon": -52.934158, "lat": 47.63129}}, {"id": 5898070, "name": "Bells Corners", "state": "", "country": "CA", "coord": {"lon": -75.830116, "lat": 45.31588}}, {"id": 5898078, "name": "Bellshill", "state": "", "country": "CA", "coord": {"lon": -111.518402, "lat": 52.566841}}, {"id": 5898121, "name": "Belmont", "state": "", "country": "CA", "coord": {"lon": -63.381989, "lat": 45.416851}}, {"id": 5898126, "name": "Belmont", "state": "", "country": "CA", "coord": {"lon": -99.457222, "lat": 49.40942}}, {"id": 5898138, "name": "Beloeil", "state": "", "country": "CA", "coord": {"lon": -73.19915, "lat": 45.56678}}, {"id": 5898240, "name": "Benalto", "state": "", "country": "CA", "coord": {"lon": -114.285309, "lat": 52.30011}}, {"id": 5898304, "name": "Bengough", "state": "", "country": "CA", "coord": {"lon": -105.134392, "lat": 49.400059}}, {"id": 5898322, "name": "Benito", "state": "", "country": "CA", "coord": {"lon": -101.54921, "lat": 51.913891}}, {"id": 5898596, "name": "Bentley", "state": "", "country": "CA", "coord": {"lon": -114.06871, "lat": 52.466808}}, {"id": 5898612, "name": "Benton", "state": "", "country": "CA", "coord": {"lon": -54.414829, "lat": 48.89991}}, {"id": 5898613, "name": "Benton", "state": "", "country": "CA", "coord": {"lon": -67.598923, "lat": 45.983398}}, {"id": 5898662, "name": "Berens Landing", "state": "", "country": "CA", "coord": {"lon": -120.929359, "lat": 61.827999}}, {"id": 5898664, "name": "Berens River", "state": "", "country": "CA", "coord": {"lon": -97.029831, "lat": 52.365311}}, {"id": 5898671, "name": "Beresford", "state": "", "country": "CA", "coord": {"lon": -120.252487, "lat": 50.583069}}, {"id": 5898720, "name": "Bergen", "state": "", "country": "CA", "coord": {"lon": -114.635323, "lat": 51.7001}}, {"id": 5898971, "name": "Berry Mills", "state": "", "country": "CA", "coord": {"lon": -64.948769, "lat": 46.116852}}, {"id": 5898988, "name": "Berrys", "state": "", "country": "CA", "coord": {"lon": -75.924362, "lat": 45.425098}}, {"id": 5899017, "name": "Berthierville", "state": "", "country": "CA", "coord": {"lon": -73.182449, "lat": 46.083359}}, {"id": 5899061, "name": "Berwick", "state": "", "country": "CA", "coord": {"lon": -64.732079, "lat": 45.050152}}, {"id": 5899068, "name": "Berwyn", "state": "", "country": "CA", "coord": {"lon": -117.736008, "lat": 56.150082}}, {"id": 5899156, "name": "Bethany", "state": "", "country": "CA", "coord": {"lon": -78.566254, "lat": 44.183418}}, {"id": 5899182, "name": "Bethune", "state": "", "country": "CA", "coord": {"lon": -105.217827, "lat": 50.71677}}, {"id": 5899268, "name": "Beulah", "state": "", "country": "CA", "coord": {"lon": -101.037613, "lat": 50.260601}}, {"id": 5899368, "name": "Bible Hill", "state": "", "country": "CA", "coord": {"lon": -63.281979, "lat": 45.366852}}, {"id": 5899554, "name": "Big Beaver", "state": "", "country": "CA", "coord": {"lon": -105.167778, "lat": 49.100052}}, {"id": 5899631, "name": "Big Brook", "state": "", "country": "CA", "coord": {"lon": -56.14801, "lat": 51.516788}}, {"id": 5899787, "name": "Big Cove", "state": "", "country": "CA", "coord": {"lon": -64.972031, "lat": 46.577091}}, {"id": 5899819, "name": "Big Creek", "state": "", "country": "CA", "coord": {"lon": -123.036186, "lat": 51.716518}}, {"id": 5899982, "name": "Biggar", "state": "", "country": "CA", "coord": {"lon": -108.00135, "lat": 52.066799}}, {"id": 5900745, "name": "Big River", "state": "", "country": "CA", "coord": {"lon": -107.01783, "lat": 53.833408}}, {"id": 5901012, "name": "Big Valley", "state": "", "country": "CA", "coord": {"lon": -112.768593, "lat": 52.033421}}, {"id": 5901079, "name": "Bilby", "state": "", "country": "CA", "coord": {"lon": -114.102058, "lat": 53.700142}}, {"id": 5901280, "name": "Bindloss", "state": "", "country": "CA", "coord": {"lon": -110.268341, "lat": 50.866829}}, {"id": 5901331, "name": "Binscarth", "state": "", "country": "CA", "coord": {"lon": -101.283707, "lat": 50.62669}}, {"id": 5901447, "name": "Birch Hills", "state": "", "country": "CA", "coord": {"lon": -105.417732, "lat": 52.98336}}, {"id": 5901471, "name": "Birch Island", "state": "", "country": "CA", "coord": {"lon": -81.783089, "lat": 46.050072}}, {"id": 5901657, "name": "Birch River", "state": "", "country": "CA", "coord": {"lon": -101.104782, "lat": 52.396118}}, {"id": 5901684, "name": "Birchy Bay", "state": "", "country": "CA", "coord": {"lon": -54.73143, "lat": 49.34993}}, {"id": 5901740, "name": "Bird Cove", "state": "", "country": "CA", "coord": {"lon": -56.931412, "lat": 51.050079}}, {"id": 5901886, "name": "Birsay", "state": "", "country": "CA", "coord": {"lon": -106.984581, "lat": 51.100071}}, {"id": 5901898, "name": "Birtle", "state": "", "country": "CA", "coord": {"lon": -101.048401, "lat": 50.422501}}, {"id": 5901919, "name": "Biscotasing", "state": "", "country": "CA", "coord": {"lon": -82.0998, "lat": 47.28339}}, {"id": 5901989, "name": "Bishop's Falls", "state": "", "country": "CA", "coord": {"lon": -55.481499, "lat": 49.01664}}, {"id": 5901993, "name": "Bishop's Harbour", "state": "", "country": "CA", "coord": {"lon": -53.63139, "lat": 48.683201}}, {"id": 5902030, "name": "Bissett", "state": "", "country": "CA", "coord": {"lon": -95.681633, "lat": 51.025021}}, {"id": 5902088, "name": "Bittern Lake", "state": "", "country": "CA", "coord": {"lon": -113.051971, "lat": 53.016842}}, {"id": 5902121, "name": "Bjorkdale", "state": "", "country": "CA", "coord": {"lon": -103.65097, "lat": 52.716709}}, {"id": 5902447, "name": "Black Creek", "state": "", "country": "CA", "coord": {"lon": -121.102669, "lat": 52.299881}}, {"id": 5902458, "name": "Black Diamond", "state": "", "country": "CA", "coord": {"lon": -114.235298, "lat": 50.700111}}, {"id": 5902599, "name": "Blackfalds", "state": "", "country": "CA", "coord": {"lon": -113.785301, "lat": 52.383419}}, {"id": 5902755, "name": "Blackie", "state": "", "country": "CA", "coord": {"lon": -113.618652, "lat": 50.600101}}, {"id": 5903420, "name": "Blackville", "state": "", "country": "CA", "coord": {"lon": -65.831863, "lat": 46.739799}}, {"id": 5903423, "name": "Blackwater", "state": "", "country": "CA", "coord": {"lon": -79.049583, "lat": 44.233421}}, {"id": 5903496, "name": "Bladworth", "state": "", "country": "CA", "coord": {"lon": -106.134499, "lat": 51.36676}}, {"id": 5903504, "name": "Blaine Lake", "state": "", "country": "CA", "coord": {"lon": -106.901169, "lat": 52.833401}}, {"id": 5903510, "name": "Blainville", "state": "", "country": "CA", "coord": {"lon": -73.882492, "lat": 45.666779}}, {"id": 5903535, "name": "Blairmore", "state": "", "country": "CA", "coord": {"lon": -114.435303, "lat": 49.600021}}, {"id": 5903664, "name": "Blanc-Sablon", "state": "", "country": "CA", "coord": {"lon": -57.13142, "lat": 51.416801}}, {"id": 5903742, "name": "Blenheim", "state": "", "country": "CA", "coord": {"lon": -81.999779, "lat": 42.333389}}, {"id": 5903851, "name": "Blind River", "state": "", "country": "CA", "coord": {"lon": -82.958168, "lat": 46.183361}}, {"id": 5903881, "name": "Bliss Landing", "state": "", "country": "CA", "coord": {"lon": -124.819572, "lat": 50.032928}}, {"id": 5904114, "name": "Blucher", "state": "", "country": "CA", "coord": {"lon": -106.201202, "lat": 52.016769}}, {"id": 5904414, "name": "The Blue Mountains", "state": "", "country": "CA", "coord": {"lon": -80.458, "lat": 44.558399}}, {"id": 5904450, "name": "Blue River", "state": "", "country": "CA", "coord": {"lon": -119.310493, "lat": 52.110088}}, {"id": 5904482, "name": "Bluesky", "state": "", "country": "CA", "coord": {"lon": -118.236053, "lat": 56.066761}}, {"id": 5904619, "name": "Bluffton", "state": "", "country": "CA", "coord": {"lon": -114.285332, "lat": 52.750111}}, {"id": 5904742, "name": "Boat Harbour", "state": "", "country": "CA", "coord": {"lon": -123.802696, "lat": 49.082932}}]