[{"id": 3186084, "name": "Berat", "state": "", "country": "AL", "coord": {"lon": 19.952221, "lat": 40.70583}}, {"id": 3186145, "name": "Ballsh", "state": "", "country": "AL", "coord": {"lon": 19.73472, "lat": 40.598888}}, {"id": 3186233, "name": "Vranjic", "state": "", "country": "HR", "coord": {"lon": 16.466669, "lat": 43.533329}}, {"id": 3186246, "name": "Zvornik", "state": "", "country": "BA", "coord": {"lon": 19.101391, "lat": 44.38694}}, {"id": 3186270, "name": "\u017du\u017eemberk", "state": "", "country": "SI", "coord": {"lon": 14.92917, "lat": 45.833889}}, {"id": 3186294, "name": "\u017dupanja", "state": "", "country": "HR", "coord": {"lon": 18.6975, "lat": 45.077499}}, {"id": 3186331, "name": "\u017drnovo", "state": "", "country": "HR", "coord": {"lon": 17.11417, "lat": 42.951111}}, {"id": 3186334, "name": "\u017drnovnica", "state": "", "country": "HR", "coord": {"lon": 16.55917, "lat": 43.521111}}, {"id": 3186366, "name": "Zminjak", "state": "", "country": "RS", "coord": {"lon": 19.47056, "lat": 44.754719}}, {"id": 3186376, "name": "Zmajevo", "state": "", "country": "RS", "coord": {"lon": 19.685829, "lat": 45.453609}}, {"id": 3186406, "name": "Zlatar", "state": "", "country": "HR", "coord": {"lon": 16.070829, "lat": 46.09417}}, {"id": 3186422, "name": "\u017divinice", "state": "", "country": "BA", "coord": {"lon": 17.375, "lat": 44.547218}}, {"id": 3186423, "name": "\u017divinice", "state": "", "country": "BA", "coord": {"lon": 18.649719, "lat": 44.44944}}, {"id": 3186442, "name": "\u017dirovnica", "state": "", "country": "SI", "coord": {"lon": 14.14, "lat": 46.40472}}, {"id": 3186450, "name": "\u017diri", "state": "", "country": "SI", "coord": {"lon": 14.10722, "lat": 46.042221}}, {"id": 3186498, "name": "Zrece", "state": "", "country": "SI", "coord": {"lon": 15.36667, "lat": 46.383331}}, {"id": 3186509, "name": "Zgornje Jezersko", "state": "", "country": "SI", "coord": {"lon": 14.46667, "lat": 46.383331}}, {"id": 3186538, "name": "Zgornja Kungota", "state": "", "country": "SI", "coord": {"lon": 15.61556, "lat": 46.639172}}, {"id": 3186557, "name": "\u017detale", "state": "", "country": "SI", "coord": {"lon": 15.79389, "lat": 46.275002}}, {"id": 3186567, "name": "\u017dep\u010de", "state": "", "country": "BA", "coord": {"lon": 18.037781, "lat": 44.42667}}, {"id": 3186573, "name": "Zenica", "state": "", "country": "BA", "coord": {"lon": 17.906389, "lat": 44.201389}}, {"id": 3186588, "name": "\u017deljezno Polje", "state": "", "country": "BA", "coord": {"lon": 17.93194, "lat": 44.408329}}, {"id": 3186607, "name": "\u017delezniki", "state": "", "country": "SI", "coord": {"lon": 14.16667, "lat": 46.23333}}, {"id": 3186662, "name": "\u017ddralovi", "state": "", "country": "HR", "coord": {"lon": 16.875, "lat": 45.876389}}, {"id": 3186671, "name": "Zdenci", "state": "", "country": "HR", "coord": {"lon": 17.950279, "lat": 45.589169}}, {"id": 3186679, "name": "Zbori\u0161te", "state": "", "country": "BA", "coord": {"lon": 16.01778, "lat": 45.145828}}, {"id": 3186705, "name": "Zavr\u010d", "state": "", "country": "SI", "coord": {"lon": 16.049721, "lat": 46.39167}}, {"id": 3186717, "name": "Zavidovi\u0107i", "state": "", "country": "BA", "coord": {"lon": 18.149719, "lat": 44.445831}}, {"id": 3186737, "name": "Zaton", "state": "", "country": "HR", "coord": {"lon": 15.82528, "lat": 43.78944}}, {"id": 3186764, "name": "\u017darkovac", "state": "", "country": "RS", "coord": {"lon": 19.934719, "lat": 45.003609}}, {"id": 3186781, "name": "Zapre\u0161i\u0107", "state": "", "country": "HR", "coord": {"lon": 15.80778, "lat": 45.856392}}, {"id": 3186832, "name": "Zalog", "state": "", "country": "SI", "coord": {"lon": 14.19944, "lat": 45.766941}}, {"id": 3186843, "name": "Ob\u010dina \u017dalec", "state": "", "country": "SI", "coord": {"lon": 15.1727, "lat": 46.255081}}, {"id": 3186844, "name": "\u017dalec", "state": "", "country": "SI", "coord": {"lon": 15.16482, "lat": 46.251511}}, {"id": 3186884, "name": "Dubrava", "state": "", "country": "HR", "coord": {"lon": 16.06361, "lat": 45.833611}}, {"id": 3186886, "name": "Zagreb", "state": "", "country": "HR", "coord": {"lon": 15.97798, "lat": 45.814442}}, {"id": 3186905, "name": "Zagorje ob Savi", "state": "", "country": "SI", "coord": {"lon": 14.96583, "lat": 46.129742}}, {"id": 3186906, "name": "Zagorje ob Savi", "state": "", "country": "SI", "coord": {"lon": 14.99694, "lat": 46.13179}}, {"id": 3186941, "name": "Zadvorsko", "state": "", "country": "HR", "coord": {"lon": 15.91667, "lat": 45.73333}}, {"id": 3186952, "name": "Zadar", "state": "", "country": "HR", "coord": {"lon": 15.24222, "lat": 44.11972}}, {"id": 3186961, "name": "Zabri\u0161\u0107e", "state": "", "country": "BA", "coord": {"lon": 16.942221, "lat": 43.7925}}, {"id": 3186984, "name": "Zabok", "state": "", "country": "HR", "coord": {"lon": 15.915, "lat": 46.029442}}, {"id": 3186994, "name": "\u017dabnica", "state": "", "country": "SI", "coord": {"lon": 14.33306, "lat": 46.198608}}, {"id": 3186999, "name": "\u017dabljak", "state": "", "country": "ME", "coord": {"lon": 19.123249, "lat": 43.154228}}, {"id": 3187020, "name": "Vuzenica", "state": "", "country": "SI", "coord": {"lon": 15.16722, "lat": 46.59639}}, {"id": 3187040, "name": "Vukovije Donje", "state": "", "country": "BA", "coord": {"lon": 18.753889, "lat": 44.463612}}, {"id": 3187047, "name": "Vukovar", "state": "", "country": "HR", "coord": {"lon": 18.99972, "lat": 45.34333}}, {"id": 3187070, "name": "Vuka", "state": "", "country": "HR", "coord": {"lon": 18.504999, "lat": 45.433891}}, {"id": 3187125, "name": "Vrtojba", "state": "", "country": "SI", "coord": {"lon": 13.63417, "lat": 45.912498}}, {"id": 3187142, "name": "Vrsi", "state": "", "country": "HR", "coord": {"lon": 15.2325, "lat": 44.264721}}, {"id": 3187145, "name": "Vrsar", "state": "", "country": "HR", "coord": {"lon": 13.60528, "lat": 45.14917}}, {"id": 3187153, "name": "Vrpolje", "state": "", "country": "HR", "coord": {"lon": 18.40556, "lat": 45.21056}}, {"id": 3187162, "name": "Vrnogra\u010d", "state": "", "country": "BA", "coord": {"lon": 15.95361, "lat": 45.163609}}, {"id": 3187213, "name": "Vrhnika", "state": "", "country": "SI", "coord": {"lon": 14.29265, "lat": 45.961399}}, {"id": 3187214, "name": "Vrhnika", "state": "", "country": "SI", "coord": {"lon": 14.29556, "lat": 45.96611}}, {"id": 3187230, "name": "Vrgorac", "state": "", "country": "HR", "coord": {"lon": 17.371111, "lat": 43.20583}}, {"id": 3187232, "name": "Gvozd", "state": "", "country": "HR", "coord": {"lon": 15.88056, "lat": 45.350281}}, {"id": 3187257, "name": "Vrbovsko", "state": "", "country": "HR", "coord": {"lon": 15.07833, "lat": 45.36861}}, {"id": 3187265, "name": "Vrbovec", "state": "", "country": "HR", "coord": {"lon": 16.421671, "lat": 45.883331}}, {"id": 3187267, "name": "Vrbovec Samoborski", "state": "", "country": "HR", "coord": {"lon": 15.76667, "lat": 45.816669}}, {"id": 3187271, "name": "Vrbova", "state": "", "country": "HR", "coord": {"lon": 17.57778, "lat": 45.218609}}, {"id": 3187297, "name": "Vrbas", "state": "", "country": "RS", "coord": {"lon": 19.640829, "lat": 45.571388}}, {"id": 3187301, "name": "Vrbanja", "state": "", "country": "HR", "coord": {"lon": 18.927219, "lat": 44.981392}}, {"id": 3187320, "name": "Vrati\u0161inec", "state": "", "country": "HR", "coord": {"lon": 16.457781, "lat": 46.478062}}, {"id": 3187336, "name": "Vransko", "state": "", "country": "SI", "coord": {"lon": 14.95139, "lat": 46.243889}}, {"id": 3187393, "name": "Vozu\u0107a", "state": "", "country": "BA", "coord": {"lon": 18.35778, "lat": 44.361389}}, {"id": 3187413, "name": "Volosko", "state": "", "country": "HR", "coord": {"lon": 14.3175, "lat": 45.348888}}, {"id": 3187415, "name": "Voloder", "state": "", "country": "HR", "coord": {"lon": 16.67889, "lat": 45.548061}}, {"id": 3187419, "name": "Voljevac", "state": "", "country": "BA", "coord": {"lon": 17.65917, "lat": 43.878609}}, {"id": 3187428, "name": "Vol\u010dja Draga", "state": "", "country": "SI", "coord": {"lon": 13.6775, "lat": 45.90694}}, {"id": 3187432, "name": "Volavlje", "state": "", "country": "SI", "coord": {"lon": 14.71722, "lat": 46.03389}}, {"id": 3187448, "name": "Vojnik", "state": "", "country": "SI", "coord": {"lon": 15.30333, "lat": 46.293331}}, {"id": 3187451, "name": "Vojni\u0107", "state": "", "country": "HR", "coord": {"lon": 15.69861, "lat": 45.323608}}, {"id": 3187464, "name": "Vogo\u0161\u0107a", "state": "", "country": "BA", "coord": {"lon": 18.348061, "lat": 43.901939}}, {"id": 3187465, "name": "Voglje", "state": "", "country": "SI", "coord": {"lon": 14.43861, "lat": 46.215561}}, {"id": 3187477, "name": "Vodnjan", "state": "", "country": "HR", "coord": {"lon": 13.85167, "lat": 44.959438}}, {"id": 3187482, "name": "Vo\u0111inci", "state": "", "country": "HR", "coord": {"lon": 18.60972, "lat": 45.275558}}, {"id": 3187485, "name": "Vodice", "state": "", "country": "SI", "coord": {"lon": 14.49492, "lat": 46.189869}}, {"id": 3187489, "name": "Vodice", "state": "", "country": "HR", "coord": {"lon": 15.78278, "lat": 43.76083}}, {"id": 3187503, "name": "Vo\u0107in", "state": "", "country": "HR", "coord": {"lon": 17.547779, "lat": 45.617779}}, {"id": 3187505, "name": "Vnanje Gorice", "state": "", "country": "SI", "coord": {"lon": 14.42194, "lat": 46.007221}}, {"id": 3187524, "name": "Vlasenica", "state": "", "country": "BA", "coord": {"lon": 18.940559, "lat": 44.181938}}, {"id": 3187547, "name": "Vladislavci", "state": "", "country": "HR", "coord": {"lon": 18.574169, "lat": 45.459438}}, {"id": 3187548, "name": "Vladimirci", "state": "", "country": "RS", "coord": {"lon": 19.78528, "lat": 44.614719}}, {"id": 3187575, "name": "Vitomarci", "state": "", "country": "SI", "coord": {"lon": 15.93944, "lat": 46.5275}}, {"id": 3187588, "name": "Vitina", "state": "", "country": "BA", "coord": {"lon": 17.483891, "lat": 43.237499}}, {"id": 3187590, "name": "Vitez", "state": "", "country": "BA", "coord": {"lon": 17.790279, "lat": 44.154442}}, {"id": 3187598, "name": "Vitanje", "state": "", "country": "SI", "coord": {"lon": 15.29583, "lat": 46.381672}}, {"id": 3187609, "name": "Visoko", "state": "", "country": "BA", "coord": {"lon": 18.178061, "lat": 43.988892}}, {"id": 3187641, "name": "Vi\u0161nji\u0107evo", "state": "", "country": "RS", "coord": {"lon": 19.290001, "lat": 44.965832}}, {"id": 3187657, "name": "Vi\u0161njevac", "state": "", "country": "HR", "coord": {"lon": 18.61389, "lat": 45.568611}}, {"id": 3187666, "name": "Vi\u0161kovci", "state": "", "country": "HR", "coord": {"lon": 18.462219, "lat": 45.345001}}, {"id": 3187681, "name": "Vi\u0161egrad", "state": "", "country": "BA", "coord": {"lon": 19.29917, "lat": 43.784721}}, {"id": 3187685, "name": "Vis", "state": "", "country": "HR", "coord": {"lon": 16.18306, "lat": 43.061939}}, {"id": 3187690, "name": "Vir pri Sti\u010dni", "state": "", "country": "SI", "coord": {"lon": 14.81778, "lat": 45.952499}}, {"id": 3187694, "name": "Virovitica", "state": "", "country": "HR", "coord": {"lon": 17.38389, "lat": 45.83194}}, {"id": 3187699, "name": "Virje", "state": "", "country": "HR", "coord": {"lon": 16.99, "lat": 46.067219}}, {"id": 3187702, "name": "Vir", "state": "", "country": "HR", "coord": {"lon": 15.08528, "lat": 44.303059}}, {"id": 3187706, "name": "Vipava", "state": "", "country": "SI", "coord": {"lon": 13.96306, "lat": 45.846668}}, {"id": 3187719, "name": "Vinkovci", "state": "", "country": "HR", "coord": {"lon": 18.80472, "lat": 45.28833}}, {"id": 3187735, "name": "Vinica", "state": "", "country": "HR", "coord": {"lon": 16.149441, "lat": 46.336109}}, {"id": 3187740, "name": "Vine\u017e", "state": "", "country": "HR", "coord": {"lon": 14.10694, "lat": 45.098061}}, {"id": 3187750, "name": "Viljevo", "state": "", "country": "HR", "coord": {"lon": 18.063061, "lat": 45.751389}}, {"id": 3187799, "name": "Vido\u0161i", "state": "", "country": "BA", "coord": {"lon": 17.02833, "lat": 43.771389}}, {"id": 3187813, "name": "Videm", "state": "", "country": "SI", "coord": {"lon": 14.69417, "lat": 45.849998}}, {"id": 3187826, "name": "Vetovo", "state": "", "country": "HR", "coord": {"lon": 17.794439, "lat": 45.416111}}, {"id": 3187829, "name": "Veternik", "state": "", "country": "RS", "coord": {"lon": 19.759439, "lat": 45.25333}}, {"id": 3187840, "name": "Ver\u017eej", "state": "", "country": "SI", "coord": {"lon": 16.165279, "lat": 46.583611}}, {"id": 3187855, "name": "Verd", "state": "", "country": "SI", "coord": {"lon": 14.30583, "lat": 45.956669}}, {"id": 3187912, "name": "Velimirovac", "state": "", "country": "HR", "coord": {"lon": 18.10944, "lat": 45.523609}}, {"id": 3188009, "name": "Veliki Radinci", "state": "", "country": "RS", "coord": {"lon": 19.673611, "lat": 45.045559}}, {"id": 3188040, "name": "Veliki Lovre\u010dan", "state": "", "country": "HR", "coord": {"lon": 16.08333, "lat": 46.383331}}, {"id": 3188075, "name": "Veliki Gr\u0111evac", "state": "", "country": "HR", "coord": {"lon": 17.047501, "lat": 45.750278}}, {"id": 3188089, "name": "Veliki Drvenik", "state": "", "country": "HR", "coord": {"lon": 16.15, "lat": 43.450001}}, {"id": 3188101, "name": "Veliki Bukovec", "state": "", "country": "HR", "coord": {"lon": 16.71306, "lat": 46.294441}}, {"id": 3188128, "name": "Velike La\u0161\u010de", "state": "", "country": "SI", "coord": {"lon": 14.63639, "lat": 45.832218}}, {"id": 3188181, "name": "Velika Polana", "state": "", "country": "SI", "coord": {"lon": 16.346939, "lat": 46.571941}}, {"id": 3188199, "name": "Velika Obarska", "state": "", "country": "BA", "coord": {"lon": 19.164169, "lat": 44.805279}}, {"id": 3188225, "name": "Velika Kladu\u0161a", "state": "", "country": "BA", "coord": {"lon": 15.81167, "lat": 45.189442}}, {"id": 3188244, "name": "Velika Gorica", "state": "", "country": "HR", "coord": {"lon": 16.07556, "lat": 45.712502}}, {"id": 3188279, "name": "Velika", "state": "", "country": "HR", "coord": {"lon": 17.66139, "lat": 45.454441}}, {"id": 3188326, "name": "Vela Luka", "state": "", "country": "HR", "coord": {"lon": 16.7225, "lat": 42.963329}}, {"id": 3188329, "name": "Velagi\u0107i", "state": "", "country": "BA", "coord": {"lon": 16.73167, "lat": 44.55722}}, {"id": 3188357, "name": "Varo\u0161ka Rijeka", "state": "", "country": "BA", "coord": {"lon": 16.01417, "lat": 45.084721}}, {"id": 3188361, "name": "Varna", "state": "", "country": "RS", "coord": {"lon": 19.65139, "lat": 44.67778}}, {"id": 3188366, "name": "Vare\u0161", "state": "", "country": "BA", "coord": {"lon": 18.328329, "lat": 44.16444}}, {"id": 3188380, "name": "Vara\u017edinske Toplice", "state": "", "country": "HR", "coord": {"lon": 16.41917, "lat": 46.209171}}, {"id": 3188383, "name": "Vara\u017edin", "state": "", "country": "HR", "coord": {"lon": 16.33778, "lat": 46.30444}}, {"id": 3188395, "name": "Valpovo", "state": "", "country": "HR", "coord": {"lon": 18.41861, "lat": 45.660831}}, {"id": 3188402, "name": "Valjevo", "state": "", "country": "RS", "coord": {"lon": 19.898211, "lat": 44.275131}}, {"id": 3188417, "name": "Vajska", "state": "", "country": "RS", "coord": {"lon": 19.11194, "lat": 45.410831}}, {"id": 3188429, "name": "Uzve\u0107e", "state": "", "country": "RS", "coord": {"lon": 19.602501, "lat": 44.88028}}, {"id": 3188434, "name": "U\u017eice", "state": "", "country": "RS", "coord": {"lon": 19.84878, "lat": 43.858608}}, {"id": 3188458, "name": "Ustikolina", "state": "", "country": "BA", "coord": {"lon": 18.790001, "lat": 43.583611}}, {"id": 3188498, "name": "Umag", "state": "", "country": "HR", "coord": {"lon": 13.52389, "lat": 45.431389}}, {"id": 3188514, "name": "Ulcinj", "state": "", "country": "ME", "coord": {"lon": 19.26833, "lat": 41.95528}}, {"id": 3188516, "name": "Ulcinj", "state": "", "country": "ME", "coord": {"lon": 19.22436, "lat": 41.929359}}, {"id": 3188532, "name": "Ugljevik", "state": "", "country": "BA", "coord": {"lon": 19.020281, "lat": 44.663609}}, {"id": 3188538, "name": "Ugljan", "state": "", "country": "HR", "coord": {"lon": 15.10306, "lat": 44.130829}}, {"id": 3188553, "name": "Udbinja", "state": "", "country": "HR", "coord": {"lon": 15.73833, "lat": 45.430279}}, {"id": 3188581, "name": "Tu\u017eno", "state": "", "country": "HR", "coord": {"lon": 16.235001, "lat": 46.256672}}, {"id": 3188582, "name": "Tuzla", "state": "", "country": "BA", "coord": {"lon": 18.669439, "lat": 44.542782}}, {"id": 3188584, "name": "Tuzi", "state": "", "country": "ME", "coord": {"lon": 19.33139, "lat": 42.365559}}, {"id": 3188604, "name": "Turopolje", "state": "", "country": "HR", "coord": {"lon": 16.14361, "lat": 45.649441}}, {"id": 3188606, "name": "Turni\u0161\u010de", "state": "", "country": "SI", "coord": {"lon": 16.32028, "lat": 46.627781}}, {"id": 3188620, "name": "Turjaci", "state": "", "country": "HR", "coord": {"lon": 16.66917, "lat": 43.650002}}, {"id": 3188633, "name": "Turbe", "state": "", "country": "BA", "coord": {"lon": 17.57139, "lat": 44.24361}}, {"id": 3188635, "name": "Turanj", "state": "", "country": "HR", "coord": {"lon": 15.41139, "lat": 43.971111}}, {"id": 3188675, "name": "Tu\u010depi", "state": "", "country": "HR", "coord": {"lon": 17.05444, "lat": 43.272221}}, {"id": 3188684, "name": "Trzin", "state": "", "country": "SI", "coord": {"lon": 14.56667, "lat": 46.133331}}, {"id": 3188688, "name": "Tr\u017ei\u010d", "state": "", "country": "SI", "coord": {"lon": 14.31046, "lat": 46.363571}}, {"id": 3188691, "name": "Tr\u017ea\u010dka Ra\u0161tela", "state": "", "country": "BA", "coord": {"lon": 15.79028, "lat": 44.973331}}, {"id": 3188723, "name": "Tr\u0161ka Gora", "state": "", "country": "SI", "coord": {"lon": 15.2, "lat": 45.833328}}, {"id": 3188725, "name": "Tr\u0161i\u0107", "state": "", "country": "RS", "coord": {"lon": 19.26889, "lat": 44.50806}}, {"id": 3188730, "name": "Trpinja", "state": "", "country": "HR", "coord": {"lon": 18.89917, "lat": 45.41917}}, {"id": 3188763, "name": "Trogir", "state": "", "country": "HR", "coord": {"lon": 16.251671, "lat": 43.512501}}, {"id": 3188786, "name": "Trnovec", "state": "", "country": "HR", "coord": {"lon": 16.311939, "lat": 46.38583}}, {"id": 3188817, "name": "Trn", "state": "", "country": "BA", "coord": {"lon": 17.236389, "lat": 44.859718}}, {"id": 3188830, "name": "Trilj", "state": "", "country": "HR", "coord": {"lon": 16.724171, "lat": 43.618328}}, {"id": 3188837, "name": "Tribunj", "state": "", "country": "HR", "coord": {"lon": 15.74444, "lat": 43.75547}}, {"id": 3188886, "name": "Trebnje", "state": "", "country": "SI", "coord": {"lon": 15.02167, "lat": 45.904171}}, {"id": 3188893, "name": "Trebinje", "state": "", "country": "BA", "coord": {"lon": 18.34417, "lat": 42.711941}}, {"id": 3188914, "name": "Trbovlje", "state": "", "country": "SI", "coord": {"lon": 15.04222, "lat": 46.14167}}, {"id": 3188915, "name": "Trbovlje", "state": "", "country": "SI", "coord": {"lon": 15.05333, "lat": 46.154999}}, {"id": 3188924, "name": "Travnik", "state": "", "country": "BA", "coord": {"lon": 17.670561, "lat": 44.226669}}, {"id": 3188946, "name": "Tovarnik", "state": "", "country": "HR", "coord": {"lon": 19.151939, "lat": 45.165001}}, {"id": 3188949, "name": "Tovari\u0161evo", "state": "", "country": "RS", "coord": {"lon": 19.325001, "lat": 45.353611}}, {"id": 3188955, "name": "Tornjo\u0161", "state": "", "country": "RS", "coord": {"lon": 19.831671, "lat": 45.87833}}, {"id": 3188971, "name": "Topol\u0161ica", "state": "", "country": "SI", "coord": {"lon": 15.02157, "lat": 46.40028}}, {"id": 3188972, "name": "Topol pri Medvodah", "state": "", "country": "SI", "coord": {"lon": 14.38333, "lat": 46.099998}}, {"id": 3189014, "name": "Sveti Toma\u017e", "state": "", "country": "SI", "coord": {"lon": 16.083611, "lat": 46.484169}}, {"id": 3189035, "name": "Tolminski Lom", "state": "", "country": "SI", "coord": {"lon": 13.74722, "lat": 46.128609}}, {"id": 3189037, "name": "Ob\u010dina Tolmin", "state": "", "country": "SI", "coord": {"lon": 13.73205, "lat": 46.184052}}, {"id": 3189038, "name": "Tolmin", "state": "", "country": "SI", "coord": {"lon": 13.73321, "lat": 46.183041}}, {"id": 3189046, "name": "Toj\u0161i\u0107i", "state": "", "country": "BA", "coord": {"lon": 18.785561, "lat": 44.50111}}, {"id": 3189071, "name": "Tivat", "state": "", "country": "ME", "coord": {"lon": 18.653061, "lat": 42.40556}}, {"id": 3189073, "name": "Tivat", "state": "", "country": "ME", "coord": {"lon": 18.69611, "lat": 42.43639}}, {"id": 3189074, "name": "Velenje", "state": "", "country": "SI", "coord": {"lon": 15.13333, "lat": 46.366669}}, {"id": 3189075, "name": "Velenje", "state": "", "country": "SI", "coord": {"lon": 15.11028, "lat": 46.359169}}, {"id": 3189076, "name": "Korenica", "state": "", "country": "HR", "coord": {"lon": 15.70972, "lat": 44.743889}}, {"id": 3189077, "name": "Podgorica", "state": "", "country": "ME", "coord": {"lon": 19.33333, "lat": 42.5}}, {"id": 3189098, "name": "Ti\u0161ina", "state": "", "country": "SI", "coord": {"lon": 16.091669, "lat": 46.658058}}, {"id": 3189120, "name": "Tisno", "state": "", "country": "HR", "coord": {"lon": 15.64333, "lat": 43.804169}}, {"id": 3189143, "name": "Tesli\u0107", "state": "", "country": "BA", "coord": {"lon": 17.85972, "lat": 44.606392}}, {"id": 3189146, "name": "Te\u0161anj", "state": "", "country": "BA", "coord": {"lon": 17.987221, "lat": 44.611671}}, {"id": 3189161, "name": "Tenja", "state": "", "country": "HR", "coord": {"lon": 18.747219, "lat": 45.498058}}, {"id": 3189163, "name": "Temnica", "state": "", "country": "SI", "coord": {"lon": 13.6775, "lat": 45.846668}}, {"id": 3189166, "name": "Temerin", "state": "", "country": "RS", "coord": {"lon": 19.88917, "lat": 45.408611}}, {"id": 3189185, "name": "Tavankut", "state": "", "country": "RS", "coord": {"lon": 19.48333, "lat": 46.033329}}, {"id": 3189227, "name": "Tabor", "state": "", "country": "SI", "coord": {"lon": 15.01833, "lat": 46.236111}}, {"id": 3189229, "name": "Tabanovi\u0107", "state": "", "country": "RS", "coord": {"lon": 19.64139, "lat": 44.81361}}, {"id": 3189236, "name": "Svodna", "state": "", "country": "BA", "coord": {"lon": 16.53833, "lat": 45.03722}}, {"id": 3189363, "name": "Sveti\u0107evo", "state": "", "country": "RS", "coord": {"lon": 19.85556, "lat": 45.80278}}, {"id": 3189403, "name": "Sv. Ana v Slov. Goricah", "state": "", "country": "SI", "coord": {"lon": 15.84417, "lat": 46.64917}}, {"id": 3189429, "name": "Sutomore", "state": "", "country": "ME", "coord": {"lon": 19.046671, "lat": 42.14278}}, {"id": 3189489, "name": "Supetarska Draga", "state": "", "country": "HR", "coord": {"lon": 14.72472, "lat": 44.797501}}, {"id": 3189492, "name": "Supetar", "state": "", "country": "HR", "coord": {"lon": 16.550831, "lat": 43.384171}}, {"id": 3189498, "name": "Sunja", "state": "", "country": "HR", "coord": {"lon": 16.56694, "lat": 45.365002}}, {"id": 3189513, "name": "\u0160umatac", "state": "", "country": "BA", "coord": {"lon": 15.8575, "lat": 45.098888}}, {"id": 3189543, "name": "Suhopolje", "state": "", "country": "HR", "coord": {"lon": 17.49917, "lat": 45.799721}}, {"id": 3189595, "name": "Subotica", "state": "", "country": "RS", "coord": {"lon": 19.66667, "lat": 46.099998}}, {"id": 3189602, "name": "\u0160turli\u0107", "state": "", "country": "BA", "coord": {"lon": 15.77806, "lat": 45.063889}}, {"id": 3189606, "name": "Stupno", "state": "", "country": "HR", "coord": {"lon": 16.316669, "lat": 45.51667}}, {"id": 3189621, "name": "Stupari", "state": "", "country": "BA", "coord": {"lon": 18.68417, "lat": 44.31472}}, {"id": 3189713, "name": "Strmec", "state": "", "country": "HR", "coord": {"lon": 15.91667, "lat": 45.700001}}, {"id": 3189718, "name": "Strizivojna", "state": "", "country": "HR", "coord": {"lon": 18.423889, "lat": 45.226109}}, {"id": 3189782, "name": "Strahoninec", "state": "", "country": "HR", "coord": {"lon": 16.415001, "lat": 46.368889}}, {"id": 3189798, "name": "\u0160tore", "state": "", "country": "SI", "coord": {"lon": 15.31389, "lat": 46.220829}}, {"id": 3189810, "name": "Ston", "state": "", "country": "HR", "coord": {"lon": 17.69639, "lat": 42.838612}}, {"id": 3189823, "name": "Stolac", "state": "", "country": "BA", "coord": {"lon": 17.9575, "lat": 43.084438}}, {"id": 3189844, "name": "Stobre\u010d", "state": "", "country": "HR", "coord": {"lon": 16.522221, "lat": 43.502499}}, {"id": 3189848, "name": "Stjepan-Polje", "state": "", "country": "BA", "coord": {"lon": 18.259439, "lat": 44.71722}}, {"id": 3189858, "name": "\u0160titar", "state": "", "country": "HR", "coord": {"lon": 18.64028, "lat": 45.095558}}, {"id": 3189859, "name": "\u0160titar", "state": "", "country": "RS", "coord": {"lon": 19.592779, "lat": 44.791389}}, {"id": 3189884, "name": "Stijena", "state": "", "country": "BA", "coord": {"lon": 16.01722, "lat": 44.93528}}, {"id": 3189891, "name": "Stepanovi\u0107evo", "state": "", "country": "RS", "coord": {"lon": 19.69833, "lat": 45.413891}}, {"id": 3189893, "name": "Stejanovci", "state": "", "country": "RS", "coord": {"lon": 19.72333, "lat": 45.056671}}, {"id": 3189917, "name": "Star\u0161e", "state": "", "country": "SI", "coord": {"lon": 15.76722, "lat": 46.465832}}, {"id": 3189964, "name": "Starigrad", "state": "", "country": "HR", "coord": {"lon": 15.44306, "lat": 44.29306}}, {"id": 3189965, "name": "Stari Grad", "state": "", "country": "HR", "coord": {"lon": 16.59528, "lat": 43.184719}}, {"id": 3189979, "name": "Stari Bar", "state": "", "country": "ME", "coord": {"lon": 19.13306, "lat": 42.09}}, {"id": 3189989, "name": "Stara Vrhnika", "state": "", "country": "SI", "coord": {"lon": 14.28111, "lat": 45.974171}}, {"id": 3190005, "name": "Stara Moravica", "state": "", "country": "RS", "coord": {"lon": 19.46611, "lat": 45.868889}}, {"id": 3190042, "name": "Stani\u0161i\u0107", "state": "", "country": "RS", "coord": {"lon": 19.165279, "lat": 45.939999}}, {"id": 3190077, "name": "Nova Kapela", "state": "", "country": "HR", "coord": {"lon": 16.57972, "lat": 45.884441}}, {"id": 3190088, "name": "Srinjine", "state": "", "country": "HR", "coord": {"lon": 16.6, "lat": 43.48333}}, {"id": 3190101, "name": "Sremski Karlovci", "state": "", "country": "RS", "coord": {"lon": 19.934441, "lat": 45.202499}}, {"id": 3190103, "name": "Sremska Mitrovica", "state": "", "country": "RS", "coord": {"lon": 19.612221, "lat": 44.976391}}, {"id": 3190136, "name": "Srednja Vas", "state": "", "country": "SI", "coord": {"lon": 15.10861, "lat": 45.664169}}, {"id": 3190150, "name": "Sredi\u0161\u010de ob Dravi", "state": "", "country": "SI", "coord": {"lon": 16.268061, "lat": 46.394169}}, {"id": 3190158, "name": "Srebrenik", "state": "", "country": "BA", "coord": {"lon": 18.48806, "lat": 44.707779}}, {"id": 3190159, "name": "Srebrenica", "state": "", "country": "BA", "coord": {"lon": 19.29694, "lat": 44.106392}}, {"id": 3190169, "name": "Srbobran", "state": "", "country": "RS", "coord": {"lon": 19.80278, "lat": 45.55389}}, {"id": 3190172, "name": "Srbac", "state": "", "country": "BA", "coord": {"lon": 17.525, "lat": 45.097778}}, {"id": 3190176, "name": "Sra\u010dinec", "state": "", "country": "HR", "coord": {"lon": 16.278891, "lat": 46.329441}}, {"id": 3190178, "name": "Spu\u017e", "state": "", "country": "ME", "coord": {"lon": 19.19417, "lat": 42.5075}}, {"id": 3190199, "name": "Spodnji Duplek", "state": "", "country": "SI", "coord": {"lon": 15.74528, "lat": 46.503059}}, {"id": 3190219, "name": "Spodnje Ho\u010de", "state": "", "country": "SI", "coord": {"lon": 15.65, "lat": 46.5}}, {"id": 3190247, "name": "Spodnja Idrija", "state": "", "country": "SI", "coord": {"lon": 14.02722, "lat": 46.03194}}, {"id": 3190249, "name": "Spodnja Hajdina", "state": "", "country": "SI", "coord": {"lon": 15.84694, "lat": 46.40889}}, {"id": 3190253, "name": "Spodnja Besnica", "state": "", "country": "SI", "coord": {"lon": 14.31667, "lat": 46.26667}}, {"id": 3190261, "name": "Split", "state": "", "country": "HR", "coord": {"lon": 16.43915, "lat": 43.508911}}, {"id": 3190264, "name": "\u0160pi\u0161i\u0107-Bukovica", "state": "", "country": "HR", "coord": {"lon": 17.29944, "lat": 45.85722}}, {"id": 3190310, "name": "Sostro", "state": "", "country": "SI", "coord": {"lon": 14.61667, "lat": 46.049999}}, {"id": 3190311, "name": "\u0160o\u0161tanj", "state": "", "country": "SI", "coord": {"lon": 15.04861, "lat": 46.380001}}, {"id": 3190327, "name": "Sopot", "state": "", "country": "BA", "coord": {"lon": 18.255831, "lat": 43.51083}}, {"id": 3190335, "name": "Sonta", "state": "", "country": "RS", "coord": {"lon": 19.098061, "lat": 45.594719}}, {"id": 3190342, "name": "Sombor", "state": "", "country": "RS", "coord": {"lon": 19.112221, "lat": 45.77417}}, {"id": 3190347, "name": "Soljani", "state": "", "country": "HR", "coord": {"lon": 18.97028, "lat": 44.950279}}, {"id": 3190357, "name": "Solina", "state": "", "country": "BA", "coord": {"lon": 18.694719, "lat": 44.56028}}, {"id": 3190359, "name": "Solin", "state": "", "country": "HR", "coord": {"lon": 16.5, "lat": 43.549999}}, {"id": 3190360, "name": "Sol\u010dava", "state": "", "country": "SI", "coord": {"lon": 14.69361, "lat": 46.419441}}, {"id": 3190385, "name": "Sokolac", "state": "", "country": "BA", "coord": {"lon": 18.80167, "lat": 43.93972}}, {"id": 3190391, "name": "Sodra\u017eica", "state": "", "country": "SI", "coord": {"lon": 14.63556, "lat": 45.761108}}, {"id": 3190465, "name": "Smokvica", "state": "", "country": "HR", "coord": {"lon": 16.896391, "lat": 42.930561}}, {"id": 3190495, "name": "\u0160martno pri Litiji", "state": "", "country": "SI", "coord": {"lon": 14.84417, "lat": 46.044441}}, {"id": 3190498, "name": "\u0160martno ob Paki", "state": "", "country": "SI", "coord": {"lon": 15.03333, "lat": 46.333328}}, {"id": 3190510, "name": "\u0160marje pri Jel\u0161ah", "state": "", "country": "SI", "coord": {"lon": 15.51917, "lat": 46.227219}}, {"id": 3190516, "name": "\u0160marca", "state": "", "country": "SI", "coord": {"lon": 14.59667, "lat": 46.193329}}, {"id": 3190523, "name": "Slunj", "state": "", "country": "HR", "coord": {"lon": 15.58944, "lat": 45.110828}}, {"id": 3190529, "name": "Slovenske Konjice", "state": "", "country": "SI", "coord": {"lon": 15.45556, "lat": 46.325001}}, {"id": 3190530, "name": "Slovenske Konjice", "state": "", "country": "SI", "coord": {"lon": 15.42583, "lat": 46.33667}}, {"id": 3190534, "name": "Slovenska Bistrica", "state": "", "country": "SI", "coord": {"lon": 15.57444, "lat": 46.39278}}, {"id": 3190535, "name": "Slovenj Gradec", "state": "", "country": "SI", "coord": {"lon": 15.08361, "lat": 46.488609}}, {"id": 3190536, "name": "Slovenj Gradec", "state": "", "country": "SI", "coord": {"lon": 15.08056, "lat": 46.510281}}, {"id": 3190538, "name": "Republic of Slovenia", "state": "", "country": "SI", "coord": {"lon": 15.16667, "lat": 46.25}}, {"id": 3190544, "name": "Slobodnica", "state": "", "country": "HR", "coord": {"lon": 17.932779, "lat": 45.16222}}, {"id": 3190586, "name": "Slavonski Brod", "state": "", "country": "HR", "coord": {"lon": 18.01556, "lat": 45.160278}}, {"id": 3190589, "name": "Po\u017eega", "state": "", "country": "HR", "coord": {"lon": 17.68528, "lat": 45.340279}}, {"id": 3190650, "name": "Slakovci", "state": "", "country": "HR", "coord": {"lon": 18.950279, "lat": 45.22472}}, {"id": 3190652, "name": "Sladna", "state": "", "country": "BA", "coord": {"lon": 18.42417, "lat": 44.729439}}, {"id": 3190672, "name": "\u0160krljevo", "state": "", "country": "HR", "coord": {"lon": 14.51833, "lat": 45.330002}}, {"id": 3190694, "name": "Skrad", "state": "", "country": "HR", "coord": {"lon": 14.91111, "lat": 45.42778}}, {"id": 3190710, "name": "Skoke", "state": "", "country": "SI", "coord": {"lon": 15.68333, "lat": 46.48333}}, {"id": 3190712, "name": "\u0160kofljica", "state": "", "country": "SI", "coord": {"lon": 14.57667, "lat": 45.98333}}, {"id": 3190716, "name": "Ob\u010dina \u0160kofja Loka", "state": "", "country": "SI", "coord": {"lon": 14.28167, "lat": 46.163059}}, {"id": 3190717, "name": "\u0160kofja Loka", "state": "", "country": "SI", "coord": {"lon": 14.30626, "lat": 46.165508}}, {"id": 3190722, "name": "\u0160kocjan", "state": "", "country": "SI", "coord": {"lon": 15.29139, "lat": 45.90667}}, {"id": 3190733, "name": "Kne\u017eevo", "state": "", "country": "BA", "coord": {"lon": 17.377501, "lat": 44.490829}}, {"id": 3190776, "name": "Sjenica", "state": "", "country": "RS", "coord": {"lon": 19.999439, "lat": 43.27306}}, {"id": 3190813, "name": "Sisak", "state": "", "country": "HR", "coord": {"lon": 16.37833, "lat": 45.46611}}, {"id": 3190835, "name": "Sira\u010d", "state": "", "country": "HR", "coord": {"lon": 17.254999, "lat": 45.523331}}, {"id": 3190837, "name": "\u0160ipovo", "state": "", "country": "BA", "coord": {"lon": 17.083891, "lat": 44.281391}}, {"id": 3190855, "name": "Sino\u0161evi\u0107", "state": "", "country": "RS", "coord": {"lon": 19.63917, "lat": 44.615559}}, {"id": 3190865, "name": "Sinj", "state": "", "country": "HR", "coord": {"lon": 16.639441, "lat": 43.703609}}, {"id": 3190906, "name": "Sikirevci", "state": "", "country": "HR", "coord": {"lon": 18.464439, "lat": 45.108891}}, {"id": 3190918, "name": "Sigetec", "state": "", "country": "HR", "coord": {"lon": 16.935829, "lat": 46.188332}}, {"id": 3190922, "name": "\u0160id", "state": "", "country": "RS", "coord": {"lon": 19.226391, "lat": 45.12833}}, {"id": 3190934, "name": "Sibinj", "state": "", "country": "HR", "coord": {"lon": 17.90806, "lat": 45.191669}}, {"id": 3190941, "name": "\u0160ibenik", "state": "", "country": "HR", "coord": {"lon": 15.90583, "lat": 43.727219}}, {"id": 3190944, "name": "Ob\u010dina Se\u017eana", "state": "", "country": "SI", "coord": {"lon": 13.88639, "lat": 45.734718}}, {"id": 3190945, "name": "Se\u017eana", "state": "", "country": "SI", "coord": {"lon": 13.87333, "lat": 45.70924}}, {"id": 3190947, "name": "Sevojno", "state": "", "country": "RS", "coord": {"lon": 19.898609, "lat": 43.845001}}, {"id": 3190950, "name": "Sevnica", "state": "", "country": "SI", "coord": {"lon": 15.31556, "lat": 46.007778}}, {"id": 3190958, "name": "\u0160evarice", "state": "", "country": "RS", "coord": {"lon": 19.65917, "lat": 44.867222}}, {"id": 3190966, "name": "Sesvete", "state": "", "country": "HR", "coord": {"lon": 16.11639, "lat": 45.831108}}, {"id": 3190987, "name": "\u0160eri\u0107i", "state": "", "country": "BA", "coord": {"lon": 18.55806, "lat": 44.465279}}, {"id": 3191024, "name": "\u0160entrupert", "state": "", "country": "SI", "coord": {"lon": 15.09556, "lat": 45.977779}}, {"id": 3191029, "name": "\u0160entjur", "state": "", "country": "SI", "coord": {"lon": 15.3975, "lat": 46.21722}}, {"id": 3191033, "name": "\u0160entjernej", "state": "", "country": "SI", "coord": {"lon": 15.33611, "lat": 45.84}}, {"id": 3191039, "name": "\u0160entilj v Slov. Goricah", "state": "", "country": "SI", "coord": {"lon": 15.64806, "lat": 46.681671}}, {"id": 3191044, "name": "Senovo", "state": "", "country": "SI", "coord": {"lon": 15.47694, "lat": 46.023609}}, {"id": 3191048, "name": "\u0160enkovec", "state": "", "country": "HR", "coord": {"lon": 16.421671, "lat": 46.40889}}, {"id": 3191055, "name": "Senj", "state": "", "country": "HR", "coord": {"lon": 14.90583, "lat": 44.989441}}, {"id": 3191059, "name": "\u0160en\u010dur", "state": "", "country": "SI", "coord": {"lon": 14.41972, "lat": 46.24556}}, {"id": 3191060, "name": "Tre\u0161njevac", "state": "", "country": "RS", "coord": {"lon": 19.986111, "lat": 45.979439}}, {"id": 3191062, "name": "\u0160empeter v Savinj. Dolini", "state": "", "country": "SI", "coord": {"lon": 15.12194, "lat": 46.25639}}, {"id": 3191063, "name": "\u0160empeter pri Gorici", "state": "", "country": "SI", "coord": {"lon": 13.64111, "lat": 45.927502}}, {"id": 3191064, "name": "\u0160empas", "state": "", "country": "SI", "coord": {"lon": 13.74361, "lat": 45.930279}}, {"id": 3191072, "name": "Semi\u010d", "state": "", "country": "SI", "coord": {"lon": 15.18222, "lat": 45.646111}}, {"id": 3191075, "name": "Semeljci", "state": "", "country": "HR", "coord": {"lon": 18.54361, "lat": 45.360561}}, {"id": 3191097, "name": "Selnica", "state": "", "country": "HR", "coord": {"lon": 16.039169, "lat": 46.023331}}, {"id": 3191124, "name": "Selen\u010da", "state": "", "country": "RS", "coord": {"lon": 19.29833, "lat": 45.409168}}, {"id": 3191130, "name": "Selce", "state": "", "country": "HR", "coord": {"lon": 14.72111, "lat": 45.156391}}, {"id": 3191156, "name": "\u0160ekovi\u0107i", "state": "", "country": "BA", "coord": {"lon": 18.852779, "lat": 44.298611}}, {"id": 3191184, "name": "Se\u010dovlje", "state": "", "country": "SI", "coord": {"lon": 13.62333, "lat": 45.476669}}, {"id": 3191256, "name": "\u0160a\u0161inci", "state": "", "country": "RS", "coord": {"lon": 19.742781, "lat": 44.97028}}, {"id": 3191265, "name": "Sarva\u0161", "state": "", "country": "HR", "coord": {"lon": 18.8375, "lat": 45.527222}}, {"id": 3191281, "name": "Sarajevo", "state": "", "country": "BA", "coord": {"lon": 18.35644, "lat": 43.84864}}, {"id": 3191297, "name": "Sanski Most", "state": "", "country": "BA", "coord": {"lon": 16.66556, "lat": 44.765282}}, {"id": 3191302, "name": "Sanica", "state": "", "country": "BA", "coord": {"lon": 16.641109, "lat": 44.61417}}, {"id": 3191316, "name": "Samobor", "state": "", "country": "HR", "coord": {"lon": 15.71806, "lat": 45.803059}}, {"id": 3191329, "name": "\u0160alovci", "state": "", "country": "SI", "coord": {"lon": 16.298059, "lat": 46.825001}}, {"id": 3191335, "name": "Sali", "state": "", "country": "HR", "coord": {"lon": 15.16333, "lat": 43.93972}}, {"id": 3191339, "name": "Sala\u0161 No\u0107ajski", "state": "", "country": "RS", "coord": {"lon": 19.586109, "lat": 44.94722}}, {"id": 3191340, "name": "Sala\u0161 Crnobarski", "state": "", "country": "RS", "coord": {"lon": 19.39222, "lat": 44.826111}}, {"id": 3191376, "name": "\u0160abac", "state": "", "country": "RS", "coord": {"lon": 19.690001, "lat": 44.74667}}, {"id": 3191397, "name": "Ruski Krstur", "state": "", "country": "RS", "coord": {"lon": 19.415831, "lat": 45.562778}}, {"id": 3191401, "name": "Ru\u0161e", "state": "", "country": "SI", "coord": {"lon": 15.51583, "lat": 46.53944}}, {"id": 3191411, "name": "Runovi\u0107", "state": "", "country": "HR", "coord": {"lon": 17.23667, "lat": 43.376671}}, {"id": 3191425, "name": "Rumenka", "state": "", "country": "RS", "coord": {"lon": 19.743891, "lat": 45.29306}}, {"id": 3191426, "name": "Rumboci", "state": "", "country": "BA", "coord": {"lon": 17.50111, "lat": 43.832218}}, {"id": 3191429, "name": "Ruma", "state": "", "country": "RS", "coord": {"lon": 19.82222, "lat": 45.00806}}, {"id": 3191449, "name": "Rudo", "state": "", "country": "BA", "coord": {"lon": 19.36639, "lat": 43.617779}}, {"id": 3191470, "name": "Rude", "state": "", "country": "HR", "coord": {"lon": 15.66667, "lat": 45.76667}}, {"id": 3191490, "name": "Rube\u0161i", "state": "", "country": "HR", "coord": {"lon": 14.34806, "lat": 45.36694}}, {"id": 3191514, "name": "Rovi\u0161\u0107e", "state": "", "country": "HR", "coord": {"lon": 16.735001, "lat": 45.944721}}, {"id": 3191518, "name": "Rovinj", "state": "", "country": "HR", "coord": {"lon": 13.64, "lat": 45.080002}}, {"id": 3191553, "name": "Rokovci", "state": "", "country": "HR", "coord": {"lon": 18.743891, "lat": 45.23111}}, {"id": 3191561, "name": "Rogoznica", "state": "", "country": "HR", "coord": {"lon": 15.97, "lat": 43.524719}}, {"id": 3191563, "name": "Rogoza", "state": "", "country": "SI", "coord": {"lon": 15.68333, "lat": 46.5}}, {"id": 3191576, "name": "Rogatica", "state": "", "country": "BA", "coord": {"lon": 19.002501, "lat": 43.800831}}, {"id": 3191578, "name": "Rogatec", "state": "", "country": "SI", "coord": {"lon": 15.70028, "lat": 46.229439}}, {"id": 3191579, "name": "Roga\u0161ovci", "state": "", "country": "SI", "coord": {"lon": 16.033331, "lat": 46.799999}}, {"id": 3191580, "name": "Roga\u0161ka Slatina", "state": "", "country": "SI", "coord": {"lon": 15.63972, "lat": 46.237499}}, {"id": 3191589, "name": "Rodo\u010d", "state": "", "country": "BA", "coord": {"lon": 17.80694, "lat": 43.308891}}, {"id": 3191592, "name": "Rodine", "state": "", "country": "SI", "coord": {"lon": 14.18333, "lat": 46.383331}}, {"id": 3191598, "name": "Ro\u010dinj", "state": "", "country": "SI", "coord": {"lon": 13.67, "lat": 46.112782}}, {"id": 3191612, "name": "Rjav\u010de", "state": "", "country": "SI", "coord": {"lon": 14.1, "lat": 45.589722}}, {"id": 3191631, "name": "Risan", "state": "", "country": "ME", "coord": {"lon": 18.69556, "lat": 42.514999}}, {"id": 3191648, "name": "Rijeka", "state": "", "country": "HR", "coord": {"lon": 14.40917, "lat": 45.34306}}, {"id": 3191660, "name": "Ri\u0111ica", "state": "", "country": "RS", "coord": {"lon": 19.105, "lat": 45.986389}}, {"id": 3191678, "name": "Ribnica na Pohorju", "state": "", "country": "SI", "coord": {"lon": 15.27278, "lat": 46.535}}, {"id": 3191685, "name": "Ribnica", "state": "", "country": "SI", "coord": {"lon": 14.7275, "lat": 45.738609}}, {"id": 3191699, "name": "Ribari", "state": "", "country": "RS", "coord": {"lon": 19.423889, "lat": 44.709999}}, {"id": 3191701, "name": "Rezovac", "state": "", "country": "HR", "coord": {"lon": 17.41667, "lat": 45.783329}}, {"id": 3191704, "name": "Retkovci", "state": "", "country": "HR", "coord": {"lon": 18.653061, "lat": 45.23333}}, {"id": 3191720, "name": "Re\u0161etari", "state": "", "country": "HR", "coord": {"lon": 17.46306, "lat": 45.25639}}, {"id": 3191723, "name": "Repu\u0161nica", "state": "", "country": "HR", "coord": {"lon": 16.730829, "lat": 45.492779}}, {"id": 3191737, "name": "Ren\u010de", "state": "", "country": "SI", "coord": {"lon": 13.66861, "lat": 45.889999}}, {"id": 3191742, "name": "Remetinec", "state": "", "country": "HR", "coord": {"lon": 16.32778, "lat": 46.18528}}, {"id": 3191749, "name": "Reka", "state": "", "country": "HR", "coord": {"lon": 16.766939, "lat": 46.13028}}, {"id": 3191756, "name": "Re\u010dica ob Savinji", "state": "", "country": "SI", "coord": {"lon": 14.91667, "lat": 46.316669}}, {"id": 3191774, "name": "Razvanje", "state": "", "country": "SI", "coord": {"lon": 15.63611, "lat": 46.514439}}, {"id": 3191800, "name": "Ra\u017eanac", "state": "", "country": "HR", "coord": {"lon": 15.34806, "lat": 44.28194}}, {"id": 3191802, "name": "Ravno Selo", "state": "", "country": "RS", "coord": {"lon": 19.619169, "lat": 45.450279}}, {"id": 3191806, "name": "Ravni", "state": "", "country": "SI", "coord": {"lon": 15.4, "lat": 45.950001}}, {"id": 3191810, "name": "Ravnje", "state": "", "country": "RS", "coord": {"lon": 19.421671, "lat": 44.943611}}, {"id": 3191839, "name": "Ravne na Koro\u0161kem", "state": "", "country": "SI", "coord": {"lon": 14.96917, "lat": 46.54306}}, {"id": 3191844, "name": "Ravne", "state": "", "country": "SI", "coord": {"lon": 15.04222, "lat": 46.39167}}, {"id": 3191845, "name": "Ravne", "state": "", "country": "SI", "coord": {"lon": 15.01278, "lat": 45.962502}}, {"id": 3191877, "name": "Ratkovo", "state": "", "country": "RS", "coord": {"lon": 19.3325, "lat": 45.454441}}, {"id": 3191963, "name": "Ra\u0161a", "state": "", "country": "HR", "coord": {"lon": 14.07889, "lat": 45.08028}}, {"id": 3192016, "name": "Rakitje", "state": "", "country": "HR", "coord": {"lon": 15.82222, "lat": 45.793892}}, {"id": 3192019, "name": "Raki\u010dan", "state": "", "country": "SI", "coord": {"lon": 16.20417, "lat": 46.651669}}, {"id": 3192021, "name": "Rakek", "state": "", "country": "SI", "coord": {"lon": 14.31111, "lat": 45.813332}}, {"id": 3192062, "name": "Radovljica", "state": "", "country": "SI", "coord": {"lon": 14.19417, "lat": 46.33778}}, {"id": 3192063, "name": "Radovljica", "state": "", "country": "SI", "coord": {"lon": 14.17444, "lat": 46.34444}}, {"id": 3192098, "name": "Radomlje", "state": "", "country": "SI", "coord": {"lon": 14.61222, "lat": 46.173611}}, {"id": 3192111, "name": "Radoboj", "state": "", "country": "HR", "coord": {"lon": 15.92361, "lat": 46.166389}}, {"id": 3192121, "name": "Radlje ob Dravi", "state": "", "country": "SI", "coord": {"lon": 15.22639, "lat": 46.61417}}, {"id": 3192123, "name": "Radi\u0161i\u0107i", "state": "", "country": "BA", "coord": {"lon": 17.54306, "lat": 43.221939}}, {"id": 3192138, "name": "Radenkovi\u0107", "state": "", "country": "RS", "coord": {"lon": 19.49333, "lat": 44.924438}}, {"id": 3192139, "name": "Radenci", "state": "", "country": "SI", "coord": {"lon": 16.037809, "lat": 46.64201}}, {"id": 3192144, "name": "Rade\u010de", "state": "", "country": "SI", "coord": {"lon": 15.18389, "lat": 46.068062}}, {"id": 3192165, "name": "Ra\u010de", "state": "", "country": "SI", "coord": {"lon": 15.68139, "lat": 46.451939}}, {"id": 3192174, "name": "Rabac", "state": "", "country": "HR", "coord": {"lon": 14.1575, "lat": 45.079441}}, {"id": 3192185, "name": "Putinci", "state": "", "country": "RS", "coord": {"lon": 19.971939, "lat": 44.99194}}, {"id": 3192206, "name": "Pura\u010di\u0107", "state": "", "country": "BA", "coord": {"lon": 18.476669, "lat": 44.54694}}, {"id": 3192219, "name": "Punat", "state": "", "country": "HR", "coord": {"lon": 14.62889, "lat": 45.014721}}, {"id": 3192224, "name": "Pula", "state": "", "country": "HR", "coord": {"lon": 13.84806, "lat": 44.868328}}, {"id": 3192230, "name": "Puconci", "state": "", "country": "SI", "coord": {"lon": 16.156389, "lat": 46.706669}}, {"id": 3192236, "name": "Novi Travnik", "state": "", "country": "BA", "coord": {"lon": 17.657499, "lat": 44.171108}}, {"id": 3192240, "name": "Ptuj", "state": "", "country": "SI", "coord": {"lon": 15.87667, "lat": 46.43417}}, {"id": 3192241, "name": "Ptuj", "state": "", "country": "SI", "coord": {"lon": 15.87018, "lat": 46.420052}}, {"id": 3192262, "name": "Prva\u010dina", "state": "", "country": "SI", "coord": {"lon": 13.71806, "lat": 45.889999}}, {"id": 3192279, "name": "Prozor", "state": "", "country": "BA", "coord": {"lon": 17.609171, "lat": 43.82222}}, {"id": 3192327, "name": "Prnjavor", "state": "", "country": "BA", "coord": {"lon": 17.662781, "lat": 44.870281}}, {"id": 3192328, "name": "Prnjavor", "state": "", "country": "RS", "coord": {"lon": 19.388611, "lat": 44.698891}}, {"id": 3192345, "name": "Privlaka", "state": "", "country": "HR", "coord": {"lon": 18.8375, "lat": 45.194721}}, {"id": 3192383, "name": "Primo\u0161ten", "state": "", "country": "HR", "coord": {"lon": 15.92722, "lat": 43.586941}}, {"id": 3192393, "name": "Priles", "state": "", "country": "HR", "coord": {"lon": 16.603609, "lat": 46.277779}}, {"id": 3192404, "name": "Prijepolje", "state": "", "country": "RS", "coord": {"lon": 19.64056, "lat": 43.371941}}, {"id": 3192409, "name": "Prijedor", "state": "", "country": "BA", "coord": {"lon": 16.71306, "lat": 44.981392}}, {"id": 3192420, "name": "Prigrevica", "state": "", "country": "RS", "coord": {"lon": 19.08667, "lat": 45.678612}}, {"id": 3192438, "name": "Pridraga", "state": "", "country": "HR", "coord": {"lon": 15.56667, "lat": 44.166672}}, {"id": 3192449, "name": "Priboj", "state": "", "country": "BA", "coord": {"lon": 18.931391, "lat": 44.602779}}, {"id": 3192450, "name": "Priboj", "state": "", "country": "RS", "coord": {"lon": 19.525829, "lat": 43.583611}}, {"id": 3192452, "name": "Pribislavec", "state": "", "country": "HR", "coord": {"lon": 16.4825, "lat": 46.392502}}, {"id": 3192456, "name": "Pribini\u0107", "state": "", "country": "BA", "coord": {"lon": 17.690559, "lat": 44.610561}}, {"id": 3192484, "name": "Prevalje", "state": "", "country": "SI", "coord": {"lon": 14.92083, "lat": 46.54694}}, {"id": 3192532, "name": "Prelog", "state": "", "country": "HR", "coord": {"lon": 16.615561, "lat": 46.334999}}, {"id": 3192541, "name": "Osljak", "state": "", "country": "HR", "coord": {"lon": 15.2, "lat": 44.083328}}, {"id": 3192545, "name": "Pregrada", "state": "", "country": "HR", "coord": {"lon": 15.75083, "lat": 46.164169}}, {"id": 3192560, "name": "Preddvor", "state": "", "country": "SI", "coord": {"lon": 14.42306, "lat": 46.302502}}, {"id": 3192563, "name": "Predavac", "state": "", "country": "HR", "coord": {"lon": 16.783331, "lat": 45.935829}}, {"id": 3192570, "name": "Prebold", "state": "", "country": "SI", "coord": {"lon": 15.0925, "lat": 46.236938}}, {"id": 3192603, "name": "Pragersko", "state": "", "country": "SI", "coord": {"lon": 15.66, "lat": 46.396671}}, {"id": 3192653, "name": "Potoci", "state": "", "country": "BA", "coord": {"lon": 17.878611, "lat": 43.408611}}, {"id": 3192672, "name": "Postojna", "state": "", "country": "SI", "coord": {"lon": 14.17083, "lat": 45.785561}}, {"id": 3192673, "name": "Postojna", "state": "", "country": "SI", "coord": {"lon": 14.21667, "lat": 45.776939}}, {"id": 3192674, "name": "Postira", "state": "", "country": "HR", "coord": {"lon": 16.632219, "lat": 43.376389}}, {"id": 3192679, "name": "Posedarje", "state": "", "country": "HR", "coord": {"lon": 15.47667, "lat": 44.213612}}, {"id": 3192682, "name": "Portoro\u017e", "state": "", "country": "SI", "coord": {"lon": 13.59206, "lat": 45.51429}}, {"id": 3192699, "name": "Pore\u010d", "state": "", "country": "HR", "coord": {"lon": 13.59389, "lat": 45.22583}}, {"id": 3192718, "name": "Popovi", "state": "", "country": "BA", "coord": {"lon": 19.2875, "lat": 44.76556}}, {"id": 3192762, "name": "Polzela", "state": "", "country": "SI", "coord": {"lon": 15.06667, "lat": 46.283329}}, {"id": 3192793, "name": "Polje-Bijela", "state": "", "country": "BA", "coord": {"lon": 17.972219, "lat": 43.633331}}, {"id": 3192802, "name": "Polj\u010dane", "state": "", "country": "SI", "coord": {"lon": 15.57917, "lat": 46.311939}}, {"id": 3192830, "name": "Poli\u010dnik", "state": "", "country": "HR", "coord": {"lon": 15.37556, "lat": 44.178059}}, {"id": 3192848, "name": "Pola\u010da", "state": "", "country": "HR", "coord": {"lon": 15.5175, "lat": 44.01833}}, {"id": 3192850, "name": "Pokupsko", "state": "", "country": "HR", "coord": {"lon": 15.99333, "lat": 45.487221}}, {"id": 3192865, "name": "Pojatno", "state": "", "country": "HR", "coord": {"lon": 15.80056, "lat": 45.904999}}, {"id": 3192878, "name": "Podzvizd", "state": "", "country": "BA", "coord": {"lon": 15.87361, "lat": 45.174171}}, {"id": 3192892, "name": "Podvinje", "state": "", "country": "HR", "coord": {"lon": 18.026939, "lat": 45.190281}}, {"id": 3192899, "name": "Podvelka", "state": "", "country": "SI", "coord": {"lon": 15.33056, "lat": 46.586941}}, {"id": 3192904, "name": "Podturen", "state": "", "country": "HR", "coord": {"lon": 16.54306, "lat": 46.464722}}, {"id": 3192910, "name": "Podstrana", "state": "", "country": "HR", "coord": {"lon": 16.58333, "lat": 43.48333}}, {"id": 3192932, "name": "Slatina", "state": "", "country": "HR", "coord": {"lon": 17.70278, "lat": 45.703331}}, {"id": 3192965, "name": "Podmolnik", "state": "", "country": "SI", "coord": {"lon": 14.6, "lat": 46.01667}}, {"id": 3192986, "name": "Podlehnik", "state": "", "country": "SI", "coord": {"lon": 15.88, "lat": 46.335281}}, {"id": 3193006, "name": "Podhum", "state": "", "country": "HR", "coord": {"lon": 14.47944, "lat": 45.387218}}, {"id": 3193008, "name": "Podhum", "state": "", "country": "BA", "coord": {"lon": 17.00111, "lat": 43.723061}}, {"id": 3193011, "name": "Podhom", "state": "", "country": "SI", "coord": {"lon": 14.1, "lat": 46.400002}}, {"id": 3193044, "name": "Podgorica", "state": "", "country": "ME", "coord": {"lon": 19.263611, "lat": 42.441109}}, {"id": 3193075, "name": "Pod\u010detrtek", "state": "", "country": "SI", "coord": {"lon": 15.59861, "lat": 46.15694}}, {"id": 3193148, "name": "Plo\u010de", "state": "", "country": "HR", "coord": {"lon": 18.12167, "lat": 42.64056}}, {"id": 3193160, "name": "Pljevlja", "state": "", "country": "ME", "coord": {"lon": 19.33333, "lat": 43.333328}}, {"id": 3193161, "name": "Pljevlja", "state": "", "country": "ME", "coord": {"lon": 19.358431, "lat": 43.356701}}, {"id": 3193171, "name": "Jezerce", "state": "", "country": "HR", "coord": {"lon": 15.62028, "lat": 44.8825}}, {"id": 3193187, "name": "Pleternica", "state": "", "country": "HR", "coord": {"lon": 17.806391, "lat": 45.288609}}, {"id": 3193211, "name": "Plemenita\u0161", "state": "", "country": "HR", "coord": {"lon": 15.08333, "lat": 45.466671}}, {"id": 3193228, "name": "Plav", "state": "", "country": "ME", "coord": {"lon": 19.94556, "lat": 42.596939}}, {"id": 3193230, "name": "Plati\u010devo", "state": "", "country": "RS", "coord": {"lon": 19.79528, "lat": 44.82111}}, {"id": 3193237, "name": "Pla\u0161ki", "state": "", "country": "HR", "coord": {"lon": 15.36806, "lat": 45.076389}}, {"id": 3193295, "name": "Pivnice", "state": "", "country": "RS", "coord": {"lon": 19.45528, "lat": 45.46944}}, {"id": 3193299, "name": "Pivka", "state": "", "country": "SI", "coord": {"lon": 14.19588, "lat": 45.682919}}, {"id": 3193305, "name": "Pitoma\u010da", "state": "", "country": "HR", "coord": {"lon": 17.229441, "lat": 45.950562}}, {"id": 3193314, "name": "Pi\u0161korevci", "state": "", "country": "HR", "coord": {"lon": 18.404169, "lat": 45.25528}}, {"id": 3193325, "name": "Pisarovina", "state": "", "country": "HR", "coord": {"lon": 15.85917, "lat": 45.586391}}, {"id": 3193331, "name": "Pirovac", "state": "", "country": "HR", "coord": {"lon": 15.67278, "lat": 43.819172}}, {"id": 3193340, "name": "Piran", "state": "", "country": "SI", "coord": {"lon": 13.62694, "lat": 45.48278}}, {"id": 3193341, "name": "Piran", "state": "", "country": "SI", "coord": {"lon": 13.57056, "lat": 45.527779}}, {"id": 3193406, "name": "Petrovaradin", "state": "", "country": "RS", "coord": {"lon": 19.87944, "lat": 45.24667}}, {"id": 3193413, "name": "Petrovac na Moru", "state": "", "country": "ME", "coord": {"lon": 18.942499, "lat": 42.205559}}, {"id": 3193420, "name": "Petrinja", "state": "", "country": "HR", "coord": {"lon": 16.290001, "lat": 45.4375}}, {"id": 3193424, "name": "Petrijevci", "state": "", "country": "HR", "coord": {"lon": 18.53528, "lat": 45.612782}}, {"id": 3193425, "name": "Petrijanec", "state": "", "country": "HR", "coord": {"lon": 16.225, "lat": 46.349171}}, {"id": 3193437, "name": "Petkovica", "state": "", "country": "RS", "coord": {"lon": 19.439171, "lat": 44.665562}}, {"id": 3193439, "name": "Petkovci", "state": "", "country": "BA", "coord": {"lon": 19.076111, "lat": 44.45306}}, {"id": 3193447, "name": "Peteranec", "state": "", "country": "HR", "coord": {"lon": 16.89167, "lat": 46.192219}}, {"id": 3193463, "name": "Pesnica pri Mariboru", "state": "", "country": "SI", "coord": {"lon": 15.67667, "lat": 46.606941}}, {"id": 3193521, "name": "Pekre", "state": "", "country": "SI", "coord": {"lon": 15.59556, "lat": 46.547218}}, {"id": 3193522, "name": "Peklenica", "state": "", "country": "HR", "coord": {"lon": 16.47611, "lat": 46.495281}}, {"id": 3193540, "name": "Pe\u0107inci", "state": "", "country": "RS", "coord": {"lon": 19.966391, "lat": 44.90889}}, {"id": 3193542, "name": "Pe\u0107igrad", "state": "", "country": "BA", "coord": {"lon": 15.89694, "lat": 45.05444}}, {"id": 3193545, "name": "Pe\u0107i", "state": "", "country": "BA", "coord": {"lon": 16.78611, "lat": 44.62722}}, {"id": 3193561, "name": "Pazin", "state": "", "country": "HR", "coord": {"lon": 13.93667, "lat": 45.24028}}, {"id": 3193563, "name": "Pazari\u0107", "state": "", "country": "BA", "coord": {"lon": 18.16083, "lat": 43.788609}}, {"id": 3193635, "name": "Parage", "state": "", "country": "RS", "coord": {"lon": 19.403061, "lat": 45.413891}}, {"id": 3193659, "name": "Pame\u010de", "state": "", "country": "SI", "coord": {"lon": 15.07917, "lat": 46.534168}}, {"id": 3193662, "name": "Palovec", "state": "", "country": "HR", "coord": {"lon": 16.547779, "lat": 46.388889}}, {"id": 3193692, "name": "Pale", "state": "", "country": "BA", "coord": {"lon": 18.569441, "lat": 43.816109}}, {"id": 3193706, "name": "Pakrac", "state": "", "country": "HR", "coord": {"lon": 17.18889, "lat": 45.43639}}, {"id": 3193710, "name": "Pako\u0161tane", "state": "", "country": "HR", "coord": {"lon": 15.50889, "lat": 43.91222}}, {"id": 3193726, "name": "Pag", "state": "", "country": "HR", "coord": {"lon": 15.0575, "lat": 44.445}}, {"id": 3193754, "name": "Ozalj", "state": "", "country": "HR", "coord": {"lon": 15.46194, "lat": 45.60667}}, {"id": 3193762, "name": "Ov\u010dara", "state": "", "country": "HR", "coord": {"lon": 18.567499, "lat": 45.506672}}, {"id": 3193776, "name": "Otoka", "state": "", "country": "BA", "coord": {"lon": 16.179171, "lat": 44.959999}}, {"id": 3193781, "name": "Otok", "state": "", "country": "HR", "coord": {"lon": 18.88389, "lat": 45.146671}}, {"id": 3193782, "name": "Otok", "state": "", "country": "HR", "coord": {"lon": 16.738331, "lat": 43.691391}}, {"id": 3193788, "name": "Oto\u010dac", "state": "", "country": "HR", "coord": {"lon": 15.2375, "lat": 44.869438}}, {"id": 3193821, "name": "Ostro\u017eac", "state": "", "country": "BA", "coord": {"lon": 15.94028, "lat": 44.908611}}, {"id": 3193855, "name": "O\u0161tra Luka", "state": "", "country": "BA", "coord": {"lon": 18.588329, "lat": 45}}, {"id": 3193871, "name": "O\u0161tarije", "state": "", "country": "HR", "coord": {"lon": 15.27333, "lat": 45.22472}}, {"id": 3193935, "name": "Osijek", "state": "", "country": "HR", "coord": {"lon": 18.69389, "lat": 45.551109}}, {"id": 3193941, "name": "Osekovo", "state": "", "country": "HR", "coord": {"lon": 16.616671, "lat": 45.516392}}, {"id": 3193944, "name": "Ose\u010dina", "state": "", "country": "RS", "coord": {"lon": 19.601391, "lat": 44.373058}}, {"id": 3193962, "name": "Oroslavje", "state": "", "country": "HR", "coord": {"lon": 15.91139, "lat": 46.002781}}, {"id": 3193965, "name": "Ormo\u017e", "state": "", "country": "SI", "coord": {"lon": 16.15444, "lat": 46.411388}}, {"id": 3194010, "name": "Oriovac", "state": "", "country": "HR", "coord": {"lon": 17.76, "lat": 45.166111}}, {"id": 3194013, "name": "Orguz", "state": "", "country": "BA", "coord": {"lon": 16.86389, "lat": 43.773891}}, {"id": 3194020, "name": "Orehovica", "state": "", "country": "HR", "coord": {"lon": 16.506941, "lat": 46.331669}}, {"id": 3194029, "name": "Orebi\u0107", "state": "", "country": "HR", "coord": {"lon": 17.174721, "lat": 42.985561}}, {"id": 3194035, "name": "Ora\u0161je", "state": "", "country": "BA", "coord": {"lon": 18.693331, "lat": 45.035561}}, {"id": 3194041, "name": "Ora\u0161ac", "state": "", "country": "BA", "coord": {"lon": 16.07111, "lat": 44.628891}}, {"id": 3194061, "name": "Orahovica Donja", "state": "", "country": "BA", "coord": {"lon": 18.370279, "lat": 44.653061}}, {"id": 3194064, "name": "Orahovica", "state": "", "country": "HR", "coord": {"lon": 17.88472, "lat": 45.540001}}, {"id": 3194075, "name": "Opuzen", "state": "", "country": "HR", "coord": {"lon": 17.565559, "lat": 43.015282}}, {"id": 3194078, "name": "Oprtalj", "state": "", "country": "HR", "coord": {"lon": 13.82611, "lat": 45.381672}}, {"id": 3194086, "name": "Oplotnica", "state": "", "country": "SI", "coord": {"lon": 15.44667, "lat": 46.387779}}, {"id": 3194099, "name": "Opatija", "state": "", "country": "HR", "coord": {"lon": 14.30833, "lat": 45.339169}}, {"id": 3194112, "name": "Omi\u0161alj", "state": "", "country": "HR", "coord": {"lon": 14.55639, "lat": 45.208889}}, {"id": 3194114, "name": "Omi\u0161", "state": "", "country": "HR", "coord": {"lon": 16.68861, "lat": 43.444721}}, {"id": 3194120, "name": "Omarska", "state": "", "country": "BA", "coord": {"lon": 16.89917, "lat": 44.889999}}, {"id": 3194133, "name": "Olovo", "state": "", "country": "BA", "coord": {"lon": 18.582781, "lat": 44.130001}}, {"id": 3194145, "name": "Oku\u010dani", "state": "", "country": "HR", "coord": {"lon": 17.20167, "lat": 45.258331}}, {"id": 3194183, "name": "Ogulin", "state": "", "country": "HR", "coord": {"lon": 15.22861, "lat": 45.266109}}, {"id": 3194196, "name": "Ogar", "state": "", "country": "RS", "coord": {"lon": 19.946939, "lat": 44.7925}}, {"id": 3194199, "name": "Od\u017eak", "state": "", "country": "BA", "coord": {"lon": 18.32667, "lat": 45.011108}}, {"id": 3194209, "name": "Od\u017eaci", "state": "", "country": "RS", "coord": {"lon": 19.26111, "lat": 45.506672}}, {"id": 3194213, "name": "Odranci", "state": "", "country": "SI", "coord": {"lon": 16.280279, "lat": 46.58667}}, {"id": 3194216, "name": "Odra", "state": "", "country": "HR", "coord": {"lon": 16, "lat": 45.73333}}, {"id": 3194231, "name": "Obudovac", "state": "", "country": "BA", "coord": {"lon": 18.612221, "lat": 44.965}}, {"id": 3194243, "name": "Obrovac", "state": "", "country": "RS", "coord": {"lon": 19.350281, "lat": 45.320278}}, {"id": 3194245, "name": "Obrovac", "state": "", "country": "HR", "coord": {"lon": 15.68222, "lat": 44.200562}}, {"id": 3194247, "name": "Obrov", "state": "", "country": "ME", "coord": {"lon": 19.749439, "lat": 43.028061}}, {"id": 3194310, "name": "Nu\u0161tar", "state": "", "country": "HR", "coord": {"lon": 18.841391, "lat": 45.3325}}, {"id": 3194319, "name": "Novska", "state": "", "country": "HR", "coord": {"lon": 16.97694, "lat": 45.340561}}, {"id": 3194334, "name": "Novo Selo", "state": "", "country": "RS", "coord": {"lon": 19.34417, "lat": 44.670559}}, {"id": 3194344, "name": "Novoselec", "state": "", "country": "HR", "coord": {"lon": 16.53639, "lat": 45.6525}}, {"id": 3194350, "name": "Mestna Ob\u010dina Novo mesto", "state": "", "country": "SI", "coord": {"lon": 15.19833, "lat": 45.785099}}, {"id": 3194351, "name": "Novo Mesto", "state": "", "country": "SI", "coord": {"lon": 15.16886, "lat": 45.80397}}, {"id": 3194355, "name": "Novi Vinodolski", "state": "", "country": "HR", "coord": {"lon": 14.78889, "lat": 45.128059}}, {"id": 3194358, "name": "Novi \u0160eher", "state": "", "country": "BA", "coord": {"lon": 18.025829, "lat": 44.510281}}, {"id": 3194360, "name": "Novi Sad", "state": "", "country": "RS", "coord": {"lon": 19.836941, "lat": 45.251671}}, {"id": 3194367, "name": "Novi Marof", "state": "", "country": "HR", "coord": {"lon": 16.33028, "lat": 46.161942}}, {"id": 3194379, "name": "Novigrad", "state": "", "country": "HR", "coord": {"lon": 13.55806, "lat": 45.314999}}, {"id": 3194403, "name": "Nova Vas", "state": "", "country": "SI", "coord": {"lon": 14.50583, "lat": 45.771671}}, {"id": 3194407, "name": "Nova Varo\u0161", "state": "", "country": "RS", "coord": {"lon": 19.81139, "lat": 43.46056}}, {"id": 3194422, "name": "Novalja", "state": "", "country": "HR", "coord": {"lon": 14.88667, "lat": 44.557781}}, {"id": 3194449, "name": "Nova Gradi\u0161ka", "state": "", "country": "HR", "coord": {"lon": 17.38306, "lat": 45.255001}}, {"id": 3194451, "name": "Nova Gorica", "state": "", "country": "SI", "coord": {"lon": 13.72805, "lat": 45.965199}}, {"id": 3194452, "name": "Nova Gorica", "state": "", "country": "SI", "coord": {"lon": 13.64837, "lat": 45.956039}}, {"id": 3194474, "name": "No\u0107aj", "state": "", "country": "RS", "coord": {"lon": 19.556669, "lat": 44.927219}}, {"id": 3194475, "name": "Njivice", "state": "", "country": "HR", "coord": {"lon": 14.53861, "lat": 45.158058}}, {"id": 3194480, "name": "Njego\u0161evo", "state": "", "country": "RS", "coord": {"lon": 19.75222, "lat": 45.763329}}, {"id": 3194492, "name": "Nin", "state": "", "country": "HR", "coord": {"lon": 15.18333, "lat": 44.23333}}, {"id": 3194493, "name": "Op\u0161tina Nik\u0161i\u0107", "state": "", "country": "ME", "coord": {"lon": 18.92028, "lat": 42.799438}}, {"id": 3194494, "name": "Nik\u0161i\u0107", "state": "", "country": "ME", "coord": {"lon": 18.94446, "lat": 42.773102}}, {"id": 3194498, "name": "Nikinci", "state": "", "country": "RS", "coord": {"lon": 19.821939, "lat": 44.851669}}, {"id": 3194499, "name": "Nijemci", "state": "", "country": "HR", "coord": {"lon": 19.035561, "lat": 45.140282}}, {"id": 3194510, "name": "Nevesinje", "state": "", "country": "BA", "coord": {"lon": 18.113331, "lat": 43.25861}}, {"id": 3194514, "name": "Neum", "state": "", "country": "BA", "coord": {"lon": 17.615561, "lat": 42.923328}}, {"id": 3194552, "name": "Negoslavci", "state": "", "country": "HR", "coord": {"lon": 18.99667, "lat": 45.279442}}, {"id": 3194558, "name": "Nedeljanec", "state": "", "country": "HR", "coord": {"lon": 16.283331, "lat": 46.287781}}, {"id": 3194559, "name": "Nedeli\u0161\u0107e", "state": "", "country": "HR", "coord": {"lon": 16.387501, "lat": 46.375832}}, {"id": 3194581, "name": "Na\u0161ice", "state": "", "country": "HR", "coord": {"lon": 18.08778, "lat": 45.488609}}, {"id": 3194595, "name": "Naklo", "state": "", "country": "SI", "coord": {"lon": 14.31722, "lat": 46.272781}}, {"id": 3194608, "name": "Nadalj", "state": "", "country": "RS", "coord": {"lon": 19.92194, "lat": 45.506939}}, {"id": 3194622, "name": "Muta", "state": "", "country": "SI", "coord": {"lon": 15.16611, "lat": 46.611389}}, {"id": 3194626, "name": "Mursko Sredi\u0161\u0107e", "state": "", "country": "HR", "coord": {"lon": 16.441111, "lat": 46.509441}}, {"id": 3194643, "name": "Murter", "state": "", "country": "HR", "coord": {"lon": 15.60611, "lat": 43.8125}}, {"id": 3194647, "name": "Murska Sobota", "state": "", "country": "SI", "coord": {"lon": 16.160561, "lat": 46.65139}}, {"id": 3194648, "name": "Murska Sobota", "state": "", "country": "SI", "coord": {"lon": 16.166389, "lat": 46.662498}}, {"id": 3194722, "name": "Mrkopalj", "state": "", "country": "HR", "coord": {"lon": 14.85528, "lat": 45.315559}}, {"id": 3194724, "name": "Mrkonji\u0107 Grad", "state": "", "country": "BA", "coord": {"lon": 17.086109, "lat": 44.415829}}, {"id": 3194750, "name": "Mr\u010devac", "state": "", "country": "ME", "coord": {"lon": 18.71806, "lat": 42.419998}}, {"id": 3194762, "name": "Mravince", "state": "", "country": "HR", "coord": {"lon": 16.52194, "lat": 43.533329}}, {"id": 3194773, "name": "Mramor", "state": "", "country": "BA", "coord": {"lon": 18.56444, "lat": 44.591671}}, {"id": 3194779, "name": "Mraclin", "state": "", "country": "HR", "coord": {"lon": 16.09556, "lat": 45.666672}}, {"id": 3194792, "name": "Mozirje", "state": "", "country": "SI", "coord": {"lon": 14.96333, "lat": 46.339439}}, {"id": 3194802, "name": "Motovun", "state": "", "country": "HR", "coord": {"lon": 13.82861, "lat": 45.33667}}, {"id": 3194822, "name": "Mostec", "state": "", "country": "SI", "coord": {"lon": 15.63333, "lat": 45.900002}}, {"id": 3194828, "name": "Mostar", "state": "", "country": "BA", "coord": {"lon": 17.80806, "lat": 43.34333}}, {"id": 3194856, "name": "Mo\u0161\u0107eni\u010dka Draga", "state": "", "country": "HR", "coord": {"lon": 14.25222, "lat": 45.237782}}, {"id": 3194873, "name": "Morav\u010de", "state": "", "country": "SI", "coord": {"lon": 14.745, "lat": 46.13694}}, {"id": 3194884, "name": "Montenegro", "state": "", "country": "ME", "coord": {"lon": 19.299999, "lat": 42.5}}, {"id": 3194889, "name": "Molve", "state": "", "country": "HR", "coord": {"lon": 17.03167, "lat": 46.109169}}, {"id": 3194904, "name": "Mokronog", "state": "", "country": "SI", "coord": {"lon": 15.14083, "lat": 45.93417}}, {"id": 3194918, "name": "Mokra Gora", "state": "", "country": "RS", "coord": {"lon": 19.506109, "lat": 43.790829}}, {"id": 3194919, "name": "Moko\u0161ica", "state": "", "country": "HR", "coord": {"lon": 18.090281, "lat": 42.67556}}, {"id": 3194922, "name": "Mojstrana", "state": "", "country": "SI", "coord": {"lon": 13.93694, "lat": 46.461109}}, {"id": 3194925, "name": "Mojkovac", "state": "", "country": "ME", "coord": {"lon": 19.588329, "lat": 42.959171}}, {"id": 3194926, "name": "Mojkovac", "state": "", "country": "ME", "coord": {"lon": 19.5833, "lat": 42.960442}}, {"id": 3194928, "name": "Mojanovi\u0107i", "state": "", "country": "ME", "coord": {"lon": 19.22139, "lat": 42.341671}}, {"id": 3194986, "name": "Mladenovo", "state": "", "country": "RS", "coord": {"lon": 19.261669, "lat": 45.303059}}, {"id": 3195011, "name": "Mislinja", "state": "", "country": "SI", "coord": {"lon": 15.19556, "lat": 46.441109}}, {"id": 3195036, "name": "Mirna Pe\u010d", "state": "", "country": "SI", "coord": {"lon": 15.08333, "lat": 45.860279}}, {"id": 3195041, "name": "Mirna", "state": "", "country": "SI", "coord": {"lon": 15.06194, "lat": 45.95528}}, {"id": 3195046, "name": "Mirkovci", "state": "", "country": "HR", "coord": {"lon": 18.85111, "lat": 45.269718}}, {"id": 3195054, "name": "Miren", "state": "", "country": "SI", "coord": {"lon": 13.6075, "lat": 45.895561}}, {"id": 3195066, "name": "Mionica", "state": "", "country": "BA", "coord": {"lon": 18.46306, "lat": 44.867222}}, {"id": 3195128, "name": "Mili\u0107i", "state": "", "country": "BA", "coord": {"lon": 19.090281, "lat": 44.171108}}, {"id": 3195162, "name": "Miklav\u017e na Dravskem Polju", "state": "", "country": "SI", "coord": {"lon": 15.69722, "lat": 46.505829}}, {"id": 3195175, "name": "Mihovljan", "state": "", "country": "HR", "coord": {"lon": 16.448059, "lat": 46.408611}}, {"id": 3195176, "name": "Mihovljan", "state": "", "country": "HR", "coord": {"lon": 15.97222, "lat": 46.13306}}, {"id": 3195199, "name": "Mi\u010devec", "state": "", "country": "HR", "coord": {"lon": 16.066669, "lat": 45.75}}, {"id": 3195202, "name": "Me\u017eica", "state": "", "country": "SI", "coord": {"lon": 14.85444, "lat": 46.521389}}, {"id": 3195214, "name": "Metlika", "state": "", "country": "SI", "coord": {"lon": 15.31417, "lat": 45.647221}}, {"id": 3195220, "name": "Metkovi\u0107", "state": "", "country": "RS", "coord": {"lon": 19.54611, "lat": 44.855282}}, {"id": 3195222, "name": "Metkovi\u0107", "state": "", "country": "HR", "coord": {"lon": 17.648331, "lat": 43.054169}}, {"id": 3195242, "name": "Mer\u010de", "state": "", "country": "SI", "coord": {"lon": 13.90028, "lat": 45.700279}}, {"id": 3195250, "name": "Menge\u0161", "state": "", "country": "SI", "coord": {"lon": 14.575, "lat": 46.166939}}, {"id": 3195271, "name": "Mekinje", "state": "", "country": "SI", "coord": {"lon": 14.61667, "lat": 46.23333}}, {"id": 3195281, "name": "Medvode", "state": "", "country": "SI", "coord": {"lon": 14.43333, "lat": 46.133331}}, {"id": 3195307, "name": "Medulin", "state": "", "country": "HR", "coord": {"lon": 13.935, "lat": 44.822498}}, {"id": 3195362, "name": "Matulji", "state": "", "country": "HR", "coord": {"lon": 14.325, "lat": 45.361671}}, {"id": 3195383, "name": "Matenci", "state": "", "country": "HR", "coord": {"lon": 15.96667, "lat": 45.98333}}, {"id": 3195390, "name": "Matagu\u017ei", "state": "", "country": "ME", "coord": {"lon": 19.272779, "lat": 42.323608}}, {"id": 3195399, "name": "Maslovare", "state": "", "country": "BA", "coord": {"lon": 17.533609, "lat": 44.565559}}, {"id": 3195440, "name": "Martin", "state": "", "country": "HR", "coord": {"lon": 18.066669, "lat": 45.492222}}, {"id": 3195447, "name": "Marku\u0161ica", "state": "", "country": "HR", "coord": {"lon": 18.70583, "lat": 45.37389}}, {"id": 3195460, "name": "Markovci", "state": "", "country": "SI", "coord": {"lon": 15.95, "lat": 46.383331}}, {"id": 3195482, "name": "Marini\u0107i", "state": "", "country": "HR", "coord": {"lon": 14.39389, "lat": 45.365002}}, {"id": 3195492, "name": "Marina", "state": "", "country": "HR", "coord": {"lon": 16.450001, "lat": 43.349998}}, {"id": 3195498, "name": "Marija Gorica", "state": "", "country": "HR", "coord": {"lon": 15.73333, "lat": 45.916672}}, {"id": 3195499, "name": "Marija Bistrica", "state": "", "country": "HR", "coord": {"lon": 16.111111, "lat": 46.006111}}, {"id": 3195500, "name": "Mari\u0107ka", "state": "", "country": "BA", "coord": {"lon": 16.840561, "lat": 44.86861}}, {"id": 3195505, "name": "Maribor", "state": "", "country": "SI", "coord": {"lon": 15.64306, "lat": 46.55611}}, {"id": 3195506, "name": "Maribor", "state": "", "country": "SI", "coord": {"lon": 15.64667, "lat": 46.554722}}, {"id": 3195513, "name": "Mar\u010delji", "state": "", "country": "HR", "coord": {"lon": 14.38944, "lat": 45.396111}}, {"id": 3195515, "name": "Mar\u010dana", "state": "", "country": "HR", "coord": {"lon": 13.95389, "lat": 44.95528}}, {"id": 3195520, "name": "Maradik", "state": "", "country": "RS", "coord": {"lon": 19.9925, "lat": 45.102219}}, {"id": 3195591, "name": "Mali Zvornik", "state": "", "country": "RS", "coord": {"lon": 19.10651, "lat": 44.37344}}, {"id": 3195627, "name": "Mali Raven", "state": "", "country": "HR", "coord": {"lon": 16.48333, "lat": 45.98333}}, {"id": 3195674, "name": "Mali Lo\u0161inj", "state": "", "country": "HR", "coord": {"lon": 14.46861, "lat": 44.53056}}, {"id": 3195707, "name": "Mali I\u0111o\u0161", "state": "", "country": "RS", "coord": {"lon": 19.665279, "lat": 45.708328}}, {"id": 3195839, "name": "Mala Kladu\u0161a", "state": "", "country": "BA", "coord": {"lon": 15.85861, "lat": 45.134171}}, {"id": 3195883, "name": "Makole", "state": "", "country": "SI", "coord": {"lon": 15.66722, "lat": 46.317219}}, {"id": 3195890, "name": "Makarska", "state": "", "country": "HR", "coord": {"lon": 17.01778, "lat": 43.29694}}, {"id": 3195895, "name": "Majur", "state": "", "country": "RS", "coord": {"lon": 19.65444, "lat": 44.769718}}, {"id": 3195898, "name": "Maj\u0161perk", "state": "", "country": "SI", "coord": {"lon": 15.73361, "lat": 46.351669}}, {"id": 3195930, "name": "Mahala", "state": "", "country": "BA", "coord": {"lon": 18.25528, "lat": 44.01194}}, {"id": 3195939, "name": "Magli\u0107", "state": "", "country": "RS", "coord": {"lon": 19.53167, "lat": 45.362221}}, {"id": 3195945, "name": "Maglajani", "state": "", "country": "BA", "coord": {"lon": 17.34944, "lat": 44.948608}}, {"id": 3195946, "name": "Maglaj", "state": "", "country": "BA", "coord": {"lon": 18.09667, "lat": 44.549171}}, {"id": 3195962, "name": "Ma\u010dvanska Mitrovica", "state": "", "country": "RS", "coord": {"lon": 19.598061, "lat": 44.965561}}, {"id": 3195971, "name": "Ma\u010dkovec", "state": "", "country": "HR", "coord": {"lon": 16.433611, "lat": 46.424171}}, {"id": 3196000, "name": "Lu\u017eani", "state": "", "country": "HR", "coord": {"lon": 17.70694, "lat": 45.16806}}, {"id": 3196019, "name": "Lupoglav", "state": "", "country": "HR", "coord": {"lon": 16.34639, "lat": 45.796391}}, {"id": 3196039, "name": "Lumbarda", "state": "", "country": "HR", "coord": {"lon": 17.167219, "lat": 42.922779}}, {"id": 3196049, "name": "Lukovica pri Dom\u017ealah", "state": "", "country": "SI", "coord": {"lon": 14.7, "lat": 46.166672}}, {"id": 3196066, "name": "Lukavica", "state": "", "country": "BA", "coord": {"lon": 18.16889, "lat": 44.762779}}, {"id": 3196072, "name": "Lukavec", "state": "", "country": "HR", "coord": {"lon": 15.99, "lat": 45.704441}}, {"id": 3196120, "name": "Ludbreg", "state": "", "country": "HR", "coord": {"lon": 16.614719, "lat": 46.251942}}, {"id": 3196123, "name": "Lu\u010dko", "state": "", "country": "HR", "coord": {"lon": 15.87028, "lat": 45.761108}}, {"id": 3196133, "name": "Lu\u010de", "state": "", "country": "SI", "coord": {"lon": 14.74667, "lat": 46.35611}}, {"id": 3196153, "name": "Loznica", "state": "", "country": "RS", "coord": {"lon": 19.224171, "lat": 44.534168}}, {"id": 3196165, "name": "Lovrenc na Pohorju", "state": "", "country": "SI", "coord": {"lon": 15.39306, "lat": 46.540562}}, {"id": 3196175, "name": "Lovran", "state": "", "country": "HR", "coord": {"lon": 14.27417, "lat": 45.291939}}, {"id": 3196189, "name": "Lovas", "state": "", "country": "HR", "coord": {"lon": 19.17111, "lat": 45.226391}}, {"id": 3196209, "name": "Lopare", "state": "", "country": "BA", "coord": {"lon": 18.842779, "lat": 44.637779}}, {"id": 3196212, "name": "Lopar", "state": "", "country": "HR", "coord": {"lon": 14.73028, "lat": 44.8325}}, {"id": 3196243, "name": "Lokvine", "state": "", "country": "BA", "coord": {"lon": 17.85639, "lat": 44.20472}}, {"id": 3196281, "name": "Log pri Brezovici", "state": "", "country": "SI", "coord": {"lon": 14.36667, "lat": 46.01667}}, {"id": 3196288, "name": "Logatec", "state": "", "country": "SI", "coord": {"lon": 14.19583, "lat": 45.921391}}, {"id": 3196307, "name": "Ljutomer", "state": "", "country": "SI", "coord": {"lon": 16.1975, "lat": 46.520828}}, {"id": 3196321, "name": "Ljupina", "state": "", "country": "HR", "coord": {"lon": 17.38278, "lat": 45.217499}}, {"id": 3196324, "name": "Ljubu\u0161ki", "state": "", "country": "BA", "coord": {"lon": 17.545, "lat": 43.196941}}, {"id": 3196331, "name": "Ljubovija", "state": "", "country": "RS", "coord": {"lon": 19.376671, "lat": 44.189442}}, {"id": 3196359, "name": "Ljubljana", "state": "", "country": "SI", "coord": {"lon": 14.50513, "lat": 46.051079}}, {"id": 3196364, "name": "Ljubinje", "state": "", "country": "BA", "coord": {"lon": 18.08861, "lat": 42.950829}}, {"id": 3196375, "name": "Ljube\u0161\u0107ica", "state": "", "country": "HR", "coord": {"lon": 16.383329, "lat": 46.166672}}, {"id": 3196410, "name": "Livno", "state": "", "country": "BA", "coord": {"lon": 17.00778, "lat": 43.826939}}, {"id": 3196425, "name": "Litija", "state": "", "country": "SI", "coord": {"lon": 14.8225, "lat": 46.058609}}, {"id": 3196428, "name": "\u0160iroki Brijeg", "state": "", "country": "BA", "coord": {"lon": 17.592779, "lat": 43.383331}}, {"id": 3196496, "name": "Lipovci", "state": "", "country": "SI", "coord": {"lon": 16.22806, "lat": 46.62833}}, {"id": 3196511, "name": "Lipolist", "state": "", "country": "RS", "coord": {"lon": 19.50444, "lat": 44.706669}}, {"id": 3196517, "name": "Lipni\u010dki \u0160or", "state": "", "country": "RS", "coord": {"lon": 19.26667, "lat": 44.58028}}, {"id": 3196533, "name": "Lipine", "state": "", "country": "HR", "coord": {"lon": 18.145, "lat": 45.578609}}, {"id": 3196534, "name": "Lipik", "state": "", "country": "HR", "coord": {"lon": 17.15222, "lat": 45.411388}}, {"id": 3196540, "name": "Lipci", "state": "", "country": "ME", "coord": {"lon": 18.65806, "lat": 42.497219}}, {"id": 3196560, "name": "Limbu\u0161", "state": "", "country": "SI", "coord": {"lon": 15.58361, "lat": 46.553612}}, {"id": 3196638, "name": "Le\u0161nica", "state": "", "country": "RS", "coord": {"lon": 19.309999, "lat": 44.6525}}, {"id": 3196652, "name": "Lesce", "state": "", "country": "SI", "coord": {"lon": 14.15778, "lat": 46.361111}}, {"id": 3196657, "name": "Lepoglava", "state": "", "country": "HR", "coord": {"lon": 16.035561, "lat": 46.21056}}, {"id": 3196681, "name": "Lendava", "state": "", "country": "SI", "coord": {"lon": 16.450911, "lat": 46.564941}}, {"id": 3196682, "name": "Lenart v Slov. Goricah", "state": "", "country": "SI", "coord": {"lon": 15.83139, "lat": 46.576111}}, {"id": 3196697, "name": "Lekenik", "state": "", "country": "HR", "coord": {"lon": 16.21139, "lat": 45.58556}}, {"id": 3196699, "name": "Legrad", "state": "", "country": "HR", "coord": {"lon": 16.85667, "lat": 46.297501}}, {"id": 3196758, "name": "Laslovo", "state": "", "country": "HR", "coord": {"lon": 18.69611, "lat": 45.415001}}, {"id": 3196760, "name": "La\u0161ko", "state": "", "country": "SI", "coord": {"lon": 15.23555, "lat": 46.154629}}, {"id": 3196792, "name": "Lakta\u0161i", "state": "", "country": "BA", "coord": {"lon": 17.300831, "lat": 44.908058}}, {"id": 3196816, "name": "Ladimirevci", "state": "", "country": "HR", "coord": {"lon": 18.44861, "lat": 45.625561}}, {"id": 3196827, "name": "La\u0107arak", "state": "", "country": "RS", "coord": {"lon": 19.568609, "lat": 45.00222}}, {"id": 3196834, "name": "Labin", "state": "", "country": "HR", "coord": {"lon": 14.11972, "lat": 45.095001}}, {"id": 3196842, "name": "Kuzma", "state": "", "country": "SI", "coord": {"lon": 16.08333, "lat": 46.836941}}, {"id": 3196855, "name": "Kutjevo", "state": "", "country": "HR", "coord": {"lon": 17.8825, "lat": 45.426109}}, {"id": 3196864, "name": "Kutina", "state": "", "country": "HR", "coord": {"lon": 16.78194, "lat": 45.474998}}, {"id": 3196893, "name": "Kur\u0161anec", "state": "", "country": "HR", "coord": {"lon": 16.40167, "lat": 46.33028}}, {"id": 3196910, "name": "Kupusina", "state": "", "country": "RS", "coord": {"lon": 19.00972, "lat": 45.736111}}, {"id": 3196954, "name": "Kumrovec", "state": "", "country": "HR", "coord": {"lon": 15.67556, "lat": 46.077499}}, {"id": 3196959, "name": "Kulpin", "state": "", "country": "RS", "coord": {"lon": 19.586941, "lat": 45.400829}}, {"id": 3196969, "name": "Kula Norinska", "state": "", "country": "HR", "coord": {"lon": 17.605, "lat": 43.031109}}, {"id": 3196973, "name": "Kula", "state": "", "country": "RS", "coord": {"lon": 19.52639, "lat": 45.608891}}, {"id": 3197071, "name": "Kru\u0161evo", "state": "", "country": "HR", "coord": {"lon": 15.65, "lat": 44.183331}}, {"id": 3197086, "name": "Kru\u0161evica", "state": "", "country": "HR", "coord": {"lon": 18.48278, "lat": 45.077499}}, {"id": 3197095, "name": "Kru\u0161edol", "state": "", "country": "RS", "coord": {"lon": 19.94722, "lat": 45.113609}}, {"id": 3197109, "name": "Veprovac", "state": "", "country": "RS", "coord": {"lon": 19.364441, "lat": 45.614719}}, {"id": 3197111, "name": "Krupanj", "state": "", "country": "RS", "coord": {"lon": 19.36194, "lat": 44.365559}}, {"id": 3197146, "name": "Ob\u010dina Kr\u0161ko", "state": "", "country": "SI", "coord": {"lon": 15.46063, "lat": 45.95137}}, {"id": 3197147, "name": "Kr\u0161ko", "state": "", "country": "SI", "coord": {"lon": 15.49167, "lat": 45.959148}}, {"id": 3197163, "name": "Kromberk", "state": "", "country": "SI", "coord": {"lon": 13.66556, "lat": 45.960831}}, {"id": 3197164, "name": "Krog", "state": "", "country": "SI", "coord": {"lon": 16.14139, "lat": 46.638062}}, {"id": 3197208, "name": "Krk", "state": "", "country": "HR", "coord": {"lon": 14.57306, "lat": 45.025829}}, {"id": 3197226, "name": "Kri\u017eevci pri Ljutomeru", "state": "", "country": "SI", "coord": {"lon": 16.138611, "lat": 46.568329}}, {"id": 3197230, "name": "Kri\u017eevci", "state": "", "country": "HR", "coord": {"lon": 16.5425, "lat": 46.021938}}, {"id": 3197242, "name": "Kri\u017e", "state": "", "country": "HR", "coord": {"lon": 16.523331, "lat": 45.665001}}, {"id": 3197263, "name": "Krivaja", "state": "", "country": "HR", "coord": {"lon": 16.799999, "lat": 45.716671}}, {"id": 3197266, "name": "Krivaja", "state": "", "country": "RS", "coord": {"lon": 19.60194, "lat": 44.555279}}, {"id": 3197338, "name": "Kravarsko", "state": "", "country": "HR", "coord": {"lon": 16.049999, "lat": 45.583328}}, {"id": 3197353, "name": "Krasica", "state": "", "country": "HR", "coord": {"lon": 14.55556, "lat": 45.309719}}, {"id": 3197369, "name": "Krapina", "state": "", "country": "HR", "coord": {"lon": 15.87889, "lat": 46.160831}}, {"id": 3197373, "name": "Kranjska Gora", "state": "", "country": "SI", "coord": {"lon": 13.78944, "lat": 46.483891}}, {"id": 3197377, "name": "Kranj", "state": "", "country": "SI", "coord": {"lon": 14.35646, "lat": 46.24691}}, {"id": 3197378, "name": "Kranj", "state": "", "country": "SI", "coord": {"lon": 14.35561, "lat": 46.238869}}, {"id": 3197390, "name": "Kraljevica", "state": "", "country": "HR", "coord": {"lon": 14.57083, "lat": 45.269718}}, {"id": 3197397, "name": "Kraljevci", "state": "", "country": "RS", "coord": {"lon": 19.88389, "lat": 44.97694}}, {"id": 3197442, "name": "Kozje", "state": "", "country": "SI", "coord": {"lon": 15.56028, "lat": 46.075001}}, {"id": 3197451, "name": "Kozjak", "state": "", "country": "RS", "coord": {"lon": 19.28417, "lat": 44.58667}}, {"id": 3197462, "name": "Kozina", "state": "", "country": "SI", "coord": {"lon": 13.93556, "lat": 45.610001}}, {"id": 3197492, "name": "Kozarac", "state": "", "country": "BA", "coord": {"lon": 16.84083, "lat": 44.97361}}, {"id": 3197532, "name": "Kotor Varo\u0161", "state": "", "country": "BA", "coord": {"lon": 17.37167, "lat": 44.61694}}, {"id": 3197536, "name": "Kotoriba", "state": "", "country": "HR", "coord": {"lon": 16.81806, "lat": 46.355}}, {"id": 3197538, "name": "Kotor", "state": "", "country": "ME", "coord": {"lon": 18.76825, "lat": 42.42067}}, {"id": 3197539, "name": "Kotlje", "state": "", "country": "SI", "coord": {"lon": 14.98694, "lat": 46.521389}}, {"id": 3197556, "name": "Ko\u0161ute", "state": "", "country": "HR", "coord": {"lon": 16.695, "lat": 43.630829}}, {"id": 3197564, "name": "Kostrena", "state": "", "country": "HR", "coord": {"lon": 14.50556, "lat": 45.301109}}, {"id": 3197581, "name": "Kostanjevica na Krki", "state": "", "country": "SI", "coord": {"lon": 15.42222, "lat": 45.846111}}, {"id": 3197594, "name": "Hrvatska Kostajnica", "state": "", "country": "HR", "coord": {"lon": 16.539169, "lat": 45.23167}}, {"id": 3197621, "name": "Ko\u0161ka", "state": "", "country": "HR", "coord": {"lon": 18.28583, "lat": 45.54528}}, {"id": 3197622, "name": "Kosjeri\u0107", "state": "", "country": "RS", "coord": {"lon": 19.90694, "lat": 43.996109}}, {"id": 3197710, "name": "Kor\u010dula", "state": "", "country": "HR", "coord": {"lon": 17.13694, "lat": 42.962219}}, {"id": 3197728, "name": "Koprivnica", "state": "", "country": "HR", "coord": {"lon": 16.827499, "lat": 46.162781}}, {"id": 3197752, "name": "Koper", "state": "", "country": "SI", "coord": {"lon": 13.82667, "lat": 45.51833}}, {"id": 3197753, "name": "Koper", "state": "", "country": "SI", "coord": {"lon": 13.72944, "lat": 45.54694}}, {"id": 3197831, "name": "Komletinci", "state": "", "country": "HR", "coord": {"lon": 18.949169, "lat": 45.149719}}, {"id": 3197834, "name": "Komi\u017ea", "state": "", "country": "HR", "coord": {"lon": 16.09306, "lat": 43.04306}}, {"id": 3197837, "name": "Komin", "state": "", "country": "HR", "coord": {"lon": 17.53694, "lat": 43.040829}}, {"id": 3197842, "name": "Komen", "state": "", "country": "SI", "coord": {"lon": 13.74833, "lat": 45.815281}}, {"id": 3197862, "name": "Kolut", "state": "", "country": "RS", "coord": {"lon": 18.92972, "lat": 45.89278}}, {"id": 3197895, "name": "Op\u0161tina Kola\u0161in", "state": "", "country": "ME", "coord": {"lon": 19.51556, "lat": 42.837219}}, {"id": 3197896, "name": "Kola\u0161in", "state": "", "country": "ME", "coord": {"lon": 19.516529, "lat": 42.822289}}, {"id": 3197904, "name": "Kokrica", "state": "", "country": "SI", "coord": {"lon": 14.36111, "lat": 46.270279}}, {"id": 3197942, "name": "Ob\u010dina Ko\u010devje", "state": "", "country": "SI", "coord": {"lon": 14.90694, "lat": 45.63028}}, {"id": 3197943, "name": "Ko\u010devje", "state": "", "country": "SI", "coord": {"lon": 14.86333, "lat": 45.64333}}, {"id": 3197944, "name": "Ko\u010derin", "state": "", "country": "BA", "coord": {"lon": 17.485001, "lat": 43.389721}}, {"id": 3197946, "name": "Koceljeva", "state": "", "country": "RS", "coord": {"lon": 19.81167, "lat": 44.47361}}, {"id": 3197959, "name": "Kobilje", "state": "", "country": "SI", "coord": {"lon": 16.397779, "lat": 46.684719}}, {"id": 3197964, "name": "Kobilja Glava", "state": "", "country": "BA", "coord": {"lon": 18.38917, "lat": 43.881939}}, {"id": 3197983, "name": "Kobarid", "state": "", "country": "SI", "coord": {"lon": 13.57722, "lat": 46.248058}}, {"id": 3197986, "name": "Knin", "state": "", "country": "HR", "coord": {"lon": 16.200001, "lat": 44.043892}}, {"id": 3198019, "name": "Klo\u0161tar Ivani\u0107", "state": "", "country": "HR", "coord": {"lon": 16.42417, "lat": 45.740559}}, {"id": 3198050, "name": "Klju\u010d", "state": "", "country": "BA", "coord": {"lon": 16.772221, "lat": 44.535}}, {"id": 3198062, "name": "Klis", "state": "", "country": "HR", "coord": {"lon": 16.51944, "lat": 43.559441}}, {"id": 3198070, "name": "Klin\u010da Sela", "state": "", "country": "HR", "coord": {"lon": 15.74111, "lat": 45.690281}}, {"id": 3198078, "name": "Klenovnik", "state": "", "country": "HR", "coord": {"lon": 16.07, "lat": 46.270279}}, {"id": 3198080, "name": "Klenje", "state": "", "country": "RS", "coord": {"lon": 19.434441, "lat": 44.80722}}, {"id": 3198082, "name": "Klenak", "state": "", "country": "RS", "coord": {"lon": 19.71056, "lat": 44.788059}}, {"id": 3198103, "name": "Klanjec", "state": "", "country": "HR", "coord": {"lon": 15.73611, "lat": 46.046669}}, {"id": 3198111, "name": "Klana", "state": "", "country": "HR", "coord": {"lon": 14.37694, "lat": 45.446941}}, {"id": 3198126, "name": "Kladanj", "state": "", "country": "BA", "coord": {"lon": 18.691389, "lat": 44.226391}}, {"id": 3198135, "name": "Kistanje", "state": "", "country": "HR", "coord": {"lon": 15.965, "lat": 43.98278}}, {"id": 3198137, "name": "Kiseljak", "state": "", "country": "BA", "coord": {"lon": 18.56889, "lat": 44.488892}}, {"id": 3198138, "name": "Kiseljak", "state": "", "country": "BA", "coord": {"lon": 18.07667, "lat": 43.942501}}, {"id": 3198140, "name": "Kisa\u010d", "state": "", "country": "RS", "coord": {"lon": 19.728609, "lat": 45.350281}}, {"id": 3198165, "name": "Kidri\u010devo", "state": "", "country": "SI", "coord": {"lon": 15.79111, "lat": 46.40361}}, {"id": 3198172, "name": "Kerestinec", "state": "", "country": "HR", "coord": {"lon": 15.8, "lat": 45.76667}}, {"id": 3198227, "name": "Kastav", "state": "", "country": "HR", "coord": {"lon": 14.34861, "lat": 45.375278}}, {"id": 3198236, "name": "Ka\u0161ina", "state": "", "country": "HR", "coord": {"lon": 16, "lat": 45.916672}}, {"id": 3198253, "name": "Karojba", "state": "", "country": "HR", "coord": {"lon": 13.82306, "lat": 45.300831}}, {"id": 3198259, "name": "Karlovac", "state": "", "country": "HR", "coord": {"lon": 15.54778, "lat": 45.487221}}, {"id": 3198261, "name": "Karlobag", "state": "", "country": "HR", "coord": {"lon": 15.07389, "lat": 44.5275}}, {"id": 3198267, "name": "Karavukovo", "state": "", "country": "RS", "coord": {"lon": 19.188061, "lat": 45.494999}}, {"id": 3198286, "name": "Karanac", "state": "", "country": "HR", "coord": {"lon": 18.684441, "lat": 45.760559}}, {"id": 3198293, "name": "Karadaglije", "state": "", "country": "BA", "coord": {"lon": 18.01833, "lat": 44.571671}}, {"id": 3198298, "name": "Kaptol", "state": "", "country": "HR", "coord": {"lon": 17.72611, "lat": 45.434719}}, {"id": 3198348, "name": "Kanfanar", "state": "", "country": "HR", "coord": {"lon": 13.83917, "lat": 45.121941}}, {"id": 3198354, "name": "Kanal", "state": "", "country": "SI", "coord": {"lon": 13.63972, "lat": 46.088612}}, {"id": 3198365, "name": "Kamnik", "state": "", "country": "SI", "coord": {"lon": 14.61207, "lat": 46.225868}}, {"id": 3198366, "name": "Kamnica", "state": "", "country": "SI", "coord": {"lon": 15.61417, "lat": 46.57444}}, {"id": 3198410, "name": "Kamenica", "state": "", "country": "RS", "coord": {"lon": 19.7225, "lat": 44.342499}}, {"id": 3198450, "name": "Kalinovac", "state": "", "country": "HR", "coord": {"lon": 17.115561, "lat": 46.029442}}, {"id": 3198457, "name": "Kali", "state": "", "country": "HR", "coord": {"lon": 15.20556, "lat": 44.062778}}, {"id": 3198462, "name": "Kalenderovci Donji", "state": "", "country": "BA", "coord": {"lon": 17.833891, "lat": 44.945}}, {"id": 3198478, "name": "Kal", "state": "", "country": "SI", "coord": {"lon": 15.11667, "lat": 46.166672}}, {"id": 3198490, "name": "Kakanj", "state": "", "country": "BA", "coord": {"lon": 18.118059, "lat": 44.12722}}, {"id": 3198531, "name": "Jur\u0161inci", "state": "", "country": "SI", "coord": {"lon": 15.97139, "lat": 46.484718}}, {"id": 3198549, "name": "Sveti Jurij ob \u0160\u010davnici", "state": "", "country": "SI", "coord": {"lon": 16.02347, "lat": 46.5695}}, {"id": 3198576, "name": "Josipovac", "state": "", "country": "HR", "coord": {"lon": 18.58139, "lat": 45.582779}}, {"id": 3198582, "name": "Jo\u0161eva", "state": "", "country": "RS", "coord": {"lon": 19.408331, "lat": 44.586391}}, {"id": 3198618, "name": "Jezerski", "state": "", "country": "BA", "coord": {"lon": 16.084169, "lat": 44.980831}}, {"id": 3198635, "name": "Je\u017edovec", "state": "", "country": "HR", "coord": {"lon": 15.85, "lat": 45.783329}}, {"id": 3198636, "name": "Je\u017ea", "state": "", "country": "SI", "coord": {"lon": 14.54972, "lat": 46.101669}}, {"id": 3198637, "name": "Jevremovac", "state": "", "country": "RS", "coord": {"lon": 19.663891, "lat": 44.720829}}, {"id": 3198646, "name": "Jesenice", "state": "", "country": "SI", "coord": {"lon": 14.07246, "lat": 46.45253}}, {"id": 3198647, "name": "Jesenice", "state": "", "country": "SI", "coord": {"lon": 14.06694, "lat": 46.430561}}, {"id": 3198650, "name": "Jesenice", "state": "", "country": "HR", "coord": {"lon": 16.616671, "lat": 43.466671}}, {"id": 3198673, "name": "Jelsa", "state": "", "country": "HR", "coord": {"lon": 16.69306, "lat": 43.161388}}, {"id": 3198695, "name": "Jelisavac", "state": "", "country": "HR", "coord": {"lon": 18.156111, "lat": 45.528889}}, {"id": 3198711, "name": "Jelen\u010da", "state": "", "country": "RS", "coord": {"lon": 19.74667, "lat": 44.721111}}, {"id": 3198799, "name": "Jastrebarsko", "state": "", "country": "HR", "coord": {"lon": 15.64861, "lat": 45.668331}}, {"id": 3198826, "name": "Jasenice", "state": "", "country": "HR", "coord": {"lon": 18.269171, "lat": 42.592781}}, {"id": 3198852, "name": "Jarmina", "state": "", "country": "HR", "coord": {"lon": 18.72917, "lat": 45.318062}}, {"id": 3198856, "name": "Jareninski Vrh", "state": "", "country": "SI", "coord": {"lon": 15.68333, "lat": 46.616669}}, {"id": 3198859, "name": "Jarebice", "state": "", "country": "RS", "coord": {"lon": 19.42417, "lat": 44.538891}}, {"id": 3198868, "name": "Jarak", "state": "", "country": "RS", "coord": {"lon": 19.757219, "lat": 44.916672}}, {"id": 3198884, "name": "Janjina", "state": "", "country": "HR", "coord": {"lon": 17.428329, "lat": 42.925282}}, {"id": 3198895, "name": "Janja", "state": "", "country": "BA", "coord": {"lon": 19.24778, "lat": 44.665279}}, {"id": 3198908, "name": "Jamena", "state": "", "country": "RS", "coord": {"lon": 19.0625, "lat": 44.885281}}, {"id": 3198913, "name": "Jal\u017eabet", "state": "", "country": "HR", "coord": {"lon": 16.475, "lat": 46.26083}}, {"id": 3198918, "name": "Jalkovec", "state": "", "country": "HR", "coord": {"lon": 16.319719, "lat": 46.28083}}, {"id": 3198922, "name": "Jak\u0161i\u0107", "state": "", "country": "HR", "coord": {"lon": 17.763889, "lat": 45.358059}}, {"id": 3198924, "name": "Jakovlje", "state": "", "country": "HR", "coord": {"lon": 15.85611, "lat": 45.951389}}, {"id": 3198934, "name": "Jajce", "state": "", "country": "BA", "coord": {"lon": 17.26556, "lat": 44.34222}}, {"id": 3198943, "name": "Jagodnjak", "state": "", "country": "HR", "coord": {"lon": 18.576941, "lat": 45.699169}}, {"id": 3198963, "name": "Jadranska Le\u0161nica", "state": "", "country": "RS", "coord": {"lon": 19.353609, "lat": 44.599171}}, {"id": 3198964, "name": "Jadranovo", "state": "", "country": "HR", "coord": {"lon": 14.61833, "lat": 45.23111}}, {"id": 3198994, "name": "Jablanovec", "state": "", "country": "HR", "coord": {"lon": 15.85361, "lat": 45.875832}}, {"id": 3199016, "name": "Izola", "state": "", "country": "SI", "coord": {"lon": 13.65655, "lat": 45.51123}}, {"id": 3199017, "name": "Izola", "state": "", "country": "SI", "coord": {"lon": 13.66194, "lat": 45.536942}}, {"id": 3199020, "name": "Izlake", "state": "", "country": "SI", "coord": {"lon": 14.95, "lat": 46.150002}}, {"id": 3199027, "name": "Iza\u010di\u0107", "state": "", "country": "BA", "coord": {"lon": 15.78194, "lat": 44.875}}, {"id": 3199044, "name": "Ivanovec", "state": "", "country": "HR", "coord": {"lon": 16.476669, "lat": 46.368328}}, {"id": 3199051, "name": "Ivankovo", "state": "", "country": "HR", "coord": {"lon": 18.683889, "lat": 45.288609}}, {"id": 3199069, "name": "Ivani\u0107-Grad", "state": "", "country": "HR", "coord": {"lon": 16.39694, "lat": 45.708328}}, {"id": 3199070, "name": "Berane", "state": "", "country": "ME", "coord": {"lon": 19.8825, "lat": 42.846668}}, {"id": 3199071, "name": "Berane", "state": "", "country": "ME", "coord": {"lon": 19.873329, "lat": 42.842499}}, {"id": 3199076, "name": "Ivanec", "state": "", "country": "HR", "coord": {"lon": 16.120001, "lat": 46.223061}}, {"id": 3199078, "name": "Ivan\u010dna Gorica", "state": "", "country": "SI", "coord": {"lon": 14.80444, "lat": 45.938332}}, {"id": 3199103, "name": "Irig", "state": "", "country": "RS", "coord": {"lon": 19.85833, "lat": 45.101109}}, {"id": 3199111, "name": "Imotski", "state": "", "country": "HR", "coord": {"lon": 17.216669, "lat": 43.446671}}, {"id": 3199128, "name": "Ilok", "state": "", "country": "HR", "coord": {"lon": 19.37694, "lat": 45.222221}}, {"id": 3199130, "name": "Ilirska Bistrica", "state": "", "country": "SI", "coord": {"lon": 14.29056, "lat": 45.567501}}, {"id": 3199131, "name": "Ilirska Bistrica", "state": "", "country": "SI", "coord": {"lon": 14.24083, "lat": 45.569721}}, {"id": 3199142, "name": "Ilija\u0161", "state": "", "country": "BA", "coord": {"lon": 18.27083, "lat": 43.950829}}, {"id": 3199147, "name": "Ila\u010da", "state": "", "country": "HR", "coord": {"lon": 19.095831, "lat": 45.181389}}, {"id": 3199161, "name": "Igalo", "state": "", "country": "ME", "coord": {"lon": 18.50647, "lat": 42.460072}}, {"id": 3199162, "name": "Ig", "state": "", "country": "SI", "coord": {"lon": 14.52889, "lat": 45.960281}}, {"id": 3199169, "name": "Idrija", "state": "", "country": "SI", "coord": {"lon": 14, "lat": 46}}, {"id": 3199171, "name": "Idrija", "state": "", "country": "SI", "coord": {"lon": 14.03056, "lat": 46.002781}}, {"id": 3199180, "name": "Hvar", "state": "", "country": "HR", "coord": {"lon": 16.44278, "lat": 43.172501}}, {"id": 3199184, "name": "Husain", "state": "", "country": "HR", "coord": {"lon": 16.813061, "lat": 45.474171}}, {"id": 3199235, "name": "Hrvace", "state": "", "country": "HR", "coord": {"lon": 16.615, "lat": 43.763329}}, {"id": 3199243, "name": "Hru\u0161ica", "state": "", "country": "SI", "coord": {"lon": 14.01778, "lat": 46.445}}, {"id": 3199251, "name": "Hrtkovci", "state": "", "country": "RS", "coord": {"lon": 19.770559, "lat": 44.878891}}, {"id": 3199268, "name": "Hrib-Lo\u0161ki Potok", "state": "", "country": "SI", "coord": {"lon": 14.59111, "lat": 45.701111}}, {"id": 3199279, "name": "Hreljin", "state": "", "country": "HR", "coord": {"lon": 14.59917, "lat": 45.282501}}, {"id": 3199296, "name": "Hrastnik", "state": "", "country": "SI", "coord": {"lon": 15.09972, "lat": 46.133331}}, {"id": 3199297, "name": "Hrastnik", "state": "", "country": "SI", "coord": {"lon": 15.08139, "lat": 46.146111}}, {"id": 3199314, "name": "Hrasnica", "state": "", "country": "BA", "coord": {"lon": 18.316669, "lat": 43.794441}}, {"id": 3199346, "name": "Horvati", "state": "", "country": "HR", "coord": {"lon": 15.81667, "lat": 45.700001}}, {"id": 3199347, "name": "Horjul", "state": "", "country": "SI", "coord": {"lon": 14.29917, "lat": 46.023609}}, {"id": 3199348, "name": "Horgo\u0161", "state": "", "country": "RS", "coord": {"lon": 19.9725, "lat": 46.15556}}, {"id": 3199360, "name": "Hodo\u0161an", "state": "", "country": "HR", "coord": {"lon": 16.64389, "lat": 46.395279}}, {"id": 3199361, "name": "Hodo\u0161", "state": "", "country": "SI", "coord": {"lon": 16.334169, "lat": 46.82333}}, {"id": 3199365, "name": "Ho\u010dko Pohorje", "state": "", "country": "SI", "coord": {"lon": 15.57303, "lat": 46.502651}}, {"id": 3199376, "name": "Hlebine", "state": "", "country": "HR", "coord": {"lon": 16.96278, "lat": 46.15694}}, {"id": 3199391, "name": "Hercegovac", "state": "", "country": "HR", "coord": {"lon": 17.013611, "lat": 45.658611}}, {"id": 3199393, "name": "Herceg Novi", "state": "", "country": "ME", "coord": {"lon": 18.5375, "lat": 42.506672}}, {"id": 3199394, "name": "Herceg Novi", "state": "", "country": "ME", "coord": {"lon": 18.5375, "lat": 42.45306}}, {"id": 3199415, "name": "Haramba\u0161i\u0107i", "state": "", "country": "BA", "coord": {"lon": 17.54278, "lat": 44.131672}}, {"id": 3199417, "name": "Han Pijesak", "state": "", "country": "BA", "coord": {"lon": 18.952499, "lat": 44.08083}}, {"id": 3199438, "name": "Had\u017ei\u0107i", "state": "", "country": "BA", "coord": {"lon": 18.206671, "lat": 43.82222}}, {"id": 3199473, "name": "Gunja", "state": "", "country": "HR", "coord": {"lon": 18.853331, "lat": 44.880001}}, {"id": 3199474, "name": "Gundinci", "state": "", "country": "HR", "coord": {"lon": 18.49139, "lat": 45.158329}}, {"id": 3199475, "name": "Gunaro\u0161", "state": "", "country": "RS", "coord": {"lon": 19.82917, "lat": 45.759171}}, {"id": 3199480, "name": "Gudovac", "state": "", "country": "HR", "coord": {"lon": 16.78083, "lat": 45.88028}}, {"id": 3199509, "name": "Grude", "state": "", "country": "BA", "coord": {"lon": 17.420561, "lat": 43.36417}}, {"id": 3199515, "name": "Grubi\u0161no Polje", "state": "", "country": "HR", "coord": {"lon": 17.17268, "lat": 45.702141}},