[{"id": 3032127, "name": "Bohain-en-Vermandois", "state": "", "country": "FR", "coord": {"lon": 3.453, "lat": 49.987301}}, {"id": 3032129, "name": "Bogon", "state": "", "country": "FR", "coord": {"lon": 2.8359, "lat": 45.39679}}, {"id": 3032130, "name": "Bog\u00e8ve", "state": "", "country": "FR", "coord": {"lon": 6.42697, "lat": 46.19194}}, {"id": 3032132, "name": "Boffres", "state": "", "country": "FR", "coord": {"lon": 4.70386, "lat": 44.922001}}, {"id": 3032146, "name": "Boeschepe", "state": "", "country": "FR", "coord": {"lon": 2.7, "lat": 50.799999}}, {"id": 3032147, "name": "B\u0153rsch", "state": "", "country": "FR", "coord": {"lon": 7.43998, "lat": 48.476559}}, {"id": 3032150, "name": "Bo\u00ebnat", "state": "", "country": "FR", "coord": {"lon": 2.99443, "lat": 46.179459}}, {"id": 3032151, "name": "Bo\u00ebn-sur-Lignon", "state": "", "country": "FR", "coord": {"lon": 4.00959, "lat": 45.746181}}, {"id": 3032153, "name": "Boeil-Bezing", "state": "", "country": "FR", "coord": {"lon": -0.26667, "lat": 43.216671}}, {"id": 3032154, "name": "Bo\u00ebge", "state": "", "country": "FR", "coord": {"lon": 6.40383, "lat": 46.209541}}, {"id": 3032156, "name": "Bo\u00e9", "state": "", "country": "FR", "coord": {"lon": 0.62905, "lat": 44.160061}}, {"id": 3032160, "name": "Bodilis", "state": "", "country": "FR", "coord": {"lon": -4.11567, "lat": 48.529781}}, {"id": 3032179, "name": "Bobigny", "state": "", "country": "FR", "coord": {"lon": 2.45, "lat": 48.900002}}, {"id": 3032191, "name": "Bloux", "state": "", "country": "FR", "coord": {"lon": 2.87186, "lat": 46.74979}}, {"id": 3032194, "name": "Blotzheim", "state": "", "country": "FR", "coord": {"lon": 7.4963, "lat": 47.602051}}, {"id": 3032195, "name": "Blot-l'\u00c9glise", "state": "", "country": "FR", "coord": {"lon": 2.9554, "lat": 46.036709}}, {"id": 3032196, "name": "Blot", "state": "", "country": "FR", "coord": {"lon": 2.93333, "lat": 46.083328}}, {"id": 3032202, "name": "Blonville-sur-Mer", "state": "", "country": "FR", "coord": {"lon": 0.02709, "lat": 49.33709}}, {"id": 3032208, "name": "Blomard", "state": "", "country": "FR", "coord": {"lon": 2.97822, "lat": 46.289719}}, {"id": 3032212, "name": "Arrondissement de Blois", "state": "", "country": "FR", "coord": {"lon": 1.33333, "lat": 47.583328}}, {"id": 3032213, "name": "Blois", "state": "", "country": "FR", "coord": {"lon": 1.33333, "lat": 47.583328}}, {"id": 3032214, "name": "Blodelsheim", "state": "", "country": "FR", "coord": {"lon": 7.53678, "lat": 47.884109}}, {"id": 3032218, "name": "Blismes", "state": "", "country": "FR", "coord": {"lon": 3.81964, "lat": 47.131901}}, {"id": 3032220, "name": "Blis-et-Born", "state": "", "country": "FR", "coord": {"lon": 0.90636, "lat": 45.181332}}, {"id": 3032228, "name": "Bligny-l\u00e8s-Beaune", "state": "", "country": "FR", "coord": {"lon": 4.8262, "lat": 46.986309}}, {"id": 3032234, "name": "Blignicourt", "state": "", "country": "FR", "coord": {"lon": 4.53203, "lat": 48.46143}}, {"id": 3032238, "name": "Bliesbruck", "state": "", "country": "FR", "coord": {"lon": 7.18356, "lat": 49.11517}}, {"id": 3032251, "name": "Bletterans", "state": "", "country": "FR", "coord": {"lon": 5.45444, "lat": 46.746731}}, {"id": 3032263, "name": "Bl\u00e9signac", "state": "", "country": "FR", "coord": {"lon": -0.25524, "lat": 44.77496}}, {"id": 3032267, "name": "Bl\u00e9r\u00e9", "state": "", "country": "FR", "coord": {"lon": 0.99186, "lat": 47.327381}}, {"id": 3032269, "name": "Bl\u00e9rancourt", "state": "", "country": "FR", "coord": {"lon": 3.15, "lat": 49.51667}}, {"id": 3032274, "name": "Bl\u00e9nod-l\u00e8s-Toul", "state": "", "country": "FR", "coord": {"lon": 5.83956, "lat": 48.598141}}, {"id": 3032275, "name": "Bl\u00e9nod-l\u00e8s-Pont-\u00e0-Mousson", "state": "", "country": "FR", "coord": {"lon": 6.04844, "lat": 48.884869}}, {"id": 3032278, "name": "Bl\u00e9neau", "state": "", "country": "FR", "coord": {"lon": 2.95, "lat": 47.700001}}, {"id": 3032279, "name": "Blendecques", "state": "", "country": "FR", "coord": {"lon": 2.28601, "lat": 50.71843}}, {"id": 3032292, "name": "Blaye-les-Mines", "state": "", "country": "FR", "coord": {"lon": 2.13166, "lat": 44.030731}}, {"id": 3032294, "name": "Arrondissement de Blaye", "state": "", "country": "FR", "coord": {"lon": -0.5, "lat": 45.166672}}, {"id": 3032295, "name": "Blay", "state": "", "country": "FR", "coord": {"lon": -0.83968, "lat": 49.270599}}, {"id": 3032296, "name": "Blavozy", "state": "", "country": "FR", "coord": {"lon": 3.97993, "lat": 45.057201}}, {"id": 3032306, "name": "Blauzac", "state": "", "country": "FR", "coord": {"lon": 4.3693, "lat": 43.96151}}, {"id": 3032308, "name": "Blausasc", "state": "", "country": "FR", "coord": {"lon": 7.36883, "lat": 43.8069}}, {"id": 3032316, "name": "Blasimon", "state": "", "country": "FR", "coord": {"lon": -0.07392, "lat": 44.749008}}, {"id": 3032319, "name": "Blaringhem", "state": "", "country": "FR", "coord": {"lon": 2.40321, "lat": 50.691101}}, {"id": 3032326, "name": "Blanzy", "state": "", "country": "FR", "coord": {"lon": 4.38833, "lat": 46.700119}}, {"id": 3032331, "name": "Blanzat", "state": "", "country": "FR", "coord": {"lon": 3.08111, "lat": 45.831371}}, {"id": 3032339, "name": "Blanquefort-sur-Briolance", "state": "", "country": "FR", "coord": {"lon": 0.96697, "lat": 44.597092}}, {"id": 3032340, "name": "Blanquefort", "state": "", "country": "FR", "coord": {"lon": -0.63663, "lat": 44.912479}}, {"id": 3032349, "name": "Blangy-sur-Bresle", "state": "", "country": "FR", "coord": {"lon": 1.62514, "lat": 49.93211}}, {"id": 3032403, "name": "Blancafort", "state": "", "country": "FR", "coord": {"lon": 2.52981, "lat": 47.532188}}, {"id": 3032422, "name": "Le Blanc", "state": "", "country": "FR", "coord": {"lon": 1.16667, "lat": 46.666672}}, {"id": 3032430, "name": "Blamont", "state": "", "country": "FR", "coord": {"lon": 6.848, "lat": 47.385132}}, {"id": 3032440, "name": "Blaison-Gohier", "state": "", "country": "FR", "coord": {"lon": -0.37723, "lat": 47.399509}}, {"id": 3032452, "name": "Blainville-sur-Orne", "state": "", "country": "FR", "coord": {"lon": -0.30061, "lat": 49.22913}}, {"id": 3032453, "name": "Blainville-sur-Mer", "state": "", "country": "FR", "coord": {"lon": -1.5834, "lat": 49.06599}}, {"id": 3032455, "name": "Blainville-Crevon", "state": "", "country": "FR", "coord": {"lon": 1.29952, "lat": 49.503948}}, {"id": 3032461, "name": "Blaincourt-l\u00e8s-Pr\u00e9cy", "state": "", "country": "FR", "coord": {"lon": 2.35, "lat": 49.23333}}, {"id": 3032462, "name": "Blain", "state": "", "country": "FR", "coord": {"lon": -1.76285, "lat": 47.476551}}, {"id": 3032464, "name": "Blaignac", "state": "", "country": "FR", "coord": {"lon": -0.05599, "lat": 44.552879}}, {"id": 3032468, "name": "Blagny", "state": "", "country": "FR", "coord": {"lon": 5.19194, "lat": 49.62167}}, {"id": 3032469, "name": "Blagnac", "state": "", "country": "FR", "coord": {"lon": 1.39399, "lat": 43.632759}}, {"id": 3032470, "name": "Blaesheim", "state": "", "country": "FR", "coord": {"lon": 7.60923, "lat": 48.506481}}, {"id": 3032481, "name": "Blac\u00e9", "state": "", "country": "FR", "coord": {"lon": 4.64499, "lat": 46.031849}}, {"id": 3032486, "name": "Bizou", "state": "", "country": "FR", "coord": {"lon": 0.75058, "lat": 48.494869}}, {"id": 3032491, "name": "Bizeneuille", "state": "", "country": "FR", "coord": {"lon": 2.73619, "lat": 46.407421}}, {"id": 3032492, "name": "Bize-Minervois", "state": "", "country": "FR", "coord": {"lon": 2.87134, "lat": 43.316559}}, {"id": 3032496, "name": "Bizanos", "state": "", "country": "FR", "coord": {"lon": -0.35, "lat": 43.283329}}, {"id": 3032497, "name": "Bizanet", "state": "", "country": "FR", "coord": {"lon": 2.87034, "lat": 43.164188}}, {"id": 3032505, "name": "Biviers", "state": "", "country": "FR", "coord": {"lon": 5.8, "lat": 45.23333}}, {"id": 3032509, "name": "Bitschwiller-l\u00e8s-Thann", "state": "", "country": "FR", "coord": {"lon": 7.08066, "lat": 47.828629}}, {"id": 3032518, "name": "Bitche", "state": "", "country": "FR", "coord": {"lon": 7.42672, "lat": 49.050091}}, {"id": 3032543, "name": "Bisel", "state": "", "country": "FR", "coord": {"lon": 7.21743, "lat": 47.535259}}, {"id": 3032544, "name": "Bischwiller", "state": "", "country": "FR", "coord": {"lon": 7.85831, "lat": 48.765881}}, {"id": 3032549, "name": "Bischoffsheim", "state": "", "country": "FR", "coord": {"lon": 7.48967, "lat": 48.48703}}, {"id": 3032551, "name": "Bischheim", "state": "", "country": "FR", "coord": {"lon": 7.75343, "lat": 48.616119}}, {"id": 3032553, "name": "Biscarrosse-Plage", "state": "", "country": "FR", "coord": {"lon": -1.24714, "lat": 44.448479}}, {"id": 3032556, "name": "Biscarrosse", "state": "", "country": "FR", "coord": {"lon": -1.16721, "lat": 44.394539}}, {"id": 3032567, "name": "Biriatou", "state": "", "country": "FR", "coord": {"lon": -1.74497, "lat": 43.331581}}, {"id": 3032568, "name": "Biras", "state": "", "country": "FR", "coord": {"lon": 0.63658, "lat": 45.28756}}, {"id": 3032571, "name": "Birac-sur-Trec", "state": "", "country": "FR", "coord": {"lon": 0.26685, "lat": 44.485519}}, {"id": 3032573, "name": "Birac", "state": "", "country": "FR", "coord": {"lon": -0.13708, "lat": 44.417431}}, {"id": 3032574, "name": "Biozat", "state": "", "country": "FR", "coord": {"lon": 3.27338, "lat": 46.076061}}, {"id": 3032579, "name": "Biot", "state": "", "country": "FR", "coord": {"lon": 7.09645, "lat": 43.627232}}, {"id": 3032589, "name": "Bion", "state": "", "country": "FR", "coord": {"lon": -0.91984, "lat": 48.61948}}, {"id": 3032591, "name": "Biollet", "state": "", "country": "FR", "coord": {"lon": 2.68241, "lat": 45.993462}}, {"id": 3032596, "name": "Biniville", "state": "", "country": "FR", "coord": {"lon": -1.47834, "lat": 49.42762}}, {"id": 3032598, "name": "Bining", "state": "", "country": "FR", "coord": {"lon": 7.2522, "lat": 49.036469}}, {"id": 3032600, "name": "Binic", "state": "", "country": "FR", "coord": {"lon": -2.82692, "lat": 48.60416}}, {"id": 3032615, "name": "Billy-sur-Aisne", "state": "", "country": "FR", "coord": {"lon": 3.38357, "lat": 49.356319}}, {"id": 3032618, "name": "Billy-Montigny", "state": "", "country": "FR", "coord": {"lon": 2.90286, "lat": 50.41711}}, {"id": 3032622, "name": "Billy-Berclau", "state": "", "country": "FR", "coord": {"lon": 2.86613, "lat": 50.51783}}, {"id": 3032629, "name": "Billom", "state": "", "country": "FR", "coord": {"lon": 3.34243, "lat": 45.72303}}, {"id": 3032637, "name": "Billezois", "state": "", "country": "FR", "coord": {"lon": 3.57278, "lat": 46.210041}}, {"id": 3032639, "name": "Bill\u00e8re", "state": "", "country": "FR", "coord": {"lon": -0.4, "lat": 43.299999}}, {"id": 3032644, "name": "Billas", "state": "", "country": "FR", "coord": {"lon": 0.48018, "lat": 44.60437}}, {"id": 3032648, "name": "Bilieu", "state": "", "country": "FR", "coord": {"lon": 5.54624, "lat": 45.444519}}, {"id": 3032653, "name": "Bilh\u00e8res", "state": "", "country": "FR", "coord": {"lon": -0.45, "lat": 43.066669}}, {"id": 3032662, "name": "Bihorel", "state": "", "country": "FR", "coord": {"lon": 1.1223, "lat": 49.454681}}, {"id": 3032668, "name": "Biguglia", "state": "", "country": "FR", "coord": {"lon": 9.43324, "lat": 42.625889}}, {"id": 3032671, "name": "Bigot", "state": "", "country": "FR", "coord": {"lon": 0.60874, "lat": 45.04063}}, {"id": 3032678, "name": "Bignoux", "state": "", "country": "FR", "coord": {"lon": 0.46932, "lat": 46.600079}}, {"id": 3032685, "name": "Bignan", "state": "", "country": "FR", "coord": {"lon": -2.77153, "lat": 47.879349}}, {"id": 3032688, "name": "Biganos", "state": "", "country": "FR", "coord": {"lon": -0.97367, "lat": 44.645039}}, {"id": 3032689, "name": "Biganon", "state": "", "country": "FR", "coord": {"lon": -0.75297, "lat": 44.412979}}, {"id": 3032695, "name": "Bi\u00e8vres", "state": "", "country": "FR", "coord": {"lon": 2.21881, "lat": 48.757721}}, {"id": 3032702, "name": "Bi\u00e9ville-Qu\u00e9ti\u00e9ville", "state": "", "country": "FR", "coord": {"lon": -0.0406, "lat": 49.103882}}, {"id": 3032703, "name": "Bi\u00e9ville", "state": "", "country": "FR", "coord": {"lon": -0.88933, "lat": 49.083988}}, {"id": 3032706, "name": "Bieujac", "state": "", "country": "FR", "coord": {"lon": -0.15494, "lat": 44.539848}}, {"id": 3032711, "name": "Biesles", "state": "", "country": "FR", "coord": {"lon": 5.29409, "lat": 48.085972}}, {"id": 3032712, "name": "Biesheim", "state": "", "country": "FR", "coord": {"lon": 7.54474, "lat": 48.04118}}, {"id": 3032726, "name": "Bierne", "state": "", "country": "FR", "coord": {"lon": 2.40963, "lat": 50.962318}}, {"id": 3032737, "name": "Bienville", "state": "", "country": "FR", "coord": {"lon": 5.04579, "lat": 48.575821}}, {"id": 3032767, "name": "Bidart", "state": "", "country": "FR", "coord": {"lon": -1.59127, "lat": 43.437599}}, {"id": 3032768, "name": "Bidarray", "state": "", "country": "FR", "coord": {"lon": -1.34711, "lat": 43.266048}}, {"id": 3032771, "name": "Bidache", "state": "", "country": "FR", "coord": {"lon": -1.1412, "lat": 43.48299}}, {"id": 3032791, "name": "Bias", "state": "", "country": "FR", "coord": {"lon": 0.66977, "lat": 44.41655}}, {"id": 3032792, "name": "Bias", "state": "", "country": "FR", "coord": {"lon": -1.21819, "lat": 44.145081}}, {"id": 3032794, "name": "Biars-sur-C\u00e8re", "state": "", "country": "FR", "coord": {"lon": 1.85403, "lat": 44.926289}}, {"id": 3032797, "name": "Biarritz", "state": "", "country": "FR", "coord": {"lon": -1.55558, "lat": 43.480122}}, {"id": 3032802, "name": "Biard", "state": "", "country": "FR", "coord": {"lon": 0.30812, "lat": 46.578892}}, {"id": 3032815, "name": "Biache-Saint-Vaast", "state": "", "country": "FR", "coord": {"lon": 2.94777, "lat": 50.308689}}, {"id": 3032818, "name": "B\u00e9zu-Saint-\u00c9loi", "state": "", "country": "FR", "coord": {"lon": 1.70404, "lat": 49.295238}}, {"id": 3032823, "name": "Bezouce", "state": "", "country": "FR", "coord": {"lon": 4.49072, "lat": 43.88229}}, {"id": 3032824, "name": "Bezons", "state": "", "country": "FR", "coord": {"lon": 2.2128, "lat": 48.924259}}, {"id": 3032832, "name": "Arrondissement de B\u00e9ziers", "state": "", "country": "FR", "coord": {"lon": 3.08333, "lat": 43.5}}, {"id": 3032833, "name": "B\u00e9ziers", "state": "", "country": "FR", "coord": {"lon": 3.21899, "lat": 43.347618}}, {"id": 3032836, "name": "B\u00e9zenet", "state": "", "country": "FR", "coord": {"lon": 2.85149, "lat": 46.327209}}, {"id": 3032847, "name": "Bezannes", "state": "", "country": "FR", "coord": {"lon": 3.98892, "lat": 49.223389}}, {"id": 3032864, "name": "Beyries", "state": "", "country": "FR", "coord": {"lon": -0.6369, "lat": 43.571781}}, {"id": 3032869, "name": "Beynost", "state": "", "country": "FR", "coord": {"lon": 5.00608, "lat": 45.838089}}, {"id": 3032872, "name": "Beynes", "state": "", "country": "FR", "coord": {"lon": 1.87261, "lat": 48.856258}}, {"id": 3032876, "name": "Beynac-et-Cazenac", "state": "", "country": "FR", "coord": {"lon": 1.14387, "lat": 44.839649}}, {"id": 3032879, "name": "Beylongue", "state": "", "country": "FR", "coord": {"lon": -0.82991, "lat": 43.924278}}, {"id": 3032880, "name": "Beychac", "state": "", "country": "FR", "coord": {"lon": -0.40219, "lat": 44.877811}}, {"id": 3032887, "name": "B\u00e9ville-le-Comte", "state": "", "country": "FR", "coord": {"lon": 1.71305, "lat": 48.435581}}, {"id": 3032892, "name": "Beuzeville-la-Grenier", "state": "", "country": "FR", "coord": {"lon": 0.42684, "lat": 49.591572}}, {"id": 3032896, "name": "Beuzeville", "state": "", "country": "FR", "coord": {"lon": 0.34254, "lat": 49.34483}}, {"id": 3032898, "name": "Beuzec-Cap-Sizun", "state": "", "country": "FR", "coord": {"lon": -4.512, "lat": 48.075668}}, {"id": 3032903, "name": "Beuvry", "state": "", "country": "FR", "coord": {"lon": 2.68541, "lat": 50.516739}}, {"id": 3032905, "name": "Beuvron-en-Auge", "state": "", "country": "FR", "coord": {"lon": -0.04592, "lat": 49.18816}}, {"id": 3032910, "name": "Beuvrigny", "state": "", "country": "FR", "coord": {"lon": -1.00167, "lat": 48.968811}}, {"id": 3032915, "name": "Beuvrages", "state": "", "country": "FR", "coord": {"lon": 3.4942, "lat": 50.38414}}, {"id": 3032917, "name": "Beuvillers", "state": "", "country": "FR", "coord": {"lon": 0.25492, "lat": 49.129608}}, {"id": 3032919, "name": "Beuville", "state": "", "country": "FR", "coord": {"lon": -0.32585, "lat": 49.243641}}, {"id": 3032928, "name": "Beuste", "state": "", "country": "FR", "coord": {"lon": -0.23333, "lat": 43.216671}}, {"id": 3032931, "name": "Beuri\u00e8res", "state": "", "country": "FR", "coord": {"lon": 3.78333, "lat": 45.433331}}, {"id": 3032939, "name": "Beure", "state": "", "country": "FR", "coord": {"lon": 6.00548, "lat": 47.206902}}, {"id": 3032957, "name": "Betz", "state": "", "country": "FR", "coord": {"lon": 2.95584, "lat": 49.155579}}, {"id": 3032965, "name": "Betton", "state": "", "country": "FR", "coord": {"lon": -1.63829, "lat": 48.180481}}, {"id": 3032981, "name": "Bettancourt-la-Ferr\u00e9e", "state": "", "country": "FR", "coord": {"lon": 4.96971, "lat": 48.648979}}, {"id": 3033000, "name": "Arrondissement de B\u00e9thune", "state": "", "country": "FR", "coord": {"lon": 2.66667, "lat": 50.5}}, {"id": 3033002, "name": "B\u00e9thune", "state": "", "country": "FR", "coord": {"lon": 2.63333, "lat": 50.533329}}, {"id": 3033006, "name": "Bethoncourt", "state": "", "country": "FR", "coord": {"lon": 6.80504, "lat": 47.535118}}, {"id": 3033010, "name": "B\u00e9thisy-Saint-Pierre", "state": "", "country": "FR", "coord": {"lon": 2.79636, "lat": 49.304821}}, {"id": 3033011, "name": "B\u00e9thisy-Saint-Martin", "state": "", "country": "FR", "coord": {"lon": 2.81743, "lat": 49.2948}}, {"id": 3033014, "name": "B\u00e9theny", "state": "", "country": "FR", "coord": {"lon": 4.05495, "lat": 49.284981}}, {"id": 3033018, "name": "B\u00e9thencourt-sur-Mer", "state": "", "country": "FR", "coord": {"lon": 1.50348, "lat": 50.07756}}, {"id": 3033052, "name": "Bessines-sur-Gartempe", "state": "", "country": "FR", "coord": {"lon": 1.36865, "lat": 46.10799}}, {"id": 3033053, "name": "Bessines", "state": "", "country": "FR", "coord": {"lon": -0.51294, "lat": 46.302071}}, {"id": 3033056, "name": "Bessi\u00e8res", "state": "", "country": "FR", "coord": {"lon": 1.60624, "lat": 43.798611}}, {"id": 3033065, "name": "Besse-sur-Issole", "state": "", "country": "FR", "coord": {"lon": 6.17759, "lat": 43.349571}}, {"id": 3033066, "name": "Bess\u00e9-sur-Braye", "state": "", "country": "FR", "coord": {"lon": 0.75, "lat": 47.833328}}, {"id": 3033068, "name": "Besses", "state": "", "country": "FR", "coord": {"lon": 3.69541, "lat": 45.169842}}, {"id": 3033070, "name": "Bessens", "state": "", "country": "FR", "coord": {"lon": 1.25381, "lat": 43.87859}}, {"id": 3033071, "name": "Bessenay", "state": "", "country": "FR", "coord": {"lon": 4.55376, "lat": 45.77721}}, {"id": 3033073, "name": "Bess\u00e8ges", "state": "", "country": "FR", "coord": {"lon": 4.0966, "lat": 44.292301}}, {"id": 3033074, "name": "Besse-et-Saint-Anastaise", "state": "", "country": "FR", "coord": {"lon": 2.93333, "lat": 45.51667}}, {"id": 3033085, "name": "Besse", "state": "", "country": "FR", "coord": {"lon": 2.34994, "lat": 45.095379}}, {"id": 3033088, "name": "Bessay-sur-Allier", "state": "", "country": "FR", "coord": {"lon": 3.36248, "lat": 46.44352}}, {"id": 3033098, "name": "Bessancourt", "state": "", "country": "FR", "coord": {"lon": 2.20936, "lat": 49.037651}}, {"id": 3033099, "name": "Bessan", "state": "", "country": "FR", "coord": {"lon": 3.42288, "lat": 43.361961}}, {"id": 3033107, "name": "Besneville", "state": "", "country": "FR", "coord": {"lon": -1.62726, "lat": 49.367741}}, {"id": 3033108, "name": "Besn\u00e9", "state": "", "country": "FR", "coord": {"lon": -2.08976, "lat": 47.400002}}, {"id": 3033113, "name": "Beslon", "state": "", "country": "FR", "coord": {"lon": -1.15155, "lat": 48.84893}}, {"id": 3033116, "name": "B\u00e9singrand", "state": "", "country": "FR", "coord": {"lon": -0.56667, "lat": 43.366669}}, {"id": 3033122, "name": "Arrondissement de Besan\u00e7on", "state": "", "country": "FR", "coord": {"lon": 6.16667, "lat": 47.25}}, {"id": 3033123, "name": "Besan\u00e7on", "state": "", "country": "FR", "coord": {"lon": 6.01815, "lat": 47.248779}}, {"id": 3033131, "name": "Berzet", "state": "", "country": "FR", "coord": {"lon": 3.04674, "lat": 45.72501}}, {"id": 3033147, "name": "B\u00e9ruges", "state": "", "country": "FR", "coord": {"lon": 0.20741, "lat": 46.567379}}, {"id": 3033149, "name": "Bertry", "state": "", "country": "FR", "coord": {"lon": 3.44298, "lat": 50.087181}}, {"id": 3033156, "name": "Bertric-Bur\u00e9e", "state": "", "country": "FR", "coord": {"lon": 0.35, "lat": 45.299999}}, {"id": 3033163, "name": "Bertrange", "state": "", "country": "FR", "coord": {"lon": 6.17893, "lat": 49.30769}}, {"id": 3033183, "name": "Bertignat", "state": "", "country": "FR", "coord": {"lon": 3.68043, "lat": 45.617859}}, {"id": 3033200, "name": "Berthecourt", "state": "", "country": "FR", "coord": {"lon": 2.22471, "lat": 49.350971}}, {"id": 3033202, "name": "Bertheauville", "state": "", "country": "FR", "coord": {"lon": 0.60194, "lat": 49.75489}}, {"id": 3033208, "name": "Berteaucourt-les-Dames", "state": "", "country": "FR", "coord": {"lon": 2.1575, "lat": 50.04697}}, {"id": 3033219, "name": "Berstett", "state": "", "country": "FR", "coord": {"lon": 7.65721, "lat": 48.679001}}, {"id": 3033220, "name": "Berson", "state": "", "country": "FR", "coord": {"lon": -0.58774, "lat": 45.106789}}, {"id": 3033222, "name": "Bers\u00e9e", "state": "", "country": "FR", "coord": {"lon": 3.14765, "lat": 50.479778}}, {"id": 3033232, "name": "Berrwiller", "state": "", "country": "FR", "coord": {"lon": 7.21978, "lat": 47.84911}}, {"id": 3033236, "name": "Berrien", "state": "", "country": "FR", "coord": {"lon": -3.75266, "lat": 48.402779}}, {"id": 3033238, "name": "Berric", "state": "", "country": "FR", "coord": {"lon": -2.5225, "lat": 47.633259}}, {"id": 3033241, "name": "Berre-l'\u00c9tang", "state": "", "country": "FR", "coord": {"lon": 5.17044, "lat": 43.478088}}, {"id": 3033242, "name": "Berre-les-Alpes", "state": "", "country": "FR", "coord": {"lon": 7.33333, "lat": 43.833328}}, {"id": 3033268, "name": "Bernis", "state": "", "country": "FR", "coord": {"lon": 4.28713, "lat": 43.769131}}, {"id": 3033269, "name": "Bernin", "state": "", "country": "FR", "coord": {"lon": 5.86516, "lat": 45.2714}}, {"id": 3033272, "name": "Berni\u00e8res-sur-Mer", "state": "", "country": "FR", "coord": {"lon": -0.42299, "lat": 49.33057}}, {"id": 3033273, "name": "Berni\u00e8res-le-Patry", "state": "", "country": "FR", "coord": {"lon": -0.7369, "lat": 48.814171}}, {"id": 3033285, "name": "Berneval-le-Grand", "state": "", "country": "FR", "coord": {"lon": 1.18755, "lat": 49.953281}}, {"id": 3033294, "name": "Bernes-sur-Oise", "state": "", "country": "FR", "coord": {"lon": 2.3, "lat": 49.161282}}, {"id": 3033303, "name": "Bern\u00e9", "state": "", "country": "FR", "coord": {"lon": -3.39421, "lat": 47.994701}}, {"id": 3033307, "name": "Arrondissement de Bernay", "state": "", "country": "FR", "coord": {"lon": 0.66667, "lat": 49.166672}}, {"id": 3033308, "name": "Bernay", "state": "", "country": "FR", "coord": {"lon": 0.59858, "lat": 49.088879}}, {"id": 3033312, "name": "Bernaville", "state": "", "country": "FR", "coord": {"lon": 2.163, "lat": 50.13232}}, {"id": 3033316, "name": "Bernardswiller", "state": "", "country": "FR", "coord": {"lon": 7.46171, "lat": 48.45208}}, {"id": 3033355, "name": "Berlaimont", "state": "", "country": "FR", "coord": {"lon": 3.81343, "lat": 50.20155}}, {"id": 3033356, "name": "Berjou", "state": "", "country": "FR", "coord": {"lon": -0.48106, "lat": 48.849339}}, {"id": 3033358, "name": "B\u00e9rigny", "state": "", "country": "FR", "coord": {"lon": -0.94107, "lat": 49.142979}}, {"id": 3033363, "name": "Bergues", "state": "", "country": "FR", "coord": {"lon": 2.43242, "lat": 50.968819}}, {"id": 3033367, "name": "Bergouey-Viellenave", "state": "", "country": "FR", "coord": {"lon": -1.05, "lat": 43.416672}}, {"id": 3033371, "name": "Bergonce", "state": "", "country": "FR", "coord": {"lon": -0.19085, "lat": 44.121559}}, {"id": 3033380, "name": "Bergholtz", "state": "", "country": "FR", "coord": {"lon": 7.24612, "lat": 47.915951}}, {"id": 3033382, "name": "Bergheim", "state": "", "country": "FR", "coord": {"lon": 7.36299, "lat": 48.205399}}, {"id": 3033383, "name": "Bergesserin", "state": "", "country": "FR", "coord": {"lon": 4.56152, "lat": 46.401402}}, {"id": 3033390, "name": "Arrondissement de Bergerac", "state": "", "country": "FR", "coord": {"lon": 0.5, "lat": 44.833328}}, {"id": 3033391, "name": "Bergerac", "state": "", "country": "FR", "coord": {"lon": 0.48333, "lat": 44.849998}}, {"id": 3033415, "name": "Berck", "state": "", "country": "FR", "coord": {"lon": 1.6, "lat": 50.400002}}, {"id": 3033416, "name": "Berck-Plage", "state": "", "country": "FR", "coord": {"lon": 1.56446, "lat": 50.40704}}, {"id": 3033430, "name": "Berbigui\u00e8res", "state": "", "country": "FR", "coord": {"lon": 1.04153, "lat": 44.833839}}, {"id": 3033431, "name": "Berbezit", "state": "", "country": "FR", "coord": {"lon": 3.59514, "lat": 45.28458}}, {"id": 3033435, "name": "B\u00e9rat", "state": "", "country": "FR", "coord": {"lon": 1.17572, "lat": 43.378571}}, {"id": 3033449, "name": "B\u00e9ny-sur-Mer", "state": "", "country": "FR", "coord": {"lon": -0.43417, "lat": 49.289982}}, {"id": 3033453, "name": "Benquet", "state": "", "country": "FR", "coord": {"lon": -0.50102, "lat": 43.829922}}, {"id": 3033458, "name": "B\u00e9nouville", "state": "", "country": "FR", "coord": {"lon": -0.28246, "lat": 49.241508}}, {"id": 3033470, "name": "B\u00e9nodet", "state": "", "country": "FR", "coord": {"lon": -4.1058, "lat": 47.875309}}, {"id": 3033471, "name": "Bennwihr", "state": "", "country": "FR", "coord": {"lon": 7.32445, "lat": 48.144562}}, {"id": 3033477, "name": "Bennecourt", "state": "", "country": "FR", "coord": {"lon": 1.55468, "lat": 49.041481}}, {"id": 3033481, "name": "B\u00e9ning-l\u00e8s-Saint-Avold", "state": "", "country": "FR", "coord": {"lon": 6.82975, "lat": 49.137161}}, {"id": 3033488, "name": "Benfeld", "state": "", "country": "FR", "coord": {"lon": 7.5937, "lat": 48.370621}}, {"id": 3033495, "name": "Benet", "state": "", "country": "FR", "coord": {"lon": -0.59333, "lat": 46.36972}}, {"id": 3033500, "name": "B\u00e9nesse-Maremne", "state": "", "country": "FR", "coord": {"lon": -1.35773, "lat": 43.63678}}, {"id": 3033501, "name": "B\u00e9nesse-l\u00e8s-Dax", "state": "", "country": "FR", "coord": {"lon": -1.03333, "lat": 43.650002}}, {"id": 3033504, "name": "B\u00e9n\u00e9jacq", "state": "", "country": "FR", "coord": {"lon": -0.21667, "lat": 43.200001}}, {"id": 3033516, "name": "Benaud", "state": "", "country": "FR", "coord": {"lon": 3.25818, "lat": 45.668442}}, {"id": 3033534, "name": "Belz", "state": "", "country": "FR", "coord": {"lon": -3.168, "lat": 47.67506}}, {"id": 3033545, "name": "Belv\u00e8s-de-Castillon", "state": "", "country": "FR", "coord": {"lon": -0.01667, "lat": 44.866669}}, {"id": 3033546, "name": "Belv\u00e8s", "state": "", "country": "FR", "coord": {"lon": 1.00588, "lat": 44.776321}}, {"id": 3033557, "name": "Belval", "state": "", "country": "FR", "coord": {"lon": -1.36342, "lat": 49.040009}}, {"id": 3033565, "name": "Belpech", "state": "", "country": "FR", "coord": {"lon": 1.75157, "lat": 43.19957}}, {"id": 3033574, "name": "Belmont-sur-Rance", "state": "", "country": "FR", "coord": {"lon": 2.75524, "lat": 43.819809}}, {"id": 3033579, "name": "Belmont-de-la-Loire", "state": "", "country": "FR", "coord": {"lon": 4.34732, "lat": 46.166401}}, {"id": 3033598, "name": "Belloy-en-France", "state": "", "country": "FR", "coord": {"lon": 2.37159, "lat": 49.08836}}, {"id": 3033602, "name": "Bellou-sur-Huisne", "state": "", "country": "FR", "coord": {"lon": 0.76601, "lat": 48.425201}}, {"id": 3033604, "name": "Bellou-en-Houlme", "state": "", "country": "FR", "coord": {"lon": -0.44203, "lat": 48.690289}}, {"id": 3033614, "name": "Bellocq", "state": "", "country": "FR", "coord": {"lon": -0.91667, "lat": 43.51667}}, {"id": 3033618, "name": "Bellign\u00e9", "state": "", "country": "FR", "coord": {"lon": -1.0278, "lat": 47.467739}}, {"id": 3033619, "name": "Bellignat", "state": "", "country": "FR", "coord": {"lon": 5.62843, "lat": 46.242371}}, {"id": 3033623, "name": "Arrondissement de Belley", "state": "", "country": "FR", "coord": {"lon": 5.66667, "lat": 45.833328}}, {"id": 3033625, "name": "Belley", "state": "", "country": "FR", "coord": {"lon": 5.68333, "lat": 45.76667}}, {"id": 3033626, "name": "Bellevue-la-Montagne", "state": "", "country": "FR", "coord": {"lon": 3.81946, "lat": 45.220119}}, {"id": 3033635, "name": "Belleville-sur-Vie", "state": "", "country": "FR", "coord": {"lon": -1.42905, "lat": 46.783691}}, {"id": 3033636, "name": "Belleville", "state": "", "country": "FR", "coord": {"lon": 4.75, "lat": 46.099998}}, {"id": 3033637, "name": "Belleville-sur-Meuse", "state": "", "country": "FR", "coord": {"lon": 5.3719, "lat": 49.178631}}, {"id": 3033645, "name": "Belleville", "state": "", "country": "FR", "coord": {"lon": 6.10108, "lat": 48.819019}}, {"id": 3033647, "name": "Belleville-sur-Loire", "state": "", "country": "FR", "coord": {"lon": 2.85, "lat": 47.5}}, {"id": 3033653, "name": "Bellevaux", "state": "", "country": "FR", "coord": {"lon": 6.53474, "lat": 46.2598}}, {"id": 3033657, "name": "Belleu", "state": "", "country": "FR", "coord": {"lon": 3.33556, "lat": 49.359169}}, {"id": 3033666, "name": "Bellerive-sur-Allier", "state": "", "country": "FR", "coord": {"lon": 3.40338, "lat": 46.116329}}, {"id": 3033667, "name": "Belleray", "state": "", "country": "FR", "coord": {"lon": 5.39833, "lat": 49.1306}}, {"id": 3033669, "name": "Bellentre", "state": "", "country": "FR", "coord": {"lon": 6.71378, "lat": 45.56963}}, {"id": 3033673, "name": "Bellengreville", "state": "", "country": "FR", "coord": {"lon": -0.20961, "lat": 49.124249}}, {"id": 3033675, "name": "Belleneuve", "state": "", "country": "FR", "coord": {"lon": 5.26393, "lat": 47.36224}}, {"id": 3033677, "name": "Bellenaves", "state": "", "country": "FR", "coord": {"lon": 3.08215, "lat": 46.199791}}, {"id": 3033679, "name": "Bell\u00eame", "state": "", "country": "FR", "coord": {"lon": 0.57005, "lat": 48.373291}}, {"id": 3033681, "name": "Belle-Isle-en-Terre", "state": "", "country": "FR", "coord": {"lon": -3.395, "lat": 48.544781}}, {"id": 3033685, "name": "Bellegarde-sur-Valserine", "state": "", "country": "FR", "coord": {"lon": 5.82421, "lat": 46.107868}}, {"id": 3033688, "name": "Bellegarde-en-Forez", "state": "", "country": "FR", "coord": {"lon": 4.29908, "lat": 45.646622}}, {"id": 3033691, "name": "Bellegarde", "state": "", "country": "FR", "coord": {"lon": 2.43333, "lat": 47.98333}}, {"id": 3033695, "name": "Bellegarde", "state": "", "country": "FR", "coord": {"lon": 1.1772, "lat": 45.86834}}, {"id": 3033698, "name": "Bellegarde", "state": "", "country": "FR", "coord": {"lon": 4.51654, "lat": 43.753288}}, {"id": 3033707, "name": "Bellefontaine", "state": "", "country": "FR", "coord": {"lon": -0.97457, "lat": 48.687489}}, {"id": 3033760, "name": "Bellaing", "state": "", "country": "FR", "coord": {"lon": 3.42515, "lat": 50.368111}}, {"id": 3033765, "name": "Arrondissement de Bellac", "state": "", "country": "FR", "coord": {"lon": 1.16667, "lat": 46.166672}}, {"id": 3033766, "name": "Bellac", "state": "", "country": "FR", "coord": {"lon": 1.05, "lat": 46.116669}}, {"id": 3033773, "name": "Belin-B\u00e9liet", "state": "", "country": "FR", "coord": {"lon": -0.78333, "lat": 44.5}}, {"id": 3033775, "name": "B\u00e9ligneux", "state": "", "country": "FR", "coord": {"lon": 5.12683, "lat": 45.868221}}, {"id": 3033776, "name": "B\u00e9liet", "state": "", "country": "FR", "coord": {"lon": -0.78803, "lat": 44.508598}}, {"id": 3033781, "name": "Belhade", "state": "", "country": "FR", "coord": {"lon": -0.68316, "lat": 44.37851}}, {"id": 3033782, "name": "Belguiral", "state": "", "country": "FR", "coord": {"lon": 2.26932, "lat": 44.707039}}, {"id": 3033784, "name": "Belgentier", "state": "", "country": "FR", "coord": {"lon": 6.00095, "lat": 43.245941}}, {"id": 3033789, "name": "Territoire de Belfort", "state": "", "country": "FR", "coord": {"lon": 6.88843, "lat": 47.63578}}, {"id": 3033790, "name": "Arrondissement de Belfort", "state": "", "country": "FR", "coord": {"lon": 6.91667, "lat": 47.666672}}, {"id": 3033791, "name": "Belfort", "state": "", "country": "FR", "coord": {"lon": 6.86667, "lat": 47.633331}}, {"id": 3033792, "name": "Belfonds", "state": "", "country": "FR", "coord": {"lon": 0.11797, "lat": 48.610352}}, {"id": 3033799, "name": "B\u00e9lesta", "state": "", "country": "FR", "coord": {"lon": 1.93325, "lat": 42.902279}}, {"id": 3033803, "name": "Belcod\u00e8ne", "state": "", "country": "FR", "coord": {"lon": 5.58878, "lat": 43.426121}}, {"id": 3033811, "name": "Belbeuf", "state": "", "country": "FR", "coord": {"lon": 1.14245, "lat": 49.387661}}, {"id": 3033813, "name": "Belberaud", "state": "", "country": "FR", "coord": {"lon": 1.56725, "lat": 43.505569}}, {"id": 3033839, "name": "B\u00e9l\u00e2bre", "state": "", "country": "FR", "coord": {"lon": 1.15791, "lat": 46.551201}}, {"id": 3033851, "name": "Beignon", "state": "", "country": "FR", "coord": {"lon": -2.16933, "lat": 47.972}}, {"id": 3033853, "name": "Behren-l\u00e8s-Forbach", "state": "", "country": "FR", "coord": {"lon": 6.94336, "lat": 49.166401}}, {"id": 3033869, "name": "B\u00e8gues", "state": "", "country": "FR", "coord": {"lon": 3.15572, "lat": 46.127201}}, {"id": 3033870, "name": "B\u00e9grolles-en-Mauges", "state": "", "country": "FR", "coord": {"lon": -0.94, "lat": 47.14048}}, {"id": 3033881, "name": "B\u00e8gles", "state": "", "country": "FR", "coord": {"lon": -0.54809, "lat": 44.808449}}, {"id": 3033884, "name": "B\u00e9gard", "state": "", "country": "FR", "coord": {"lon": -3.30067, "lat": 48.627541}}, {"id": 3033885, "name": "B\u00e9ganne", "state": "", "country": "FR", "coord": {"lon": -2.24162, "lat": 47.596699}}, {"id": 3033886, "name": "B\u00e9gadan", "state": "", "country": "FR", "coord": {"lon": -0.89387, "lat": 45.354919}}, {"id": 3033887, "name": "B\u00e9gaar", "state": "", "country": "FR", "coord": {"lon": -0.84904, "lat": 43.823631}}, {"id": 3033900, "name": "B\u00e9doin", "state": "", "country": "FR", "coord": {"lon": 5.1804, "lat": 44.124321}}, {"id": 3033908, "name": "B\u00e9d\u00e9e", "state": "", "country": "FR", "coord": {"lon": -1.94476, "lat": 48.179531}}, {"id": 3033912, "name": "B\u00e9darrides", "state": "", "country": "FR", "coord": {"lon": 4.89819, "lat": 44.040218}}, {"id": 3033913, "name": "B\u00e9darieux", "state": "", "country": "FR", "coord": {"lon": 3.15714, "lat": 43.615528}}, {"id": 3033927, "name": "B\u00e9con-les-Granits", "state": "", "country": "FR", "coord": {"lon": -0.8, "lat": 47.501339}}, {"id": 3033940, "name": "B\u00e9chade", "state": "", "country": "FR", "coord": {"lon": -0.66361, "lat": 44.861038}}, {"id": 3033953, "name": "Beauzelle", "state": "", "country": "FR", "coord": {"lon": 1.37518, "lat": 43.66713}}, {"id": 3033955, "name": "Beauzac", "state": "", "country": "FR", "coord": {"lon": 4.09879, "lat": 45.26001}}, {"id": 3033956, "name": "Beaux", "state": "", "country": "FR", "coord": {"lon": 4.09224, "lat": 45.187199}}, {"id": 3033959, "name": "Beauvoisin", "state": "", "country": "FR", "coord": {"lon": 4.32338, "lat": 43.718349}}, {"id": 3033962, "name": "Beauvois-en-Cambr\u00e9sis", "state": "", "country": "FR", "coord": {"lon": 3.3787, "lat": 50.137348}}, {"id": 3033967, "name": "Beauvoir-sur-Niort", "state": "", "country": "FR", "coord": {"lon": -0.47178, "lat": 46.180168}}, {"id": 3033968, "name": "Beauvoir-sur-Mer", "state": "", "country": "FR", "coord": {"lon": -2.04156, "lat": 46.912739}}, {"id": 3033971, "name": "Beauvoir-de-Marc", "state": "", "country": "FR", "coord": {"lon": 5.08249, "lat": 45.511318}}, {"id": 3033999, "name": "Beauvallon", "state": "", "country": "FR", "coord": {"lon": 4.91155, "lat": 44.856621}}, {"id": 3034001, "name": "Beauval", "state": "", "country": "FR", "coord": {"lon": 2.33269, "lat": 50.107891}}, {"id": 3034005, "name": "Arrondissement de Beauvais", "state": "", "country": "FR", "coord": {"lon": 2, "lat": 49.416672}}, {"id": 3034006, "name": "Beauvais", "state": "", "country": "FR", "coord": {"lon": 2.08333, "lat": 49.433331}}, {"id": 3034023, "name": "Beautor", "state": "", "country": "FR", "coord": {"lon": 3.34475, "lat": 49.652142}}, {"id": 3034024, "name": "Beautiran", "state": "", "country": "FR", "coord": {"lon": -0.45202, "lat": 44.70393}}, {"id": 3034041, "name": "Beausoleil", "state": "", "country": "FR", "coord": {"lon": 7.41702, "lat": 43.749039}}, {"id": 3034044, "name": "Beausemblant", "state": "", "country": "FR", "coord": {"lon": 4.82847, "lat": 45.217838}}, {"id": 3034048, "name": "Beauronne", "state": "", "country": "FR", "coord": {"lon": 0.38224, "lat": 45.095402}}, {"id": 3034054, "name": "Beaurevoir", "state": "", "country": "FR", "coord": {"lon": 3.30855, "lat": 49.997139}}, {"id": 3034062, "name": "Beaurepaire", "state": "", "country": "FR", "coord": {"lon": -1.08928, "lat": 46.909771}}, {"id": 3034064, "name": "Beaurepaire", "state": "", "country": "FR", "coord": {"lon": 5.05525, "lat": 45.336739}}, {"id": 3034066, "name": "Beauregard-Vendon", "state": "", "country": "FR", "coord": {"lon": 3.11169, "lat": 45.95895}}, {"id": 3034067, "name": "Beauregard-l'\u00c9v\u00eaque", "state": "", "country": "FR", "coord": {"lon": 3.29989, "lat": 45.812611}}, {"id": 3034069, "name": "Beauregard-de-Terrasson", "state": "", "country": "FR", "coord": {"lon": 1.22947, "lat": 45.148571}}, {"id": 3034101, "name": "Beaurainville", "state": "", "country": "FR", "coord": {"lon": 1.89938, "lat": 50.42432}}, {"id": 3034103, "name": "Beaurains", "state": "", "country": "FR", "coord": {"lon": 2.79467, "lat": 50.265991}}, {"id": 3034106, "name": "Beauquesne", "state": "", "country": "FR", "coord": {"lon": 2.39276, "lat": 50.085258}}, {"id": 3034107, "name": "Beaupuy", "state": "", "country": "FR", "coord": {"lon": 0.149, "lat": 44.535488}}, {"id": 3034109, "name": "Beaupuy", "state": "", "country": "FR", "coord": {"lon": 1.55517, "lat": 43.647129}}, {"id": 3034111, "name": "Beaupr\u00e9au", "state": "", "country": "FR", "coord": {"lon": -0.98703, "lat": 47.204639}}, {"id": 3034115, "name": "Beaupouyet", "state": "", "country": "FR", "coord": {"lon": 0.26667, "lat": 45}}, {"id": 3034120, "name": "Beaune-sur-Arzon", "state": "", "country": "FR", "coord": {"lon": 3.81574, "lat": 45.279659}}, {"id": 3034122, "name": "Beaune-la-Rolande", "state": "", "country": "FR", "coord": {"lon": 2.4314, "lat": 48.071239}}, {"id": 3034123, "name": "Beaune-d'Allier", "state": "", "country": "FR", "coord": {"lon": 2.88333, "lat": 46.283329}}, {"id": 3034125, "name": "Arrondissement de Beaune", "state": "", "country": "FR", "coord": {"lon": 4.75, "lat": 47.083328}}, {"id": 3034126, "name": "Beaune", "state": "", "country": "FR", "coord": {"lon": 4.83333, "lat": 47.033329}}, {"id": 3034140, "name": "Beaumont-sur-Sarthe", "state": "", "country": "FR", "coord": {"lon": 0.13186, "lat": 48.227718}}, {"id": 3034141, "name": "Beaumont-sur-Oise", "state": "", "country": "FR", "coord": {"lon": 2.28705, "lat": 49.142319}}, {"id": 3034142, "name": "Beaumont-sur-L\u00e8ze", "state": "", "country": "FR", "coord": {"lon": 1.35826, "lat": 43.380951}}, {"id": 3034148, "name": "Beaumont-Monteux", "state": "", "country": "FR", "coord": {"lon": 4.92248, "lat": 45.019421}}, {"id": 3034149, "name": "Beaumont-l\u00e8s-Valence", "state": "", "country": "FR", "coord": {"lon": 4.9457, "lat": 44.863281}}, {"id": 3034153, "name": "Beaumont-le-Roger", "state": "", "country": "FR", "coord": {"lon": 0.78081, "lat": 49.078388}}, {"id": 3034155, "name": "Beaumont-la-Ronce", "state": "", "country": "FR", "coord": {"lon": 0.67017, "lat": 47.569481}}, {"id": 3034158, "name": "Beaumont-Hague", "state": "", "country": "FR", "coord": {"lon": -1.83822, "lat": 49.663872}}, {"id": 3034159, "name": "Beaumont-en-V\u00e9ron", "state": "", "country": "FR", "coord": {"lon": 0.18436, "lat": 47.19397}}, {"id": 3034160, "name": "Beaumont-du-G\u00e2tinais", "state": "", "country": "FR", "coord": {"lon": 2.47913, "lat": 48.138599}}, {"id": 3034164, "name": "Beaumont-en-Auge", "state": "", "country": "FR", "coord": {"lon": 0.11046, "lat": 49.278179}}, {"id": 3034168, "name": "Beaumont-du-P\u00e9rigord", "state": "", "country": "FR", "coord": {"lon": 0.76916, "lat": 44.766621}}, {"id": 3034169, "name": "Beaumont-de-Pertuis", "state": "", "country": "FR", "coord": {"lon": 5.68618, "lat": 43.737881}}, {"id": 3034170, "name": "Beaumont-de-Lomagne", "state": "", "country": "FR", "coord": {"lon": 0.98762, "lat": 43.882858}}, {"id": 3034192, "name": "Beaumont", "state": "", "country": "FR", "coord": {"lon": 0.42961, "lat": 46.737728}}, {"id": 3034195, "name": "Beaumont", "state": "", "country": "FR", "coord": {"lon": 6.11732, "lat": 46.101559}}, {"id": 3034198, "name": "Beaumont", "state": "", "country": "FR", "coord": {"lon": 3.08355, "lat": 45.751228}}, {"id": 3034210, "name": "Beaumetz-l\u00e8s-Loges", "state": "", "country": "FR", "coord": {"lon": 2.65818, "lat": 50.238972}}, {"id": 3034218, "name": "Beaumes-de-Venise", "state": "", "country": "FR", "coord": {"lon": 5.02426, "lat": 44.119339}}, {"id": 3034234, "name": "Beaulon", "state": "", "country": "FR", "coord": {"lon": 3.67262, "lat": 46.60178}}, {"id": 3034238, "name": "Beaulieu-sur-Mer", "state": "", "country": "FR", "coord": {"lon": 7.33289, "lat": 43.707581}}, {"id": 3034240, "name": "Beaulieu-sur-Layon", "state": "", "country": "FR", "coord": {"lon": -0.58988, "lat": 47.310959}}, {"id": 3034241, "name": "Beaulieu-sur-Dordogne", "state": "", "country": "FR", "coord": {"lon": 1.83835, "lat": 44.97826}}, {"id": 3034243, "name": "Beaulieu-sous-la-Roche", "state": "", "country": "FR", "coord": {"lon": -1.61129, "lat": 46.676472}}, {"id": 3034245, "name": "Beaulieu-l\u00e8s-Loches", "state": "", "country": "FR", "coord": {"lon": 1.01585, "lat": 47.125259}}, {"id": 3034274, "name": "Beaulieu", "state": "", "country": "FR", "coord": {"lon": 4.02194, "lat": 43.728611}}, {"id": 3034282, "name": "Beaulandais", "state": "", "country": "FR", "coord": {"lon": -0.54425, "lat": 48.544479}}, {"id": 3034287, "name": "Beaujeu", "state": "", "country": "FR", "coord": {"lon": 4.59243, "lat": 46.15176}}, {"id": 3034297, "name": "Beaugency", "state": "", "country": "FR", "coord": {"lon": 1.62705, "lat": 47.78019}}, {"id": 3034300, "name": "Beaugas", "state": "", "country": "FR", "coord": {"lon": 0.59685, "lat": 44.505909}}, {"id": 3034309, "name": "Beaufort-en-Vall\u00e9e", "state": "", "country": "FR", "coord": {"lon": -0.2189, "lat": 47.439651}}, {"id": 3034316, "name": "Beaufort", "state": "", "country": "FR", "coord": {"lon": 6.57391, "lat": 45.717758}}, {"id": 3034318, "name": "Beaufort", "state": "", "country": "FR", "coord": {"lon": 0.4, "lat": 45.066669}}, {"id": 3034325, "name": "Beaufay", "state": "", "country": "FR", "coord": {"lon": 0.36224, "lat": 48.146641}}, {"id": 3034338, "name": "Beaucroissant", "state": "", "country": "FR", "coord": {"lon": 5.46942, "lat": 45.342289}}, {"id": 3034339, "name": "Beaucouz\u00e9", "state": "", "country": "FR", "coord": {"lon": -0.63016, "lat": 47.474442}}, {"id": 3034343, "name": "Beaucourt", "state": "", "country": "FR", "coord": {"lon": 6.92407, "lat": 47.489899}}, {"id": 3034363, "name": "Beauchastel", "state": "", "country": "FR", "coord": {"lon": 4.79696, "lat": 44.827591}}, {"id": 3034365, "name": "Beauchamps-sur-Huillard", "state": "", "country": "FR", "coord": {"lon": 2.45428, "lat": 47.937801}}, {"id": 3034366, "name": "Beauchamps", "state": "", "country": "FR", "coord": {"lon": 1.51764, "lat": 50.01202}}, {"id": 3034367, "name": "Beauchamps", "state": "", "country": "FR", "coord": {"lon": -1.36, "lat": 48.832378}}, {"id": 3034369, "name": "Beauchamp", "state": "", "country": "FR", "coord": {"lon": 2.2, "lat": 49.01667}}, {"id": 3034374, "name": "Beauc\u00e9", "state": "", "country": "FR", "coord": {"lon": -1.15804, "lat": 48.338902}}, {"id": 3034376, "name": "Beaucamps-le-Vieux", "state": "", "country": "FR", "coord": {"lon": 1.78272, "lat": 49.84642}}, {"id": 3034382, "name": "Beaucaire", "state": "", "country": "FR", "coord": {"lon": 4.64417, "lat": 43.80806}}, {"id": 3034389, "name": "Beaubie", "state": "", "country": "FR", "coord": {"lon": 2.77403, "lat": 45.462139}}, {"id": 3034395, "name": "Bearn\u00e8s", "state": "", "country": "FR", "coord": {"lon": 0.57725, "lat": 44.676949}}, {"id": 3034411, "name": "Bazouges-sur-le-Loir", "state": "", "country": "FR", "coord": {"lon": -0.16883, "lat": 47.689281}}, {"id": 3034413, "name": "Bazouges-la-P\u00e9rouse", "state": "", "country": "FR", "coord": {"lon": -1.57431, "lat": 48.42606}}, {"id": 3034422, "name": "Bazoges-en-Pareds", "state": "", "country": "FR", "coord": {"lon": -0.91654, "lat": 46.657021}}, {"id": 3034426, "name": "Bazoches-sur-Ho\u00ebne", "state": "", "country": "FR", "coord": {"lon": 0.47475, "lat": 48.551842}}, {"id": 3034429, "name": "Bazoches-les-Gallerandes", "state": "", "country": "FR", "coord": {"lon": 2.04319, "lat": 48.165401}}, {"id": 3034432, "name": "Bazoches-au-Houlme", "state": "", "country": "FR", "coord": {"lon": -0.24052, "lat": 48.817829}}, {"id": 3034442, "name": "Bazi\u00e8ge", "state": "", "country": "FR", "coord": {"lon": 1.61399, "lat": 43.45454}}, {"id": 3034446, "name": "Bazet", "state": "", "country": "FR", "coord": {"lon": 0.06728, "lat": 43.291451}}, {"id": 3034450, "name": "Bazens", "state": "", "country": "FR", "coord": {"lon": 0.42264, "lat": 44.26292}}, {"id": 3034451, "name": "Bazemont", "state": "", "country": "FR", "coord": {"lon": 1.86651, "lat": 48.927261}}, {"id": 3034453, "name": "Bazeilles-sur-Othain", "state": "", "country": "FR", "coord": {"lon": 5.42868, "lat": 49.497719}}, {"id": 3034454, "name": "Bazeilles", "state": "", "country": "FR", "coord": {"lon": 4.97752, "lat": 49.676498}}, {"id": 3034458, "name": "Bazas", "state": "", "country": "FR", "coord": {"lon": -0.21327, "lat": 44.432018}}, {"id": 3034461, "name": "Bazancourt", "state": "", "country": "FR", "coord": {"lon": 4.17051, "lat": 49.36562}}, {"id": 3034463, "name": "Bazainville", "state": "", "country": "FR", "coord": {"lon": 1.66732, "lat": 48.804352}}, {"id": 3034473, "name": "Arrondissement de Bayonne", "state": "", "country": "FR", "coord": {"lon": -1.41667, "lat": 43.333328}}, {"id": 3034475, "name": "Bayonne", "state": "", "country": "FR", "coord": {"lon": -1.48333, "lat": 43.48333}}, {"id": 3034476, "name": "Bayon", "state": "", "country": "FR", "coord": {"lon": 6.31583, "lat": 48.47366}}, {"id": 3034477, "name": "Bayon-sur-Gironde", "state": "", "country": "FR", "coord": {"lon": -0.58333, "lat": 45.049999}}, {"id": 3034482, "name": "Arrondissement de Bayeux", "state": "", "country": "FR", "coord": {"lon": -0.83333, "lat": 49.25}}, {"id": 3034483, "name": "Bayeux", "state": "", "country": "FR", "coord": {"lon": -0.7039, "lat": 49.277321}}, {"id": 3034484, "name": "Bayet", "state": "", "country": "FR", "coord": {"lon": 3.26958, "lat": 46.249359}}, {"id": 3034495, "name": "Bayas", "state": "", "country": "FR", "coord": {"lon": -0.2, "lat": 45.066669}}, {"id": 3034499, "name": "Bayac", "state": "", "country": "FR", "coord": {"lon": 0.72771, "lat": 44.803558}}, {"id": 3034506, "name": "Bavilliers", "state": "", "country": "FR", "coord": {"lon": 6.8311, "lat": 47.622551}}, {"id": 3034509, "name": "Bavent", "state": "", "country": "FR", "coord": {"lon": -0.18675, "lat": 49.229961}}, {"id": 3034514, "name": "Bavay", "state": "", "country": "FR", "coord": {"lon": 3.79372, "lat": 50.298279}}, {"id": 3034515, "name": "Bavans", "state": "", "country": "FR", "coord": {"lon": 6.73324, "lat": 47.485279}}, {"id": 3034521, "name": "Bauvin", "state": "", "country": "FR", "coord": {"lon": 2.89404, "lat": 50.517139}}, {"id": 3034524, "name": "Baurech", "state": "", "country": "FR", "coord": {"lon": -0.4387, "lat": 44.72559}}, {"id": 3034526, "name": "Baupte", "state": "", "country": "FR", "coord": {"lon": -1.36142, "lat": 49.308029}}, {"id": 3034529, "name": "Baun\u00e9", "state": "", "country": "FR", "coord": {"lon": -0.31906, "lat": 47.499538}}, {"id": 3034535, "name": "Baume-les-Dames", "state": "", "country": "FR", "coord": {"lon": 6.36117, "lat": 47.352951}}, {"id": 3034538, "name": "Baulon", "state": "", "country": "FR", "coord": {"lon": -1.93114, "lat": 47.985901}}, {"id": 3034541, "name": "Baulne", "state": "", "country": "FR", "coord": {"lon": 2.3623, "lat": 48.493031}}, {"id": 3034543, "name": "Baule", "state": "", "country": "FR", "coord": {"lon": 1.67259, "lat": 47.810841}}, {"id": 3034548, "name": "Baugy", "state": "", "country": "FR", "coord": {"lon": 2.72848, "lat": 47.08181}}, {"id": 3034554, "name": "Baug\u00e9-en-Anjou", "state": "", "country": "FR", "coord": {"lon": -0.10653, "lat": 47.544472}}, {"id": 3034556, "name": "Bauduen", "state": "", "country": "FR", "coord": {"lon": 6.17648, "lat": 43.732948}}, {"id": 3034566, "name": "Baudreix", "state": "", "country": "FR", "coord": {"lon": -0.25, "lat": 43.200001}}, {"id": 3034569, "name": "Baudre", "state": "", "country": "FR", "coord": {"lon": -1.07254, "lat": 49.089439}}, {"id": 3034575, "name": "Baudignan", "state": "", "country": "FR", "coord": {"lon": 0.05221, "lat": 44.089588}}, {"id": 3034582, "name": "Baud", "state": "", "country": "FR", "coord": {"lon": -3.0176, "lat": 47.874741}}, {"id": 3034585, "name": "Batz-sur-Mer", "state": "", "country": "FR", "coord": {"lon": -2.48027, "lat": 47.2775}}, {"id": 3034595, "name": "Battenheim", "state": "", "country": "FR", "coord": {"lon": 7.38303, "lat": 47.820068}}, {"id": 3034608, "name": "Batilly", "state": "", "country": "FR", "coord": {"lon": 5.96889, "lat": 49.173721}}, {"id": 3034639, "name": "Arrondissement de Bastia", "state": "", "country": "FR", "coord": {"lon": 9.33333, "lat": 42.666672}}, {"id": 3034640, "name": "Bastia", "state": "", "country": "FR", "coord": {"lon": 9.45, "lat": 42.702782}}, {"id": 3034641, "name": "Bastennes", "state": "", "country": "FR", "coord": {"lon": -0.78333, "lat": 43.650002}}, {"id": 3034645, "name": "Bastan\u00e8s", "state": "", "country": "FR", "coord": {"lon": -0.7699, "lat": 43.347549}}, {"id": 3034649, "name": "Bassussarry", "state": "", "country": "FR", "coord": {"lon": -1.51647, "lat": 43.442719}}, {"id": 3034664, "name": "Bassillon-Vauz\u00e9", "state": "", "country": "FR", "coord": {"lon": -0.06667, "lat": 43.450001}}, {"id": 3034665, "name": "Bassillac", "state": "", "country": "FR", "coord": {"lon": 0.81528, "lat": 45.19305}}, {"id": 3034669, "name": "Bassignac", "state": "", "country": "FR", "coord": {"lon": 2.41667, "lat": 45.316669}}, {"id": 3034685, "name": "Bassercles", "state": "", "country": "FR", "coord": {"lon": -0.61667, "lat": 43.549999}}, {"id": 3034690, "name": "Bassens", "state": "", "country": "FR", "coord": {"lon": 5.94349, "lat": 45.58503}}, {"id": 3034691, "name": "Bassens", "state": "", "country": "FR", "coord": {"lon": -0.51631, "lat": 44.90226}}, {"id": 3034693, "name": "Basse-Normandie", "state": "", "country": "FR", "coord": {"lon": -1, "lat": 49}}, {"id": 3034697, "name": "Indre", "state": "", "country": "FR", "coord": {"lon": -1.66667, "lat": 47.200001}}, {"id": 3034698, "name": "Basse-Ham", "state": "", "country": "FR", "coord": {"lon": 6.24228, "lat": 49.387131}}, {"id": 3034699, "name": "Basse-Goulaine", "state": "", "country": "FR", "coord": {"lon": -1.46748, "lat": 47.21167}}, {"id": 3034713, "name": "Bassan", "state": "", "country": "FR", "coord": {"lon": 3.25396, "lat": 43.410599}}, {"id": 3034720, "name": "Bas-Rhin", "state": "", "country": "FR", "coord": {"lon": 7.66667, "lat": 48.583328}}, {"id": 3034733, "name": "Basly", "state": "", "country": "FR", "coord": {"lon": -0.42321, "lat": 49.27861}}, {"id": 3034745, "name": "Bas-et-Lezat", "state": "", "country": "FR", "coord": {"lon": 3.29976, "lat": 46.025909}}, {"id": 3034746, "name": "Bas-en-Basset", "state": "", "country": "FR", "coord": {"lon": 4.10899, "lat": 45.306541}}, {"id": 3034754, "name": "Bascons", "state": "", "country": "FR", "coord": {"lon": -0.41767, "lat": 43.822559}}, {"id": 3034776, "name": "Bas", "state": "", "country": "FR", "coord": {"lon": 3.03333, "lat": 45.549999}}, {"id": 3034779, "name": "Barzun", "state": "", "country": "FR", "coord": {"lon": -0.13333, "lat": 43.216671}}, {"id": 3034797, "name": "Bartenheim", "state": "", "country": "FR", "coord": {"lon": 7.47712, "lat": 47.633541}}, {"id": 3034798, "name": "Bart", "state": "", "country": "FR", "coord": {"lon": 6.7709, "lat": 47.488609}}, {"id": 3034800, "name": "Bar-sur-Seine", "state": "", "country": "FR", "coord": {"lon": 4.37656, "lat": 48.112942}}, {"id": 3034801, "name": "Arrondissement de Bar-sur-Aube", "state": "", "country": "FR", "coord": {"lon": 4.58333, "lat": 48.25}}, {"id": 3034802, "name": "Bar-sur-Aube", "state": "", "country": "FR", "coord": {"lon": 4.71667, "lat": 48.23333}}, {"id": 3034807, "name": "Barsac", "state": "", "country": "FR", "coord": {"lon": -0.31527, "lat": 44.607449}}, {"id": 3034821, "name": "Barrot", "state": "", "country": "FR", "coord": {"lon": 2.76841, "lat": 46.10265}}, {"id": 3034829, "name": "Barriac-les-Bosquets", "state": "", "country": "FR", "coord": {"lon": 2.26667, "lat": 45.150002}}, {"id": 3034851, "name": "Barraux", "state": "", "country": "FR", "coord": {"lon": 5.9789, "lat": 45.435032}}, {"id": 3034852, "name": "Barraute-Camu", "state": "", "country": "FR", "coord": {"lon": -0.89542, "lat": 43.387211}}, {"id": 3034854, "name": "Barrat", "state": "", "country": "FR", "coord": {"lon": 0.56809, "lat": 45.118679}}, {"id": 3034868, "name": "Barr", "state": "", "country": "FR", "coord": {"lon": 7.44873, "lat": 48.407551}}, {"id": 3034871, "name": "Barou-en-Auge", "state": "", "country": "FR", "coord": {"lon": -0.0427, "lat": 48.930538}}, {"id": 3034873, "name": "Baron-sur-Odon", "state": "", "country": "FR", "coord": {"lon": -0.47795, "lat": 49.13221}}, {"id": 3034887, "name": "Barneville-Plage", "state": "", "country": "FR", "coord": {"lon": -1.76512, "lat": 49.367859}}, {"id": 3034903, "name": "Barlin", "state": "", "country": "FR", "coord": {"lon": 2.61955, "lat": 50.452381}}, {"id": 3034910, "name": "Arrondissement de Bar-le-Duc", "state": "", "country": "FR", "coord": {"lon": 5.16667, "lat": 48.75}}, {"id": 3034911, "name": "Bar-le-Duc", "state": "", "country": "FR", "coord": {"lon": 5.16667, "lat": 48.783329}}, {"id": 3034915, "name": "Barjouville", "state": "", "country": "FR", "coord": {"lon": 1.47639, "lat": 48.410019}}, {"id": 3034918, "name": "Barjols", "state": "", "country": "FR", "coord": {"lon": 6.00783, "lat": 43.557819}}, {"id": 3034921, "name": "Barjac", "state": "", "country": "FR", "coord": {"lon": 4.35146, "lat": 44.30743}}, {"id": 3034929, "name": "Barinque", "state": "", "country": "FR", "coord": {"lon": -0.26667, "lat": 43.400002}}, {"id": 3034930, "name": "Barie", "state": "", "country": "FR", "coord": {"lon": -0.11044, "lat": 44.572498}}, {"id": 3034939, "name": "Bargemon", "state": "", "country": "FR", "coord": {"lon": 6.54957, "lat": 43.618992}}, {"id": 3034950, "name": "Barenton", "state": "", "country": "FR", "coord": {"lon": -0.83258, "lat": 48.600269}}, {"id": 3034951, "name": "Barentin", "state": "", "country": "FR", "coord": {"lon": 0.95515, "lat": 49.54533}}, {"id": 3034964, "name": "Bardos", "state": "", "country": "FR", "coord": {"lon": -1.20347, "lat": 43.473919}}, {"id": 3034974, "name": "Bardais", "state": "", "country": "FR", "coord": {"lon": 2.76961, "lat": 46.703911}}, {"id": 3034984, "name": "Barcus", "state": "", "country": "FR", "coord": {"lon": -0.77017, "lat": 43.1894}}, {"id": 3034990, "name": "Arrondissement de Barcelonnette", "state": "", "country": "FR", "coord": {"lon": 6.66667, "lat": 44.416672}}, {"id": 3034991, "name": "Barcelonnette", "state": "", "country": "FR", "coord": {"lon": 6.65, "lat": 44.383331}}, {"id": 3034992, "name": "Barcelonne-du-Gers", "state": "", "country": "FR", "coord": {"lon": -0.23619, "lat": 43.703602}}, {"id": 3034995, "name": "Barcaggio", "state": "", "country": "FR", "coord": {"lon": 9.40212, "lat": 43.004951}}, {"id": 3034998, "name": "Barby", "state": "", "country": "FR", "coord": {"lon": 5.98273, "lat": 45.570831}}, {"id": 3035009, "name": "Barbizon", "state": "", "country": "FR", "coord": {"lon": 2.60313, "lat": 48.443459}}, {"id": 3035016, "name": "Barbezieux-Saint-Hilaire", "state": "", "country": "FR", "coord": {"lon": -0.15218, "lat": 45.472649}}, {"id": 3035025, "name": "Barbery", "state": "", "country": "FR", "coord": {"lon": -0.3535, "lat": 49.00967}}, {"id": 3035033, "name": "Barberaz", "state": "", "country": "FR", "coord": {"lon": 5.93333, "lat": 45.549999}}, {"id": 3035036, "name": "Barbentane", "state": "", "country": "FR", "coord": {"lon": 4.74921, "lat": 43.89967}}, {"id": 3035040, "name": "Barbechat", "state": "", "country": "FR", "coord": {"lon": -1.28524, "lat": 47.2775}}, {"id": 3035044, "name": "Barbazan-Debat", "state": "", "country": "FR", "coord": {"lon": 0.1206, "lat": 43.195801}}, {"id": 3035046, "name": "Barb\u00e2tre", "state": "", "country": "FR", "coord": {"lon": -2.17752, "lat": 46.941158}}, {"id": 3035049, "name": "Barbaste", "state": "", "country": "FR", "coord": {"lon": 0.28659, "lat": 44.169048}}, {"id": 3035055, "name": "Barbaliche", "state": "", "country": "FR", "coord": {"lon": 3.6, "lat": 45.566669}}, {"id": 3035065, "name": "Baraqueville", "state": "", "country": "FR", "coord": {"lon": 2.43184, "lat": 44.27655}}, {"id": 3035088, "name": "Bapaume", "state": "", "country": "FR", "coord": {"lon": 2.84966, "lat": 50.10379}}, {"id": 3035092, "name": "Banyuls de la Marenda", "state": "", "country": "FR", "coord": {"lon": 3.12897, "lat": 42.483749}}, {"id": 3035093, "name": "Banyuls-dels-Aspres", "state": "", "country": "FR", "coord": {"lon": 2.86667, "lat": 42.56567}}, {"id": 3035095, "name": "Banvou", "state": "", "country": "FR", "coord": {"lon": -0.55238, "lat": 48.665359}}, {"id": 3035099, "name": "Bantzenheim", "state": "", "country": "FR", "coord": {"lon": 7.51498, "lat": 47.825611}}, {"id": 3035108, "name": "Bansat", "state": "", "country": "FR", "coord": {"lon": 3.34758, "lat": 45.482841}}, {"id": 3035114, "name": "Banos", "state": "", "country": "FR", "coord": {"lon": -0.62553, "lat": 43.737}}, {"id": 3035123, "name": "Banneville-sur-Ajon", "state": "", "country": "FR", "coord": {"lon": -0.56988, "lat": 49.062981}}, {"id": 3035139, "name": "Bannalec", "state": "", "country": "FR", "coord": {"lon": -3.69759, "lat": 47.932289}}, {"id": 3035142, "name": "Banize", "state": "", "country": "FR", "coord": {"lon": 2.06168, "lat": 45.87479}}, {"id": 3035156, "name": "Bandol", "state": "", "country": "FR", "coord": {"lon": 5.7316, "lat": 43.137089}}, {"id": 3035160, "name": "Ban-de-Laveline", "state": "", "country": "FR", "coord": {"lon": 7.06593, "lat": 48.24498}}, {"id": 3035181, "name": "Balzac", "state": "", "country": "FR", "coord": {"lon": 0.11667, "lat": 45.700001}}, {"id": 3035186, "name": "Balsac", "state": "", "country": "FR", "coord": {"lon": 2.44515, "lat": 44.403568}}, {"id": 3035204, "name": "Balma", "state": "", "country": "FR", "coord": {"lon": 1.49944, "lat": 43.611111}}, {"id": 3035206, "name": "Ballots", "state": "", "country": "FR", "coord": {"lon": -1.04759, "lat": 47.89616}}, {"id": 3035207, "name": "Ballot", "state": "", "country": "FR", "coord": {"lon": 2.72305, "lat": 45.83503}}, {"id": 3035211, "name": "Ballon", "state": "", "country": "FR", "coord": {"lon": 0.23814, "lat": 48.173168}}, {"id": 3035226, "name": "Ballan-Mir\u00e9", "state": "", "country": "FR", "coord": {"lon": 0.61466, "lat": 47.340569}}, {"id": 3035228, "name": "Ballancourt-sur-Essonne", "state": "", "country": "FR", "coord": {"lon": 2.38604, "lat": 48.525249}}, {"id": 3035229, "name": "Ballaison", "state": "", "country": "FR", "coord": {"lon": 6.33191, "lat": 46.299431}}, {"id": 3035230, "name": "Ballainvilliers", "state": "", "country": "FR", "coord": {"lon": 2.30057, "lat": 48.674809}}, {"id": 3035232, "name": "Balizac", "state": "", "country": "FR", "coord": {"lon": -0.44404, "lat": 44.487621}}, {"id": 3035234, "name": "Baliros", "state": "", "country": "FR", "coord": {"lon": -0.3, "lat": 43.23333}}, {"id": 3035244, "name": "Baleyssagues", "state": "", "country": "FR", "coord": {"lon": 0.15543, "lat": 44.685001}}, {"id": 3035250, "name": "Baleix", "state": "", "country": "FR", "coord": {"lon": -0.13333, "lat": 43.383331}}, {"id": 3035254, "name": "Baldersheim", "state": "", "country": "FR", "coord": {"lon": 7.3802, "lat": 47.801579}}, {"id": 3035260, "name": "Balbigny", "state": "", "country": "FR", "coord": {"lon": 4.18756, "lat": 45.819279}}, {"id": 3035263, "name": "Balaz\u00e9", "state": "", "country": "FR", "coord": {"lon": -1.19157, "lat": 48.167969}}, {"id": 3035267, "name": "Balaruc-le-Vieux", "state": "", "country": "FR", "coord": {"lon": 3.6853, "lat": 43.461399}}, {"id": 3035268, "name": "Balaruc-les-Bains", "state": "", "country": "FR", "coord": {"lon": 3.6778, "lat": 43.4417}}, {"id": 3035271, "name": "Balansun", "state": "", "country": "FR", "coord": {"lon": -0.7, "lat": 43.48333}}, {"id": 3035278, "name": "Balan", "state": "", "country": "FR", "coord": {"lon": 4.96478, "lat": 49.68882}}, {"id": 3035279, "name": "Balan", "state": "", "country": "FR", "coord": {"lon": 5.09834, "lat": 45.834301}}, {"id": 3035286, "name": "Balagny-sur-Th\u00e9rain", "state": "", "country": "FR", "coord": {"lon": 2.33645, "lat": 49.296051}}, {"id": 3035295, "name": "Baixas", "state": "", "country": "FR", "coord": {"lon": 2.81002, "lat": 42.749691}}, {"id": 3035304, "name": "Baisieux", "state": "", "country": "FR", "coord": {"lon": 3.25251, "lat": 50.60841}}, {"id": 3035308, "name": "Bais", "state": "", "country": "FR", "coord": {"lon": -0.36493, "lat": 48.2528}}, {"id": 3035309, "name": "Bais", "state": "", "country": "FR", "coord": {"lon": -1.28983, "lat": 48.00959}}, {"id": 3035313, "name": "Bainville-sur-Madon", "state": "", "country": "FR", "coord": {"lon": 6.09582, "lat": 48.58807}}, {"id": 3035316, "name": "Bains-sur-Oust", "state": "", "country": "FR", "coord": {"lon": -2.07047, "lat": 47.703621}}, {"id": 3035317, "name": "Bains-les-Bains", "state": "", "country": "FR", "coord": {"lon": 6.26492, "lat": 48.001129}}, {"id": 3035322, "name": "Bains", "state": "", "country": "FR", "coord": {"lon": 3.77465, "lat": 45.009628}}, {"id": 3035324, "name": "Bain-de-Bretagne", "state": "", "country": "FR", "coord": {"lon": -1.68486, "lat": 47.844181}}, {"id": 3035325, "name": "Baincthun", "state": "", "country": "FR", "coord": {"lon": 1.68075, "lat": 50.709942}}, {"id": 3035329, "name": "Bailly-Romainvilliers", "state": "", "country": "FR", "coord": {"lon": 2.82352, "lat": 48.84729}}, {"id": 3035333, "name": "Bailly-Carrois", "state": "", "country": "FR", "coord": {"lon": 2.99047, "lat": 48.580292}}, {"id": 3035340, "name": "Bailly", "state": "", "country": "FR", "coord": {"lon": 2.07672, "lat": 48.841679}}, {"id": 3035349, "name": "Bailleval", "state": "", "country": "FR", "coord": {"lon": 2.45695, "lat": 49.34605}}, {"id": 3035351, "name": "Bailleul-sur-Th\u00e9rain", "state": "", "country": "FR", "coord": {"lon": 2.22279, "lat": 49.385262}}, {"id": 3035352, "name": "Bailleul-Sir-Berthoult", "state": "", "country": "FR", "coord": {"lon": 2.85129, "lat": 50.337521}}, {"id": 3035359, "name": "Bailleul", "state": "", "country": "FR", "coord": {"lon": 2.73594, "lat": 50.73592}}, {"id": 3035362, "name": "Baillet-en-France", "state": "", "country": "FR", "coord": {"lon": 2.2988, "lat": 49.061871}}, {"id": 3035365, "name": "Bailleau-l'\u00c9v\u00eaque", "state": "", "country": "FR", "coord": {"lon": 1.39665, "lat": 48.489601}}, {"id": 3035366, "name": "Bailleau-le-Pin", "state": "", "country": "FR", "coord": {"lon": 1.32948, "lat": 48.366982}}, {"id": 3035370, "name": "Baillargues", "state": "", "country": "FR", "coord": {"lon": 4.01681, "lat": 43.66267}}, {"id": 3035372, "name": "Baigts-de-B\u00e9arn", "state": "", "country": "FR", "coord": {"lon": -0.83894, "lat": 43.512482}}, {"id": 3035376, "name": "Baignes-Sainte-Radegonde", "state": "", "country": "FR", "coord": {"lon": -0.23333, "lat": 45.383331}}, {"id": 3035381, "name": "Baigneaux", "state": "", "country": "FR", "coord": {"lon": 1.81667, "lat": 48.133331}}, {"id": 3035386, "name": "Bahus-Soubiran", "state": "", "country": "FR", "coord": {"lon": -0.35676, "lat": 43.672619}}, {"id": 3035388, "name": "Baho", "state": "", "country": "FR", "coord": {"lon": 2.82204, "lat": 42.700001}}, {"id": 3035389, "name": "Baguer-Pican", "state": "", "country": "FR", "coord": {"lon": -1.69837, "lat": 48.552528}}, {"id": 3035390, "name": "Baguer-Morvan", "state": "", "country": "FR", "coord": {"lon": -1.77332, "lat": 48.525311}}, {"id": 3035396, "name": "Bagnols-sur-C\u00e8ze", "state": "", "country": "FR", "coord": {"lon": 4.61776, "lat": 44.159901}}, {"id": 3035398, "name": "Bagnols-en-For\u00eat", "state": "", "country": "FR", "coord": {"lon": 6.7019, "lat": 43.536659}}, {"id": 3035403, "name": "Bagnolet", "state": "", "country": "FR", "coord": {"lon": 2.41667, "lat": 48.866669}}, {"id": 3035404, "name": "Bagnoles-de-l'Orne", "state": "", "country": "FR", "coord": {"lon": -0.41383, "lat": 48.557201}}, {"id": 3035409, "name": "Bagneux", "state": "", "country": "FR", "coord": {"lon": 2.30796, "lat": 48.795639}}, {"id": 3035416, "name": "Bagn\u00e8res-de-Luchon", "state": "", "country": "FR", "coord": {"lon": 0.59315, "lat": 42.790791}}, {"id": 3035417, "name": "Arrondissement de Bagn\u00e8res-de-Bigorre", "state": "", "country": "FR", "coord": {"lon": 0.25, "lat": 42.916672}}, {"id": 3035418, "name": "Bagn\u00e8res-de-Bigorre", "state": "", "country": "FR", "coord": {"lon": 0.15, "lat": 43.066669}}, {"id": 3035419, "name": "Bagneaux-sur-Loing", "state": "", "country": "FR", "coord": {"lon": 2.70675, "lat": 48.233101}}, {"id": 3035425, "name": "Bagnard", "state": "", "country": "FR", "coord": {"lon": 2.73166, "lat": 45.38472}}, {"id": 3035432, "name": "Bages", "state": "", "country": "FR", "coord": {"lon": 2.8935, "lat": 42.605881}}, {"id": 3035437, "name": "B\u00e2g\u00e9-la-Ville", "state": "", "country": "FR", "coord": {"lon": 4.94666, "lat": 46.31654}}, {"id": 3035441, "name": "Bagard", "state": "", "country": "FR", "coord": {"lon": 4.05225, "lat": 44.071259}}, {"id": 3035459, "name": "Baden", "state": "", "country": "FR", "coord": {"lon": -2.91987, "lat": 47.61734}}, {"id": 3035461, "name": "Badefols-sur-Dordogne", "state": "", "country": "FR", "coord": {"lon": 0.79181, "lat": 44.843262}}, {"id": 3035462, "name": "Badefols-d'Ans", "state": "", "country": "FR", "coord": {"lon": 1.19828, "lat": 45.22908}}, {"id": 3035470, "name": "Badailhac", "state": "", "country": "FR", "coord": {"lon": 2.6248, "lat": 44.918819}}, {"id": 3035471, "name": "Bacqueville-en-Caux", "state": "", "country": "FR", "coord": {"lon": 0.99927, "lat": 49.787609}}, {"id": 3035481, "name": "Bacilly", "state": "", "country": "FR", "coord": {"lon": -1.44089, "lat": 48.701019}}, {"id": 3035482, "name": "Bachy", "state": "", "country": "FR", "coord": {"lon": 3.25976, "lat": 50.550789}}, {"id": 3035492, "name": "Bachant", "state": "", "country": "FR", "coord": {"lon": 3.86835, "lat": 50.215401}}, {"id": 3035498, "name": "Baccarat", "state": "", "country": "FR", "coord": {"lon": 6.73935, "lat": 48.450859}}, {"id": 3035500, "name": "Bacalan", "state": "", "country": "FR", "coord": {"lon": -0.56667, "lat": 44.866669}}, {"id": 3035519, "name": "Azur", "state": "", "country": "FR", "coord": {"lon": -1.3, "lat": 43.799999}}, {"id": 3035525, "name": "Azille", "state": "", "country": "FR", "coord": {"lon": 2.65981, "lat": 43.276909}}, {"id": 3035535, "name": "Az\u00e9rat", "state": "", "country": "FR", "coord": {"lon": 3.38202, "lat": 45.362759}}, {"id": 3035541, "name": "Az\u00e9", "state": "", "country": "FR", "coord": {"lon": 0.99829, "lat": 47.85141}}, {"id": 3035542, "name": "Az\u00e9", "state": "", "country": "FR", "coord": {"lon": -0.68333, "lat": 47.822201}}, {"id": 3035547, "name": "Azay-sur-Cher", "state": "", "country": "FR", "coord": {"lon": 0.84562, "lat": 47.349659}}, {"id": 3035548, "name": "Azay-le-Rideau", "state": "", "country": "FR", "coord": {"lon": 0.47132, "lat": 47.26405}}, {"id": 3035549, "name": "Azay-le-Ferron", "state": "", "country": "FR", "coord": {"lon": 1.07084, "lat": 46.850971}}, {"id": 3035550, "name": "Azay-le-Br\u00fbl\u00e9", "state": "", "country": "FR", "coord": {"lon": -0.24914, "lat": 46.400108}}, {"id": 3035560, "name": "Aytr\u00e9", "state": "", "country": "FR", "coord": {"lon": -1.11452, "lat": 46.1357}}, {"id": 3035561, "name": "Ay-sur-Moselle", "state": "", "country": "FR", "coord": {"lon": 6.2068, "lat": 49.24139}}, {"id": 3035563, "name": "Ayse", "state": "", "country": "FR", "coord": {"lon": 6.43333, "lat": 46.083328}}, {"id": 3035566, "name": "Ayron", "state": "", "country": "FR", "coord": {"lon": 0.07545, "lat": 46.660259}}, {"id": 3035568, "name": "Ayrens", "state": "", "country": "FR", "coord": {"lon": 2.32663, "lat": 44.984459}}, {"id": 3035575, "name": "Ayherre", "state": "", "country": "FR", "coord": {"lon": -1.2542, "lat": 43.391548}}, {"id": 3035576, "name": "Ayguesvives", "state": "", "country": "FR", "coord": {"lon": 1.59505, "lat": 43.436359}}, {"id": 3035577, "name": "Ayguemorte-les-Graves", "state": "", "country": "FR", "coord": {"lon": -0.4806, "lat": 44.709881}}, {"id": 3035585, "name": "Aydoilles", "state": "", "country": "FR", "coord": {"lon": 6.57389, "lat": 48.210258}}, {"id": 3035586, "name": "Aydius", "state": "", "country": "FR", "coord": {"lon": -0.54108, "lat": 43.00145}}, {"id": 3035587, "name": "Aydie", "state": "", "country": "FR", "coord": {"lon": -0.10426, "lat": 43.5695}}, {"id": 3035589, "name": "Aydat", "state": "", "country": "FR", "coord": {"lon": 2.97391, "lat": 45.661362}}, {"id": 3035591, "name": "Ayat-sur-Sioule", "state": "", "country": "FR", "coord": {"lon": 2.8884, "lat": 46.050869}}, {"id": 3035594, "name": "Ay", "state": "", "country": "FR", "coord": {"lon": 4.00343, "lat": 49.054569}}, {"id": 3035595, "name": "Ax-les-Thermes", "state": "", "country": "FR", "coord": {"lon": 1.83845, "lat": 42.719681}}, {"id": 3035608, "name": "Avrilly", "state": "", "country": "FR", "coord": {"lon": -0.61481, "lat": 48.539478}}, {"id": 3035612, "name": "Avrill\u00e9", "state": "", "country": "FR", "coord": {"lon": -0.58333, "lat": 47.5}}, {"id": 3035613, "name": "Avrill\u00e9", "state": "", "country": "FR", "coord": {"lon": -1.48049, "lat": 46.468399}}, {"id": 3035634, "name": "Avrechy", "state": "", "country": "FR", "coord": {"lon": 2.4271, "lat": 49.44796}}, {"id": 3035638, "name": "Arrondissement d'Avranches", "state": "", "country": "FR", "coord": {"lon": -1.16667, "lat": 48.666672}}, {"id": 3035639, "name": "Avranches", "state": "", "country": "FR", "coord": {"lon": -1.36667, "lat": 48.683331}}, {"id": 3035649, "name": "Avord", "state": "", "country": "FR", "coord": {"lon": 2.65295, "lat": 47.035141}}, {"id": 3035654, "name": "Avon", "state": "", "country": "FR", "coord": {"lon": 2.72022, "lat": 48.402199}}, {"id": 3035659, "name": "Avoine", "state": "", "country": "FR", "coord": {"lon": 0.18253, "lat": 47.20533}}, {"id": 3035661, "name": "Avize", "state": "", "country": "FR", "coord": {"lon": 4.01438, "lat": 48.973518}}, {"id": 3035663, "name": "Aviron", "state": "", "country": "FR", "coord": {"lon": 1.11667, "lat": 49.049999}}, {"id": 3035667, "name": "Avion", "state": "", "country": "FR", "coord": {"lon": 2.83053, "lat": 50.410381}}, {"id": 3035669, "name": "Avilly-Saint-L\u00e9onard", "state": "", "country": "FR", "coord": {"lon": 2.54148, "lat": 49.194489}}, {"id": 3035675, "name": "Avignonet-Lauragais", "state": "", "country": "FR", "coord": {"lon": 1.8, "lat": 43.366669}}, {"id": 3035679, "name": "Arrondissement d'Avignon", "state": "", "country": "FR", "coord": {"lon": 4.83333, "lat": 44.083328}}, {"id": 3035681, "name": "Avignon", "state": "", "country": "FR", "coord": {"lon": 4.80892, "lat": 43.948341}}, {"id": 3035686, "name": "Av\u00e8ze", "state": "", "country": "FR", "coord": {"lon": 2.6, "lat": 45.599998}}, {"id": 3035687, "name": "Av\u00e8ze", "state": "", "country": "FR", "coord": {"lon": 3.60097, "lat": 43.971161}}, {"id": 3035691, "name": "Aveyron", "state": "", "country": "FR", "coord": {"lon": 2.5, "lat": 44.25}}, {"id": 3035696, "name": "Avessac", "state": "", "country": "FR", "coord": {"lon": -1.98962, "lat": 47.65324}}, {"id": 3035697, "name": "Arrondissement d'Avesnes-sur-Helpe", "state": "", "country": "FR", "coord": {"lon": 3.83333, "lat": 50.166672}}, {"id": 3035698, "name": "Avesnes-sur-Helpe", "state": "", "country": "FR", "coord": {"lon": 3.93333, "lat": 50.116669}}, {"id": 3035699, "name": "Avesnes-le-Sec", "state": "", "country": "FR", "coord": {"lon": 3.37768, "lat": 50.250999}}, {"id": 3035701, "name": "Avesnes-les-Aubert", "state": "", "country": "FR", "coord": {"lon": 3.38333, "lat": 50.200001}}, {"id": 3035702, "name": "Avesnes-le-Comte", "state": "", "country": "FR", "coord": {"lon": 2.52957, "lat": 50.277672}}, {"id": 3035707, "name": "Avesnelles", "state": "", "country": "FR", "coord": {"lon": 3.94674, "lat": 50.117821}}, {"id": 3035715, "name": "Avernes-sous-Exmes", "state": "", "country": "FR", "coord": {"lon": 0.21667, "lat": 48.799999}}, {"id": 3035719, "name": "Avermes", "state": "", "country": "FR", "coord": {"lon": 3.30619, "lat": 46.586658}}, {"id": 3035727, "name": "Avensan", "state": "", "country": "FR", "coord": {"lon": -0.75568, "lat": 45.034439}}, {"id": 3035736, "name": "Avenay", "state": "", "country": "FR", "coord": {"lon": -0.46528, "lat": 49.100368}}, {"id": 3035743, "name": "Avelin", "state": "", "country": "FR", "coord": {"lon": 3.08222, "lat": 50.53968}}, {"id": 3035748, "name": "Aveizieux", "state": "", "country": "FR", "coord": {"lon": 4.37136, "lat": 45.567501}}, {"id": 3035749, "name": "Aveize", "state": "", "country": "FR", "coord": {"lon": 4.47646, "lat": 45.681389}}, {"id": 3035756, "name": "Avanton", "state": "", "country": "FR", "coord": {"lon": 0.30862, "lat": 46.663689}}, {"id": 3035761, "name": "Avanne-Aveney", "state": "", "country": "FR", "coord": {"lon": 5.96667, "lat": 47.200001}}, {"id": 3035767, "name": "Arrondissement d'Avallon", "state": "", "country": "FR", "coord": {"lon": 4, "lat": 47.666672}}, {"id": 3035768, "name": "Avallon", "state": "", "country": "FR", "coord": {"lon": 3.9, "lat": 47.48333}}, {"id": 3035776, "name": "Availles-Limouzine", "state": "", "country": "FR", "coord": {"lon": 0.65558, "lat": 46.12104}}, {"id": 3035786, "name": "Auzouer-en-Touraine", "state": "", "country": "FR", "coord": {"lon": 0.92067, "lat": 47.542301}}, {"id": 3035801, "name": "Auzielle", "state": "", "country": "FR", "coord": {"lon": 1.56574, "lat": 43.541649}}, {"id": 3035802, "name": "Auzeville-Tolosane", "state": "", "country": "FR", "coord": {"lon": 1.4824, "lat": 43.527779}}, {"id": 3035805, "name": "Auzers", "state": "", "country": "FR", "coord": {"lon": 2.46051, "lat": 45.265461}}, {"id": 3035808, "name": "Auzebosc", "state": "", "country": "FR", "coord": {"lon": 0.7285, "lat": 49.59565}}, {"id": 3035812, "name": "Auzat-la-Combelle", "state": "", "country": "FR", "coord": {"lon": 3.31667, "lat": 45.450001}}, {"id": 3035816, "name": "Auzances", "state": "", "country": "FR", "coord": {"lon": 2.50042, "lat": 46.028488}}, {"id": 3035824, "name": "Auxy", "state": "", "country": "FR", "coord": {"lon": 4.4044, "lat": 46.949402}}, {"id": 3035828, "name": "Auxonne", "state": "", "country": "FR", "coord": {"lon": 5.38726, "lat": 47.192551}}, {"id": 3035830, "name": "Auxon-Dessous", "state": "", "country": "FR", "coord": {"lon": 5.95, "lat": 47.299999}}, {"id": 3035838, "name": "Auxi-le-Ch\u00e2teau", "state": "", "country": "FR", "coord": {"lon": 2.11593, "lat": 50.23101}}, {"id": 3035842, "name": "Arrondissement d'Auxerre", "state": "", "country": "FR", "coord": {"lon": 3.5, "lat": 47.75}}, {"id": 3035843, "name": "Auxerre", "state": "", "country": "FR", "coord": {"lon": 3.56667, "lat": 47.799999}}, {"id": 3035859, "name": "Auvillar", "state": "", "country": "FR", "coord": {"lon": 0.90192, "lat": 44.06863}}, {"id": 3035864, "name": "Auvers-sur-Oise", "state": "", "country": "FR", "coord": {"lon": 2.16978, "lat": 49.071579}}, {"id": 3035866, "name": "Auvers-Saint-Georges", "state": "", "country": "FR", "coord": {"lon": 2.22045, "lat": 48.49276}}, {"id": 3035867, "name": "Auvers-le-Hamon", "state": "", "country": "FR", "coord": {"lon": -0.3517, "lat": 47.902458}}, {"id": 3035876, "name": "Auvergne", "state": "", "country": "FR", "coord": {"lon": 3, "lat": 45.333328}}, {"id": 3035882, "name": "Arrondissement d'Autun", "state": "", "country": "FR", "coord": {"lon": 4.25, "lat": 46.916672}}, {"id": 3035883, "name": "Autun", "state": "", "country": "FR", "coord": {"lon": 4.3, "lat": 46.950001}}, {"id": 3035886, "name": "Autry-le-Ch\u00e2tel", "state": "", "country": "FR", "coord": {"lon": 2.602, "lat": 47.598862}}, {"id": 3035887, "name": "Autry-Issards", "state": "", "country": "FR", "coord": {"lon": 3.13571, "lat": 46.548569}}, {"id": 3035916, "name": "Autrans", "state": "", "country": "FR", "coord": {"lon": 5.54424, "lat": 45.17704}}, {"id": 3035918, "name": "Autrac", "state": "", "country": "FR", "coord": {"lon": 3.13238, "lat": 45.32935}}, {"id": 3035938, "name": "Authon-du-Perche", "state": "", "country": "FR", "coord": {"lon": 0.89189, "lat": 48.196159}}, {"id": 3035951, "name": "Authie", "state": "", "country": "FR", "coord": {"lon": -0.43191, "lat": 49.20615}}, {"id": 3035952, "name": "Authezat", "state": "", "country": "FR", "coord": {"lon": 3.2, "lat": 45.633331}}, {"id": 3035961, "name": "Autevielle", "state": "", "country": "FR", "coord": {"lon": -0.97058, "lat": 43.39093}}, {"id": 3035970, "name": "Auterive", "state": "", "country": "FR", "coord": {"lon": 1.47797, "lat": 43.351028}}, {"id": 3035980, "name": "Aussurucq", "state": "", "country": "FR", "coord": {"lon": -0.93373, "lat": 43.149349}}, {"id": 3035985, "name": "Aussonne", "state": "", "country": "FR", "coord": {"lon": 1.31886, "lat": 43.681622}}, {"id": 3035989, "name": "Aussois", "state": "", "country": "FR", "coord": {"lon": 6.74202, "lat": 45.22802}}, {"id": 3035991, "name": "Aussillon", "state": "", "country": "FR", "coord": {"lon": 2.36792, "lat": 43.50293}}, {"id": 3036000, "name": "Aurou\u00ebr", "state": "", "country": "FR", "coord": {"lon": 3.29971, "lat": 46.687809}}, {"id": 3036002, "name": "Auros", "state": "", "country": "FR", "coord": {"lon": -0.1444, "lat": 44.49448}}, {"id": 3036008, "name": "Aurions-Idernes", "state": "", "country": "FR", "coord": {"lon": -0.13333, "lat": 43.533329}}, {"id": 3036009, "name": "Auriolles", "state": "", "country": "FR", "coord": {"lon": 0.05172, "lat": 44.740898}}, {"id": 3036012, "name": "Auriol", "state": "", "country": "FR", "coord": {"lon": 5.6341, "lat": 43.371609}}, {"id": 3036015, "name": "Arrondissement d'Aurillac", "state": "", "country": "FR", "coord": {"lon": 2.33333, "lat": 44.833328}}, {"id": 3036016, "name": "Aurillac", "state": "", "country": "FR", "coord": {"lon": 2.45, "lat": 44.916672}}, {"id": 3036018, "name": "Aurignac", "state": "", "country": "FR", "coord": {"lon": 0.88176, "lat": 43.216949}}, {"id": 3036019, "name": "Auri\u00e8res", "state": "", "country": "FR", "coord": {"lon": 2.90642, "lat": 45.682892}}, {"id": 3036021, "name": "Aurice", "state": "", "country": "FR", "coord": {"lon": -0.6044, "lat": 43.8144}}, {"id": 3036022, "name": "Auribeau-sur-Siagne", "state": "", "country": "FR", "coord": {"lon": 6.90779, "lat": 43.604408}}, {"id": 3036027, "name": "Auriac-sur-Vendinelle", "state": "", "country": "FR", "coord": {"lon": 1.8264, "lat": 43.524158}}, {"id": 3036029, "name": "Auriac-l'\u00c9glise", "state": "", "country": "FR", "coord": {"lon": 3.12707, "lat": 45.264549}}, {"id": 3036031, "name": "Auriac-du-P\u00e9rigord", "state": "", "country": "FR", "coord": {"lon": 1.1368, "lat": 45.105942}}, {"id": 3036034, "name": "Auriac", "state": "", "country": "FR", "coord": {"lon": 3.11723, "lat": 44.933399}}, {"id": 3036048, "name": "Aureille", "state": "", "country": "FR", "coord": {"lon": 4.94728, "lat": 43.70821}}, {"id": 3036052, "name": "Aureilhan", "state": "", "country": "FR", "coord": {"lon": 0.09581, "lat": 43.24337}}, {"id": 3036054, "name": "Aurec-sur-Loire", "state": "", "country": "FR", "coord": {"lon": 4.2049, "lat": 45.369068}}, {"id": 3036059, "name": "Auray", "state": "", "country": "FR", "coord": {"lon": -2.99183, "lat": 47.67025}}, {"id": 3036061, "name": "Auradou", "state": "", "country": "FR", "coord": {"lon": 0.81357, "lat": 44.334179}}, {"id": 3036067, "name": "Aups", "state": "", "country": "FR", "coord": {"lon": 6.22553, "lat": 43.62904}}, {"id": 3036070, "name": "Aunou-sur-Orne", "state": "", "country": "FR", "coord": {"lon": 0.23124, "lat": 48.611542}}, {"id": 3036071, "name": "Aunou-le-Faucon", "state": "", "country": "FR", "coord": {"lon": 0.0395, "lat": 48.730129}}, {"id": 3036074, "name": "Auneuil", "state": "", "country": "FR", "coord": {"lon": 1.99712, "lat": 49.370258}}, {"id": 3036079, "name": "Auneau", "state": "", "country": "FR", "coord": {"lon": 1.77264, "lat": 48.463612}}, {"id": 3036081, "name": "Aunay-sur-Odon", "state": "", "country": "FR", "coord": {"lon": -0.63238, "lat": 49.020119}}, {"id": 3036083, "name": "Aunay-sous-Auneau", "state": "", "country": "FR", "coord": {"lon": 1.81094, "lat": 48.441399}}, {"id": 3036097, "name": "Aumont-Aubrac", "state": "", "country": "FR", "coord": {"lon": 3.28466, "lat": 44.72205}}, {"id": 3036107, "name": "Aumetz", "state": "", "country": "FR", "coord": {"lon": 5.94916, "lat": 49.412941}}, {"id": 3036117, "name": "Aumale", "state": "", "country": "FR", "coord": {"lon": 1.75587, "lat": 49.769852}}, {"id": 3036122, "name": "Ault", "state": "", "country": "FR", "coord": {"lon": 1.45, "lat": 50.104038}}, {"id": 3036132, "name": "Aulnoye-Aymeries", "state": "", "country": "FR", "coord": {"lon": 3.83844, "lat": 50.201408}}, {"id": 3036133, "name": "Aulnoy-lez-Valenciennes", "state": "", "country": "FR", "coord": {"lon": 3.53333, "lat": 50.333328}}, {"id": 3036137, "name": "Aulnois-sous-Laon", "state": "", "country": "FR", "coord": {"lon": 3.60547, "lat": 49.614288}}, {"id": 3036142, "name": "Aulnay-sur-Mauldre", "state": "", "country": "FR", "coord": {"lon": 1.84113, "lat": 48.929501}}, {"id": 3036145, "name": "Aulnay-sous-Bois", "state": "", "country": "FR", "coord": {"lon": 2.49402, "lat": 48.938141}}, {"id": 3036153, "name": "Aulnay", "state": "", "country": "FR", "coord": {"lon": -0.34778, "lat": 46.020821}}, {"id": 3036154, "name": "Aulnat", "state": "", "country": "FR", "coord": {"lon": 3.16498, "lat": 45.79604}}, {"id": 3036155, "name": "Aulnat", "state": "", "country": "FR", "coord": {"lon": 2.61667, "lat": 45.533329}}, {"id": 3036157, "name": "Auliac", "state": "", "country": "FR", "coord": {"lon": 3.04157, "lat": 45.147259}}, {"id": 3036158, "name": "Aulhat", "state": "", "country": "FR", "coord": {"lon": 3.31254, "lat": 45.572941}}, {"id": 3036160, "name": "Aulanys", "state": "", "country": "FR", "coord": {"lon": 4.30955, "lat": 45.164268}}, {"id": 3036178, "name": "Augy", "state": "", "country": "FR", "coord": {"lon": 3.61051, "lat": 47.766399}}, {"id": 3036180, "name": "Auguaise", "state": "", "country": "FR", "coord": {"lon": 0.5539, "lat": 48.701302}}, {"id": 3036184, "name": "Augny", "state": "", "country": "FR", "coord": {"lon": 6.11835, "lat": 49.061111}}, {"id": 3036190, "name": "Augignac", "state": "", "country": "FR", "coord": {"lon": 0.69963, "lat": 45.589668}}, {"id": 3036200, "name": "Augerolles", "state": "", "country": "FR", "coord": {"lon": 2.58333, "lat": 45.599998}}, {"id": 3036215, "name": "Augan", "state": "", "country": "FR", "coord": {"lon": -2.27905, "lat": 47.91943}}, {"id": 3036216, "name": "Auga", "state": "", "country": "FR", "coord": {"lon": -0.36667, "lat": 43.48333}}, {"id": 3036223, "name": "Auffargis", "state": "", "country": "FR", "coord": {"lon": 1.88696, "lat": 48.700489}}, {"id": 3036226, "name": "Audun-le-Tiche", "state": "", "country": "FR", "coord": {"lon": 5.95694, "lat": 49.472279}}, {"id": 3036227, "name": "Audun-le-Roman", "state": "", "country": "FR", "coord": {"lon": 5.89564, "lat": 49.368778}}, {"id": 3036229, "name": "Audruicq", "state": "", "country": "FR", "coord": {"lon": 2.07975, "lat": 50.877949}}, {"id": 3036231, "name": "Audrieu", "state": "", "country": "FR", "coord": {"lon": -0.59429, "lat": 49.208462}}, {"id": 3036237, "name": "Audon", "state": "", "country": "FR", "coord": {"lon": -0.82191, "lat": 43.800091}}, {"id": 3036240, "name": "Audincourt", "state": "", "country": "FR", "coord": {"lon": 6.85341, "lat": 47.483269}}, {"id": 3036242, "name": "Audignon", "state": "", "country": "FR", "coord": {"lon": -0.60459, "lat": 43.722229}}, {"id": 3036244, "name": "Audignicourt", "state": "", "country": "FR", "coord": {"lon": 3.13397, "lat": 49.47876}}, {"id": 3036247, "name": "Audierne", "state": "", "country": "FR", "coord": {"lon": -4.53838, "lat": 48.016399}}, {"id": 3036254, "name": "Audes", "state": "", "country": "FR", "coord": {"lon": 2.5581, "lat": 46.457329}}, {"id": 3036255, "name": "Auderville", "state": "", "country": "FR", "coord": {"lon": -1.93104, "lat": 49.711819}}, {"id": 3036256, "name": "Audenge", "state": "", "country": "FR", "coord": {"lon": -1.01345, "lat": 44.686859}}, {"id": 3036261, "name": "Audelange", "state": "", "country": "FR", "coord": {"lon": 5.586, "lat": 47.134609}}, {"id": 3036262, "name": "Aud\u00e9jos", "state": "", "country": "FR", "coord": {"lon": -0.61667, "lat": 43.433331}}, {"id": 3036264, "name": "Aude", "state": "", "country": "FR", "coord": {"lon": 2.5, "lat": 43.083328}}, {"id": 3036270, "name": "Auchy-les-Mines", "state": "", "country": "FR", "coord": {"lon": 2.78283, "lat": 50.513489}}, {"id": 3036271, "name": "Auchy-l\u00e8s-Hesdin", "state": "", "country": "FR", "coord": {"lon": 2.10145, "lat": 50.401138}}, {"id": 3036278, "name": "Auchel", "state": "", "country": "FR", "coord": {"lon": 2.47346, "lat": 50.503448}}, {"id": 3036280, "name": "Arrondissement d'Auch", "state": "", "country": "FR", "coord": {"lon": 0.66667, "lat": 43.583328}}, {"id": 3036281, "name": "Auch", "state": "", "country": "FR", "coord": {"lon": 0.58333, "lat": 43.650002}}, {"id": 3036282, "name": "Aucey-la-Plaine", "state": "", "country": "FR", "coord": {"lon": -1.4787, "lat": 48.52718}}, {"id": 3036287, "name": "Aucamville", "state": "", "country": "FR", "coord": {"lon": 1.42808, "lat": 43.6702}}, {"id": 3036289, "name": "Auby", "state": "", "country": "FR", "coord": {"lon": 3.05396, "lat": 50.41457}}, {"id": 3036291, "name": "Aubusson-d'Auvergne", "state": "", "country": "FR", "coord": {"lon": 3.61797, "lat": 45.75507}}, {"id": 3036293, "name": "Arrondissement d'Aubusson", "state": "", "country": "FR", "coord": {"lon": 2.16667, "lat": 46}}, {"id": 3036295, "name": "Aubusson", "state": "", "country": "FR", "coord": {"lon": 2.16667, "lat": 45.950001}}, {"id": 3036298, "name": "Aubry-le-Panthou", "state": "", "country": "FR", "coord": {"lon": 0.23907, "lat": 48.853249}}, {"id": 3036299, "name": "Aubry-en-Exmes", "state": "", "country": "FR", "coord": {"lon": 0.07375, "lat": 48.7967}}, {"id": 3036300, "name": "Aubry-du-Hainaut", "state": "", "country": "FR", "coord": {"lon": 3.46667, "lat": 50.366669}}, {"id": 3036313, "name": "Aubou\u00e9", "state": "", "country": "FR", "coord": {"lon": 5.978, "lat": 49.213089}}, {"id": 3036314, "name": "Aubord", "state": "", "country": "FR", "coord": {"lon": 4.31105, "lat": 43.75827}}, {"id": 3036323, "name": "Aubin", "state": "", "country": "FR", "coord": {"lon": 2.24439, "lat": 44.528091}}, {"id": 3036326, "name": "Aubigny-sur-N\u00e8re", "state": "", "country": "FR", "coord": {"lon": 2.43895, "lat": 47.48819}}, {"id": 3036335, "name": "Aubigny-au-Bac", "state": "", "country": "FR", "coord": {"lon": 3.16448, "lat": 50.263699}}, {"id": 3036338, "name": "Aubigny-en-Artois", "state": "", "country": "FR", "coord": {"lon": 2.58333, "lat": 50.349998}}, {"id": 3036348, "name": "Aubigny", "state": "", "country": "FR", "coord": {"lon": -1.45364, "lat": 46.596531}}, {"id": 3036352, "name": "Aubign\u00e9-Racan", "state": "", "country": "FR", "coord": {"lon": 0.2687, "lat": 47.69091}}, {"id": 3036359, "name": "Aubignan", "state": "", "country": "FR", "coord": {"lon": 5.02409, "lat": 44.099411}}, {"id": 3036363, "name": "Aubiet", "state": "", "country": "FR", "coord": {"lon": 0.78442, "lat": 43.646309}}, {"id": 3036364, "name": "Aubi\u00e8re", "state": "", "country": "FR", "coord": {"lon": 3.11251, "lat": 45.751572}}, {"id": 3036365, "name": "Aubie", "state": "", "country": "FR", "coord": {"lon": -0.40297, "lat": 45.018688}}, {"id": 3036367, "name": "Aubiat", "state": "", "country": "FR", "coord": {"lon": 3.34155, "lat": 45.465591}}, {"id": 3036371, "name": "Aubevoye", "state": "", "country": "FR", "coord": {"lon": 1.33537, "lat": 49.170971}}, {"id": 3036380, "name": "Aube-sur-R\u00eele", "state": "", "country": "FR", "coord": {"lon": 0.55161, "lat": 48.739201}}, {"id": 3036383, "name": "Aubespeyre", "state": "", "country": "FR", "coord": {"lon": 2.46549, "lat": 44.685219}}, {"id": 3036386, "name": "Aubervilliers", "state": "", "country": "FR", "coord": {"lon": 2.38333, "lat": 48.916672}}, {"id": 3036391, "name": "Auberville", "state": "", "country": "FR", "coord": {"lon": -0.0269, "lat": 49.306179}}, {"id": 3036392, "name": "Aubertin", "state": "", "country": "FR", "coord": {"lon": -0.48333, "lat": 43.26667}}, {"id": 3036394, "name": "Aubers", "state": "", "country": "FR", "coord": {"lon": 2.82666, "lat": 50.595428}}, {"id": 3036399, "name": "Auberives-sur-Var\u00e8ze", "state": "", "country": "FR", "coord": {"lon": 4.83333, "lat": 45.433331}}, {"id": 3036402, "name": "Aubergenville", "state": "", "country": "FR", "coord": {"lon": 1.85467, "lat": 48.959961}}, {"id": 3036406, "name": "Auberchicourt", "state": "", "country": "FR", "coord": {"lon": 3.23333, "lat": 50.333328}}, {"id": 3036418, "name": "Aubenas", "state": "", "country": "FR", "coord": {"lon": 4.38994, "lat": 44.62006}}, {"id": 3036420, "name": "Aube", "state": "", "country": "FR", "coord": {"lon": 4.08333, "lat": 48.25}}, {"id": 3036424, "name": "Aubazat", "state": "", "country": "FR", "coord": {"lon": 3.43742, "lat": 45.138931}}, {"id": 3036426, "name": "Aubas", "state": "", "country": "FR", "coord": {"lon": 1.19264, "lat": 45.08215}}, {"id": 3036430, "name": "Aubais", "state": "", "country": "FR", "coord": {"lon": 4.14567, "lat": 43.754021}}, {"id": 3036433, "name": "Aubagne", "state": "", "country": "FR", "coord": {"lon": 5.57067, "lat": 43.292759}}, {"id": 3036434, "name": "Aubagnan", "state": "", "country": "FR", "coord": {"lon": -0.48958, "lat": 43.66787}}, {"id": 3036436, "name": "Atur", "state": "", "country": "FR", "coord": {"lon": 0.74702, "lat": 45.140862}}, {"id": 3036444, "name": "Attigny", "state": "", "country": "FR", "coord": {"lon": 4.57803, "lat": 49.478458}}, {"id": 3036449, "name": "Attignat", "state": "", "country": "FR", "coord": {"lon": 5.16126, "lat": 46.288151}}, {"id": 3036450, "name": "Attichy", "state": "", "country": "FR", "coord": {"lon": 3.04949, "lat": 49.411209}}, {"id": 3036451, "name": "Attiches", "state": "", "country": "FR", "coord": {"lon": 3.06222, "lat": 50.522202}}, {"id": 3036456, "name": "Attainville", "state": "", "country": "FR", "coord": {"lon": 2.34497, "lat": 49.057789}}, {"id": 3036460, "name": "Athis-Mons", "state": "", "country": "FR", "coord": {"lon": 2.39147, "lat": 48.705219}}, {"id": 3036462, "name": "Athis-de-l'Orne", "state": "", "country": "FR", "coord": {"lon": -0.5, "lat": 48.816669}}, {"id": 3036464, "name": "Athies-sous-Laon", "state": "", "country": "FR", "coord": {"lon": 3.68417, "lat": 49.573689}}, {"id": 3036471, "name": "Ath\u00e9e-sur-Cher", "state": "", "country": "FR", "coord": {"lon": 0.91659, "lat": 47.320229}}, {"id": 3036484, "name": "Astis", "state": "", "country": "FR", "coord": {"lon": -0.33333, "lat": 43.433331}}, {"id": 3036489, "name": "Aste-B\u00e9on", "state": "", "country": "FR", "coord": {"lon": -0.41594, "lat": 43.01952}}, {"id": 3036495, "name": "Astaffort", "state": "", "country": "FR", "coord": {"lon": 0.65141, "lat": 44.064259}}, {"id": 3036498, "name": "Assouste", "state": "", "country": "FR", "coord": {"lon": -0.41362, "lat": 42.983051}}, {"id": 3036502, "name": "Asson", "state": "", "country": "FR", "coord": {"lon": -0.25, "lat": 43.150002}}, {"id": 3036512, "name": "Ass\u00e9rac", "state": "", "country": "FR", "coord": {"lon": -2.38916, "lat": 47.42881}}, {"id": 3036522, "name": "Assat", "state": "", "country": "FR", "coord": {"lon": -0.3, "lat": 43.25}}, {"id": 3036524, "name": "Assas", "state": "", "country": "FR", "coord": {"lon": 3.9, "lat": 43.702782}}, {"id": 3036540, "name": "Aspremont", "state": "", "country": "FR", "coord": {"lon": 7.24458, "lat": 43.785389}}, {"id": 3036544, "name": "Aspiran", "state": "", "country": "FR", "coord": {"lon": 3.45031, "lat": 43.565861}}, {"id": 3036548, "name": "Aspet", "state": "", "country": "FR", "coord": {"lon": 0.80294, "lat": 43.014568}}, {"id": 3036553, "name": "Aspach-le-Haut", "state": "", "country": "FR", "coord": {"lon": 7.13146, "lat": 47.776531}}, {"id": 3036554, "name": "Aspach-le-Bas", "state": "", "country": "FR", "coord": {"lon": 7.1509, "lat": 47.76115}}, {"id": 3036556, "name": "Aspach", "state": "", "country": "FR", "coord": {"lon": 7.23324, "lat": 47.641731}}, {"id": 3036562, "name": "Asni\u00e8res-sur-Oise", "state": "", "country": "FR", "coord": {"lon": 2.35551, "lat": 49.13369}}, {"id": 3036563, "name": "Asni\u00e8res-sur-Nou\u00e8re", "state": "", "country": "FR", "coord": {"lon": 0.05, "lat": 45.716671}}, {"id": 3036572, "name": "Asni\u00e8res-sur-Seine", "state": "", "country": "FR", "coord": {"lon": 2.28333, "lat": 48.916672}}, {"id": 3036576, "name": "Asnelles", "state": "", "country": "FR", "coord": {"lon": -0.58302, "lat": 49.339691}}, {"id": 3036590, "name": "Asch\u00e8res-le-March\u00e9", "state": "", "country": "FR", "coord": {"lon": 2.00726, "lat": 48.110081}}, {"id": 3036596, "name": "Ascain", "state": "", "country": "FR", "coord": {"lon": -1.62073, "lat": 43.345211}}, {"id": 3036597, "name": "Asasp-Arros", "state": "", "country": "FR", "coord": {"lon": -0.61667, "lat": 43.116669}}, {"id": 3036601, "name": "Arzon", "state": "", "country": "FR", "coord": {"lon": -2.88988, "lat": 47.548519}}, {"id": 3036604, "name": "Arzens", "state": "", "country": "FR", "coord": {"lon": 2.20954, "lat": 43.19838}}, {"id": 3036609, "name": "Arzano", "state": "", "country": "FR", "coord": {"lon": -3.44032, "lat": 47.90136}}, {"id": 3036611, "name": "Arzacq-Arraziguet", "state": "", "country": "FR", "coord": {"lon": -0.41667, "lat": 43.533329}}, {"id": 3036625, "name": "Arveyres", "state": "", "country": "FR", "coord": {"lon": -0.28333, "lat": 44.883331}}, {"id": 3036628, "name": "Arvert", "state": "", "country": "FR", "coord": {"lon": -1.12573, "lat": 45.744862}}, {"id": 3036633, "name": "Arudy", "state": "", "country": "FR", "coord": {"lon": -0.43333, "lat": 43.116669}}, {"id": 3036637, "name": "Art-sur-Meurthe", "state": "", "country": "FR", "coord": {"lon": 6.26612, "lat": 48.655891}}, {"id": 3036638, "name": "Artres", "state": "", "country": "FR", "coord": {"lon": 3.54012, "lat": 50.294819}}, {"id": 3036640, "name": "Artonne", "state": "", "country": "FR", "coord": {"lon": 3.14398, "lat": 46.00246}}, {"id": 3036646, "name": "Artix", "state": "", "country": "FR", "coord": {"lon": -0.55, "lat": 43.400002}}, {"id": 3036655, "name": "Artigues-pr\u00e8s-Bordeaux", "state": "", "country": "FR", "coord": {"lon": -0.51667, "lat": 44.849998}}, {"id": 3036663, "name": "Artiguelouve", "state": "", "country": "FR", "coord": {"lon": -0.46667, "lat": 43.316669}}, {"id": 3036664, "name": "Artigueloutan", "state": "", "country": "FR", "coord": {"lon": -0.25, "lat": 43.26667}}, {"id": 3036673, "name": "Artige", "state": "", "country": "FR", "coord": {"lon": 3.2982, "lat": 45.23827}}, {"id": 3036674, "name": "Artigat", "state": "", "country": "FR", "coord": {"lon": 1.43947, "lat": 43.137192}}, {"id": 3036679, "name": "Arthon-en-Retz", "state": "", "country": "FR", "coord": {"lon": -1.9426, "lat": 47.11586}}, {"id": 3036680, "name": "Arthon", "state": "", "country": "FR", "coord": {"lon": 1.69857, "lat": 46.693611}}, {"id": 3036684, "name": "Arthez-de-B\u00e9arn", "state": "", "country": "FR", "coord": {"lon": -0.6, "lat": 43.466671}}, {"id": 3036686, "name": "Arthez-d'Armagnac", "state": "", "country": "FR", "coord": {"lon": -0.25838, "lat": 43.895538}}, {"id": 3036687, "name": "Arth\u00e8s", "state": "", "country": "FR", "coord": {"lon": 2.2113, "lat": 43.957451}}, {"id": 3036693, "name": "Arthaz-Pont-Notre-Dame", "state": "", "country": "FR", "coord": {"lon": 6.26598, "lat": 46.159409}}, {"id": 3036694, "name": "Artenay", "state": "", "country": "FR", "coord": {"lon": 1.88098, "lat": 48.082458}}, {"id": 3036697, "name": "Artemare", "state": "", "country": "FR", "coord": {"lon": 5.69366, "lat": 45.874409}}, {"id": 3036699, "name": "Artassenx", "state": "", "country": "FR", "coord": {"lon": -0.39785, "lat": 43.846668}}, {"id": 3036700, "name": "Artas", "state": "", "country": "FR", "coord": {"lon": 5.16505, "lat": 45.535549}}, {"id": 3036702, "name": "Artannes-sur-Indre", "state": "", "country": "FR", "coord": {"lon": 0.60036, "lat": 47.274509}}, {"id": 3036711, "name": "Ars-sur-Moselle", "state": "", "country": "FR", "coord": {"lon": 6.07275, "lat": 49.078308}}, {"id": 3036712, "name": "Ars-sur-Formans", "state": "", "country": "FR", "coord": {"lon": 4.82313, "lat": 45.994179}}, {"id": 3036719, "name": "Ars-en-R\u00e9", "state": "", "country": "FR", "coord": {"lon": -1.5272, "lat": 46.20554}}, {"id": 3036722, "name": "Arsague", "state": "", "country": "FR", "coord": {"lon": -0.78333, "lat": 43.583328}}, {"id": 3036723, "name": "Arsac-en-Velay", "state": "", "country": "FR", "coord": {"lon": 3.94336, "lat": 44.99073}}, {"id": 3036724, "name": "Arsac", "state": "", "country": "FR", "coord": {"lon": -0.68976, "lat": 44.99688}}, {"id": 3036736, "name": "Arrou", "state": "", "country": "FR", "coord": {"lon": 1.12851, "lat": 48.097679}}, {"id": 3036737, "name": "Arros\u00e8s", "state": "", "country": "FR", "coord": {"lon": -0.11667, "lat": 43.549999}}, {"id": 3036739, "name": "Arros-de-Nay", "state": "", "country": "FR", "coord": {"lon": -0.28333, "lat": 43.200001}}, {"id": 3036742, "name": "Arronnes", "state": "", "country": "FR", "coord": {"lon": 3.56906, "lat": 46.059879}}, {"id": 3036755, "name": "Arricau-Bordes", "state": "", "country": "FR", "coord": {"lon": -0.13333, "lat": 43.5}}, {"id": 3036776, "name": "Arraute-Charritte", "state": "", "country": "FR", "coord": {"lon": -1.10498, "lat": 43.396111}}, {"id": 3036780, "name": "Arrast-Larrebieu", "state": "", "country": "FR", "coord": {"lon": -0.8493, "lat": 43.293701}}, {"id": 3036783, "name": "Arrondissement d'Arras", "state": "", "country": "FR", "coord": {"lon": 2.66667, "lat": 50.25}}, {"id": 3036784, "name": "Arras", "state": "", "country": "FR", "coord": {"lon": 2.78186, "lat": 50.293011}}, {"id": 3036791, "name": "Arradon", "state": "", "country": "FR", "coord": {"lon": -2.8215, "lat": 47.627102}}, {"id": 3036797, "name": "Arques-la-Bataille", "state": "", "country": "FR", "coord": {"lon": 1.12875, "lat": 49.881222}}, {"id": 3036800, "name": "Arques", "state": "", "country": "FR", "coord": {"lon": 2.30237, "lat": 50.733749}}, {"id": 3036810, "name": "Arpheuilles-Saint-Priest", "state": "", "country": "FR", "coord": {"lon": 2.679, "lat": 46.224289}},