[{"id": 3026823, "name": "Chantonnay", "state": "", "country": "FR", "coord": {"lon": -1.05024, "lat": 46.687019}}, {"id": 3026824, "name": "Chant\u00f4me", "state": "", "country": "FR", "coord": {"lon": 1.5559, "lat": 46.410671}}, {"id": 3026827, "name": "Chantilly", "state": "", "country": "FR", "coord": {"lon": 2.47124, "lat": 49.194611}}, {"id": 3026842, "name": "Chantepie", "state": "", "country": "FR", "coord": {"lon": -1.61524, "lat": 48.088848}}, {"id": 3026846, "name": "Chantenay-Saint-Imbert", "state": "", "country": "FR", "coord": {"lon": 3.18333, "lat": 46.73333}}, {"id": 3026862, "name": "Chanteloup-les-Vignes", "state": "", "country": "FR", "coord": {"lon": 2.03261, "lat": 48.976139}}, {"id": 3026867, "name": "Chanteloup-en-Brie", "state": "", "country": "FR", "coord": {"lon": 2.73929, "lat": 48.854778}}, {"id": 3026870, "name": "Chanteloup", "state": "", "country": "FR", "coord": {"lon": -1.61517, "lat": 47.96574}}, {"id": 3026887, "name": "Chantelle", "state": "", "country": "FR", "coord": {"lon": 3.15208, "lat": 46.23592}}, {"id": 3026890, "name": "Chanteheux", "state": "", "country": "FR", "coord": {"lon": 6.5286, "lat": 48.59938}}, {"id": 3026892, "name": "Chanteduc", "state": "", "country": "FR", "coord": {"lon": 3.57786, "lat": 45.37709}}, {"id": 3026898, "name": "Chanteau", "state": "", "country": "FR", "coord": {"lon": 1.97129, "lat": 47.966511}}, {"id": 3026911, "name": "Chanos-Curson", "state": "", "country": "FR", "coord": {"lon": 4.92381, "lat": 45.06057}}, {"id": 3026912, "name": "Chanonat", "state": "", "country": "FR", "coord": {"lon": 3.09351, "lat": 45.692989}}, {"id": 3026925, "name": "Chaniers", "state": "", "country": "FR", "coord": {"lon": -0.55779, "lat": 45.718578}}, {"id": 3026927, "name": "Changy-les-Bois", "state": "", "country": "FR", "coord": {"lon": 2.68543, "lat": 47.857929}}, {"id": 3026934, "name": "Changis-sur-Marne", "state": "", "country": "FR", "coord": {"lon": 3.02191, "lat": 48.95816}}, {"id": 3026939, "name": "Chang\u00e9", "state": "", "country": "FR", "coord": {"lon": 1.58502, "lat": 48.565208}}, {"id": 3026940, "name": "Chang\u00e9", "state": "", "country": "FR", "coord": {"lon": -0.79292, "lat": 48.099178}}, {"id": 3026941, "name": "Chang\u00e9", "state": "", "country": "FR", "coord": {"lon": 0.28328, "lat": 47.984989}}, {"id": 3026944, "name": "Chanet", "state": "", "country": "FR", "coord": {"lon": 3, "lat": 45.25}}, {"id": 3026953, "name": "Chandon", "state": "", "country": "FR", "coord": {"lon": 4.21446, "lat": 46.149601}}, {"id": 3026958, "name": "Chandai", "state": "", "country": "FR", "coord": {"lon": 0.74018, "lat": 48.753071}}, {"id": 3026965, "name": "Chancenay", "state": "", "country": "FR", "coord": {"lon": 4.98716, "lat": 48.67001}}, {"id": 3026969, "name": "Chancelade", "state": "", "country": "FR", "coord": {"lon": 0.67261, "lat": 45.200489}}, {"id": 3026971, "name": "Chanceaux-sur-Choisille", "state": "", "country": "FR", "coord": {"lon": 0.70539, "lat": 47.471451}}, {"id": 3026980, "name": "Chanat-la-Mouteyre", "state": "", "country": "FR", "coord": {"lon": 3.01422, "lat": 45.829861}}, {"id": 3026983, "name": "Chanas", "state": "", "country": "FR", "coord": {"lon": 4.81849, "lat": 45.31881}}, {"id": 3026987, "name": "Chanac", "state": "", "country": "FR", "coord": {"lon": 3.34326, "lat": 44.466141}}, {"id": 3026999, "name": "Champvans", "state": "", "country": "FR", "coord": {"lon": 5.4376, "lat": 47.10466}}, {"id": 3027007, "name": "Champtoc\u00e9-sur-Loire", "state": "", "country": "FR", "coord": {"lon": -0.86452, "lat": 47.41238}}, {"id": 3027008, "name": "Champtoceaux", "state": "", "country": "FR", "coord": {"lon": -1.26131, "lat": 47.334759}}, {"id": 3027011, "name": "Champ-sur-Drac", "state": "", "country": "FR", "coord": {"lon": 5.73225, "lat": 45.069118}}, {"id": 3027013, "name": "Champs-sur-Tarentaine-Marchal", "state": "", "country": "FR", "coord": {"lon": 2.56667, "lat": 45.400002}}, {"id": 3027014, "name": "Champs-sur-Marne", "state": "", "country": "FR", "coord": {"lon": 2.6, "lat": 48.849998}}, {"id": 3027015, "name": "Champs-Romain", "state": "", "country": "FR", "coord": {"lon": 0.77488, "lat": 45.532108}}, {"id": 3027017, "name": "Champsiaux", "state": "", "country": "FR", "coord": {"lon": 3.68707, "lat": 45.437931}}, {"id": 3027021, "name": "Champsecret", "state": "", "country": "FR", "coord": {"lon": -0.55058, "lat": 48.609249}}, {"id": 3027030, "name": "Champs-sur-Yonne", "state": "", "country": "FR", "coord": {"lon": 3.6, "lat": 47.73333}}, {"id": 3027047, "name": "Champrepus", "state": "", "country": "FR", "coord": {"lon": -1.31667, "lat": 48.833328}}, {"id": 3027058, "name": "Champosoult", "state": "", "country": "FR", "coord": {"lon": 0.16744, "lat": 48.870941}}, {"id": 3027062, "name": "Champniers-et-Reilhac", "state": "", "country": "FR", "coord": {"lon": 0.73333, "lat": 45.666672}}, {"id": 3027064, "name": "Champniers", "state": "", "country": "FR", "coord": {"lon": 0.2, "lat": 45.716671}}, {"id": 3027081, "name": "Champlitte-la-Ville", "state": "", "country": "FR", "coord": {"lon": 5.53191, "lat": 47.613331}}, {"id": 3027098, "name": "Champlan", "state": "", "country": "FR", "coord": {"lon": 2.27975, "lat": 48.708229}}, {"id": 3027103, "name": "Champigny", "state": "", "country": "FR", "coord": {"lon": 3.13333, "lat": 48.316669}}, {"id": 3027105, "name": "Champigny-sur-Marne", "state": "", "country": "FR", "coord": {"lon": 2.49366, "lat": 48.816422}}, {"id": 3027126, "name": "Champigneulles", "state": "", "country": "FR", "coord": {"lon": 6.16417, "lat": 48.7342}}, {"id": 3027129, "name": "Champignelles", "state": "", "country": "FR", "coord": {"lon": 3.07457, "lat": 47.78009}}, {"id": 3027130, "name": "Champign\u00e9", "state": "", "country": "FR", "coord": {"lon": -0.5716, "lat": 47.663319}}, {"id": 3027131, "name": "Champier", "state": "", "country": "FR", "coord": {"lon": 5.29223, "lat": 45.456379}}, {"id": 3027134, "name": "Champhol", "state": "", "country": "FR", "coord": {"lon": 1.50281, "lat": 48.468128}}, {"id": 3027147, "name": "Champforgeuil", "state": "", "country": "FR", "coord": {"lon": 4.83357, "lat": 46.818569}}, {"id": 3027152, "name": "Champfleur", "state": "", "country": "FR", "coord": {"lon": 0.12942, "lat": 48.386681}}, {"id": 3027155, "name": "Champ\u00e9ti\u00e8res", "state": "", "country": "FR", "coord": {"lon": 3.69446, "lat": 45.519279}}, {"id": 3027162, "name": "Champenoux", "state": "", "country": "FR", "coord": {"lon": 6.35032, "lat": 48.741741}}, {"id": 3027168, "name": "Champeix", "state": "", "country": "FR", "coord": {"lon": 3.12866, "lat": 45.5868}}, {"id": 3027170, "name": "Champeaux-sur-Sarthe", "state": "", "country": "FR", "coord": {"lon": 0.44259, "lat": 48.577049}}, {"id": 3027181, "name": "Champ-du-Boult", "state": "", "country": "FR", "coord": {"lon": -1.0075, "lat": 48.793098}}, {"id": 3027194, "name": "Champdieu", "state": "", "country": "FR", "coord": {"lon": 4.04583, "lat": 45.644779}}, {"id": 3027197, "name": "Champdeniers-Saint-Denis", "state": "", "country": "FR", "coord": {"lon": -0.4, "lat": 46.48333}}, {"id": 3027200, "name": "Champcueil", "state": "", "country": "FR", "coord": {"lon": 2.44674, "lat": 48.515942}}, {"id": 3027207, "name": "Champcevinel", "state": "", "country": "FR", "coord": {"lon": 0.72796, "lat": 45.216301}}, {"id": 3027208, "name": "Champcervon", "state": "", "country": "FR", "coord": {"lon": -1.395, "lat": 48.776669}}, {"id": 3027235, "name": "Champagnole", "state": "", "country": "FR", "coord": {"lon": 5.91354, "lat": 46.744518}}, {"id": 3027236, "name": "Champagnier", "state": "", "country": "FR", "coord": {"lon": 5.72654, "lat": 45.112942}}, {"id": 3027237, "name": "Champagney", "state": "", "country": "FR", "coord": {"lon": 6.68173, "lat": 47.70504}}, {"id": 3027242, "name": "Champagne-sur-Seine", "state": "", "country": "FR", "coord": {"lon": 2.79785, "lat": 48.397942}}, {"id": 3027243, "name": "Champagne-sur-Oise", "state": "", "country": "FR", "coord": {"lon": 2.24233, "lat": 49.140518}}, {"id": 3027247, "name": "Champagne-Mouton", "state": "", "country": "FR", "coord": {"lon": 0.41051, "lat": 45.99078}}, {"id": 3027250, "name": "Champagn\u00e9-les-Marais", "state": "", "country": "FR", "coord": {"lon": -1.12112, "lat": 46.38081}}, {"id": 3027252, "name": "Champagne", "state": "", "country": "FR", "coord": {"lon": 0.31667, "lat": 45.416672}}, {"id": 3027257, "name": "Champagne-Ardenne", "state": "", "country": "FR", "coord": {"lon": 4.5, "lat": 49}}, {"id": 3027260, "name": "Champagn\u00e9", "state": "", "country": "FR", "coord": {"lon": 0.33096, "lat": 48.021851}}, {"id": 3027268, "name": "Champagnat-le-Jeune", "state": "", "country": "FR", "coord": {"lon": 3.4269, "lat": 45.450142}}, {"id": 3027275, "name": "Champagnac-de-Belair", "state": "", "country": "FR", "coord": {"lon": 0.7, "lat": 45.400002}}, {"id": 3027278, "name": "Champagnac", "state": "", "country": "FR", "coord": {"lon": 2.4, "lat": 45.349998}}, {"id": 3027301, "name": "Chamonix-Mont-Blanc", "state": "", "country": "FR", "coord": {"lon": 6.86933, "lat": 45.923752}}, {"id": 3027307, "name": "Chamigny", "state": "", "country": "FR", "coord": {"lon": 3.15165, "lat": 48.97242}}, {"id": 3027308, "name": "Chameyrat", "state": "", "country": "FR", "coord": {"lon": 1.69803, "lat": 45.23481}}, {"id": 3027335, "name": "Chambretaud", "state": "", "country": "FR", "coord": {"lon": -0.96405, "lat": 46.921661}}, {"id": 3027343, "name": "Chambray-l\u00e8s-Tours", "state": "", "country": "FR", "coord": {"lon": 0.70286, "lat": 47.335369}}, {"id": 3027350, "name": "Chambourg-sur-Indre", "state": "", "country": "FR", "coord": {"lon": 0.96863, "lat": 47.181591}}, {"id": 3027351, "name": "Chambourcy", "state": "", "country": "FR", "coord": {"lon": 2.041, "lat": 48.906551}}, {"id": 3027353, "name": "Chamboulive", "state": "", "country": "FR", "coord": {"lon": 1.70415, "lat": 45.432899}}, {"id": 3027361, "name": "Chamborigaud", "state": "", "country": "FR", "coord": {"lon": 3.97138, "lat": 44.305721}}, {"id": 3027367, "name": "Chambon-sur-Voueize", "state": "", "country": "FR", "coord": {"lon": 2.42568, "lat": 46.189381}}, {"id": 3027368, "name": "Chambon-sur-Lac", "state": "", "country": "FR", "coord": {"lon": 2.8975, "lat": 45.57151}}, {"id": 3027369, "name": "Chambon-sur-Dolore", "state": "", "country": "FR", "coord": {"lon": 3.61318, "lat": 45.497108}}, {"id": 3027396, "name": "Chamb\u0153uf", "state": "", "country": "FR", "coord": {"lon": 4.31667, "lat": 45.583328}}, {"id": 3027397, "name": "Chambly", "state": "", "country": "FR", "coord": {"lon": 2.25, "lat": 49.166672}}, {"id": 3027400, "name": "Chamblet", "state": "", "country": "FR", "coord": {"lon": 2.70203, "lat": 46.333889}}, {"id": 3027411, "name": "Chambillon", "state": "", "country": "FR", "coord": {"lon": 0.29219, "lat": 48.553848}}, {"id": 3027413, "name": "Chambezon", "state": "", "country": "FR", "coord": {"lon": 3.24071, "lat": 45.380051}}, {"id": 3027421, "name": "Arrondissement de Chamb\u00e9ry", "state": "", "country": "FR", "coord": {"lon": 5.91667, "lat": 45.666672}}, {"id": 3027422, "name": "Chamb\u00e9ry", "state": "", "country": "FR", "coord": {"lon": 5.93333, "lat": 45.566669}}, {"id": 3027426, "name": "Chamberet", "state": "", "country": "FR", "coord": {"lon": 1.72124, "lat": 45.583141}}, {"id": 3027428, "name": "Chamb\u00e9rat", "state": "", "country": "FR", "coord": {"lon": 2.41442, "lat": 46.419289}}, {"id": 3027445, "name": "Chamarandes-Choignes", "state": "", "country": "FR", "coord": {"lon": 5.15, "lat": 48.083328}}, {"id": 3027446, "name": "Chamarande", "state": "", "country": "FR", "coord": {"lon": 2.2171, "lat": 48.517151}}, {"id": 3027447, "name": "Chamant", "state": "", "country": "FR", "coord": {"lon": 2.61176, "lat": 49.219898}}, {"id": 3027452, "name": "Chamali\u00e8res-sur-Loire", "state": "", "country": "FR", "coord": {"lon": 3.98429, "lat": 45.201241}}, {"id": 3027453, "name": "Chamali\u00e8res", "state": "", "country": "FR", "coord": {"lon": 3.0631, "lat": 45.775589}}, {"id": 3027456, "name": "Chamagnieu", "state": "", "country": "FR", "coord": {"lon": 5.16392, "lat": 45.681141}}, {"id": 3027458, "name": "Chamadelle", "state": "", "country": "FR", "coord": {"lon": -0.06667, "lat": 45.099998}}, {"id": 3027470, "name": "Ch\u00e2lus", "state": "", "country": "FR", "coord": {"lon": 0.98011, "lat": 45.6544}}, {"id": 3027475, "name": "Chalouze", "state": "", "country": "FR", "coord": {"lon": 3.02266, "lat": 46.146721}}, {"id": 3027480, "name": "Chalo-Saint-Mars", "state": "", "country": "FR", "coord": {"lon": 2.06491, "lat": 48.423279}}, {"id": 3027482, "name": "Ch\u00e2lonvillars", "state": "", "country": "FR", "coord": {"lon": 6.78407, "lat": 47.64056}}, {"id": 3027483, "name": "Arrondissement de Chalon-sur-Sa\u00f4ne", "state": "", "country": "FR", "coord": {"lon": 4.75, "lat": 46.75}}, {"id": 3027484, "name": "Chalon-sur-Sa\u00f4ne", "state": "", "country": "FR", "coord": {"lon": 4.85, "lat": 46.783329}}, {"id": 3027486, "name": "Arrondissement de Ch\u00e2lons-en-Champagne", "state": "", "country": "FR", "coord": {"lon": 4.33333, "lat": 48.916672}}, {"id": 3027487, "name": "Ch\u00e2lons-en-Champagne", "state": "", "country": "FR", "coord": {"lon": 4.36724, "lat": 48.95393}}, {"id": 3027491, "name": "Chalonnes-sur-Loire", "state": "", "country": "FR", "coord": {"lon": -0.7631, "lat": 47.351601}}, {"id": 3027501, "name": "Challuy", "state": "", "country": "FR", "coord": {"lon": 3.14807, "lat": 46.949711}}, {"id": 3027505, "name": "Challex", "state": "", "country": "FR", "coord": {"lon": 5.97639, "lat": 46.184582}}, {"id": 3027507, "name": "Challes-les-Eaux", "state": "", "country": "FR", "coord": {"lon": 5.98171, "lat": 45.551949}}, {"id": 3027508, "name": "Challes", "state": "", "country": "FR", "coord": {"lon": 0.41511, "lat": 47.930328}}, {"id": 3027513, "name": "Challans", "state": "", "country": "FR", "coord": {"lon": -1.8749, "lat": 46.843632}}, {"id": 3027519, "name": "Chalindrey", "state": "", "country": "FR", "coord": {"lon": 5.42797, "lat": 47.803082}}, {"id": 3027521, "name": "Chaligny", "state": "", "country": "FR", "coord": {"lon": 6.08333, "lat": 48.624062}}, {"id": 3027522, "name": "Chalignat", "state": "", "country": "FR", "coord": {"lon": 3.13808, "lat": 46.167568}}, {"id": 3027524, "name": "Chalifert", "state": "", "country": "FR", "coord": {"lon": 2.77339, "lat": 48.889931}}, {"id": 3027525, "name": "Chaliers", "state": "", "country": "FR", "coord": {"lon": 3.22658, "lat": 44.95676}}, {"id": 3027531, "name": "Ch\u00e2lette-sur-Loing", "state": "", "country": "FR", "coord": {"lon": 2.73587, "lat": 48.013371}}, {"id": 3027550, "name": "Chalais", "state": "", "country": "FR", "coord": {"lon": 0.91667, "lat": 45.51667}}, {"id": 3027551, "name": "Chaleins", "state": "", "country": "FR", "coord": {"lon": 4.80417, "lat": 46.030579}}, {"id": 3027570, "name": "Chalamp\u00e9", "state": "", "country": "FR", "coord": {"lon": 7.54098, "lat": 47.819408}}, {"id": 3027572, "name": "Chalamont", "state": "", "country": "FR", "coord": {"lon": 5.17014, "lat": 45.996651}}, {"id": 3027576, "name": "Chalais", "state": "", "country": "FR", "coord": {"lon": 0.0388, "lat": 45.27338}}, {"id": 3027581, "name": "Chalagnac", "state": "", "country": "FR", "coord": {"lon": 0.67721, "lat": 45.091881}}, {"id": 3027582, "name": "Chalabre", "state": "", "country": "FR", "coord": {"lon": 2.00538, "lat": 42.982479}}, {"id": 3027598, "name": "Chaingy", "state": "", "country": "FR", "coord": {"lon": 1.77058, "lat": 47.883259}}, {"id": 3027608, "name": "Chailly-en-Brie", "state": "", "country": "FR", "coord": {"lon": 3.12454, "lat": 48.790058}}, {"id": 3027609, "name": "Chailly-en-Bi\u00e8re", "state": "", "country": "FR", "coord": {"lon": 2.60785, "lat": 48.46701}}, {"id": 3027612, "name": "Chaillou\u00e9", "state": "", "country": "FR", "coord": {"lon": 0.19576, "lat": 48.651199}}, {"id": 3027621, "name": "Chaillevette", "state": "", "country": "FR", "coord": {"lon": -1.0581, "lat": 45.730301}}, {"id": 3027625, "name": "Chailles", "state": "", "country": "FR", "coord": {"lon": 1.3122, "lat": 47.541599}}, {"id": 3027627, "name": "Chaill\u00e9-les-Marais", "state": "", "country": "FR", "coord": {"lon": -1.02369, "lat": 46.396278}}, {"id": 3027629, "name": "Chailland", "state": "", "country": "FR", "coord": {"lon": -0.87387, "lat": 48.225159}}, {"id": 3027632, "name": "Chaillac", "state": "", "country": "FR", "coord": {"lon": 1.29889, "lat": 46.433819}}, {"id": 3027642, "name": "Chagny", "state": "", "country": "FR", "coord": {"lon": 4.7519, "lat": 46.909531}}, {"id": 3027651, "name": "Chadron", "state": "", "country": "FR", "coord": {"lon": 3.93636, "lat": 44.95985}}, {"id": 3027652, "name": "Chadrat", "state": "", "country": "FR", "coord": {"lon": 3.08191, "lat": 45.674759}}, {"id": 3027653, "name": "Chadrac", "state": "", "country": "FR", "coord": {"lon": 3.90261, "lat": 45.06181}}, {"id": 3027663, "name": "Chadeleuf", "state": "", "country": "FR", "coord": {"lon": 3.17864, "lat": 45.587101}}, {"id": 3027670, "name": "Chac\u00e9", "state": "", "country": "FR", "coord": {"lon": -0.07179, "lat": 47.214352}}, {"id": 3027673, "name": "Chabris", "state": "", "country": "FR", "coord": {"lon": 1.65181, "lat": 47.253429}}, {"id": 3027687, "name": "Chabreloche", "state": "", "country": "FR", "coord": {"lon": 3.69519, "lat": 45.879681}}, {"id": 3027696, "name": "Ch\u00e2bons", "state": "", "country": "FR", "coord": {"lon": 5.4275, "lat": 45.440929}}, {"id": 3027698, "name": "Chabonne", "state": "", "country": "FR", "coord": {"lon": 3.32012, "lat": 46.134312}}, {"id": 3027699, "name": "Chablis", "state": "", "country": "FR", "coord": {"lon": 3.79835, "lat": 47.813862}}, {"id": 3027705, "name": "Chabeuil", "state": "", "country": "FR", "coord": {"lon": 5.01884, "lat": 44.899632}}, {"id": 3027723, "name": "Chabanais", "state": "", "country": "FR", "coord": {"lon": 0.71763, "lat": 45.87339}}, {"id": 3027726, "name": "C\u00e9zy", "state": "", "country": "FR", "coord": {"lon": 3.34067, "lat": 47.992661}}, {"id": 3027731, "name": "C\u00e9zens", "state": "", "country": "FR", "coord": {"lon": 2.85532, "lat": 44.983822}}, {"id": 3027737, "name": "C\u00e9zac", "state": "", "country": "FR", "coord": {"lon": -0.41963, "lat": 45.090191}}, {"id": 3027740, "name": "Ceyz\u00e9riat", "state": "", "country": "FR", "coord": {"lon": 5.31972, "lat": 46.180099}}, {"id": 3027745, "name": "Ceyreste", "state": "", "country": "FR", "coord": {"lon": 5.63111, "lat": 43.213299}}, {"id": 3027746, "name": "Ceyrat", "state": "", "country": "FR", "coord": {"lon": 3.06335, "lat": 45.731758}}, {"id": 3027757, "name": "Cette-Eygun", "state": "", "country": "FR", "coord": {"lon": -0.58333, "lat": 42.933331}}, {"id": 3027758, "name": "Ceton", "state": "", "country": "FR", "coord": {"lon": 0.74968, "lat": 48.226318}}, {"id": 3027763, "name": "Cestas", "state": "", "country": "FR", "coord": {"lon": -0.67905, "lat": 44.74345}}, {"id": 3027765, "name": "Cessy", "state": "", "country": "FR", "coord": {"lon": 6.06915, "lat": 46.31662}}, {"id": 3027767, "name": "Cesson-S\u00e9vign\u00e9", "state": "", "country": "FR", "coord": {"lon": -1.603, "lat": 48.121201}}, {"id": 3027768, "name": "Cesson", "state": "", "country": "FR", "coord": {"lon": 2.60816, "lat": 48.562038}}, {"id": 3027770, "name": "Cessieu", "state": "", "country": "FR", "coord": {"lon": 5.37704, "lat": 45.565762}}, {"id": 3027778, "name": "Cesset", "state": "", "country": "FR", "coord": {"lon": 3.21604, "lat": 46.295341}}, {"id": 3027781, "name": "Cessens", "state": "", "country": "FR", "coord": {"lon": 5.88291, "lat": 45.79929}}, {"id": 3027783, "name": "Cessenon-sur-Orb", "state": "", "country": "FR", "coord": {"lon": 3.05154, "lat": 43.450111}}, {"id": 3027792, "name": "Cesny-Bois-Halbout", "state": "", "country": "FR", "coord": {"lon": -0.39512, "lat": 48.989128}}, {"id": 3027793, "name": "Cesny-aux-Vignes", "state": "", "country": "FR", "coord": {"lon": -0.11892, "lat": 49.089119}}, {"id": 3027801, "name": "Cerzat", "state": "", "country": "FR", "coord": {"lon": 3.42098, "lat": 45.201328}}, {"id": 3027802, "name": "Cerzat", "state": "", "country": "FR", "coord": {"lon": 3.47966, "lat": 45.161491}}, {"id": 3027804, "name": "Cervione", "state": "", "country": "FR", "coord": {"lon": 9.49112, "lat": 42.330959}}, {"id": 3027816, "name": "Certines", "state": "", "country": "FR", "coord": {"lon": 5.26496, "lat": 46.13324}}, {"id": 3027824, "name": "Cers", "state": "", "country": "FR", "coord": {"lon": 3.3045, "lat": 43.323521}}, {"id": 3027830, "name": "C\u00e9rons", "state": "", "country": "FR", "coord": {"lon": -0.33351, "lat": 44.635719}}, {"id": 3027836, "name": "Cerny", "state": "", "country": "FR", "coord": {"lon": 2.32814, "lat": 48.477959}}, {"id": 3027850, "name": "Cernay-l\u00e8s-Reims", "state": "", "country": "FR", "coord": {"lon": 4.10216, "lat": 49.263748}}, {"id": 3027852, "name": "Cernay-la-Ville", "state": "", "country": "FR", "coord": {"lon": 1.97422, "lat": 48.673241}}, {"id": 3027853, "name": "Cernay-en-Dormois", "state": "", "country": "FR", "coord": {"lon": 4.76507, "lat": 49.226109}}, {"id": 3027857, "name": "Cernay", "state": "", "country": "FR", "coord": {"lon": 7.17699, "lat": 47.8097}}, {"id": 3027866, "name": "Cerizay", "state": "", "country": "FR", "coord": {"lon": -0.66726, "lat": 46.821541}}, {"id": 3027867, "name": "Cerisy-la-Salle", "state": "", "country": "FR", "coord": {"lon": -1.28283, "lat": 49.026218}}, {"id": 3027868, "name": "Cerisy-la-For\u00eat", "state": "", "country": "FR", "coord": {"lon": -0.93678, "lat": 49.194771}}, {"id": 3027875, "name": "Ceris\u00e9", "state": "", "country": "FR", "coord": {"lon": 0.13333, "lat": 48.450001}}, {"id": 3027880, "name": "C\u00e9rilly", "state": "", "country": "FR", "coord": {"lon": 2.8202, "lat": 46.617901}}, {"id": 3027883, "name": "Cergy", "state": "", "country": "FR", "coord": {"lon": 2.07613, "lat": 49.036449}}, {"id": 3027887, "name": "Arrondissement de C\u00e9ret", "state": "", "country": "FR", "coord": {"lon": 2.75, "lat": 42.5}}, {"id": 3027888, "name": "Ceret", "state": "", "country": "FR", "coord": {"lon": 2.74804, "lat": 42.485329}}, {"id": 3027889, "name": "C\u00e9reste", "state": "", "country": "FR", "coord": {"lon": 5.58452, "lat": 43.855671}}, {"id": 3027893, "name": "Cerelles", "state": "", "country": "FR", "coord": {"lon": 0.68333, "lat": 47.501678}}, {"id": 3027896, "name": "C\u00e9r\u00e9", "state": "", "country": "FR", "coord": {"lon": 1.72066, "lat": 46.869331}}, {"id": 3027898, "name": "Cerdon", "state": "", "country": "FR", "coord": {"lon": 2.36276, "lat": 47.635712}}, {"id": 3027900, "name": "Cercy-la-Tour", "state": "", "country": "FR", "coord": {"lon": 3.64652, "lat": 46.86203}}, {"id": 3027902, "name": "Cercoux", "state": "", "country": "FR", "coord": {"lon": -0.2, "lat": 45.133331}}, {"id": 3027915, "name": "Cervera de la Marenda", "state": "", "country": "FR", "coord": {"lon": 3.16518, "lat": 42.440941}}, {"id": 3027918, "name": "C\u00e9rans-Foulletourte", "state": "", "country": "FR", "coord": {"lon": 0.07724, "lat": 47.826511}}, {"id": 3027923, "name": "Cepoy", "state": "", "country": "FR", "coord": {"lon": 2.73782, "lat": 48.047951}}, {"id": 3027927, "name": "C\u00e9pet", "state": "", "country": "FR", "coord": {"lon": 1.43168, "lat": 43.748852}}, {"id": 3027939, "name": "Centre-Val de Loire", "state": "", "country": "FR", "coord": {"lon": 1.75, "lat": 47.5}}, {"id": 3027949, "name": "Cenon-sur-Vienne", "state": "", "country": "FR", "coord": {"lon": 0.53698, "lat": 46.774261}}, {"id": 3027950, "name": "Cenon", "state": "", "country": "FR", "coord": {"lon": -0.51839, "lat": 44.8559}}, {"id": 3027958, "name": "Cendrieux", "state": "", "country": "FR", "coord": {"lon": 0.82384, "lat": 44.996239}}, {"id": 3027961, "name": "Cendras", "state": "", "country": "FR", "coord": {"lon": 4.06667, "lat": 44.150002}}, {"id": 3027965, "name": "C\u00e9nac", "state": "", "country": "FR", "coord": {"lon": 1.20536, "lat": 44.799679}}, {"id": 3027967, "name": "C\u00e9nac", "state": "", "country": "FR", "coord": {"lon": -0.45999, "lat": 44.780029}}, {"id": 3027970, "name": "C\u00e9ly", "state": "", "country": "FR", "coord": {"lon": 2.53245, "lat": 48.459591}}, {"id": 3027978, "name": "Cellule", "state": "", "country": "FR", "coord": {"lon": 3.14055, "lat": 45.947319}}, {"id": 3027980, "name": "Cellieu", "state": "", "country": "FR", "coord": {"lon": 4.54076, "lat": 45.522499}}, {"id": 3027982, "name": "Celli\u00e8re", "state": "", "country": "FR", "coord": {"lon": 3.01667, "lat": 46.5}}, {"id": 3027984, "name": "Cellettes", "state": "", "country": "FR", "coord": {"lon": 1.38102, "lat": 47.52758}}, {"id": 3027988, "name": "Celles-sur-Durolle", "state": "", "country": "FR", "coord": {"lon": 3.63534, "lat": 45.857868}}, {"id": 3027989, "name": "Celles-sur-Belle", "state": "", "country": "FR", "coord": {"lon": -0.21274, "lat": 46.26223}}, {"id": 3027999, "name": "Celle-L\u00e9vescault", "state": "", "country": "FR", "coord": {"lon": 0.1881, "lat": 46.424061}}, {"id": 3028013, "name": "Ceilloux", "state": "", "country": "FR", "coord": {"lon": 3.51421, "lat": 45.652199}}, {"id": 3028028, "name": "C\u00e9bazat", "state": "", "country": "FR", "coord": {"lon": 3.10048, "lat": 45.834049}}, {"id": 3028033, "name": "C\u00e9aux", "state": "", "country": "FR", "coord": {"lon": -1.38756, "lat": 48.630981}}, {"id": 3028037, "name": "Ceauc\u00e9", "state": "", "country": "FR", "coord": {"lon": -0.62526, "lat": 48.494362}}, {"id": 3028039, "name": "Cazouls-l\u00e8s-B\u00e9ziers", "state": "", "country": "FR", "coord": {"lon": 3.101, "lat": 43.392181}}, {"id": 3028041, "name": "Cazoul\u00e8s", "state": "", "country": "FR", "coord": {"lon": 1.43333, "lat": 44.866669}}, {"id": 3028044, "name": "Cazilhac", "state": "", "country": "FR", "coord": {"lon": 3.70285, "lat": 43.920311}}, {"id": 3028045, "name": "Cazilhac", "state": "", "country": "FR", "coord": {"lon": 2.36085, "lat": 43.182049}}, {"id": 3028046, "name": "Cazideroque", "state": "", "country": "FR", "coord": {"lon": 0.92881, "lat": 44.397381}}, {"id": 3028048, "name": "Cazes-Mondenard", "state": "", "country": "FR", "coord": {"lon": 1.20299, "lat": 44.226891}}, {"id": 3028049, "name": "Caz\u00e8res-sur-l'Adour", "state": "", "country": "FR", "coord": {"lon": -0.31546, "lat": 43.761539}}, {"id": 3028050, "name": "Caz\u00e8res", "state": "", "country": "FR", "coord": {"lon": 1.08633, "lat": 43.2071}}, {"id": 3028060, "name": "Cazavet", "state": "", "country": "FR", "coord": {"lon": 1.0442, "lat": 43.0028}}, {"id": 3028071, "name": "Cazaugitat", "state": "", "country": "FR", "coord": {"lon": 0.00687, "lat": 44.71489}}, {"id": 3028072, "name": "Cazaubon", "state": "", "country": "FR", "coord": {"lon": -0.06814, "lat": 43.934311}}, {"id": 3028073, "name": "Cazats", "state": "", "country": "FR", "coord": {"lon": -0.21667, "lat": 44.48333}}, {"id": 3028084, "name": "Cazalis", "state": "", "country": "FR", "coord": {"lon": -0.66072, "lat": 43.625469}}, {"id": 3028088, "name": "Cayrols", "state": "", "country": "FR", "coord": {"lon": 2.23386, "lat": 44.832329}}, {"id": 3028090, "name": "Cayres", "state": "", "country": "FR", "coord": {"lon": 3.8088, "lat": 44.92358}}, {"id": 3028092, "name": "Caylus", "state": "", "country": "FR", "coord": {"lon": 1.77168, "lat": 44.236069}}, {"id": 3028095, "name": "Cayeux-sur-Mer", "state": "", "country": "FR", "coord": {"lon": 1.494, "lat": 50.181999}}, {"id": 3028097, "name": "Cayenne", "state": "", "country": "FR", "coord": {"lon": 1.62803, "lat": 49.558578}}, {"id": 3028107, "name": "Cavignac", "state": "", "country": "FR", "coord": {"lon": -0.38976, "lat": 45.10083}}, {"id": 3028110, "name": "Caveirac", "state": "", "country": "FR", "coord": {"lon": 4.26664, "lat": 43.824371}}, {"id": 3028116, "name": "Cavarc", "state": "", "country": "FR", "coord": {"lon": 0.64159, "lat": 44.689362}}, {"id": 3028118, "name": "Cavan", "state": "", "country": "FR", "coord": {"lon": -3.34606, "lat": 48.672421}}, {"id": 3028129, "name": "Cavalaire-sur-Mer", "state": "", "country": "FR", "coord": {"lon": 6.52715, "lat": 43.17403}}, {"id": 3028133, "name": "Clavaillan", "state": "", "country": "FR", "coord": {"lon": 5.28333, "lat": 43.916672}}, {"id": 3028134, "name": "Cavaillon", "state": "", "country": "FR", "coord": {"lon": 5.03586, "lat": 43.831249}}, {"id": 3028137, "name": "Cauzac le Vieux", "state": "", "country": "FR", "coord": {"lon": 0.84798, "lat": 44.2756}}, {"id": 3028143, "name": "Caux", "state": "", "country": "FR", "coord": {"lon": 3.3671, "lat": 43.50621}}, {"id": 3028144, "name": "Cauville-sur-Mer", "state": "", "country": "FR", "coord": {"lon": 0.13333, "lat": 49.599998}}, {"id": 3028145, "name": "Cauville", "state": "", "country": "FR", "coord": {"lon": -0.57241, "lat": 48.947289}}, {"id": 3028146, "name": "Cauvigny", "state": "", "country": "FR", "coord": {"lon": 2.24844, "lat": 49.3018}}, {"id": 3028148, "name": "Cauvicourt", "state": "", "country": "FR", "coord": {"lon": -0.26426, "lat": 49.046459}}, {"id": 3028152, "name": "Cauterets", "state": "", "country": "FR", "coord": {"lon": -0.11667, "lat": 42.883331}}, {"id": 3028162, "name": "Caussade", "state": "", "country": "FR", "coord": {"lon": 1.53913, "lat": 44.160801}}, {"id": 3028169, "name": "Cauro", "state": "", "country": "FR", "coord": {"lon": 8.91399, "lat": 41.9179}}, {"id": 3028176, "name": "Caupenne", "state": "", "country": "FR", "coord": {"lon": -0.74572, "lat": 43.684052}}, {"id": 3028179, "name": "Caunes-Minervois", "state": "", "country": "FR", "coord": {"lon": 2.52541, "lat": 43.32555}}, {"id": 3028180, "name": "Cauneille", "state": "", "country": "FR", "coord": {"lon": -1.06011, "lat": 43.546589}}, {"id": 3028182, "name": "Cauna", "state": "", "country": "FR", "coord": {"lon": -0.63905, "lat": 43.782139}}, {"id": 3028183, "name": "Caumont-sur-Orne", "state": "", "country": "FR", "coord": {"lon": -0.47826, "lat": 48.956741}}, {"id": 3028184, "name": "Caumont-sur-Garonne", "state": "", "country": "FR", "coord": {"lon": 0.18169, "lat": 44.437759}}, {"id": 3028185, "name": "Caumont-sur-Durance", "state": "", "country": "FR", "coord": {"lon": 4.94745, "lat": 43.893559}}, {"id": 3028190, "name": "Caumont", "state": "", "country": "FR", "coord": {"lon": 0.89591, "lat": 49.366421}}, {"id": 3028198, "name": "Caulnes", "state": "", "country": "FR", "coord": {"lon": -2.15518, "lat": 48.28804}}, {"id": 3028204, "name": "Cauffry", "state": "", "country": "FR", "coord": {"lon": 2.44581, "lat": 49.319778}}, {"id": 3028205, "name": "Caudry", "state": "", "country": "FR", "coord": {"lon": 3.41186, "lat": 50.124901}}, {"id": 3028210, "name": "Caud\u00e9ran", "state": "", "country": "FR", "coord": {"lon": -0.61229, "lat": 44.849709}}, {"id": 3028211, "name": "Caudecoste", "state": "", "country": "FR", "coord": {"lon": 0.73744, "lat": 44.116402}}, {"id": 3028214, "name": "Caudebec-l\u00e8s-Elbeuf", "state": "", "country": "FR", "coord": {"lon": 1.02195, "lat": 49.280819}}, {"id": 3028215, "name": "Caudebec-en-Caux", "state": "", "country": "FR", "coord": {"lon": 0.72561, "lat": 49.525768}}, {"id": 3028217, "name": "Caudan", "state": "", "country": "FR", "coord": {"lon": -3.3425, "lat": 47.808769}}, {"id": 3028219, "name": "Cauchy-\u00e0-la-Tour", "state": "", "country": "FR", "coord": {"lon": 2.44606, "lat": 50.503941}}, {"id": 3028225, "name": "Caubios-Loos", "state": "", "country": "FR", "coord": {"lon": -0.4, "lat": 43.416672}}, {"id": 3028227, "name": "Caubeyres", "state": "", "country": "FR", "coord": {"lon": 0.20254, "lat": 44.257099}}, {"id": 3028236, "name": "Cattenom", "state": "", "country": "FR", "coord": {"lon": 6.24426, "lat": 49.407551}}, {"id": 3028253, "name": "Catenoy", "state": "", "country": "FR", "coord": {"lon": 2.51054, "lat": 49.36824}}, {"id": 3028258, "name": "Castries", "state": "", "country": "FR", "coord": {"lon": 3.98222, "lat": 43.679722}}, {"id": 3028259, "name": "Castres-Gironde", "state": "", "country": "FR", "coord": {"lon": -0.44679, "lat": 44.694641}}, {"id": 3028260, "name": "Arrondissement de Castres", "state": "", "country": "FR", "coord": {"lon": 2.16667, "lat": 43.583328}}, {"id": 3028263, "name": "Castres", "state": "", "country": "FR", "coord": {"lon": 2.25, "lat": 43.599998}}, {"id": 3028269, "name": "Castillonn\u00e8s", "state": "", "country": "FR", "coord": {"lon": 0.59222, "lat": 44.652149}}, {"id": 3028271, "name": "Castillon-la-Bataille", "state": "", "country": "FR", "coord": {"lon": -0.03333, "lat": 44.849998}}, {"id": 3028273, "name": "Castillon-en-Auge", "state": "", "country": "FR", "coord": {"lon": 0.09504, "lat": 49.031101}}, {"id": 3028274, "name": "Castillon-du-Gard", "state": "", "country": "FR", "coord": {"lon": 4.55337, "lat": 43.964561}}, {"id": 3028278, "name": "Castillon-de-Castets", "state": "", "country": "FR", "coord": {"lon": -0.11426, "lat": 44.550701}}, {"id": 3028285, "name": "Castillon(Canton d'Arthez-de-B\u00e9arn)", "state": "", "country": "FR", "coord": {"lon": -0.56667, "lat": 43.466671}}, {"id": 3028290, "name": "Castifao", "state": "", "country": "FR", "coord": {"lon": 9.11244, "lat": 42.504021}}, {"id": 3028295, "name": "Castets-en-Dorthe", "state": "", "country": "FR", "coord": {"lon": -0.15226, "lat": 44.561459}}, {"id": 3028296, "name": "Castets", "state": "", "country": "FR", "coord": {"lon": -1.14572, "lat": 43.882332}}, {"id": 3028297, "name": "Castetpugon", "state": "", "country": "FR", "coord": {"lon": -0.23039, "lat": 43.55835}}, {"id": 3028299, "name": "Castetnau-Camblong", "state": "", "country": "FR", "coord": {"lon": -0.7822, "lat": 43.32642}}, {"id": 3028301, "name": "Castetbon", "state": "", "country": "FR", "coord": {"lon": -0.78914, "lat": 43.3853}}, {"id": 3028303, "name": "Castet", "state": "", "country": "FR", "coord": {"lon": -0.41703, "lat": 43.069149}}, {"id": 3028310, "name": "Cast\u00e9ra-Loubix", "state": "", "country": "FR", "coord": {"lon": -0.03333, "lat": 43.400002}}, {"id": 3028320, "name": "Castel-Sarrazin", "state": "", "country": "FR", "coord": {"lon": -0.77699, "lat": 43.615891}}, {"id": 3028321, "name": "Arrondissement de Castelsarrasin", "state": "", "country": "FR", "coord": {"lon": 1, "lat": 44.083328}}, {"id": 3028322, "name": "Castelsarrasin", "state": "", "country": "FR", "coord": {"lon": 1.1, "lat": 44.033329}}, {"id": 3028323, "name": "Castelsagrat", "state": "", "country": "FR", "coord": {"lon": 0.9467, "lat": 44.183781}}, {"id": 3028328, "name": "Castelner", "state": "", "country": "FR", "coord": {"lon": -0.58333, "lat": 43.549999}}, {"id": 3028337, "name": "Castelnau-le-Lez", "state": "", "country": "FR", "coord": {"lon": 3.9, "lat": 43.633331}}, {"id": 3028340, "name": "Castelnau-d'Estr\u00e9tefonds", "state": "", "country": "FR", "coord": {"lon": 1.35904, "lat": 43.783669}}, {"id": 3028341, "name": "Castelnau-Montratier", "state": "", "country": "FR", "coord": {"lon": 1.36667, "lat": 44.26667}}, {"id": 3028343, "name": "Castelnau-de-M\u00e9doc", "state": "", "country": "FR", "coord": {"lon": -0.79828, "lat": 45.029339}}, {"id": 3028345, "name": "Castelnau-de-L\u00e9vis", "state": "", "country": "FR", "coord": {"lon": 2.08491, "lat": 43.939751}}, {"id": 3028346, "name": "Castelnau-de-Guers", "state": "", "country": "FR", "coord": {"lon": 3.43708, "lat": 43.433979}}, {"id": 3028348, "name": "Castelnaud-de-Gratecambe", "state": "", "country": "FR", "coord": {"lon": 0.6679, "lat": 44.4963}}, {"id": 3028351, "name": "Castelnaudary", "state": "", "country": "FR", "coord": {"lon": 1.95449, "lat": 43.318291}}, {"id": 3028354, "name": "Castelnau-Chalosse", "state": "", "country": "FR", "coord": {"lon": -0.84306, "lat": 43.663872}}, {"id": 3028359, "name": "Castelmoron-sur-Lot", "state": "", "country": "FR", "coord": {"lon": 0.49572, "lat": 44.398102}}, {"id": 3028381, "name": "Arrondissement de Castellane", "state": "", "country": "FR", "coord": {"lon": 6.58333, "lat": 44}}, {"id": 3028382, "name": "Castellane", "state": "", "country": "FR", "coord": {"lon": 6.51667, "lat": 43.849998}}, {"id": 3028384, "name": "Castella", "state": "", "country": "FR", "coord": {"lon": 0.6831, "lat": 44.31274}}, {"id": 3028387, "name": "Casteljaloux", "state": "", "country": "FR", "coord": {"lon": 0.08605, "lat": 44.317619}}, {"id": 3028388, "name": "Castelginest", "state": "", "country": "FR", "coord": {"lon": 1.4344, "lat": 43.693821}}, {"id": 3028392, "name": "Castelculier", "state": "", "country": "FR", "coord": {"lon": 0.69142, "lat": 44.174858}}, {"id": 3028401, "name": "Casteide-Doat", "state": "", "country": "FR", "coord": {"lon": -0.01667, "lat": 43.383331}}, {"id": 3028402, "name": "Casteide-Candau", "state": "", "country": "FR", "coord": {"lon": -0.56667, "lat": 43.51667}}, {"id": 3028403, "name": "Casteide-Cami", "state": "", "country": "FR", "coord": {"lon": -0.51667, "lat": 43.416672}}, {"id": 3028409, "name": "Castanet-Tolosan", "state": "", "country": "FR", "coord": {"lon": 1.49864, "lat": 43.515911}}, {"id": 3028414, "name": "Castandet", "state": "", "country": "FR", "coord": {"lon": -0.35349, "lat": 43.8125}}, {"id": 3028415, "name": "Castaignos-Souslens", "state": "", "country": "FR", "coord": {"lon": -0.65084, "lat": 43.586319}}, {"id": 3028417, "name": "Castagnol", "state": "", "country": "FR", "coord": {"lon": 0.66022, "lat": 45.030239}}, {"id": 3028418, "name": "Castagniers", "state": "", "country": "FR", "coord": {"lon": 7.23286, "lat": 43.793209}}, {"id": 3028425, "name": "Cast", "state": "", "country": "FR", "coord": {"lon": -4.13888, "lat": 48.15712}}, {"id": 3028428, "name": "Casson", "state": "", "country": "FR", "coord": {"lon": -1.55654, "lat": 47.387611}}, {"id": 3028431, "name": "Cassis", "state": "", "country": "FR", "coord": {"lon": 5.5451, "lat": 43.21241}}, {"id": 3028433, "name": "Cassignas", "state": "", "country": "FR", "coord": {"lon": 0.8, "lat": 44.299999}}, {"id": 3028435, "name": "Casseuil", "state": "", "country": "FR", "coord": {"lon": -0.11122, "lat": 44.58535}}, {"id": 3028437, "name": "Casseneuil", "state": "", "country": "FR", "coord": {"lon": 0.62095, "lat": 44.4431}}, {"id": 3028440, "name": "Cassel", "state": "", "country": "FR", "coord": {"lon": 2.48527, "lat": 50.80109}}, {"id": 3028443, "name": "Cassaniouze", "state": "", "country": "FR", "coord": {"lon": 2.38313, "lat": 44.691051}}, {"id": 3028448, "name": "Cassagnes-B\u00e9gonh\u00e8s", "state": "", "country": "FR", "coord": {"lon": 2.53084, "lat": 44.168941}}, {"id": 3028460, "name": "Casevecchie", "state": "", "country": "FR", "coord": {"lon": 9.35, "lat": 42.133331}}, {"id": 3028486, "name": "Carvin", "state": "", "country": "FR", "coord": {"lon": 2.95815, "lat": 50.492352}}, {"id": 3028490, "name": "Carves", "state": "", "country": "FR", "coord": {"lon": 1.06667, "lat": 44.783329}}, {"id": 3028493, "name": "Cartignies", "state": "", "country": "FR", "coord": {"lon": 3.84473, "lat": 50.092899}}, {"id": 3028499, "name": "Carteret", "state": "", "country": "FR", "coord": {"lon": -1.78726, "lat": 49.379292}}, {"id": 3028501, "name": "Cartel\u00e8gue", "state": "", "country": "FR", "coord": {"lon": -0.58138, "lat": 45.18494}}, {"id": 3028502, "name": "Cartas", "state": "", "country": "FR", "coord": {"lon": 3.33719, "lat": 45.650162}}, {"id": 3028503, "name": "Carspach", "state": "", "country": "FR", "coord": {"lon": 7.2115, "lat": 47.61628}}, {"id": 3028506, "name": "Carsac-de-Gurson", "state": "", "country": "FR", "coord": {"lon": 0.1, "lat": 44.950001}}, {"id": 3028507, "name": "Carsac-Aillac", "state": "", "country": "FR", "coord": {"lon": 1.25, "lat": 44.833328}}, {"id": 3028509, "name": "Cars", "state": "", "country": "FR", "coord": {"lon": -0.61952, "lat": 45.129169}}, {"id": 3028510, "name": "Carry-le-Rouet", "state": "", "country": "FR", "coord": {"lon": 5.15237, "lat": 43.33139}}, {"id": 3028512, "name": "Carrouges", "state": "", "country": "FR", "coord": {"lon": -0.14564, "lat": 48.567421}}, {"id": 3028513, "name": "Carros", "state": "", "country": "FR", "coord": {"lon": 7.18395, "lat": 43.78941}}, {"id": 3028520, "name": "Carri\u00e8res-sur-Seine", "state": "", "country": "FR", "coord": {"lon": 2.1792, "lat": 48.906872}}, {"id": 3028521, "name": "Carri\u00e8res-sous-Poissy", "state": "", "country": "FR", "coord": {"lon": 2.04068, "lat": 48.94952}}, {"id": 3028523, "name": "Carresse-Cassaber", "state": "", "country": "FR", "coord": {"lon": -1, "lat": 43.48333}}, {"id": 3028524, "name": "Carr\u00e8re", "state": "", "country": "FR", "coord": {"lon": -0.28333, "lat": 43.466671}}, {"id": 3028534, "name": "Carqueiranne", "state": "", "country": "FR", "coord": {"lon": 6.07297, "lat": 43.09531}}, {"id": 3028535, "name": "Carquefou", "state": "", "country": "FR", "coord": {"lon": -1.49024, "lat": 47.298222}}, {"id": 3028536, "name": "Carquebut", "state": "", "country": "FR", "coord": {"lon": -1.32941, "lat": 49.372139}}, {"id": 3028537, "name": "Carpiquet", "state": "", "country": "FR", "coord": {"lon": -0.44623, "lat": 49.185219}}, {"id": 3028541, "name": "Arrondissement de Carpentras", "state": "", "country": "FR", "coord": {"lon": 5.16667, "lat": 44.083328}}, {"id": 3028542, "name": "Carpentras", "state": "", "country": "FR", "coord": {"lon": 5.05, "lat": 44.049999}}, {"id": 3028551, "name": "Caromb", "state": "", "country": "FR", "coord": {"lon": 5.1058, "lat": 44.11076}}, {"id": 3028552, "name": "Carolles", "state": "", "country": "FR", "coord": {"lon": -1.5606, "lat": 48.75069}}, {"id": 3028554, "name": "Caro", "state": "", "country": "FR", "coord": {"lon": -2.31924, "lat": 47.864288}}, {"id": 3028558, "name": "Carnoules", "state": "", "country": "FR", "coord": {"lon": 6.18804, "lat": 43.301929}}, {"id": 3028565, "name": "Carneville", "state": "", "country": "FR", "coord": {"lon": -1.45028, "lat": 49.665661}}, {"id": 3028568, "name": "Carnet", "state": "", "country": "FR", "coord": {"lon": -1.35737, "lat": 48.50956}}, {"id": 3028575, "name": "Carnac", "state": "", "country": "FR", "coord": {"lon": -3.07884, "lat": 47.583511}}, {"id": 3028580, "name": "Carmaux", "state": "", "country": "FR", "coord": {"lon": 2.15795, "lat": 44.050991}}, {"id": 3028590, "name": "Carling", "state": "", "country": "FR", "coord": {"lon": 6.71596, "lat": 49.16761}}, {"id": 3028591, "name": "Carlepont", "state": "", "country": "FR", "coord": {"lon": 3.02327, "lat": 49.514381}}, {"id": 3028600, "name": "Carignan", "state": "", "country": "FR", "coord": {"lon": 5.16796, "lat": 49.631592}}, {"id": 3028601, "name": "Carignan-de-Bordeaux", "state": "", "country": "FR", "coord": {"lon": -0.48333, "lat": 44.799999}}, {"id": 3028603, "name": "Carhaix-Plouguer", "state": "", "country": "FR", "coord": {"lon": -3.57326, "lat": 48.27594}}, {"id": 3028606, "name": "Carg\u00e8se", "state": "", "country": "FR", "coord": {"lon": 8.59586, "lat": 42.136292}}, {"id": 3028608, "name": "Carentoir", "state": "", "country": "FR", "coord": {"lon": -2.13333, "lat": 47.816669}}, {"id": 3028610, "name": "Carentan", "state": "", "country": "FR", "coord": {"lon": -1.24806, "lat": 49.30312}}, {"id": 3028628, "name": "Cardesse", "state": "", "country": "FR", "coord": {"lon": -0.58333, "lat": 43.26667}}, {"id": 3028630, "name": "Cardan", "state": "", "country": "FR", "coord": {"lon": -0.33721, "lat": 44.681381}}, {"id": 3028637, "name": "Carc\u00e8s", "state": "", "country": "FR", "coord": {"lon": 6.18308, "lat": 43.476318}}, {"id": 3028638, "name": "Carcen-Ponson", "state": "", "country": "FR", "coord": {"lon": -0.80714, "lat": 43.882259}}, {"id": 3028640, "name": "Arrondissement de Carcassonne", "state": "", "country": "FR", "coord": {"lon": 2.16667, "lat": 43.25}}, {"id": 3028641, "name": "Carcassonne", "state": "", "country": "FR", "coord": {"lon": 2.35, "lat": 43.216671}}, {"id": 3028647, "name": "Carcans", "state": "", "country": "FR", "coord": {"lon": -1.04429, "lat": 45.07869}}, {"id": 3028652, "name": "Carbonne", "state": "", "country": "FR", "coord": {"lon": 1.2252, "lat": 43.298569}}, {"id": 3028653, "name": "Carbon-Blanc", "state": "", "country": "FR", "coord": {"lon": -0.50107, "lat": 44.89642}}, {"id": 3028666, "name": "Carantilly", "state": "", "country": "FR", "coord": {"lon": -1.24068, "lat": 49.065659}}, {"id": 3028667, "name": "Carantec", "state": "", "country": "FR", "coord": {"lon": -3.91545, "lat": 48.66811}}, {"id": 3028674, "name": "Caraman", "state": "", "country": "FR", "coord": {"lon": 1.76002, "lat": 43.532711}}, {"id": 3028680, "name": "Capvern", "state": "", "country": "FR", "coord": {"lon": 0.31604, "lat": 43.103569}}, {"id": 3028684, "name": "Captieux", "state": "", "country": "FR", "coord": {"lon": -0.26196, "lat": 44.2924}}, {"id": 3028690, "name": "Cappelle-la-Grande", "state": "", "country": "FR", "coord": {"lon": 2.35848, "lat": 50.99979}}, {"id": 3028691, "name": "Cappelle-en-P\u00e9v\u00e8le", "state": "", "country": "FR", "coord": {"lon": 3.17133, "lat": 50.510109}}, {"id": 3028701, "name": "Caplong", "state": "", "country": "FR", "coord": {"lon": 0.13836, "lat": 44.777721}}, {"id": 3028709, "name": "Capinghem", "state": "", "country": "FR", "coord": {"lon": 2.96193, "lat": 50.645512}}, {"id": 3028720, "name": "Capestang", "state": "", "country": "FR", "coord": {"lon": 3.04447, "lat": 43.327911}}, {"id": 3028722, "name": "Capendu", "state": "", "country": "FR", "coord": {"lon": 2.55677, "lat": 43.185959}}, {"id": 3028735, "name": "Capdrot", "state": "", "country": "FR", "coord": {"lon": 0.92243, "lat": 44.6814}}, {"id": 3028736, "name": "Capdeville", "state": "", "country": "FR", "coord": {"lon": 0.58333, "lat": 44.700001}}, {"id": 3028738, "name": "Capdenac", "state": "", "country": "FR", "coord": {"lon": 2.06667, "lat": 44.583328}}, {"id": 3028739, "name": "Capdenac-Gare", "state": "", "country": "FR", "coord": {"lon": 2.08079, "lat": 44.575668}}, {"id": 3028745, "name": "Capbreton", "state": "", "country": "FR", "coord": {"lon": -1.42816, "lat": 43.642159}}, {"id": 3028754, "name": "Cany-Barville", "state": "", "country": "FR", "coord": {"lon": 0.63704, "lat": 49.788849}}, {"id": 3028767, "name": "Cantin", "state": "", "country": "FR", "coord": {"lon": 3.12766, "lat": 50.308849}}, {"id": 3028773, "name": "Cantenay-\u00c9pinard", "state": "", "country": "FR", "coord": {"lon": -0.56899, "lat": 47.53503}}, {"id": 3028774, "name": "Cantenac", "state": "", "country": "FR", "coord": {"lon": -0.65312, "lat": 45.02816}}, {"id": 3028778, "name": "Canteloup", "state": "", "country": "FR", "coord": {"lon": -0.13168, "lat": 49.131981}}, {"id": 3028779, "name": "Canteleu", "state": "", "country": "FR", "coord": {"lon": 1.02459, "lat": 49.440651}}, {"id": 3028783, "name": "Cantaron", "state": "", "country": "FR", "coord": {"lon": 7.31876, "lat": 43.758652}}, {"id": 3028791, "name": "Cantal", "state": "", "country": "FR", "coord": {"lon": 2.66667, "lat": 45.083328}}, {"id": 3028793, "name": "Canquisqu\u00e9len", "state": "", "country": "FR", "coord": {"lon": -3.318, "lat": 47.997879}}, {"id": 3028796, "name": "Canon", "state": "", "country": "FR", "coord": {"lon": -0.09219, "lat": 49.073799}}, {"id": 3028797, "name": "Canoh\u00e8s", "state": "", "country": "FR", "coord": {"lon": 2.83633, "lat": 42.65461}}, {"id": 3028806, "name": "Cannes-\u00c9cluse", "state": "", "country": "FR", "coord": {"lon": 2.98748, "lat": 48.363029}}, {"id": 3028808, "name": "Cannes", "state": "", "country": "FR", "coord": {"lon": 7.01275, "lat": 43.55135}}, {"id": 3028819, "name": "Canisy", "state": "", "country": "FR", "coord": {"lon": -1.17595, "lat": 49.075722}}, {"id": 3028821, "name": "Canihuel", "state": "", "country": "FR", "coord": {"lon": -3.10658, "lat": 48.338749}}, {"id": 3028824, "name": "Cangey", "state": "", "country": "FR", "coord": {"lon": 1.06051, "lat": 47.467178}}, {"id": 3028831, "name": "Canet", "state": "", "country": "FR", "coord": {"lon": 2.848, "lat": 43.22744}}, {"id": 3028832, "name": "Canet-en-Roussillon", "state": "", "country": "FR", "coord": {"lon": 3.01667, "lat": 42.700001}}, {"id": 3028833, "name": "Canenx-et-R\u00e9aut", "state": "", "country": "FR", "coord": {"lon": -0.44306, "lat": 44.006031}}, {"id": 3028838, "name": "Can\u00e9jan", "state": "", "country": "FR", "coord": {"lon": -0.63333, "lat": 44.76667}}, {"id": 3028840, "name": "Candresse", "state": "", "country": "FR", "coord": {"lon": -0.978, "lat": 43.713428}}, {"id": 3028844, "name": "Candillargues", "state": "", "country": "FR", "coord": {"lon": 4.06924, "lat": 43.620522}}, {"id": 3028846, "name": "Cand\u00e9-sur-Beuvron", "state": "", "country": "FR", "coord": {"lon": 1.25937, "lat": 47.494991}}, {"id": 3028851, "name": "Cand\u00e9", "state": "", "country": "FR", "coord": {"lon": -1.03619, "lat": 47.561581}}, {"id": 3028855, "name": "Canconles", "state": "", "country": "FR", "coord": {"lon": 4.13536, "lat": 44.9865}}, {"id": 3028856, "name": "Cancon", "state": "", "country": "FR", "coord": {"lon": 0.6252, "lat": 44.535431}}, {"id": 3028859, "name": "Canchy", "state": "", "country": "FR", "coord": {"lon": -0.98312, "lat": 49.32687}}, {"id": 3028868, "name": "Cancale", "state": "", "country": "FR", "coord": {"lon": -1.85231, "lat": 48.67601}}, {"id": 3028878, "name": "Canapville", "state": "", "country": "FR", "coord": {"lon": 0.26697, "lat": 48.952961}}, {"id": 3028899, "name": "Campugnan", "state": "", "country": "FR", "coord": {"lon": -0.56285, "lat": 45.17765}}, {"id": 3028902, "name": "Camps-la-Source", "state": "", "country": "FR", "coord": {"lon": 6.08661, "lat": 43.38641}}, {"id": 3028905, "name": "Campsegret", "state": "", "country": "FR", "coord": {"lon": 0.56017, "lat": 44.934238}}, {"id": 3028908, "name": "Campsas", "state": "", "country": "FR", "coord": {"lon": 1.32677, "lat": 43.895908}}, {"id": 3028912, "name": "Camprond", "state": "", "country": "FR", "coord": {"lon": -1.34833, "lat": 49.088329}}, {"id": 3028941, "name": "Campigny", "state": "", "country": "FR", "coord": {"lon": -0.80947, "lat": 49.242538}}, {"id": 3028946, "name": "Camphin-en-P\u00e9v\u00e8le", "state": "", "country": "FR", "coord": {"lon": 3.26082, "lat": 50.595612}}, {"id": 3028947, "name": "Camphin-en-Carembault", "state": "", "country": "FR", "coord": {"lon": 2.9871, "lat": 50.511959}}, {"id": 3028949, "name": "Campet-et-Lamol\u00e8re", "state": "", "country": "FR", "coord": {"lon": -0.605, "lat": 43.918812}}, {"id": 3028954, "name": "Camp\u00e9n\u00e9ac", "state": "", "country": "FR", "coord": {"lon": -2.29277, "lat": 47.957329}}, {"id": 3028966, "name": "Campbon", "state": "", "country": "FR", "coord": {"lon": -1.96857, "lat": 47.413101}}, {"id": 3028974, "name": "Campandr\u00e9-Valcongrain", "state": "", "country": "FR", "coord": {"lon": -0.58631, "lat": 48.977619}}, {"id": 3028976, "name": "Campan", "state": "", "country": "FR", "coord": {"lon": 0.17846, "lat": 43.015869}}, {"id": 3028977, "name": "Campagnolles", "state": "", "country": "FR", "coord": {"lon": -0.92392, "lat": 48.890591}}, {"id": 3028983, "name": "Campagne-l\u00e8s-Hesdin", "state": "", "country": "FR", "coord": {"lon": 1.87494, "lat": 50.39724}}, {"id": 3028999, "name": "Camou", "state": "", "country": "FR", "coord": {"lon": -1.01929, "lat": 43.370411}}, {"id": 3029002, "name": "Camors", "state": "", "country": "FR", "coord": {"lon": -2.99981, "lat": 47.847389}}, {"id": 3029003, "name": "Camon", "state": "", "country": "FR", "coord": {"lon": 2.34486, "lat": 49.887642}}, {"id": 3029012, "name": "Camiers", "state": "", "country": "FR", "coord": {"lon": 1.61325, "lat": 50.571529}}, {"id": 3029015, "name": "Cametours", "state": "", "country": "FR", "coord": {"lon": -1.28155, "lat": 49.06797}}, {"id": 3029019, "name": "Camembert", "state": "", "country": "FR", "coord": {"lon": 0.1736, "lat": 48.894878}}, {"id": 3029021, "name": "Came", "state": "", "country": "FR", "coord": {"lon": -1.11977, "lat": 43.472118}}, {"id": 3029023, "name": "Cambronne-l\u00e8s-Rib\u00e9court", "state": "", "country": "FR", "coord": {"lon": 2.89797, "lat": 49.507111}}, {"id": 3029024, "name": "Cambronne-l\u00e8s-Clermont", "state": "", "country": "FR", "coord": {"lon": 2.39928, "lat": 49.330219}}, {"id": 3029027, "name": "Cambremer", "state": "", "country": "FR", "coord": {"lon": 0.0476, "lat": 49.15192}}, {"id": 3029029, "name": "Arrondissement de Cambrai", "state": "", "country": "FR", "coord": {"lon": 3.41667, "lat": 50.166672}}, {"id": 3029030, "name": "Cambrai", "state": "", "country": "FR", "coord": {"lon": 3.23333, "lat": 50.166672}}, {"id": 3029041, "name": "Cambo-les-Bains", "state": "", "country": "FR", "coord": {"lon": -1.40105, "lat": 43.358501}}, {"id": 3029044, "name": "Camblanes", "state": "", "country": "FR", "coord": {"lon": -0.48653, "lat": 44.765511}}, {"id": 3029046, "name": "Camblain-Ch\u00e2telain", "state": "", "country": "FR", "coord": {"lon": 2.45521, "lat": 50.483551}}, {"id": 3029051, "name": "Cambes-en-Plaine", "state": "", "country": "FR", "coord": {"lon": -0.3854, "lat": 49.231609}}, {"id": 3029052, "name": "Cambes", "state": "", "country": "FR", "coord": {"lon": -0.46261, "lat": 44.731789}}, {"id": 3029056, "name": "Cambernon", "state": "", "country": "FR", "coord": {"lon": -1.38524, "lat": 49.080238}}, {"id": 3029062, "name": "Camarsac", "state": "", "country": "FR", "coord": {"lon": -0.36334, "lat": 44.831902}}, {"id": 3029068, "name": "Camaret-sur-Mer", "state": "", "country": "FR", "coord": {"lon": -4.59615, "lat": 48.274971}}, {"id": 3029069, "name": "Camaret-sur-Aigues", "state": "", "country": "FR", "coord": {"lon": 4.87424, "lat": 44.164051}}, {"id": 3029071, "name": "Camar\u00e8s", "state": "", "country": "FR", "coord": {"lon": 2.88005, "lat": 43.822079}}, {"id": 3029080, "name": "Calvisson", "state": "", "country": "FR", "coord": {"lon": 4.19626, "lat": 43.786961}}, {"id": 3029081, "name": "Calvinet", "state": "", "country": "FR", "coord": {"lon": 2.357, "lat": 44.719051}}, {"id": 3029089, "name": "Arrondissement de Calvi", "state": "", "country": "FR", "coord": {"lon": 8.83333, "lat": 42.5}}, {"id": 3029090, "name": "Calvi", "state": "", "country": "FR", "coord": {"lon": 8.75713, "lat": 42.56604}}, {"id": 3029094, "name": "Calvados", "state": "", "country": "FR", "coord": {"lon": -0.5, "lat": 49.166672}}, {"id": 3029096, "name": "Caluire-et-Cuire", "state": "", "country": "FR", "coord": {"lon": 4.84112, "lat": 45.790409}}, {"id": 3029098, "name": "Calonne-sur-la-Lys", "state": "", "country": "FR", "coord": {"lon": 2.61664, "lat": 50.622921}}, {"id": 3029099, "name": "Calonne-Ricouart", "state": "", "country": "FR", "coord": {"lon": 2.47335, "lat": 50.485039}}, {"id": 3029102, "name": "Calonges", "state": "", "country": "FR", "coord": {"lon": 0.24185, "lat": 44.37434}}, {"id": 3029107, "name": "Calmont", "state": "", "country": "FR", "coord": {"lon": 2.51201, "lat": 44.248829}}, {"id": 3029108, "name": "Calmont", "state": "", "country": "FR", "coord": {"lon": 1.63031, "lat": 43.287182}}, {"id": 3029118, "name": "Callian", "state": "", "country": "FR", "coord": {"lon": 6.7519, "lat": 43.6231}}, {"id": 3029123, "name": "Callen", "state": "", "country": "FR", "coord": {"lon": -0.47791, "lat": 44.299042}}, {"id": 3029125, "name": "Callas", "state": "", "country": "FR", "coord": {"lon": 6.53738, "lat": 43.592369}}, {"id": 3029126, "name": "Callac", "state": "", "country": "FR", "coord": {"lon": -3.428, "lat": 48.40292}}, {"id": 3029130, "name": "Caligny", "state": "", "country": "FR", "coord": {"lon": -0.59488, "lat": 48.80822}}, {"id": 3029140, "name": "Calenzana", "state": "", "country": "FR", "coord": {"lon": 8.85594, "lat": 42.508389}}, {"id": 3029161, "name": "Arrondissement de Calais", "state": "", "country": "FR", "coord": {"lon": 1.83333, "lat": 50.916672}}, {"id": 3029162, "name": "Calais", "state": "", "country": "FR", "coord": {"lon": 1.85205, "lat": 50.958099}}, {"id": 3029168, "name": "Cajarc", "state": "", "country": "FR", "coord": {"lon": 1.84261, "lat": 44.485458}}, {"id": 3029174, "name": "Caissargues", "state": "", "country": "FR", "coord": {"lon": 4.37955, "lat": 43.79509}}, {"id": 3029178, "name": "Cairon", "state": "", "country": "FR", "coord": {"lon": -0.45046, "lat": 49.24017}}, {"id": 3029186, "name": "Cailloux-sur-Fontaines", "state": "", "country": "FR", "coord": {"lon": 4.87585, "lat": 45.851471}}, {"id": 3029206, "name": "Cahuzac-sur-V\u00e8re", "state": "", "country": "FR", "coord": {"lon": 1.91052, "lat": 43.982681}}, {"id": 3029212, "name": "Arrondissement de Cahors", "state": "", "country": "FR", "coord": {"lon": 1.33333, "lat": 44.416672}}, {"id": 3029213, "name": "Cahors", "state": "", "country": "FR", "coord": {"lon": 1.43663, "lat": 44.4491}}, {"id": 3029218, "name": "Cahan", "state": "", "country": "FR", "coord": {"lon": -0.44275, "lat": 48.858318}}, {"id": 3029220, "name": "Cahagnolles", "state": "", "country": "FR", "coord": {"lon": -0.75934, "lat": 49.156898}}, {"id": 3029221, "name": "Cahagnes", "state": "", "country": "FR", "coord": {"lon": -0.76869, "lat": 49.066311}}, {"id": 3029222, "name": "Cagny", "state": "", "country": "FR", "coord": {"lon": 2.34266, "lat": 49.862171}}, {"id": 3029223, "name": "Cagny", "state": "", "country": "FR", "coord": {"lon": -0.2563, "lat": 49.145802}}, {"id": 3029224, "name": "Cagnotte", "state": "", "country": "FR", "coord": {"lon": -1.06781, "lat": 43.595009}}, {"id": 3029227, "name": "Cagnes-sur-Mer", "state": "", "country": "FR", "coord": {"lon": 7.15339, "lat": 43.6646}}, {"id": 3029229, "name": "Cagnac-les-Mines", "state": "", "country": "FR", "coord": {"lon": 2.14227, "lat": 43.984451}}, {"id": 3029234, "name": "Ca\u00ebstre", "state": "", "country": "FR", "coord": {"lon": 2.60274, "lat": 50.758381}}, {"id": 3029240, "name": "Arrondissement de Caen", "state": "", "country": "FR", "coord": {"lon": -0.41667, "lat": 49.083328}}, {"id": 3029241, "name": "Caen", "state": "", "country": "FR", "coord": {"lon": -0.35912, "lat": 49.185848}}, {"id": 3029247, "name": "Cadouin", "state": "", "country": "FR", "coord": {"lon": 0.87318, "lat": 44.811798}}, {"id": 3029248, "name": "Cadolive", "state": "", "country": "FR", "coord": {"lon": 5.54526, "lat": 43.396938}}, {"id": 3029251, "name": "Cadillon", "state": "", "country": "FR", "coord": {"lon": -0.15, "lat": 43.533329}}, {"id": 3029253, "name": "Cadillac", "state": "", "country": "FR", "coord": {"lon": -0.31702, "lat": 44.636311}}, {"id": 3029254, "name": "Caderousse", "state": "", "country": "FR", "coord": {"lon": 4.75679, "lat": 44.10252}}, {"id": 3029256, "name": "Cadenet", "state": "", "country": "FR", "coord": {"lon": 5.37499, "lat": 43.734451}}, {"id": 3029257, "name": "Caden", "state": "", "country": "FR", "coord": {"lon": -2.28704, "lat": 47.631241}}, {"id": 3029265, "name": "Cadaujac", "state": "", "country": "FR", "coord": {"lon": -0.53128, "lat": 44.754372}}, {"id": 3029266, "name": "Cadarsac", "state": "", "country": "FR", "coord": {"lon": -0.28333, "lat": 44.849998}}, {"id": 3029271, "name": "Cadalen", "state": "", "country": "FR", "coord": {"lon": 1.98089, "lat": 43.849331}}, {"id": 3029274, "name": "Cachen", "state": "", "country": "FR", "coord": {"lon": -0.4302, "lat": 44.06934}}, {"id": 3029276, "name": "Cachan", "state": "", "country": "FR", "coord": {"lon": 2.33661, "lat": 48.796322}}, {"id": 3029282, "name": "Cabris", "state": "", "country": "FR", "coord": {"lon": 6.87172, "lat": 43.653172}}, {"id": 3029283, "name": "Cabri\u00e8s", "state": "", "country": "FR", "coord": {"lon": 5.37884, "lat": 43.441269}}, {"id": 3029286, "name": "Cabri\u00e8res", "state": "", "country": "FR", "coord": {"lon": 4.47094, "lat": 43.9039}}, {"id": 3029297, "name": "Cabourg", "state": "", "country": "FR", "coord": {"lon": -0.1133, "lat": 49.2911}}, {"id": 3029299, "name": "Cabirat", "state": "", "country": "FR", "coord": {"lon": 1.00505, "lat": 44.694321}}, {"id": 3029300, "name": "Cabidos", "state": "", "country": "FR", "coord": {"lon": -0.46667, "lat": 43.549999}}, {"id": 3029302, "name": "Cabestany", "state": "", "country": "FR", "coord": {"lon": 2.94122, "lat": 42.68132}}, {"id": 3029306, "name": "Cabasse", "state": "", "country": "FR", "coord": {"lon": 6.22091, "lat": 43.42823}}, {"id": 3029309, "name": "Cabariot", "state": "", "country": "FR", "coord": {"lon": -0.85741, "lat": 45.926441}}, {"id": 3029312, "name": "Cabannes", "state": "", "country": "FR", "coord": {"lon": 4.95192, "lat": 43.860149}}, {"id": 3029320, "name": "Cabanac-et-Villagrains", "state": "", "country": "FR", "coord": {"lon": -0.55, "lat": 44.599998}}, {"id": 3029337, "name": "Buziet", "state": "", "country": "FR", "coord": {"lon": -0.46667, "lat": 43.133331}}, {"id": 3029338, "name": "Buzet-sur-Tarn", "state": "", "country": "FR", "coord": {"lon": 1.63301, "lat": 43.77977}}, {"id": 3029339, "name": "Buzet-sur-Ba\u00efse", "state": "", "country": "FR", "coord": {"lon": 0.29809, "lat": 44.25811}}, {"id": 3029345, "name": "Buzan\u00e7ais", "state": "", "country": "FR", "coord": {"lon": 1.4195, "lat": 46.888771}}, {"id": 3029350, "name": "Buxy", "state": "", "country": "FR", "coord": {"lon": 4.70427, "lat": 46.713692}}, {"id": 3029352, "name": "Buxi\u00e8res-sous-Montaigut", "state": "", "country": "FR", "coord": {"lon": 2.84733, "lat": 46.20417}}, {"id": 3029355, "name": "Buxi\u00e8res-les-Mines", "state": "", "country": "FR", "coord": {"lon": 2.96143, "lat": 46.468861}}, {"id": 3029365, "name": "Buxerolles", "state": "", "country": "FR", "coord": {"lon": 0.48333, "lat": 46.616669}}, {"id": 3029377, "name": "Butry-sur-Oise", "state": "", "country": "FR", "coord": {"lon": 2.19916, "lat": 49.08836}}, {"id": 3029392, "name": "Bussy-Saint-Georges", "state": "", "country": "FR", "coord": {"lon": 2.70165, "lat": 48.840988}}, {"id": 3029420, "name": "Bussi\u00e8res-et-Pruns", "state": "", "country": "FR", "coord": {"lon": 3.23149, "lat": 46.00687}}, {"id": 3029428, "name": "Bussi\u00e8res", "state": "", "country": "FR", "coord": {"lon": 4.26855, "lat": 45.836208}}, {"id": 3029429, "name": "Bussi\u00e8re-Poitevine", "state": "", "country": "FR", "coord": {"lon": 0.9053, "lat": 46.235432}}, {"id": 3029432, "name": "Bussi\u00e8re-Galant", "state": "", "country": "FR", "coord": {"lon": 1.0364, "lat": 45.627022}}, {"id": 3029433, "name": "Bussi\u00e8re-Dunoise", "state": "", "country": "FR", "coord": {"lon": 1.76216, "lat": 46.25898}}, {"id": 3029435, "name": "Bussi\u00e8re-Badil", "state": "", "country": "FR", "coord": {"lon": 0.60471, "lat": 45.651531}}, {"id": 3029446, "name": "Busset", "state": "", "country": "FR", "coord": {"lon": 3.51117, "lat": 46.062962}}, {"id": 3029449, "name": "Busserolles", "state": "", "country": "FR", "coord": {"lon": 0.64239, "lat": 45.67691}}, {"id": 3029451, "name": "Buss\u00e9ol", "state": "", "country": "FR", "coord": {"lon": 3.254, "lat": 45.691399}}, {"id": 3029462, "name": "Bussang", "state": "", "country": "FR", "coord": {"lon": 6.85272, "lat": 47.884491}}, {"id": 3029465, "name": "Bussac-sur-Charente", "state": "", "country": "FR", "coord": {"lon": -0.63333, "lat": 45.783329}}, {"id": 3029468, "name": "Bussac", "state": "", "country": "FR", "coord": {"lon": 3.63381, "lat": 45.105148}}, {"id": 3029473, "name": "Busnes", "state": "", "country": "FR", "coord": {"lon": 2.51827, "lat": 50.587811}}, {"id": 3029477, "name": "Busigny", "state": "", "country": "FR", "coord": {"lon": 3.46713, "lat": 50.034241}}, {"id": 3029483, "name": "Bury", "state": "", "country": "FR", "coord": {"lon": 2.34401, "lat": 49.313068}}, {"id": 3029494, "name": "Buros", "state": "", "country": "FR", "coord": {"lon": -0.3, "lat": 43.349998}}, {"id": 3029498, "name": "Burnhaupt-le-Haut", "state": "", "country": "FR", "coord": {"lon": 7.1461, "lat": 47.72945}}, {"id": 3029499, "name": "Burnhaupt-le-Bas", "state": "", "country": "FR", "coord": {"lon": 7.16149, "lat": 47.717209}}, {"id": 3029503, "name": "Burlats", "state": "", "country": "FR", "coord": {"lon": 2.31879, "lat": 43.63633}}, {"id": 3029505, "name": "Burie", "state": "", "country": "FR", "coord": {"lon": -0.42289, "lat": 45.772732}}, {"id": 3029522, "name": "Bures-sur-Yvette", "state": "", "country": "FR", "coord": {"lon": 2.17064, "lat": 48.69981}}, {"id": 3029523, "name": "Bures-sur-Dives", "state": "", "country": "FR", "coord": {"lon": -0.17375, "lat": 49.199478}}, {"id": 3029524, "name": "Bures-les-Monts", "state": "", "country": "FR", "coord": {"lon": -0.96774, "lat": 48.94952}}, {"id": 3029527, "name": "Bures", "state": "", "country": "FR", "coord": {"lon": 0.39874, "lat": 48.56303}}, {"id": 3029534, "name": "Burel", "state": "", "country": "FR", "coord": {"lon": 0.5398, "lat": 45.055801}}, {"id": 3029545, "name": "Burcy", "state": "", "country": "FR", "coord": {"lon": -0.8025, "lat": 48.867142}}, {"id": 3029548, "name": "Burbure", "state": "", "country": "FR", "coord": {"lon": 2.46897, "lat": 50.536629}}, {"id": 3029561, "name": "Bunanges", "state": "", "country": "FR", "coord": {"lon": 3.79591, "lat": 45.569809}}, {"id": 3029566, "name": "Bully-les-Mines", "state": "", "country": "FR", "coord": {"lon": 2.72703, "lat": 50.443802}}, {"id": 3029568, "name": "Bully", "state": "", "country": "FR", "coord": {"lon": -0.40825, "lat": 49.10154}}, {"id": 3029570, "name": "Bully", "state": "", "country": "FR", "coord": {"lon": 4.58195, "lat": 45.852051}}, {"id": 3029572, "name": "Bullion", "state": "", "country": "FR", "coord": {"lon": 1.99024, "lat": 48.622849}}, {"id": 3029579, "name": "Bulhon", "state": "", "country": "FR", "coord": {"lon": 3.38481, "lat": 45.894989}}, {"id": 3029580, "name": "Bulgn\u00e9ville", "state": "", "country": "FR", "coord": {"lon": 5.8343, "lat": 48.20694}}, {"id": 3029594, "name": "Buisson-de-Fay", "state": "", "country": "FR", "coord": {"lon": 0.42171, "lat": 48.650002}}, {"id": 3029597, "name": "Buisson", "state": "", "country": "FR", "coord": {"lon": 3.52286, "lat": 45.564442}}, {"id": 3029603, "name": "Buis-les-Baronnies", "state": "", "country": "FR", "coord": {"lon": 5.2722, "lat": 44.273731}}, {"id": 3029606, "name": "Buironfosse", "state": "", "country": "FR", "coord": {"lon": 3.83587, "lat": 49.966579}}, {"id": 3029620, "name": "Buhl", "state": "", "country": "FR", "coord": {"lon": 7.18719, "lat": 47.928059}}, {"id": 3029627, "name": "Bugnein", "state": "", "country": "FR", "coord": {"lon": -0.78281, "lat": 43.35297}}, {"id": 3029637, "name": "Bugeat", "state": "", "country": "FR", "coord": {"lon": 1.92887, "lat": 45.597561}}, {"id": 3029654, "name": "Buellas", "state": "", "country": "FR", "coord": {"lon": 5.1322, "lat": 46.211102}}, {"id": 3029655, "name": "Bueil", "state": "", "country": "FR", "coord": {"lon": 1.44257, "lat": 48.9319}}, {"id": 3029656, "name": "Bueil", "state": "", "country": "FR", "coord": {"lon": 0.84224, "lat": 48.36306}}, {"id": 3029661, "name": "Budos", "state": "", "country": "FR", "coord": {"lon": -0.3869, "lat": 44.533691}}, {"id": 3029670, "name": "Bucy-le-Long", "state": "", "country": "FR", "coord": {"lon": 3.39582, "lat": 49.39072}}, {"id": 3029673, "name": "Bucquoy", "state": "", "country": "FR", "coord": {"lon": 2.71036, "lat": 50.139729}}, {"id": 3029677, "name": "Buchy", "state": "", "country": "FR", "coord": {"lon": 1.35852, "lat": 49.585129}}, {"id": 3029682, "name": "Buch\u00e8res", "state": "", "country": "FR", "coord": {"lon": 4.1131, "lat": 48.235081}}, {"id": 3029684, "name": "Buchelay", "state": "", "country": "FR", "coord": {"lon": 1.67026, "lat": 48.979259}}, {"id": 3029695, "name": "Buc", "state": "", "country": "FR", "coord": {"lon": 2.12577, "lat": 48.776272}}, {"id": 3029697, "name": "Bubry", "state": "", "country": "FR", "coord": {"lon": -3.17108, "lat": 47.96336}}, {"id": 3029704, "name": "Buais", "state": "", "country": "FR", "coord": {"lon": -0.97015, "lat": 48.522839}}, {"id": 3029705, "name": "B\u00fb", "state": "", "country": "FR", "coord": {"lon": 1.49702, "lat": 48.79705}}, {"id": 3029706, "name": "Bry-sur-Marne", "state": "", "country": "FR", "coord": {"lon": 2.52488, "lat": 48.838112}}, {"id": 3029713, "name": "Bruz", "state": "", "country": "FR", "coord": {"lon": -1.74591, "lat": 48.0242}}, {"id": 3029715, "name": "Bruy\u00e8res-sur-Oise", "state": "", "country": "FR", "coord": {"lon": 2.32577, "lat": 49.157558}}, {"id": 3029717, "name": "Bruy\u00e8res-le-Ch\u00e2tel", "state": "", "country": "FR", "coord": {"lon": 2.18991, "lat": 48.58868}}, {"id": 3029718, "name": "Bruy\u00e8res-et-Montb\u00e9rault", "state": "", "country": "FR", "coord": {"lon": 3.66369, "lat": 49.525349}}, {"id": 3029725, "name": "Bruy\u00e8res", "state": "", "country": "FR", "coord": {"lon": 6.71845, "lat": 48.207088}}, {"id": 3029744, "name": "Brunvillers-la-Motte", "state": "", "country": "FR", "coord": {"lon": 2.45, "lat": 49.549999}}, {"id": 3029746, "name": "Brunstatt", "state": "", "country": "FR", "coord": {"lon": 7.31784, "lat": 47.720039}}, {"id": 3029748, "name": "Brunoy", "state": "", "country": "FR", "coord": {"lon": 2.49223, "lat": 48.694199}}, {"id": 3029771, "name": "Brumath", "state": "", "country": "FR", "coord": {"lon": 7.7121, "lat": 48.730141}}, {"id": 3029775, "name": "Br\u00fblon", "state": "", "country": "FR", "coord": {"lon": -0.23333, "lat": 47.966671}}, {"id": 3029790, "name": "Bruille-Saint-Amand", "state": "", "country": "FR", "coord": {"lon": 3.50013, "lat": 50.466049}}, {"id": 3029791, "name": "Bruille-lez-Marchiennes", "state": "", "country": "FR", "coord": {"lon": 3.24424, "lat": 50.36068}}, {"id": 3029793, "name": "Brugui\u00e8res", "state": "", "country": "FR", "coord": {"lon": 1.40762, "lat": 43.7272}}, {"id": 3029796, "name": "Brugnac", "state": "", "country": "FR", "coord": {"lon": 0.43746, "lat": 44.448891}}, {"id": 3029797, "name": "Brugheas", "state": "", "country": "FR", "coord": {"lon": 3.36754, "lat": 46.076981}}, {"id": 3029799, "name": "Bruges", "state": "", "country": "FR", "coord": {"lon": -0.61219, "lat": 44.87981}}, {"id": 3029801, "name": "Brugerolles", "state": "", "country": "FR", "coord": {"lon": 3.44288, "lat": 45.236351}}, {"id": 3029804, "name": "Brugeailles", "state": "", "country": "FR", "coord": {"lon": 3.74125, "lat": 45.494591}}, {"id": 3029814, "name": "Brucourt", "state": "", "country": "FR", "coord": {"lon": -0.10595, "lat": 49.249458}}, {"id": 3029821, "name": "Bruch", "state": "", "country": "FR", "coord": {"lon": 0.41205, "lat": 44.20509}}, {"id": 3029824, "name": "Bruay-sur-l'Escaut", "state": "", "country": "FR", "coord": {"lon": 3.5438, "lat": 50.399181}}, {"id": 3029825, "name": "Bruay-la-Buissi\u00e8re", "state": "", "country": "FR", "coord": {"lon": 2.55, "lat": 50.48333}}, {"id": 3029829, "name": "Bruailles", "state": "", "country": "FR", "coord": {"lon": 4.14863, "lat": 45.342171}}, {"id": 3029852, "name": "Bro\u00fbt-Vernet", "state": "", "country": "FR", "coord": {"lon": 3.27324, "lat": 46.187561}}, {"id": 3029855, "name": "Brou-sur-Chantereine", "state": "", "country": "FR", "coord": {"lon": 2.63333, "lat": 48.883331}}, {"id": 3029869, "name": "Brousse", "state": "", "country": "FR", "coord": {"lon": 3.21516, "lat": 45.26012}}, {"id": 3029872, "name": "Brouqueyran", "state": "", "country": "FR", "coord": {"lon": -0.17454, "lat": 44.483719}}, {"id": 3029890, "name": "Brouckerque", "state": "", "country": "FR", "coord": {"lon": 2.29378, "lat": 50.954762}}, {"id": 3029894, "name": "Brouay", "state": "", "country": "FR", "coord": {"lon": -0.56159, "lat": 49.212212}}, {"id": 3029898, "name": "Brou", "state": "", "country": "FR", "coord": {"lon": 1.16539, "lat": 48.21719}}, {"id": 3029925, "name": "Broons", "state": "", "country": "FR", "coord": {"lon": -2.25952, "lat": 48.317478}}, {"id": 3029931, "name": "Bron", "state": "", "country": "FR", "coord": {"lon": 4.91667, "lat": 45.73333}}, {"id": 3029934, "name": "Bromont-Lamothe", "state": "", "country": "FR", "coord": {"lon": 2.81921, "lat": 45.840801}}, {"id": 3029951, "name": "Broglie", "state": "", "country": "FR", "coord": {"lon": 0.52915, "lat": 49.009109}}, {"id": 3029959, "name": "Brochard", "state": "", "country": "FR", "coord": {"lon": 0.68817, "lat": 48.540531}}, {"id": 3029960, "name": "Brocas", "state": "", "country": "FR", "coord": {"lon": -0.53232, "lat": 44.044289}}, {"id": 3029967, "name": "Brix", "state": "", "country": "FR", "coord": {"lon": -1.58012, "lat": 49.54512}}, {"id": 3029970, "name": "Brives-Charensac", "state": "", "country": "FR", "coord": {"lon": 3.92878, "lat": 45.047798}}, {"id": 3029973, "name": "Arrondissement de Brive-la-Gaillarde", "state": "", "country": "FR", "coord": {"lon": 1.5, "lat": 45.25}}, {"id": 3029974, "name": "Brive-la-Gaillarde", "state": "", "country": "FR", "coord": {"lon": 1.53333, "lat": 45.150002}}, {"id": 3029984, "name": "Brissac-Quinc\u00e9", "state": "", "country": "FR", "coord": {"lon": -0.44924, "lat": 47.355751}}, {"id": 3029986, "name": "Brison-Saint-Innocent", "state": "", "country": "FR", "coord": {"lon": 5.89011, "lat": 45.721859}}, {"id": 3029987, "name": "Briscous", "state": "", "country": "FR", "coord": {"lon": -1.33353, "lat": 43.459579}}, {"id": 3029991, "name": "Briouze", "state": "", "country": "FR", "coord": {"lon": -0.36806, "lat": 48.698479}}, {"id": 3029992, "name": "Brioux-sur-Boutonne", "state": "", "country": "FR", "coord": {"lon": -0.22182, "lat": 46.141708}}, {"id": 3029994, "name": "Arrondissement de Brioude", "state": "", "country": "FR", "coord": {"lon": 3.41667, "lat": 45.166672}}, {"id": 3029995, "name": "Brioude", "state": "", "country": "FR", "coord": {"lon": 3.4, "lat": 45.299999}}, {"id": 3030007, "name": "Brionne", "state": "", "country": "FR", "coord": {"lon": 0.7151, "lat": 49.19553}}, {"id": 3030011, "name": "Brion", "state": "", "country": "FR", "coord": {"lon": -0.15616, "lat": 47.441219}}, {"id": 3030020, "name": "Briollay", "state": "", "country": "FR", "coord": {"lon": -0.50681, "lat": 47.564781}}, {"id": 3030024, "name": "Brinon-sur-Sauldre", "state": "", "country": "FR", "coord": {"lon": 2.25647, "lat": 47.566002}}, {"id": 3030029, "name": "Brindas", "state": "", "country": "FR", "coord": {"lon": 4.68973, "lat": 45.721809}}, {"id": 3030044, "name": "Briis-sous-Forges", "state": "", "country": "FR", "coord": {"lon": 2.12112, "lat": 48.623989}}, {"id": 3030047, "name": "Brigueuil", "state": "", "country": "FR", "coord": {"lon": 0.86065, "lat": 45.953369}}, {"id": 3030056, "name": "Arrondissement de Brignoles", "state": "", "country": "FR", "coord": {"lon": 6.06667, "lat": 43.400002}}, {"id": 3030057, "name": "Brignoles", "state": "", "country": "FR", "coord": {"lon": 6.06667, "lat": 43.400002}}, {"id": 3030063, "name": "Brignais", "state": "", "country": "FR", "coord": {"lon": 4.75484, "lat": 45.67358}}, {"id": 3030070, "name": "Arrondissement de Briey", "state": "", "country": "FR", "coord": {"lon": 5.83333, "lat": 49.25}}, {"id": 3030071, "name": "Briey", "state": "", "country": "FR", "coord": {"lon": 5.93333, "lat": 49.25}}, {"id": 3030090, "name": "Brienon-sur-Arman\u00e7on", "state": "", "country": "FR", "coord": {"lon": 3.61628, "lat": 47.990101}}, {"id": 3030091, "name": "Briennon", "state": "", "country": "FR", "coord": {"lon": 4.0872, "lat": 46.150242}}, {"id": 3030093, "name": "Brienne-le-Ch\u00e2teau", "state": "", "country": "FR", "coord": {"lon": 4.52637, "lat": 48.393188}}, {"id": 3030094, "name": "Brienne-la-Vieille", "state": "", "country": "FR", "coord": {"lon": 4.52911, "lat": 48.374149}}, {"id": 3030100, "name": "Bri\u00e9-et-Angonnes", "state": "", "country": "FR", "coord": {"lon": 5.78374, "lat": 45.12418}}, {"id": 3030101, "name": "Brie-Comte-Robert", "state": "", "country": "FR", "coord": {"lon": 2.61667, "lat": 48.683331}}, {"id": 3030102, "name": "Briec", "state": "", "country": "FR", "coord": {"lon": -3.99833, "lat": 48.101669}}, {"id": 3030108, "name": "Brie", "state": "", "country": "FR", "coord": {"lon": 0.24106, "lat": 45.738041}}, {"id": 3030114, "name": "Bricy", "state": "", "country": "FR", "coord": {"lon": 1.77937, "lat": 47.998459}}, {"id": 3030116, "name": "Bricqueville-sur-Mer", "state": "", "country": "FR", "coord": {"lon": -1.52101, "lat": 48.913311}}, {"id": 3030117, "name": "Bricqueville-la-Blouette", "state": "", "country": "FR", "coord": {"lon": -1.47903, "lat": 49.033932}}, {"id": 3030120, "name": "Bricquebec", "state": "", "country": "FR", "coord": {"lon": -1.63254, "lat": 49.470081}}, {"id": 3030127, "name": "Briatexte", "state": "", "country": "FR", "coord": {"lon": 1.90879, "lat": 43.752369}}, {"id": 3030132, "name": "Briare", "state": "", "country": "FR", "coord": {"lon": 2.7438, "lat": 47.63343}}, {"id": 3030140, "name": "Arrondissement de Brian\u00e7on", "state": "", "country": "FR", "coord": {"lon": 6.66667, "lat": 44.75}}, {"id": 3030142, "name": "Brian\u00e7on", "state": "", "country": "FR", "coord": {"lon": 6.65, "lat": 44.900002}}, {"id": 3030146, "name": "Brezons", "state": "", "country": "FR", "coord": {"lon": 2.8069, "lat": 44.968849}}, {"id": 3030147, "name": "Brezolles", "state": "", "country": "FR", "coord": {"lon": 1.07404, "lat": 48.690331}}, {"id": 3030148, "name": "Br\u00e9zins", "state": "", "country": "FR", "coord": {"lon": 5.30692, "lat": 45.35202}}, {"id": 3030155, "name": "Br\u00e9z\u00e9", "state": "", "country": "FR", "coord": {"lon": -0.06059, "lat": 47.173569}}, {"id": 3030166, "name": "Br\u00e9ville-sur-Mer", "state": "", "country": "FR", "coord": {"lon": -1.55645, "lat": 48.865509}}, {"id": 3030171, "name": "Br\u00e9viandes", "state": "", "country": "FR", "coord": {"lon": 4.09531, "lat": 48.256931}}, {"id": 3030180, "name": "Br\u00e9val", "state": "", "country": "FR", "coord": {"lon": 1.53309, "lat": 48.94545}}, {"id": 3030187, "name": "Breuville", "state": "", "country": "FR", "coord": {"lon": -1.6745, "lat": 49.538029}}, {"id": 3030191, "name": "Breuschwickersheim", "state": "", "country": "FR", "coord": {"lon": 7.60159, "lat": 48.58007}}, {"id": 3030195, "name": "Breuilpont", "state": "", "country": "FR", "coord": {"lon": 1.4292, "lat": 48.963982}}, {"id": 3030197, "name": "Breuil-Magn\u00e9", "state": "", "country": "FR", "coord": {"lon": -0.96, "lat": 45.984779}}, {"id": 3030202, "name": "Breuil-le-Vert", "state": "", "country": "FR", "coord": {"lon": 2.43633, "lat": 49.361759}}, {"id": 3030203, "name": "Breuillet", "state": "", "country": "FR", "coord": {"lon": 2.17424, "lat": 48.570641}}, {"id": 3030204, "name": "Breuillet", "state": "", "country": "FR", "coord": {"lon": -1.05175, "lat": 45.691441}}, {"id": 3030205, "name": "Breuil-le-Sec", "state": "", "country": "FR", "coord": {"lon": 2.45084, "lat": 49.371349}}, {"id": 3030233, "name": "Bretteville-sur-Odon", "state": "", "country": "FR", "coord": {"lon": -0.41662, "lat": 49.166271}}, {"id": 3030234, "name": "Bretteville-sur-Laize", "state": "", "country": "FR", "coord": {"lon": -0.32639, "lat": 49.044659}}, {"id": 3030235, "name": "Bretteville-sur-Dives", "state": "", "country": "FR", "coord": {"lon": -0.02021, "lat": 49.03825}}, {"id": 3030236, "name": "Bretteville-sur-Ay", "state": "", "country": "FR", "coord": {"lon": -1.63237, "lat": 49.259998}}, {"id": 3030238, "name": "Bretteville-l'Orgueilleuse", "state": "", "country": "FR", "coord": {"lon": -0.51428, "lat": 49.211891}}, {"id": 3030240, "name": "Bretteville-du-Grand-Caux", "state": "", "country": "FR", "coord": {"lon": 0.4, "lat": 49.666672}}, {"id": 3030242, "name": "Bretteville", "state": "", "country": "FR", "coord": {"lon": -1.52884, "lat": 49.6544}}, {"id": 3030245, "name": "Brette-les-Pins", "state": "", "country": "FR", "coord": {"lon": 0.33649, "lat": 47.910622}}, {"id": 3030254, "name": "Bretoncelles", "state": "", "country": "FR", "coord": {"lon": 0.88775, "lat": 48.431221}}, {"id": 3030257, "name": "Br\u00e9tigny-sur-Orge", "state": "", "country": "FR", "coord": {"lon": 2.30593, "lat": 48.611351}}, {"id": 3030264, "name": "Bretignolles-sur-Mer", "state": "", "country": "FR", "coord": {"lon": -1.86667, "lat": 46.633331}}, {"id": 3030275, "name": "Breteuil", "state": "", "country": "FR", "coord": {"lon": 0.91667, "lat": 48.833328}}, {"id": 3030276, "name": "Breteuil", "state": "", "country": "FR", "coord": {"lon": 2.29509, "lat": 49.633572}}, {"id": 3030278, "name": "Bretenoux", "state": "", "country": "FR", "coord": {"lon": 1.84008, "lat": 44.91468}}, {"id": 3030283, "name": "Breteil", "state": "", "country": "FR", "coord": {"lon": -1.89886, "lat": 48.14534}}, {"id": 3030286, "name": "Bretagne-de-Marsan", "state": "", "country": "FR", "coord": {"lon": -0.46499, "lat": 43.847382}}, {"id": 3030293, "name": "Bretagne", "state": "", "country": "FR", "coord": {"lon": -3, "lat": 48}}, {"id": 3030299, "name": "Arrondissement de Brest", "state": "", "country": "FR", "coord": {"lon": -4.5, "lat": 48.5}}, {"id": 3030300, "name": "Brest", "state": "", "country": "FR", "coord": {"lon": -4.48333, "lat": 48.400002}}, {"id": 3030302, "name": "Arrondissement de Bressuire", "state": "", "country": "FR", "coord": {"lon": -0.5, "lat": 46.916672}}, {"id": 3030303, "name": "Bressuire", "state": "", "country": "FR", "coord": {"lon": -0.48333, "lat": 46.849998}}, {"id": 3030304, "name": "Bressouleille", "state": "", "country": "FR", "coord": {"lon": 2.88544, "lat": 45.5783}}, {"id": 3030308, "name": "Bressols", "state": "", "country": "FR", "coord": {"lon": 1.33839, "lat": 43.96796}}, {"id": 3030317, "name": "Bressac", "state": "", "country": "FR", "coord": {"lon": 0.74428, "lat": 44.940472}}, {"id": 3030322, "name": "Bresnay", "state": "", "country": "FR", "coord": {"lon": 3.24924, "lat": 46.441818}}, {"id": 3030323, "name": "Bresles", "state": "", "country": "FR", "coord": {"lon": 2.25024, "lat": 49.410439}}, {"id": 3030338, "name": "Brens", "state": "", "country": "FR", "coord": {"lon": 1.90716, "lat": 43.887249}}, {"id": 3030339, "name": "Brenoux", "state": "", "country": "FR", "coord": {"lon": 3.53264, "lat": 44.482929}}, {"id": 3030340, "name": "Brenouille", "state": "", "country": "FR", "coord": {"lon": 2.54437, "lat": 49.305511}}, {"id": 3030361, "name": "Brenat", "state": "", "country": "FR", "coord": {"lon": 3.31105, "lat": 45.552631}}, {"id": 3030367, "name": "Br\u00e9moy", "state": "", "country": "FR", "coord": {"lon": -0.78054, "lat": 48.99041}}, {"id": 3030374, "name": "Br\u00eames", "state": "", "country": "FR", "coord": {"lon": 1.97688, "lat": 50.854832}}, {"id": 3030377, "name": "La Cr\u00e8che", "state": "", "country": "FR", "coord": {"lon": -0.3, "lat": 46.366669}}, {"id": 3030387, "name": "Breil-sur-Roya", "state": "", "country": "FR", "coord": {"lon": 7.51474, "lat": 43.943409}}, {"id": 3030388, "name": "Breilly", "state": "", "country": "FR", "coord": {"lon": 2.17994, "lat": 49.934978}}, {"id": 3030391, "name": "Breil", "state": "", "country": "FR", "coord": {"lon": 0.682, "lat": 44.714649}}, {"id": 3030403, "name": "Br\u00e9hand", "state": "", "country": "FR", "coord": {"lon": -2.57412, "lat": 48.403332}}, {"id": 3030405, "name": "Br\u00e9hal", "state": "", "country": "FR", "coord": {"lon": -1.51225, "lat": 48.899151}}, {"id": 3030417, "name": "Br\u00e9el", "state": "", "country": "FR", "coord": {"lon": -0.39042, "lat": 48.812771}}, {"id": 3030420, "name": "Bredons", "state": "", "country": "FR", "coord": {"lon": 2.87099, "lat": 45.101421}}, {"id": 3030429, "name": "Brectouville", "state": "", "country": "FR", "coord": {"lon": -1.02173, "lat": 49.022652}}, {"id": 3030440, "name": "Brech", "state": "", "country": "FR", "coord": {"lon": -2.99862, "lat": 47.72134}}, {"id": 3030442, "name": "Br\u00e9cey", "state": "", "country": "FR", "coord": {"lon": -1.16647, "lat": 48.724129}}, {"id": 3030444, "name": "Br\u00e9c\u00e9", "state": "", "country": "FR", "coord": {"lon": -1.48086, "lat": 48.108391}}, {"id": 3030446, "name": "Brebi\u00e8res", "state": "", "country": "FR", "coord": {"lon": 3.01667, "lat": 50.333328}}, {"id": 3030448, "name": "Br\u00e9aut\u00e9", "state": "", "country": "FR", "coord": {"lon": 0.40005, "lat": 49.628052}}, {"id": 3030456, "name": "Br\u00e9al-sous-Montfort", "state": "", "country": "FR", "coord": {"lon": -1.86438, "lat": 48.048759}}, {"id": 3030457, "name": "Brazey-en-Plaine", "state": "", "country": "FR", "coord": {"lon": 5.21538, "lat": 47.13784}}, {"id": 3030459, "name": "Bray-sur-Somme", "state": "", "country": "FR", "coord": {"lon": 2.71847, "lat": 49.940849}}, {"id": 3030460, "name": "Bray-sur-Seine", "state": "", "country": "FR", "coord": {"lon": 3.23852, "lat": 48.413712}}, {"id": 3030468, "name": "Bray-en-Val", "state": "", "country": "FR", "coord": {"lon": 2.36644, "lat": 47.82856}}, {"id": 3030473, "name": "Bray-Dunes", "state": "", "country": "FR", "coord": {"lon": 2.51673, "lat": 51.077862}}, {"id": 3030484, "name": "Brax", "state": "", "country": "FR", "coord": {"lon": 0.55162, "lat": 44.20277}}, {"id": 3030485, "name": "Brax", "state": "", "country": "FR", "coord": {"lon": 1.23957, "lat": 43.617931}}, {"id": 3030503, "name": "Braud-et-Saint-Louis", "state": "", "country": "FR", "coord": {"lon": -0.62438, "lat": 45.247028}}, {"id": 3030513, "name": "Brassempouy", "state": "", "country": "FR", "coord": {"lon": -0.69453, "lat": 43.632969}}, {"id": 3030517, "name": "Brassac-les-Mines", "state": "", "country": "FR", "coord": {"lon": 3.32915, "lat": 45.411049}}, {"id": 3030520, "name": "Brassac", "state": "", "country": "FR", "coord": {"lon": 2.49763, "lat": 43.629589}}, {"id": 3030522, "name": "Brasparts", "state": "", "country": "FR", "coord": {"lon": -3.95516, "lat": 48.30167}}, {"id": 3030524, "name": "Brasles", "state": "", "country": "FR", "coord": {"lon": 3.43, "lat": 49.0481}}, {"id": 3030529, "name": "Bras", "state": "", "country": "FR", "coord": {"lon": 5.95672, "lat": 43.471828}}, {"id": 3030533, "name": "Branville", "state": "", "country": "FR", "coord": {"lon": 0.0259, "lat": 49.27113}}, {"id": 3030534, "name": "Brant\u00f4me", "state": "", "country": "FR", "coord": {"lon": 0.65398, "lat": 45.360909}}, {"id": 3030542, "name": "Branoux-les-Taillades", "state": "", "country": "FR", "coord": {"lon": 3.99647, "lat": 44.219421}}, {"id": 3030546, "name": "Branne", "state": "", "country": "FR", "coord": {"lon": -0.18333, "lat": 44.833328}}, {"id": 3030553, "name": "Branges", "state": "", "country": "FR", "coord": {"lon": 5.18465, "lat": 46.644409}}, {"id": 3030561, "name": "Brando", "state": "", "country": "FR", "coord": {"lon": 9.45, "lat": 42.76667}}, {"id": 3030565, "name": "Brand\u00e9rion", "state": "", "country": "FR", "coord": {"lon": -3.19474, "lat": 47.794121}}, {"id": 3030589, "name": "Bram", "state": "", "country": "FR", "coord": {"lon": 2.11341, "lat": 43.243759}}, {"id": 3030591, "name": "Braize", "state": "", "country": "FR", "coord": {"lon": 2.65, "lat": 46.666672}}, {"id": 3030596, "name": "Brainville", "state": "", "country": "FR", "coord": {"lon": -1.504, "lat": 49.084961}}, {"id": 3030600, "name": "Brain-sur-Allonnes", "state": "", "country": "FR", "coord": {"lon": 0.06514, "lat": 47.303249}}, {"id": 3030603, "name": "Brains", "state": "", "country": "FR", "coord": {"lon": -1.7229, "lat": 47.168499}}, {"id": 3030604, "name": "Braine", "state": "", "country": "FR", "coord": {"lon": 3.53262, "lat": 49.342609}}, {"id": 3030619, "name": "Braffais", "state": "", "country": "FR", "coord": {"lon": -1.26185, "lat": 48.756538}}, {"id": 3030628, "name": "Bracieux", "state": "", "country": "FR", "coord": {"lon": 1.5412, "lat": 47.54895}}, {"id": 3030634, "name": "Brach", "state": "", "country": "FR", "coord": {"lon": -0.93797, "lat": 45.041199}}, {"id": 3030640, "name": "Bozouls", "state": "", "country": "FR", "coord": {"lon": 2.72432, "lat": 44.470501}}, {"id": 3030641, "name": "Bozel", "state": "", "country": "FR", "coord": {"lon": 6.64896, "lat": 45.442879}}, {"id": 3030645, "name": "Boynes", "state": "", "country": "FR", "coord": {"lon": 2.36006, "lat": 48.118221}}, {"id": 3030656, "name": "Boyard-Ville", "state": "", "country": "FR", "coord": {"lon": -1.24289, "lat": 45.967171}}, {"id": 3030659, "name": "Boves", "state": "", "country": "FR", "coord": {"lon": 2.39605, "lat": 49.846451}}, {"id": 3030663, "name": "Bouzy-la-For\u00eat", "state": "", "country": "FR", "coord": {"lon": 2.37773, "lat": 47.8512}}, {"id": 3030668, "name": "Bouzonville", "state": "", "country": "FR", "coord": {"lon": 6.53386, "lat": 49.291882}}, {"id": 3030675, "name": "Bouzill\u00e9", "state": "", "country": "FR", "coord": {"lon": -1.11143, "lat": 47.337502}}, {"id": 3030676, "name": "Bouzigues", "state": "", "country": "FR", "coord": {"lon": 3.6578, "lat": 43.448101}}, {"id": 3030685, "name": "Bouzel", "state": "", "country": "FR", "coord": {"lon": 3.31668, "lat": 45.777489}}, {"id": 3030686, "name": "Bouzarat", "state": "", "country": "FR", "coord": {"lon": 2.82894, "lat": 45.815701}}, {"id": 3030708, "name": "Bouxwiller", "state": "", "country": "FR", "coord": {"lon": 7.48117, "lat": 48.824951}}, {"id": 3030713, "name": "Bouxi\u00e8res-aux-Dames", "state": "", "country": "FR", "coord": {"lon": 6.16918, "lat": 48.751942}}, {"id": 3030714, "name": "Bouxi\u00e8res-aux-Ch\u00eanes", "state": "", "country": "FR", "coord": {"lon": 6.2603, "lat": 48.771149}}, {"id": 3030718, "name": "Bouvron", "state": "", "country": "FR", "coord": {"lon": -1.84679, "lat": 47.417259}}, {"id": 3030723, "name": "Bouville", "state": "", "country": "FR", "coord": {"lon": 0.89514, "lat": 49.561932}}, {"id": 3030727, "name": "Bouvigny-Boyeffles", "state": "", "country": "FR", "coord": {"lon": 2.67209, "lat": 50.421459}}, {"id": 3030728, "name": "Bouvignies", "state": "", "country": "FR", "coord": {"lon": 3.24361, "lat": 50.436272}}, {"id": 3030732, "name": "Bouvesse-Quirieu", "state": "", "country": "FR", "coord": {"lon": 5.41574, "lat": 45.795029}}, {"id": 3030742, "name": "Bouttencourt", "state": "", "country": "FR", "coord": {"lon": 1.63431, "lat": 49.937248}}, {"id": 3030755, "name": "Boutigny-sur-Essonne", "state": "", "country": "FR", "coord": {"lon": 2.38333, "lat": 48.433331}}, {"id": 3030757, "name": "Boutiers-Saint-Trojan", "state": "", "country": "FR", "coord": {"lon": -0.3, "lat": 45.716671}}, {"id": 3030758, "name": "Bouth\u00e9on", "state": "", "country": "FR", "coord": {"lon": 4.28798, "lat": 45.535358}}, {"id": 3030760, "name": "Bouteyras", "state": "", "country": "FR", "coord": {"lon": 3.86667, "lat": 45.433331}}, {"id": 3030769, "name": "Bouteilles-Saint-S\u00e9bastien", "state": "", "country": "FR", "coord": {"lon": 0.3, "lat": 45.333328}}, {"id": 3030772, "name": "Bout-du-Pont-de-Larn", "state": "", "country": "FR", "coord": {"lon": 2.41642, "lat": 43.497379}}, {"id": 3030780, "name": "Boutavent", "state": "", "country": "FR", "coord": {"lon": 1.79916, "lat": 49.592812}}, {"id": 3030781, "name": "Boutaresse", "state": "", "country": "FR", "coord": {"lon": 2.97034, "lat": 45.363499}}, {"id": 3030787, "name": "Boussy-Saint-Antoine", "state": "", "country": "FR", "coord": {"lon": 2.5306, "lat": 48.69101}}, {"id": 3030799, "name": "Boussois", "state": "", "country": "FR", "coord": {"lon": 4.04117, "lat": 50.28907}}, {"id": 3030803, "name": "Boussi\u00e8res", "state": "", "country": "FR", "coord": {"lon": 5.90314, "lat": 47.158661}}, {"id": 3030808, "name": "Bouss\u00e8s", "state": "", "country": "FR", "coord": {"lon": 0.09481, "lat": 44.14645}}, {"id": 3030819, "name": "Bousse", "state": "", "country": "FR", "coord": {"lon": 6.19525, "lat": 49.279251}}, {"id": 3030822, "name": "Boussay", "state": "", "country": "FR", "coord": {"lon": -1.18476, "lat": 47.044762}}, {"id": 3030836, "name": "Boussac", "state": "", "country": "FR", "coord": {"lon": 2.53119, "lat": 44.968361}}, {"id": 3030845, "name": "Bousies", "state": "", "country": "FR", "coord": {"lon": 3.61752, "lat": 50.15097}}, {"id": 3030847, "name": "Bousbecque", "state": "", "country": "FR", "coord": {"lon": 3.08459, "lat": 50.771229}}, {"id": 3030857, "name": "Bourth", "state": "", "country": "FR", "coord": {"lon": 0.80911, "lat": 48.768459}}, {"id": 3030876, "name": "Bourron-Marlotte", "state": "", "country": "FR", "coord": {"lon": 2.70041, "lat": 48.340511}}, {"id": 3030877, "name": "Bourriot-Bergonce", "state": "", "country": "FR", "coord": {"lon": -0.2508, "lat": 44.127399}}, {"id": 3030884, "name": "Bourran", "state": "", "country": "FR", "coord": {"lon": 0.39369, "lat": 44.34285}}, {"id": 3030891, "name": "Bourogne", "state": "", "country": "FR", "coord": {"lon": 6.91613, "lat": 47.56287}}, {"id": 3030892, "name": "Bournos", "state": "", "country": "FR", "coord": {"lon": -0.38333, "lat": 43.433331}}, {"id": 3030895, "name": "Bournoncle-Saint-Pierre", "state": "", "country": "FR", "coord": {"lon": 3.31837, "lat": 45.34301}}, {"id": 3030901, "name": "Bourniquel", "state": "", "country": "FR", "coord": {"lon": 0.85, "lat": 44.799999}}, {"id": 3030902, "name": "Bournezeau", "state": "", "country": "FR", "coord": {"lon": -1.17107, "lat": 46.637138}}, {"id": 3030908, "name": "Bournazel", "state": "", "country": "FR", "coord": {"lon": 0.67557, "lat": 44.816238}}, {"id": 3030919, "name": "Bourlon", "state": "", "country": "FR", "coord": {"lon": 3.11425, "lat": 50.176922}}, {"id": 3030920, "name": "Bourlens", "state": "", "country": "FR", "coord": {"lon": 0.96976, "lat": 44.41798}}, {"id": 3030929, "name": "Bourideys", "state": "", "country": "FR", "coord": {"lon": -0.45456, "lat": 44.36927}}, {"id": 3030943, "name": "Bourguenolles", "state": "", "country": "FR", "coord": {"lon": -1.29714, "lat": 48.804401}}, {"id": 3030944, "name": "Bourgueil", "state": "", "country": "FR", "coord": {"lon": 0.16612, "lat": 47.283329}}, {"id": 3030945, "name": "Bourgu\u00e9bus", "state": "", "country": "FR", "coord": {"lon": -0.29786, "lat": 49.121868}}, {"id": 3030946, "name": "Bourgtheroulde-Infreville", "state": "", "country": "FR", "coord": {"lon": 0.88333, "lat": 49.299999}}, {"id": 3030947, "name": "Bourg", "state": "", "country": "FR", "coord": {"lon": -0.55893, "lat": 45.040619}}, {"id": 3030949, "name": "Bourg-Saint-Maurice", "state": "", "country": "FR", "coord": {"lon": 6.76902, "lat": 45.617161}}, {"id": 3030953, "name": "Bourg-Saint-And\u00e9ol", "state": "", "country": "FR", "coord": {"lon": 4.64273, "lat": 44.37566}}, {"id": 3030955, "name": "Bourgougnague", "state": "", "country": "FR", "coord": {"lon": 0.41807, "lat": 44.615791}}, {"id": 3030960, "name": "Bourgoin", "state": "", "country": "FR", "coord": {"lon": 5.28333, "lat": 45.583328}}, {"id": 3030965, "name": "Bourgogne", "state": "", "country": "FR", "coord": {"lon": 4.07111, "lat": 49.349621}}, {"id": 3030967, "name": "Bourgogne", "state": "", "country": "FR", "coord": {"lon": 4.5, "lat": 47}}, {"id": 3030970, "name": "Bourgneuf-en-Retz", "state": "", "country": "FR", "coord": {"lon": -1.9502, "lat": 47.041222}}, {"id": 3030979, "name": "Bourgneuf", "state": "", "country": "FR", "coord": {"lon": -1.02141, "lat": 46.16766}}, {"id": 3030983, "name": "la Guingueta d'Ix", "state": "", "country": "FR", "coord": {"lon": 1.94391, "lat": 42.434158}}, {"id": 3030985, "name": "Bourg-l\u00e8s-Valence", "state": "", "country": "FR", "coord": {"lon": 4.91023, "lat": 44.956009}}, {"id": 3030989, "name": "Bourg-Lastic", "state": "", "country": "FR", "coord": {"lon": 2.56667, "lat": 45.650002}}, {"id": 3030990, "name": "Bourg-la-Reine", "state": "", "country": "FR", "coord": {"lon": 2.31781, "lat": 48.778881}}, {"id": 3030994, "name": "Bourghelles", "state": "", "country": "FR", "coord": {"lon": 3.24448, "lat": 50.56501}}, {"id": 3031004, "name": "Arrondissement de Bourges", "state": "", "country": "FR", "coord": {"lon": 2.41667, "lat": 47.25}}, {"id": 3031005, "name": "Bourges", "state": "", "country": "FR", "coord": {"lon": 2.4, "lat": 47.083328}}, {"id": 3031008, "name": "Arrondissement de Bourg-en-Bresse", "state": "", "country": "FR", "coord": {"lon": 5.16667, "lat": 46.166672}}, {"id": 3031009, "name": "Bourg-en-Bresse", "state": "", "country": "FR", "coord": {"lon": 5.2258, "lat": 46.205742}}, {"id": 3031010, "name": "Bourgeauville", "state": "", "country": "FR", "coord": {"lon": 0.0576, "lat": 49.271759}}, {"id": 3031013, "name": "Bourg-du-Bost", "state": "", "country": "FR", "coord": {"lon": 0.25, "lat": 45.26667}}, {"id": 3031016, "name": "Bourg-de-Visa", "state": "", "country": "FR", "coord": {"lon": 0.95908, "lat": 44.26178}}, {"id": 3031017, "name": "Bourg-de-Thizy", "state": "", "country": "FR", "coord": {"lon": 4.29904, "lat": 46.03371}}, {"id": 3031018, "name": "Bourg-des-Maisons", "state": "", "country": "FR", "coord": {"lon": 0.43529, "lat": 45.338051}}, {"id": 3031019, "name": "Bourg-des-Comptes", "state": "", "country": "FR", "coord": {"lon": -1.74534, "lat": 47.92934}}, {"id": 3031020, "name": "Bourg-de-P\u00e9age", "state": "", "country": "FR", "coord": {"lon": 5.07162, "lat": 45.028252}}, {"id": 3031027, "name": "Bourg-Blanc", "state": "", "country": "FR", "coord": {"lon": -4.50406, "lat": 48.498669}}, {"id": 3031029, "name": "Bourgbarr\u00e9", "state": "", "country": "FR", "coord": {"lon": -1.61419, "lat": 47.995152}}, {"id": 3031030, "name": "Bourg-Argental", "state": "", "country": "FR", "coord": {"lon": 4.56037, "lat": 45.295898}}, {"id": 3031032, "name": "Bourganeuf", "state": "", "country": "FR", "coord": {"lon": 1.7552, "lat": 45.952679}}, {"id": 3031035, "name": "Bourg-Achard", "state": "", "country": "FR", "coord": {"lon": 0.81623, "lat": 49.353222}}, {"id": 3031046, "name": "Bourdoux", "state": "", "country": "FR", "coord": {"lon": 1.06439, "lat": 45.544151}}, {"id": 3031065, "name": "Bourdelles", "state": "", "country": "FR", "coord": {"lon": 0.0009, "lat": 44.553551}}, {"id": 3031068, "name": "Bourdeilles", "state": "", "country": "FR", "coord": {"lon": 0.58714, "lat": 45.322121}}, {"id": 3031073, "name": "Bourdalat", "state": "", "country": "FR", "coord": {"lon": -0.20994, "lat": 43.840099}}, {"id": 3031080, "name": "Bourcefranc-le-Chapus", "state": "", "country": "FR", "coord": {"lon": -1.15, "lat": 45.849998}}, {"id": 3031081, "name": "Bourbriac", "state": "", "country": "FR", "coord": {"lon": -3.18758, "lat": 48.473839}}, {"id": 3031083, "name": "Bourbourg- Campagne", "state": "", "country": "FR", "coord": {"lon": 2.2, "lat": 50.950001}}, {"id": 3031085, "name": "Bourbourg", "state": "", "country": "FR", "coord": {"lon": 2.19576, "lat": 50.94783}}, {"id": 3031086, "name": "Bourbonne-les-Bains", "state": "", "country": "FR", "coord": {"lon": 5.74801, "lat": 47.953049}}, {"id": 3031090, "name": "Bourbon-Lancy", "state": "", "country": "FR", "coord": {"lon": 3.76953, "lat": 46.622139}}, {"id": 3031098, "name": "Bouray-sur-Juine", "state": "", "country": "FR", "coord": {"lon": 2.30001, "lat": 48.51981}}, {"id": 3031111, "name": "Bouniagues", "state": "", "country": "FR", "coord": {"lon": 0.52688, "lat": 44.758732}}, {"id": 3031112, "name": "Boumourt", "state": "", "country": "FR", "coord": {"lon": -0.51667, "lat": 43.433331}}, {"id": 3031115, "name": "Boult-sur-Suippe", "state": "", "country": "FR", "coord": {"lon": 4.14632, "lat": 49.37149}}, {"id": 3031123, "name": "Boulouneix", "state": "", "country": "FR", "coord": {"lon": 0.58044, "lat": 45.378559}}, {"id": 3031127, "name": "Boulon", "state": "", "country": "FR", "coord": {"lon": -0.39345, "lat": 49.047279}}, {"id": 3031129, "name": "Bouloire", "state": "", "country": "FR", "coord": {"lon": 0.55009, "lat": 47.97385}}, {"id": 3031132, "name": "Arrondissement de Boulogne-sur-Mer", "state": "", "country": "FR", "coord": {"lon": 1.83333, "lat": 50.75}}, {"id": 3031133, "name": "Boulogne-sur-Mer", "state": "", "country": "FR", "coord": {"lon": 1.61667, "lat": 50.716671}}, {"id": 3031135, "name": "Boulogne-sur-Gesse", "state": "", "country": "FR", "coord": {"lon": 0.65, "lat": 43.299999}}, {"id": 3031137, "name": "Boulogne-Billancourt", "state": "", "country": "FR", "coord": {"lon": 2.25, "lat": 48.833328}}, {"id": 3031144, "name": "Bouloc", "state": "", "country": "FR", "coord": {"lon": 1.40522, "lat": 43.781631}}, {"id": 3031146, "name": "Boulleret", "state": "", "country": "FR", "coord": {"lon": 2.87342, "lat": 47.424191}}, {"id": 3031158, "name": "Bouligny", "state": "", "country": "FR", "coord": {"lon": 5.74248, "lat": 49.291889}}, {"id": 3031161, "name": "Boulieu-l\u00e8s-Annonay", "state": "", "country": "FR", "coord": {"lon": 4.66718, "lat": 45.27084}}, {"id": 3031164, "name": "Bouliac", "state": "", "country": "FR", "coord": {"lon": -0.50248, "lat": 44.817242}},