[{"id": 1648329, "name": "Bolang", "state": "", "country": "ID", "coord": {"lon": 105.992798, "lat": -6.7658}}, {"id": 1648340, "name": "Bolaang", "state": "", "country": "ID", "coord": {"lon": 124.155602, "lat": 0.9411}}, {"id": 1648342, "name": "Bolangitang", "state": "", "country": "ID", "coord": {"lon": 123.306702, "lat": 0.9068}}, {"id": 1648345, "name": "Bola", "state": "", "country": "ID", "coord": {"lon": 122.295799, "lat": -8.7419}}, {"id": 1648362, "name": "Bokat", "state": "", "country": "ID", "coord": {"lon": 121.504997, "lat": 1.0871}}, {"id": 1648388, "name": "Bojongmanik Girang", "state": "", "country": "ID", "coord": {"lon": 106.166199, "lat": -6.5843}}, {"id": 1648407, "name": "Bojongjengkol", "state": "", "country": "ID", "coord": {"lon": 106.765503, "lat": -7.0929}}, {"id": 1648410, "name": "Bojonghaur", "state": "", "country": "ID", "coord": {"lon": 106.742104, "lat": -7.1274}}, {"id": 1648413, "name": "Bojonggenteng", "state": "", "country": "ID", "coord": {"lon": 106.621803, "lat": -7.2883}}, {"id": 1648417, "name": "Ciawi", "state": "", "country": "ID", "coord": {"lon": 107.9767, "lat": -7.5117}}, {"id": 1648427, "name": "Bojong", "state": "", "country": "ID", "coord": {"lon": 107.735451, "lat": -7.59638}}, {"id": 1648428, "name": "Bojong", "state": "", "country": "ID", "coord": {"lon": 108.494423, "lat": -7.54713}}, {"id": 1648431, "name": "Bojong", "state": "", "country": "ID", "coord": {"lon": 108.431602, "lat": -7.3467}}, {"id": 1648446, "name": "Bojong", "state": "", "country": "ID", "coord": {"lon": 106.089897, "lat": -6.1618}}, {"id": 1648451, "name": "Bojonegoro", "state": "", "country": "ID", "coord": {"lon": 111.881699, "lat": -7.1502}}, {"id": 1648453, "name": "Bojonegara", "state": "", "country": "ID", "coord": {"lon": 106.095497, "lat": -5.97}}, {"id": 1648469, "name": "Bogorejo", "state": "", "country": "ID", "coord": {"lon": 111.5186, "lat": -6.9404}}, {"id": 1648473, "name": "Bogor", "state": "", "country": "ID", "coord": {"lon": 106.789169, "lat": -6.59444}}, {"id": 1648512, "name": "Bobong", "state": "", "country": "ID", "coord": {"lon": 124.382851, "lat": -1.94697}}, {"id": 1648549, "name": "Boawae", "state": "", "country": "ID", "coord": {"lon": 121.169403, "lat": -8.7639}}, {"id": 1648557, "name": "Boafeo", "state": "", "country": "ID", "coord": {"lon": 121.625999, "lat": -8.6903}}, {"id": 1648564, "name": "Baluburlimbangan", "state": "", "country": "ID", "coord": {"lon": 107.982903, "lat": -7.0357}}, {"id": 1648568, "name": "Blora", "state": "", "country": "ID", "coord": {"lon": 111.418602, "lat": -6.9698}}, {"id": 1648580, "name": "Blitar", "state": "", "country": "ID", "coord": {"lon": 112.168098, "lat": -8.0983}}, {"id": 1648636, "name": "Bitung", "state": "", "country": "ID", "coord": {"lon": 125.182404, "lat": 1.4451}}, {"id": 1648744, "name": "Binangun", "state": "", "country": "ID", "coord": {"lon": 112.335999, "lat": -8.2343}}, {"id": 1648759, "name": "Bima", "state": "", "country": "ID", "coord": {"lon": 118.716667, "lat": -8.46667}}, {"id": 1648761, "name": "Bilungala", "state": "", "country": "ID", "coord": {"lon": 123.213501, "lat": 0.3815}}, {"id": 1648794, "name": "Biha", "state": "", "country": "ID", "coord": {"lon": 104.029503, "lat": -5.3296}}, {"id": 1648918, "name": "Besuki", "state": "", "country": "ID", "coord": {"lon": 113.697853, "lat": -7.73379}}, {"id": 1649147, "name": "Propinsi Bengkulu", "state": "", "country": "ID", "coord": {"lon": 102.26683, "lat": -3.79965}}, {"id": 1649150, "name": "Bengkulu", "state": "", "country": "ID", "coord": {"lon": 102.265541, "lat": -3.80044}}, {"id": 1649267, "name": "Belopa", "state": "", "country": "ID", "coord": {"lon": 120.367599, "lat": -3.3849}}, {"id": 1649378, "name": "Bekasi", "state": "", "country": "ID", "coord": {"lon": 106.989601, "lat": -6.2349}}, {"id": 1649458, "name": "Bebandem", "state": "", "country": "ID", "coord": {"lon": 115.560204, "lat": -8.4403}}, {"id": 1649480, "name": "Bayongbong", "state": "", "country": "ID", "coord": {"lon": 107.819702, "lat": -7.2716}}, {"id": 1649493, "name": "Bayan", "state": "", "country": "ID", "coord": {"lon": 116.425499, "lat": -8.2689}}, {"id": 1649496, "name": "Bayah", "state": "", "country": "ID", "coord": {"lon": 106.2547, "lat": -6.9277}}, {"id": 1649575, "name": "Batusangkar", "state": "", "country": "ID", "coord": {"lon": 100.626801, "lat": -0.45624}}, {"id": 1649593, "name": "Baturaja", "state": "", "country": "ID", "coord": {"lon": 104.166672, "lat": -4.13333}}, {"id": 1649595, "name": "Baturaden", "state": "", "country": "ID", "coord": {"lon": 109.216667, "lat": -7.3}}, {"id": 1649683, "name": "Batulawang", "state": "", "country": "ID", "coord": {"lon": 107.1502, "lat": -7.3672}}, {"id": 1649740, "name": "Batudulang", "state": "", "country": "ID", "coord": {"lon": 117.280899, "lat": -8.5873}}, {"id": 1649776, "name": "Batubantar", "state": "", "country": "ID", "coord": {"lon": 106.044403, "lat": -6.3501}}, {"id": 1649824, "name": "Batu", "state": "", "country": "ID", "coord": {"lon": 112.528328, "lat": -7.87}}, {"id": 1649867, "name": "Batangan", "state": "", "country": "ID", "coord": {"lon": 111.2295, "lat": -6.7094}}, {"id": 1649881, "name": "Batang", "state": "", "country": "ID", "coord": {"lon": 110.708298, "lat": -6.4846}}, {"id": 1649904, "name": "Baso", "state": "", "country": "ID", "coord": {"lon": 100.453621, "lat": -0.28067}}, {"id": 1649920, "name": "Barusatu", "state": "", "country": "ID", "coord": {"lon": 105.945999, "lat": -6.3207}}, {"id": 1650005, "name": "Bari", "state": "", "country": "ID", "coord": {"lon": 120.182198, "lat": -8.3518}}, {"id": 1650013, "name": "Barengkok Hilir", "state": "", "country": "ID", "coord": {"lon": 105.923401, "lat": -6.7663}}, {"id": 1650028, "name": "Baratan", "state": "", "country": "ID", "coord": {"lon": 113.7304, "lat": -8.1348}}, {"id": 1650064, "name": "Barabai", "state": "", "country": "ID", "coord": {"lon": 115.383331, "lat": -2.58333}}, {"id": 1650073, "name": "Bapoh", "state": "", "country": "ID", "coord": {"lon": 111.055801, "lat": -6.7098}}, {"id": 1650077, "name": "Banyuwangi", "state": "", "country": "ID", "coord": {"lon": 114.357552, "lat": -8.2325}}, {"id": 1650085, "name": "Banyuresmi", "state": "", "country": "ID", "coord": {"lon": 107.951698, "lat": -7.1605}}, {"id": 1650095, "name": "Banyumas", "state": "", "country": "ID", "coord": {"lon": 109.294167, "lat": -7.51417}}, {"id": 1650114, "name": "Bantur", "state": "", "country": "ID", "coord": {"lon": 112.580704, "lat": -8.314}}, {"id": 1650119, "name": "Bantul", "state": "", "country": "ID", "coord": {"lon": 110.328888, "lat": -7.88806}}, {"id": 1650148, "name": "Bantarpanjang", "state": "", "country": "ID", "coord": {"lon": 108.766296, "lat": -7.0061}}, {"id": 1650164, "name": "Bantardawa", "state": "", "country": "ID", "coord": {"lon": 108.612297, "lat": -7.4381}}, {"id": 1650173, "name": "Bantar", "state": "", "country": "ID", "coord": {"lon": 108.189697, "lat": -7.3231}}, {"id": 1650187, "name": "Bantal", "state": "", "country": "ID", "coord": {"lon": 114.230797, "lat": -7.7907}}, {"id": 1650194, "name": "Banjarwaru", "state": "", "country": "ID", "coord": {"lon": 108.3815, "lat": -7.7778}}, {"id": 1650195, "name": "Banjarwangi", "state": "", "country": "ID", "coord": {"lon": 107.902603, "lat": -7.4398}}, {"id": 1650198, "name": "Banjarsari", "state": "", "country": "ID", "coord": {"lon": 108.5998, "lat": -7.4819}}, {"id": 1650205, "name": "Banjarejo", "state": "", "country": "ID", "coord": {"lon": 111.344101, "lat": -7.0344}}, {"id": 1650213, "name": "Banjarmasin", "state": "", "country": "ID", "coord": {"lon": 114.591003, "lat": -3.32442}}, {"id": 1650221, "name": "Banjarangsana", "state": "", "country": "ID", "coord": {"lon": 108.2407, "lat": -7.1339}}, {"id": 1650226, "name": "Banjaran", "state": "", "country": "ID", "coord": {"lon": 108.797699, "lat": -7.1905}}, {"id": 1650227, "name": "Banjaran", "state": "", "country": "ID", "coord": {"lon": 107.587784, "lat": -7.04528}}, {"id": 1650232, "name": "Banjar", "state": "", "country": "ID", "coord": {"lon": 114.967499, "lat": -8.19}}, {"id": 1650233, "name": "Banjar", "state": "", "country": "ID", "coord": {"lon": 108.532898, "lat": -7.3688}}, {"id": 1650234, "name": "Banjar", "state": "", "country": "ID", "coord": {"lon": 107.431297, "lat": -7.1955}}, {"id": 1650264, "name": "Bangli", "state": "", "country": "ID", "coord": {"lon": 115.3545, "lat": -8.4542}}, {"id": 1650298, "name": "Bangkalan", "state": "", "country": "ID", "coord": {"lon": 112.7351, "lat": -7.0455}}, {"id": 1650318, "name": "Bangilan", "state": "", "country": "ID", "coord": {"lon": 111.714104, "lat": -6.97}}, {"id": 1650319, "name": "Bangil", "state": "", "country": "ID", "coord": {"lon": 112.818604, "lat": -7.59939}}, {"id": 1650332, "name": "Bangelan", "state": "", "country": "ID", "coord": {"lon": 112.4981, "lat": -8.1019}}, {"id": 1650357, "name": "Bandung", "state": "", "country": "ID", "coord": {"lon": 107.618607, "lat": -6.90389}}, {"id": 1650401, "name": "Bancar", "state": "", "country": "ID", "coord": {"lon": 111.7808, "lat": -6.7827}}, {"id": 1650434, "name": "Bambanglipuro", "state": "", "country": "ID", "coord": {"lon": 110.283333, "lat": -7.95}}, {"id": 1650458, "name": "Balung", "state": "", "country": "ID", "coord": {"lon": 113.538803, "lat": -8.2727}}, {"id": 1650460, "name": "Balung", "state": "", "country": "ID", "coord": {"lon": 113.916672, "lat": -7.73333}}, {"id": 1650465, "name": "Baluk", "state": "", "country": "ID", "coord": {"lon": 122.304398, "lat": -8.7426}}, {"id": 1650488, "name": "Balong", "state": "", "country": "ID", "coord": {"lon": 111.171402, "lat": -6.8381}}, {"id": 1650491, "name": "Balokang", "state": "", "country": "ID", "coord": {"lon": 108.485199, "lat": -7.3665}}, {"id": 1650527, "name": "Balikpapan", "state": "", "country": "ID", "coord": {"lon": 116.828873, "lat": -1.26753}}, {"id": 1650535, "name": "Provinsi Bali", "state": "", "country": "ID", "coord": {"lon": 115, "lat": -8.5}}, {"id": 1650549, "name": "Balegede", "state": "", "country": "ID", "coord": {"lon": 107.356903, "lat": -7.2639}}, {"id": 1650554, "name": "Balearjo", "state": "", "country": "ID", "coord": {"lon": 112.574799, "lat": -8.1956}}, {"id": 1650572, "name": "Balapulang", "state": "", "country": "ID", "coord": {"lon": 109.083328, "lat": -7.05}}, {"id": 1650600, "name": "Balaipungut", "state": "", "country": "ID", "coord": {"lon": 101.283333, "lat": 1.05}}, {"id": 1650627, "name": "Bagorejo", "state": "", "country": "ID", "coord": {"lon": 114.304497, "lat": -8.396}}, {"id": 1650640, "name": "Bakung", "state": "", "country": "ID", "coord": {"lon": 108.676102, "lat": -7.3524}}, {"id": 1650670, "name": "Baki", "state": "", "country": "ID", "coord": {"lon": 110.78389, "lat": -7.61278}}, {"id": 1650693, "name": "Bakalan", "state": "", "country": "ID", "coord": {"lon": 112.659599, "lat": -8.1096}}, {"id": 1650716, "name": "Bajo", "state": "", "country": "ID", "coord": {"lon": 120.310204, "lat": -3.3788}}, {"id": 1650720, "name": "Bajawa", "state": "", "country": "ID", "coord": {"lon": 120.974403, "lat": -8.7848}}, {"id": 1650815, "name": "Baekrajan", "state": "", "country": "ID", "coord": {"lon": 110.854103, "lat": -6.7674}}, {"id": 1650816, "name": "Badur", "state": "", "country": "ID", "coord": {"lon": 105.847397, "lat": -6.3805}}, {"id": 1650888, "name": "Babat", "state": "", "country": "ID", "coord": {"lon": 112.163544, "lat": -7.11282}}, {"id": 1650903, "name": "Babana", "state": "", "country": "ID", "coord": {"lon": 119.198601, "lat": -2.0779}}, {"id": 1650919, "name": "Babakanloa", "state": "", "country": "ID", "coord": {"lon": 107.996803, "lat": -7.1609}}, {"id": 1650939, "name": "Babakan", "state": "", "country": "ID", "coord": {"lon": 107.222397, "lat": -7.282}}, {"id": 1651018, "name": "Awipari Tengah", "state": "", "country": "ID", "coord": {"lon": 108.271896, "lat": -7.3511}}, {"id": 1651019, "name": "Awiluar", "state": "", "country": "ID", "coord": {"lon": 108.3377, "lat": -7.1554}}, {"id": 1651103, "name": "Atambua", "state": "", "country": "ID", "coord": {"lon": 124.892502, "lat": -9.10611}}, {"id": 1651112, "name": "Astanajapura", "state": "", "country": "ID", "coord": {"lon": 108.631104, "lat": -6.8017}}, {"id": 1651133, "name": "Asembagus", "state": "", "country": "ID", "coord": {"lon": 114.210098, "lat": -7.7507}}, {"id": 1651226, "name": "Arjawinangun", "state": "", "country": "ID", "coord": {"lon": 108.410278, "lat": -6.64528}}, {"id": 1651383, "name": "Ankola", "state": "", "country": "ID", "coord": {"lon": 107.127197, "lat": -7.3071}}, {"id": 1651461, "name": "Amuntai", "state": "", "country": "ID", "coord": {"lon": 115.249413, "lat": -2.41773}}, {"id": 1651496, "name": "Ammusu", "state": "", "country": "ID", "coord": {"lon": 122.23333, "lat": -3.95}}, {"id": 1651531, "name": "Ambon", "state": "", "country": "ID", "coord": {"lon": 128.181396, "lat": -3.69543}}, {"id": 1651540, "name": "Banjar Ambengan", "state": "", "country": "ID", "coord": {"lon": 115.119301, "lat": -8.1689}}, {"id": 1651555, "name": "Ambarawa", "state": "", "country": "ID", "coord": {"lon": 110.397499, "lat": -7.26333}}, {"id": 1651591, "name": "Amahai", "state": "", "country": "ID", "coord": {"lon": 128.916672, "lat": -3.33333}}, {"id": 1651645, "name": "Alasbuluh", "state": "", "country": "ID", "coord": {"lon": 114.406799, "lat": -8.0097}}, {"id": 1651678, "name": "Alahanpanjang", "state": "", "country": "ID", "coord": {"lon": 100.793541, "lat": -1.07491}}, {"id": 1651741, "name": "Banjar Yehsatang", "state": "", "country": "ID", "coord": {"lon": 114.802803, "lat": -8.3932}}, {"id": 1651810, "name": "Ainaro", "state": "", "country": "TL", "coord": {"lon": 125.508163, "lat": -8.99241}}, {"id": 1651813, "name": "Aimere", "state": "", "country": "ID", "coord": {"lon": 120.857903, "lat": -8.8431}}, {"id": 1651816, "name": "Aileu", "state": "", "country": "TL", "coord": {"lon": 125.566391, "lat": -8.72806}}, {"id": 1651867, "name": "Airbuaya", "state": "", "country": "ID", "coord": {"lon": 126.434563, "lat": -3.08635}}, {"id": 1651887, "name": "Adiwerna", "state": "", "country": "ID", "coord": {"lon": 109.1325, "lat": -6.9375}}, {"id": 1651888, "name": "Adipala", "state": "", "country": "ID", "coord": {"lon": 109.150002, "lat": -7.65972}}, {"id": 1651944, "name": "Vientiane", "state": "", "country": "LA", "coord": {"lon": 102.599998, "lat": 17.966669}}, {"id": 1652077, "name": "Xiangkhouang", "state": "", "country": "LA", "coord": {"lon": 103.5, "lat": 19.41667}}, {"id": 1652203, "name": "Xam Nua", "state": "", "country": "LA", "coord": {"lon": 104.043892, "lat": 20.41972}}, {"id": 1652210, "name": "Xaignabouli", "state": "", "country": "LA", "coord": {"lon": 101.5, "lat": 18.5}}, {"id": 1652238, "name": "Vientiane Province", "state": "", "country": "LA", "coord": {"lon": 102.416672, "lat": 18.75}}, {"id": 1653315, "name": "Khou\u00e8ng Savannakh\u00e9t", "state": "", "country": "LA", "coord": {"lon": 105.75, "lat": 16.5}}, {"id": 1653316, "name": "Savannakhet", "state": "", "country": "LA", "coord": {"lon": 104.750999, "lat": 16.565981}}, {"id": 1653333, "name": "Salavan", "state": "", "country": "LA", "coord": {"lon": 106.25, "lat": 15.75}}, {"id": 1653334, "name": "Salavan", "state": "", "country": "LA", "coord": {"lon": 106.416672, "lat": 15.71667}}, {"id": 1653814, "name": "Phou Pial\u00f4ng", "state": "", "country": "LA", "coord": {"lon": 102.182777, "lat": 21.41889}}, {"id": 1653894, "name": "Ph\u00f4ngsali", "state": "", "country": "LA", "coord": {"lon": 102.105827, "lat": 21.683331}}, {"id": 1654379, "name": "Pakse", "state": "", "country": "LA", "coord": {"lon": 105.783333, "lat": 15.11667}}, {"id": 1654401, "name": "Pakkading", "state": "", "country": "LA", "coord": {"lon": 103.993294, "lat": 18.32357}}, {"id": 1654491, "name": "Khou\u00e8ng Oud\u00f4mxai", "state": "", "country": "LA", "coord": {"lon": 101.5, "lat": 20.16667}}, {"id": 1655078, "name": "Muang Xay", "state": "", "country": "LA", "coord": {"lon": 101.98333, "lat": 20.700001}}, {"id": 1655084, "name": "Sainyabuli", "state": "", "country": "LA", "coord": {"lon": 101.75, "lat": 19.25}}, {"id": 1655087, "name": "Vangviang", "state": "", "country": "LA", "coord": {"lon": 102.449997, "lat": 18.933331}}, {"id": 1655094, "name": "Ban That\u00e8ng", "state": "", "country": "LA", "coord": {"lon": 106.383331, "lat": 15.43333}}, {"id": 1655104, "name": "Ban Soukhouma", "state": "", "country": "LA", "coord": {"lon": 105.800003, "lat": 14.63333}}, {"id": 1655112, "name": "Muang Sanakham", "state": "", "country": "LA", "coord": {"lon": 101.654442, "lat": 17.90217}}, {"id": 1655122, "name": "Ph\u00f4nthong", "state": "", "country": "LA", "coord": {"lon": 105.650002, "lat": 15.08333}}, {"id": 1655123, "name": "Muang Ph\u00f4nsavan", "state": "", "country": "LA", "coord": {"lon": 103.216667, "lat": 19.450001}}, {"id": 1655124, "name": "Muang Ph\u00f4n-H\u00f4ng", "state": "", "country": "LA", "coord": {"lon": 102.417221, "lat": 18.492781}}, {"id": 1655139, "name": "Pakxong", "state": "", "country": "LA", "coord": {"lon": 106.23333, "lat": 15.18333}}, {"id": 1655140, "name": "Pakxan", "state": "", "country": "LA", "coord": {"lon": 103.660072, "lat": 18.377781}}, {"id": 1655177, "name": "Muang Long", "state": "", "country": "LA", "coord": {"lon": 100.800003, "lat": 20.950001}}, {"id": 1655186, "name": "Ban Pakla", "state": "", "country": "LA", "coord": {"lon": 102.116669, "lat": 20.866671}}, {"id": 1655192, "name": "Muang Kh\u00f4ng", "state": "", "country": "LA", "coord": {"lon": 105.849998, "lat": 14.11667}}, {"id": 1655199, "name": "Thakh\u00e8k", "state": "", "country": "LA", "coord": {"lon": 104.830681, "lat": 17.410271}}, {"id": 1655201, "name": "Muang K\u00e8nthao", "state": "", "country": "LA", "coord": {"lon": 101.397781, "lat": 17.733891}}, {"id": 1655212, "name": "Muang Hinboun", "state": "", "country": "LA", "coord": {"lon": 104.603882, "lat": 17.591}}, {"id": 1655244, "name": "Ban Mounlapam\u00f4k", "state": "", "country": "LA", "coord": {"lon": 105.866669, "lat": 14.33333}}, {"id": 1655558, "name": "Luang Prabang Province", "state": "", "country": "LA", "coord": {"lon": 102.666672, "lat": 20.25}}, {"id": 1655559, "name": "Luang Prabang", "state": "", "country": "LA", "coord": {"lon": 102.13472, "lat": 19.885559}}, {"id": 1655561, "name": "Louangnamtha", "state": "", "country": "LA", "coord": {"lon": 101.333328, "lat": 20.91667}}, {"id": 1655562, "name": "Luang Namtha", "state": "", "country": "LA", "coord": {"lon": 101.401108, "lat": 20.94972}}, {"id": 1655842, "name": "Lao People\u2019s Democratic Republic", "state": "", "country": "LA", "coord": {"lon": 105, "lat": 18}}, {"id": 1656538, "name": "Khammouan", "state": "", "country": "LA", "coord": {"lon": 105.333328, "lat": 17.5}}, {"id": 1657114, "name": "Houaphan", "state": "", "country": "LA", "coord": {"lon": 104, "lat": 20.5}}, {"id": 1657818, "name": "Champasak", "state": "", "country": "LA", "coord": {"lon": 106, "lat": 14.75}}, {"id": 1657819, "name": "Champasak", "state": "", "country": "LA", "coord": {"lon": 105.866669, "lat": 14.88333}}, {"id": 1657897, "name": "Borikhan", "state": "", "country": "LA", "coord": {"lon": 103.723846, "lat": 18.559731}}, {"id": 1658343, "name": "Ban Toun", "state": "", "country": "LA", "coord": {"lon": 101.716667, "lat": 19.23333}}, {"id": 1659203, "name": "Ban Sithan Nua", "state": "", "country": "LA", "coord": {"lon": 102.605186, "lat": 17.96347}}, {"id": 1659223, "name": "Ban Sikhai", "state": "", "country": "LA", "coord": {"lon": 102.554489, "lat": 17.98428}}, {"id": 1659990, "name": "Lamam", "state": "", "country": "LA", "coord": {"lon": 106.699997, "lat": 15.41667}}, {"id": 1661065, "name": "Ban Nathong", "state": "", "country": "LA", "coord": {"lon": 104.059998, "lat": 20.42333}}, {"id": 1661950, "name": "Ban Nahin", "state": "", "country": "LA", "coord": {"lon": 104.212212, "lat": 18.241751}}, {"id": 1662615, "name": "Ban Lao", "state": "", "country": "LA", "coord": {"lon": 104.809578, "lat": 17.38394}}, {"id": 1662897, "name": "Ban Khouaphan", "state": "", "country": "LA", "coord": {"lon": 102.449997, "lat": 18.91667}}, {"id": 1663064, "name": "Ban Khankeung", "state": "", "country": "LA", "coord": {"lon": 105.783333, "lat": 15.11667}}, {"id": 1663526, "name": "Ban Houayxay", "state": "", "country": "LA", "coord": {"lon": 100.412781, "lat": 20.2775}}, {"id": 1664013, "name": "Ban Houak\u00e8ng", "state": "", "country": "LA", "coord": {"lon": 105.783333, "lat": 15.13333}}, {"id": 1664331, "name": "Ban X\u00e9kaman", "state": "", "country": "LA", "coord": {"lon": 106.833328, "lat": 14.8}}, {"id": 1665045, "name": "Attapu", "state": "", "country": "LA", "coord": {"lon": 107, "lat": 14.66667}}, {"id": 1665046, "name": "Attapeu", "state": "", "country": "LA", "coord": {"lon": 106.833328, "lat": 14.8}}, {"id": 1665148, "name": "Taipei", "state": "", "country": "TW", "coord": {"lon": 121.581749, "lat": 24.94702}}, {"id": 1665194, "name": "Yunlin", "state": "", "country": "TW", "coord": {"lon": 120.384811, "lat": 23.70701}}, {"id": 1665196, "name": "Douliu", "state": "", "country": "TW", "coord": {"lon": 120.543327, "lat": 23.70944}}, {"id": 1665310, "name": "Yuren", "state": "", "country": "TW", "coord": {"lon": 121.542778, "lat": 22.0275}}, {"id": 1665357, "name": "Yujing", "state": "", "country": "TW", "coord": {"lon": 120.46138, "lat": 23.124929}}, {"id": 1665988, "name": "Zhigaozhuang", "state": "", "country": "TW", "coord": {"lon": 120.61602, "lat": 24.154539}}, {"id": 1665989, "name": "Chishan", "state": "", "country": "TW", "coord": {"lon": 120.356468, "lat": 22.639231}}, {"id": 1666529, "name": "Tongpanqian", "state": "", "country": "TW", "coord": {"lon": 120.213608, "lat": 22.95417}}, {"id": 1667031, "name": "Touchongbu", "state": "", "country": "TW", "coord": {"lon": 121.047218, "lat": 24.7775}}, {"id": 1667289, "name": "Dingjiaotan", "state": "", "country": "TW", "coord": {"lon": 120.729721, "lat": 24.26417}}, {"id": 1667905, "name": "Taoyuan", "state": "", "country": "TW", "coord": {"lon": 121.318703, "lat": 24.989599}}, {"id": 1668284, "name": "Taiwan", "state": "", "country": "TW", "coord": {"lon": 121, "lat": 24}}, {"id": 1668295, "name": "Taitung", "state": "", "country": "TW", "coord": {"lon": 121.144569, "lat": 22.759911}}, {"id": 1668338, "name": "Taipei City", "state": "", "country": "TW", "coord": {"lon": 121.650269, "lat": 25.048611}}, {"id": 1668341, "name": "Taipei", "state": "", "country": "TW", "coord": {"lon": 121.531853, "lat": 25.04776}}, {"id": 1668347, "name": "Taibao", "state": "", "country": "TW", "coord": {"lon": 120.332222, "lat": 23.45944}}, {"id": 1668352, "name": "Tainan", "state": "", "country": "TW", "coord": {"lon": 120.188759, "lat": 23.000019}}, {"id": 1668353, "name": "Xinying", "state": "", "country": "TW", "coord": {"lon": 120.310562, "lat": 23.30694}}, {"id": 1668355, "name": "Tainan", "state": "", "country": "TW", "coord": {"lon": 120.213333, "lat": 22.990829}}, {"id": 1668396, "name": "Fengyuan", "state": "", "country": "TW", "coord": {"lon": 120.716942, "lat": 24.25}}, {"id": 1668399, "name": "Taichung", "state": "", "country": "TW", "coord": {"lon": 120.683899, "lat": 24.1469}}, {"id": 1668467, "name": "Daxi", "state": "", "country": "TW", "coord": {"lon": 121.290428, "lat": 24.88373}}, {"id": 1668630, "name": "Wucheng", "state": "", "country": "TW", "coord": {"lon": 119.624107, "lat": 23.56588}}, {"id": 1668664, "name": "Songwu", "state": "", "country": "TW", "coord": {"lon": 121.206108, "lat": 24.94389}}, {"id": 1668841, "name": "Siji", "state": "", "country": "TW", "coord": {"lon": 121.426109, "lat": 24.48694}}, {"id": 1668885, "name": "Shuiyuandi", "state": "", "country": "TW", "coord": {"lon": 121.599998, "lat": 23.98333}}, {"id": 1669321, "name": "Shibazhang", "state": "", "country": "TW", "coord": {"lon": 120.683327, "lat": 23.91667}}, {"id": 1669401, "name": "Dongshan", "state": "", "country": "TW", "coord": {"lon": 120.6325, "lat": 24.27306}}, {"id": 1670029, "name": "Banqiao", "state": "", "country": "TW", "coord": {"lon": 121.467194, "lat": 25.014271}}, {"id": 1670310, "name": "Puli", "state": "", "country": "TW", "coord": {"lon": 120.969521, "lat": 23.966391}}, {"id": 1670395, "name": "Pojiao", "state": "", "country": "TW", "coord": {"lon": 121.223083, "lat": 25.08622}}, {"id": 1670479, "name": "Pingtung", "state": "", "country": "TW", "coord": {"lon": 120.614441, "lat": 22.49555}}, {"id": 1670481, "name": "Pingtung", "state": "", "country": "TW", "coord": {"lon": 120.488136, "lat": 22.67135}}, {"id": 1670651, "name": "Penghu County", "state": "", "country": "TW", "coord": {"lon": 119.611382, "lat": 23.57111}}, {"id": 1671564, "name": "Nantou", "state": "", "country": "TW", "coord": {"lon": 120.92704, "lat": 23.83419}}, {"id": 1671566, "name": "Nantou", "state": "", "country": "TW", "coord": {"lon": 120.663872, "lat": 23.915661}}, {"id": 1671971, "name": "Miaoli", "state": "", "country": "TW", "coord": {"lon": 120.823669, "lat": 24.56427}}, {"id": 1672222, "name": "Huiyaozi", "state": "", "country": "TW", "coord": {"lon": 121.12825, "lat": 22.76885}}, {"id": 1672228, "name": "Magong", "state": "", "country": "TW", "coord": {"lon": 119.586273, "lat": 23.565399}}, {"id": 1672430, "name": "Longshanli", "state": "", "country": "TW", "coord": {"lon": 120.550003, "lat": 24.08333}}, {"id": 1672551, "name": "Lugu", "state": "", "country": "TW", "coord": {"lon": 120.752502, "lat": 23.746389}}, {"id": 1672557, "name": "Lugang", "state": "", "country": "TW", "coord": {"lon": 120.434998, "lat": 24.05583}}, {"id": 1672850, "name": "Lindefu", "state": "", "country": "TW", "coord": {"lon": 120.319832, "lat": 22.62184}}, {"id": 1673046, "name": "Laodian", "state": "", "country": "TW", "coord": {"lon": 120.406113, "lat": 23.4575}}, {"id": 1673169, "name": "Guting", "state": "", "country": "TW", "coord": {"lon": 121.51667, "lat": 25.033331}}, {"id": 1673200, "name": "Guomin", "state": "", "country": "TW", "coord": {"lon": 121.616669, "lat": 24}}, {"id": 1673816, "name": "Fengshan", "state": "", "country": "TW", "coord": {"lon": 120.361259, "lat": 22.626591}}, {"id": 1673820, "name": "Kaohsiung", "state": "", "country": "TW", "coord": {"lon": 120.313332, "lat": 22.616261}}, {"id": 1674197, "name": "Yilan", "state": "", "country": "TW", "coord": {"lon": 121.633614, "lat": 24.5425}}, {"id": 1674199, "name": "Yilan", "state": "", "country": "TW", "coord": {"lon": 121.752998, "lat": 24.757}}, {"id": 1674502, "name": "Hualien", "state": "", "country": "TW", "coord": {"lon": 121.393333, "lat": 23.78166}}, {"id": 1674504, "name": "Hualien City", "state": "", "country": "TW", "coord": {"lon": 121.604439, "lat": 23.97694}}, {"id": 1675107, "name": "Hsinchu County", "state": "", "country": "TW", "coord": {"lon": 121.16111, "lat": 24.67416}}, {"id": 1675151, "name": "Hsinchu", "state": "", "country": "TW", "coord": {"lon": 120.968613, "lat": 24.80361}}, {"id": 1675247, "name": "Xiguoshan", "state": "", "country": "TW", "coord": {"lon": 118.349998, "lat": 24.425831}}, {"id": 1675720, "name": "Xianeibu", "state": "", "country": "TW", "coord": {"lon": 121.542473, "lat": 25.017719}}, {"id": 1676087, "name": "Houzhuangzi", "state": "", "country": "TW", "coord": {"lon": 120.662033, "lat": 24.194019}}, {"id": 1676242, "name": "Hengchun", "state": "", "country": "TW", "coord": {"lon": 120.743889, "lat": 22.004169}}, {"id": 1676426, "name": "Guoxizi", "state": "", "country": "TW", "coord": {"lon": 121.128304, "lat": 25.039129}}, {"id": 1676453, "name": "Fuxingcun", "state": "", "country": "TW", "coord": {"lon": 119.949997, "lat": 26.16667}}, {"id": 1676959, "name": "Erqiao", "state": "", "country": "TW", "coord": {"lon": 120.366669, "lat": 22.549999}}, {"id": 1677028, "name": "Zhuzilin", "state": "", "country": "TW", "coord": {"lon": 121.549149, "lat": 25.080521}}, {"id": 1677112, "name": "Zhubei", "state": "", "country": "TW", "coord": {"lon": 121.007782, "lat": 24.838329}}, {"id": 1677210, "name": "Zhongdacuo", "state": "", "country": "TW", "coord": {"lon": 120.354874, "lat": 22.58102}}, {"id": 1677307, "name": "Zhongliao", "state": "", "country": "TW", "coord": {"lon": 121.471939, "lat": 22.67417}}, {"id": 1677314, "name": "Chonglan", "state": "", "country": "TW", "coord": {"lon": 120.485023, "lat": 22.692551}}, {"id": 1678008, "name": "Jincheng", "state": "", "country": "TW", "coord": {"lon": 118.318329, "lat": 24.43667}}, {"id": 1678228, "name": "Keelung", "state": "", "country": "TW", "coord": {"lon": 121.741898, "lat": 25.12825}}, {"id": 1678375, "name": "Chikanlou", "state": "", "country": "TW", "coord": {"lon": 120.199997, "lat": 23}}, {"id": 1678813, "name": "Jiali", "state": "", "country": "TW", "coord": {"lon": 121.606262, "lat": 24.021469}}, {"id": 1678836, "name": "Jiayi Shi", "state": "", "country": "TW", "coord": {"lon": 120.448891, "lat": 23.47917}}, {"id": 1679136, "name": "Chang-hua", "state": "", "country": "TW", "coord": {"lon": 120.562759, "lat": 24.073271}}, {"id": 1679360, "name": "Zumarraga", "state": "", "country": "PH", "coord": {"lon": 124.841698, "lat": 11.6388}}, {"id": 1679384, "name": "Zarraga", "state": "", "country": "PH", "coord": {"lon": 122.608063, "lat": 10.81972}}, {"id": 1679386, "name": "Zaragoza", "state": "", "country": "PH", "coord": {"lon": 119.944298, "lat": 16.3871}}, {"id": 1679423, "name": "Zamboanguita", "state": "", "country": "PH", "coord": {"lon": 123.1996, "lat": 9.1025}}, {"id": 1679428, "name": "Province of  Zamboanga del Sur", "state": "", "country": "PH", "coord": {"lon": 123.319397, "lat": 7.9043}}, {"id": 1679429, "name": "Province of Zamboanga del Norte", "state": "", "country": "PH", "coord": {"lon": 122.666672, "lat": 8}}, {"id": 1679430, "name": "Zamboanga City", "state": "", "country": "PH", "coord": {"lon": 122.069611, "lat": 6.91348}}, {"id": 1679432, "name": "Zamboanga", "state": "", "country": "PH", "coord": {"lon": 122.073891, "lat": 6.91028}}, {"id": 1679435, "name": "Province of Zambales", "state": "", "country": "PH", "coord": {"lon": 120.166672, "lat": 15.33333}}, {"id": 1679446, "name": "Yumbing", "state": "", "country": "PH", "coord": {"lon": 124.657799, "lat": 9.2393}}, {"id": 1679452, "name": "Yubo", "state": "", "country": "PH", "coord": {"lon": 123.050003, "lat": 10.4}}, {"id": 1679464, "name": "Yook", "state": "", "country": "PH", "coord": {"lon": 121.963997, "lat": 13.22608}}, {"id": 1679476, "name": "Ilaya", "state": "", "country": "PH", "coord": {"lon": 125.226669, "lat": 5.81528}}, {"id": 1679488, "name": "Yeban Norte", "state": "", "country": "PH", "coord": {"lon": 121.94194, "lat": 17.02195}}, {"id": 1679558, "name": "Wright", "state": "", "country": "PH", "coord": {"lon": 125.021942, "lat": 11.77028}}, {"id": 1679569, "name": "Wines", "state": "", "country": "PH", "coord": {"lon": 125.389168, "lat": 7.19389}}, {"id": 1679645, "name": "Wawa", "state": "", "country": "PH", "coord": {"lon": 121.459503, "lat": 14.3019}}, {"id": 1679648, "name": "Wawa", "state": "", "country": "PH", "coord": {"lon": 121.051941, "lat": 13.73917}}, {"id": 1679649, "name": "Wawa", "state": "", "country": "PH", "coord": {"lon": 120.744102, "lat": 13.4632}}, {"id": 1679678, "name": "Wao", "state": "", "country": "PH", "coord": {"lon": 124.666672, "lat": 7.68333}}, {"id": 1679679, "name": "Wao", "state": "", "country": "PH", "coord": {"lon": 124.683327, "lat": 7.68333}}, {"id": 1679689, "name": "Wa\u00f1gan", "state": "", "country": "PH", "coord": {"lon": 125.445282, "lat": 7.15972}}, {"id": 1679755, "name": "Vizal Santo Ni\u00f1o", "state": "", "country": "PH", "coord": {"lon": 120.880302, "lat": 15.0381}}, {"id": 1679756, "name": "Vizal San Pablo", "state": "", "country": "PH", "coord": {"lon": 120.864899, "lat": 15.0379}}, {"id": 1679766, "name": "Vito", "state": "", "country": "PH", "coord": {"lon": 123.511391, "lat": 10.90333}}, {"id": 1679776, "name": "Vitali", "state": "", "country": "PH", "coord": {"lon": 122.288612, "lat": 7.37111}}, {"id": 1679782, "name": "Vista Alegre", "state": "", "country": "PH", "coord": {"lon": 122.766296, "lat": 9.9984}}, {"id": 1679796, "name": "Viriato", "state": "", "country": "PH", "coord": {"lon": 124.353333, "lat": 12.29031}}, {"id": 1679802, "name": "Virac", "state": "", "country": "PH", "coord": {"lon": 124.237396, "lat": 13.5848}}, {"id": 1679804, "name": "Virac", "state": "", "country": "PH", "coord": {"lon": 124.216667, "lat": 13.63333}}, {"id": 1679811, "name": "Vinzons", "state": "", "country": "PH", "coord": {"lon": 122.906601, "lat": 14.1737}}, {"id": 1679815, "name": "Vintar", "state": "", "country": "PH", "coord": {"lon": 120.647499, "lat": 18.228399}}, {"id": 1679837, "name": "Villaviciosa", "state": "", "country": "PH", "coord": {"lon": 120.626198, "lat": 17.437901}}, {"id": 1679841, "name": "Villa Verde", "state": "", "country": "PH", "coord": {"lon": 121.187737, "lat": 16.598881}}, {"id": 1679845, "name": "Villasis", "state": "", "country": "PH", "coord": {"lon": 120.588333, "lat": 15.90167}}, {"id": 1679850, "name": "Villarosa", "state": "", "country": "PH", "coord": {"lon": 120.75, "lat": 15.55}}, {"id": 1679856, "name": "Villareal", "state": "", "country": "PH", "coord": {"lon": 124.928101, "lat": 11.5659}}, {"id": 1679859, "name": "Villar", "state": "", "country": "PH", "coord": {"lon": 120.2369, "lat": 15.1831}}, {"id": 1679868, "name": "Villanueva", "state": "", "country": "PH", "coord": {"lon": 120.550003, "lat": 15.78333}}, {"id": 1679873, "name": "Villanueva", "state": "", "country": "PH", "coord": {"lon": 124.775558, "lat": 8.58889}}, {"id": 1679879, "name": "Villamor", "state": "", "country": "PH", "coord": {"lon": 124.518608, "lat": 6.70472}}, {"id": 1679893, "name": "Villa Isla", "state": "", "country": "PH", "coord": {"lon": 120.866386, "lat": 15.77278}}, {"id": 1679901, "name": "Villahermosa", "state": "", "country": "PH", "coord": {"lon": 123.713303, "lat": 13.0458}}, {"id": 1679945, "name": "Villaba", "state": "", "country": "PH", "coord": {"lon": 124.392097, "lat": 11.2135}}, {"id": 1679954, "name": "Villa Aglipay", "state": "", "country": "PH", "coord": {"lon": 120.452728, "lat": 15.46605}}, {"id": 1679964, "name": "Vigo", "state": "", "country": "PH", "coord": {"lon": 120.179222, "lat": 13.82666}}, {"id": 1679965, "name": "Viga", "state": "", "country": "PH", "coord": {"lon": 125.052803, "lat": 12.5162}}, {"id": 1679980, "name": "Vigan", "state": "", "country": "PH", "coord": {"lon": 120.38694, "lat": 17.57472}}, {"id": 1679983, "name": "City of Vigan", "state": "", "country": "PH", "coord": {"lon": 120.383331, "lat": 17.566669}}, {"id": 1679992, "name": "Biga", "state": "", "country": "PH", "coord": {"lon": 120.64875, "lat": 13.90401}}, {"id": 1679993, "name": "Viga", "state": "", "country": "PH", "coord": {"lon": 124.309097, "lat": 13.8719}}, {"id": 1680007, "name": "Victorias", "state": "", "country": "PH", "coord": {"lon": 123.077782, "lat": 10.9}}, {"id": 1680017, "name": "Victoria", "state": "", "country": "PH", "coord": {"lon": 120.682198, "lat": 15.5775}}, {"id": 1680018, "name": "Victoria", "state": "", "country": "PH", "coord": {"lon": 121.329201, "lat": 14.2277}}, {"id": 1680019, "name": "Victoria", "state": "", "country": "PH", "coord": {"lon": 121.278061, "lat": 13.17722}}, {"id": 1680021, "name": "Victoria", "state": "", "country": "PH", "coord": {"lon": 124.311111, "lat": 12.44722}}, {"id": 1680027, "name": "Victoria", "state": "", "country": "PH", "coord": {"lon": 121.316673, "lat": 14.21667}}, {"id": 1680036, "name": "Biay", "state": "", "country": "PH", "coord": {"lon": 119.9067, "lat": 15.7402}}, {"id": 1680040, "name": "Veruela", "state": "", "country": "PH", "coord": {"lon": 125.955803, "lat": 8.0731}}, {"id": 1680075, "name": "Vargas", "state": "", "country": "PH", "coord": {"lon": 120.486702, "lat": 15.5928}}, {"id": 1680092, "name": "Vallehermoso", "state": "", "country": "PH", "coord": {"lon": 123.325897, "lat": 10.3349}}, {"id": 1680093, "name": "Valle Hermoso", "state": "", "country": "PH", "coord": {"lon": 124.236504, "lat": 9.7939}}, {"id": 1680097, "name": "Valladolid", "state": "", "country": "PH", "coord": {"lon": 122.824501, "lat": 10.4616}}, {"id": 1680102, "name": "Valenzuela", "state": "", "country": "PH", "coord": {"lon": 120.966698, "lat": 14.7}}, {"id": 1680106, "name": "Valencia", "state": "", "country": "PH", "coord": {"lon": 124.572502, "lat": 11.10889}}, {"id": 1680107, "name": "East Valencia", "state": "", "country": "PH", "coord": {"lon": 122.709999, "lat": 10.668}}, {"id": 1680110, "name": "Valencia", "state": "", "country": "PH", "coord": {"lon": 123.612602, "lat": 10.136}}, {"id": 1680111, "name": "Valencia", "state": "", "country": "PH", "coord": {"lon": 123.367416, "lat": 9.77158}}, {"id": 1680112, "name": "Valencia", "state": "", "country": "PH", "coord": {"lon": 124.208, "lat": 9.6097}}, {"id": 1680114, "name": "Valencia", "state": "", "country": "PH", "coord": {"lon": 123.245499, "lat": 9.2815}}, {"id": 1680116, "name": "NIA Valencia", "state": "", "country": "PH", "coord": {"lon": 125.09417, "lat": 7.90639}}, {"id": 1680125, "name": "Valderrama", "state": "", "country": "PH", "coord": {"lon": 122.08371, "lat": 11.40591}}, {"id": 1680132, "name": "Uyugan", "state": "", "country": "PH", "coord": {"lon": 121.937767, "lat": 20.350451}}, {"id": 1680134, "name": "Uyong", "state": "", "country": "PH", "coord": {"lon": 120.120743, "lat": 16.05002}}, {"id": 1680139, "name": "Uyaan", "state": "", "country": "PH", "coord": {"lon": 124.041107, "lat": 7.86306}}, {"id": 1680172, "name": "Uson", "state": "", "country": "PH", "coord": {"lon": 123.783401, "lat": 12.2253}}, {"id": 1680189, "name": "Usab", "state": "", "country": "PH", "coord": {"lon": 123.580559, "lat": 12.33083}}, {"id": 1680197, "name": "Urdaneta", "state": "", "country": "PH", "coord": {"lon": 120.571114, "lat": 15.97611}}, {"id": 1680199, "name": "City of Urdaneta", "state": "", "country": "PH", "coord": {"lon": 120.550003, "lat": 15.98333}}, {"id": 1680200, "name": "Urbiztondo", "state": "", "country": "PH", "coord": {"lon": 120.329498, "lat": 15.8227}}, {"id": 1680211, "name": "Upper San Mateo", "state": "", "country": "PH", "coord": {"lon": 124.582222, "lat": 7.17306}}, {"id": 1680216, "name": "Upper Klinan", "state": "", "country": "PH", "coord": {"lon": 125.120827, "lat": 6.22722}}, {"id": 1680226, "name": "Upig", "state": "", "country": "PH", "coord": {"lon": 120.993202, "lat": 15.0248}}, {"id": 1680232, "name": "Upi", "state": "", "country": "PH", "coord": {"lon": 121.836441, "lat": 17.080441}}, {"id": 1680233, "name": "Upi", "state": "", "country": "PH", "coord": {"lon": 124.166672, "lat": 7.02583}}, {"id": 1680243, "name": "Unzad", "state": "", "country": "PH", "coord": {"lon": 120.539169, "lat": 15.91889}}, {"id": 1680250, "name": "Unisan", "state": "", "country": "PH", "coord": {"lon": 121.978333, "lat": 13.83917}}, {"id": 1680260, "name": "Union", "state": "", "country": "PH", "coord": {"lon": 121.896301, "lat": 11.7612}}, {"id": 1680262, "name": "Union", "state": "", "country": "PH", "coord": {"lon": 124.325203, "lat": 10.6695}}, {"id": 1680266, "name": "Union", "state": "", "country": "PH", "coord": {"lon": 124.515099, "lat": 10.0475}}, {"id": 1680267, "name": "Union", "state": "", "country": "PH", "coord": {"lon": 126.110283, "lat": 9.75667}}, {"id": 1680272, "name": "Unidos", "state": "", "country": "PH", "coord": {"lon": 122.000511, "lat": 11.90677}}, {"id": 1680275, "name": "Unidos", "state": "", "country": "PH", "coord": {"lon": 123.667999, "lat": 8.5942}}, {"id": 1680276, "name": "Unidad", "state": "", "country": "PH", "coord": {"lon": 126.23056, "lat": 8.535}}, {"id": 1680285, "name": "Ungca", "state": "", "country": "PH", "coord": {"lon": 122.550003, "lat": 10.75}}, {"id": 1680312, "name": "Umiray", "state": "", "country": "PH", "coord": {"lon": 121.411102, "lat": 15.2206}}, {"id": 1680313, "name": "Umingan", "state": "", "country": "PH", "coord": {"lon": 120.843697, "lat": 15.9273}}, {"id": 1680331, "name": "Umanday Centro", "state": "", "country": "PH", "coord": {"lon": 120.215302, "lat": 15.938}}, {"id": 1680342, "name": "Umaganhan", "state": "", "country": "PH", "coord": {"lon": 124.376999, "lat": 11.3292}}, {"id": 1680344, "name": "Umabay", "state": "", "country": "PH", "coord": {"lon": 123.679611, "lat": 12.30954}}, {"id": 1680367, "name": "Uling", "state": "", "country": "PH", "coord": {"lon": 123.709999, "lat": 10.28048}}, {"id": 1680399, "name": "Ula", "state": "", "country": "PH", "coord": {"lon": 125.492218, "lat": 7.13222}}, {"id": 1680428, "name": "Ugad", "state": "", "country": "PH", "coord": {"lon": 121.799843, "lat": 17.29373}}, {"id": 1680430, "name": "Ugac Sur", "state": "", "country": "PH", "coord": {"lon": 121.714996, "lat": 17.60722}}, {"id": 1680439, "name": "Uddiawan", "state": "", "country": "PH", "coord": {"lon": 121.151237, "lat": 16.55888}}, {"id": 1680441, "name": "Odala", "state": "", "country": "PH", "coord": {"lon": 120.822304, "lat": 13.4776}}, {"id": 1680475, "name": "Ubay", "state": "", "country": "PH", "coord": {"lon": 124.472939, "lat": 10.056}}, {"id": 1680477, "name": "Ubay", "state": "", "country": "PH", "coord": {"lon": 124.466667, "lat": 10}}, {"id": 1680505, "name": "Ualog", "state": "", "country": "PH", "coord": {"lon": 123.393303, "lat": 10.57396}}, {"id": 1680512, "name": "Uacon", "state": "", "country": "PH", "coord": {"lon": 119.9403, "lat": 15.6787}}, {"id": 1680531, "name": "Tuyum", "state": "", "country": "PH", "coord": {"lon": 122.558197, "lat": 9.9769}}, {"id": 1680548, "name": "Tuyan", "state": "", "country": "PH", "coord": {"lon": 125.283333, "lat": 6}}, {"id": 1680554, "name": "Tuy", "state": "", "country": "PH", "coord": {"lon": 120.729599, "lat": 14.0183}}, {"id": 1680566, "name": "Tutubigan", "state": "", "country": "PH", "coord": {"lon": 125.061394, "lat": 11.83972}}, {"id": 1680570, "name": "Tutay", "state": "", "country": "PH", "coord": {"lon": 123.580498, "lat": 10.2463}}, {"id": 1680604, "name": "Tupsan", "state": "", "country": "PH", "coord": {"lon": 124.776939, "lat": 9.19917}}, {"id": 1680613, "name": "Tupi", "state": "", "country": "PH", "coord": {"lon": 124.952782, "lat": 6.33444}}, {"id": 1680614, "name": "Tupi", "state": "", "country": "PH", "coord": {"lon": 124.949997, "lat": 6.31667}}, {"id": 1680623, "name": "Tupang", "state": "", "country": "PH", "coord": {"lon": 121.641647, "lat": 17.921591}}, {"id": 1680636, "name": "Tuod", "state": "", "country": "PH", "coord": {"lon": 124.354172, "lat": 8.34333}}, {"id": 1680656, "name": "Tungol", "state": "", "country": "PH", "coord": {"lon": 124.753059, "lat": 7.08083}}, {"id": 1680677, "name": "Tungawan", "state": "", "country": "PH", "coord": {"lon": 122.371109, "lat": 7.50806}}, {"id": 1680687, "name": "Tungao", "state": "", "country": "PH", "coord": {"lon": 125.571938, "lat": 8.77722}}, {"id": 1680694, "name": "Tunga", "state": "", "country": "PH", "coord": {"lon": 124.751671, "lat": 11.24556}}, {"id": 1680735, "name": "Tumcon Ilawod", "state": "", "country": "PH", "coord": {"lon": 122.666672, "lat": 10.91667}}, {"id": 1680745, "name": "Tumbagaan", "state": "", "country": "PH", "coord": {"lon": 120.313904, "lat": 5.3656}}, {"id": 1680753, "name": "Tumauini", "state": "", "country": "PH", "coord": {"lon": 121.80854, "lat": 17.27663}}, {"id": 1680763, "name": "Tumarbong", "state": "", "country": "PH", "coord": {"lon": 119.457901, "lat": 10.37659}}, {"id": 1680794, "name": "Tumalim", "state": "", "country": "PH", "coord": {"lon": 120.723099, "lat": 14.0801}}, {"id": 1680797, "name": "Tumalaytay", "state": "", "country": "PH", "coord": {"lon": 123.23201, "lat": 12.27584}}, {"id": 1680820, "name": "Tulunan", "state": "", "country": "PH", "coord": {"lon": 124.876938, "lat": 6.83444}}, {"id": 1680844, "name": "Tuli", "state": "", "country": "PH", "coord": {"lon": 125.416672, "lat": 7.23333}}, {"id": 1680848, "name": "Tulay na Lupa", "state": "", "country": "PH", "coord": {"lon": 122.786201, "lat": 14.0934}}, {"id": 1680855, "name": "Tulay", "state": "", "country": "PH", "coord": {"lon": 120.769249, "lat": 14.26969}}, {"id": 1680885, "name": "Tucuran", "state": "", "country": "PH", "coord": {"lon": 123.574303, "lat": 7.8524}}, {"id": 1680913, "name": "Tuhian", "state": "", "country": "PH", "coord": {"lon": 122.219437, "lat": 13.64556}}, {"id": 1680932, "name": "Tuguegarao", "state": "", "country": "PH", "coord": {"lon": 121.726936, "lat": 17.61306}}, {"id": 1680942, "name": "Tugos", "state": "", "country": "PH", "coord": {"lon": 122.75, "lat": 14.26667}}, {"id": 1680954, "name": "Tugdan", "state": "", "country": "PH", "coord": {"lon": 122.085297, "lat": 12.3134}}, {"id": 1680962, "name": "Tugbong", "state": "", "country": "PH", "coord": {"lon": 124.599998, "lat": 11.01667}}, {"id": 1681006, "name": "Tuganay", "state": "", "country": "PH", "coord": {"lon": 125.723061, "lat": 7.36889}}, {"id": 1681022, "name": "Tuding", "state": "", "country": "PH", "coord": {"lon": 120.644173, "lat": 16.41028}}, {"id": 1681024, "name": "Tudela", "state": "", "country": "PH", "coord": {"lon": 124.471199, "lat": 10.6378}}, {"id": 1681026, "name": "Tudela", "state": "", "country": "PH", "coord": {"lon": 123.8424, "lat": 8.2472}}, {"id": 1681027, "name": "Tudela", "state": "", "country": "PH", "coord": {"lon": 126.216667, "lat": 8.13333}}, {"id": 1681038, "name": "Tucdao", "state": "", "country": "PH", "coord": {"lon": 124.471901, "lat": 11.7011}}, {"id": 1681061, "name": "Tuburan", "state": "", "country": "PH", "coord": {"lon": 123.558327, "lat": 13.23694}}, {"id": 1681075, "name": "Tuburan", "state": "", "country": "PH", "coord": {"lon": 123.825699, "lat": 10.7273}}, {"id": 1681079, "name": "Tuburan", "state": "", "country": "PH", "coord": {"lon": 122.273613, "lat": 6.64389}}, {"id": 1681087, "name": "Tubungan", "state": "", "country": "PH", "coord": {"lon": 122.317703, "lat": 10.76405}}, {"id": 1681128, "name": "Tubod-dugoan", "state": "", "country": "PH", "coord": {"lon": 123.499397, "lat": 10.0443}}, {"id": 1681138, "name": "Tubod", "state": "", "country": "PH", "coord": {"lon": 123.572517, "lat": 9.99625}}, {"id": 1681145, "name": "Tubod", "state": "", "country": "PH", "coord": {"lon": 125.570831, "lat": 9.5625}}, {"id": 1681149, "name": "Tubod", "state": "", "country": "PH", "coord": {"lon": 123.790398, "lat": 8.0555}}, {"id": 1681150, "name": "Tubod", "state": "", "country": "PH", "coord": {"lon": 125.644722, "lat": 7.37167}}, {"id": 1681162, "name": "Tubli", "state": "", "country": "PH", "coord": {"lon": 124.147797, "lat": 13.9318}}, {"id": 1681167, "name": "Tublay", "state": "", "country": "PH", "coord": {"lon": 120.609596, "lat": 16.5431}}, {"id": 1681182, "name": "Tibigan", "state": "", "country": "PH", "coord": {"lon": 123.962196, "lat": 9.9518}}, {"id": 1681217, "name": "Tubigan", "state": "", "country": "PH", "coord": {"lon": 124.312218, "lat": 8.53222}}, {"id": 1681220, "name": "Tubigagmanoc", "state": "", "country": "PH", "coord": {"lon": 123.748901, "lat": 10.6282}}, {"id": 1681232, "name": "Tubay", "state": "", "country": "PH", "coord": {"lon": 125.523888, "lat": 9.16694}}, {"id": 1681241, "name": "Tubaran", "state": "", "country": "PH", "coord": {"lon": 124.166672, "lat": 7.76667}}, {"id": 1681242, "name": "Tubaran", "state": "", "country": "PH", "coord": {"lon": 124.191109, "lat": 7.72417}}, {"id": 1681245, "name": "Tubao", "state": "", "country": "PH", "coord": {"lon": 120.412201, "lat": 16.3482}}, {"id": 1681249, "name": "Tuban", "state": "", "country": "PH", "coord": {"lon": 120.832298, "lat": 12.8122}}, {"id": 1681250, "name": "Tuban", "state": "", "country": "PH", "coord": {"lon": 125.38694, "lat": 6.82278}}, {"id": 1681257, "name": "Tubalan", "state": "", "country": "PH", "coord": {"lon": 125.566109, "lat": 6.495}}, {"id": 1681259, "name": "Tubajon", "state": "", "country": "PH", "coord": {"lon": 125.561943, "lat": 10.33167}}, {"id": 1681272, "name": "Tuba", "state": "", "country": "PH", "coord": {"lon": 120.560829, "lat": 16.389721}}, {"id": 1681284, "name": "Tuao", "state": "", "country": "PH", "coord": {"lon": 121.456352, "lat": 17.73641}}, {"id": 1681285, "name": "Tuao", "state": "", "country": "PH", "coord": {"lon": 121.257782, "lat": 16.588329}}, {"id": 1681313, "name": "Sabang", "state": "", "country": "PH", "coord": {"lon": 124.535561, "lat": 12.07833}}, {"id": 1681316, "name": "Trinidad", "state": "", "country": "PH", "coord": {"lon": 124.343239, "lat": 10.07955}}, {"id": 1681333, "name": "Trento", "state": "", "country": "PH", "coord": {"lon": 126.063606, "lat": 8.04583}}, {"id": 1681334, "name": "Trento", "state": "", "country": "PH", "coord": {"lon": 126.133331, "lat": 8.05}}, {"id": 1681346, "name": "Trapiche", "state": "", "country": "PH", "coord": {"lon": 122.43222, "lat": 10.68417}}, {"id": 1681357, "name": "Tranca", "state": "", "country": "PH", "coord": {"lon": 121.057411, "lat": 14.11815}}, {"id": 1681359, "name": "Tran", "state": "", "country": "PH", "coord": {"lon": 124.055, "lat": 6.72028}}, {"id": 1681377, "name": "Totolan", "state": "", "country": "PH", "coord": {"lon": 123.847023, "lat": 9.63286}}, {"id": 1681388, "name": "Tortosa", "state": "", "country": "PH", "coord": {"lon": 123.089996, "lat": 10.93294}}, {"id": 1681392, "name": "Torrijos", "state": "", "country": "PH", "coord": {"lon": 122.084099, "lat": 13.3238}}, {"id": 1681404, "name": "Toritori", "state": "", "country": "PH", "coord": {"lon": 119.987, "lat": 16.240499}}, {"id": 1681419, "name": "Topdac", "state": "", "country": "PH", "coord": {"lon": 120.711601, "lat": 16.5553}}, {"id": 1681428, "name": "Toong", "state": "", "country": "PH", "coord": {"lon": 120.763329, "lat": 14.07063}}, {"id": 1681464, "name": "Tongouson", "state": "", "country": "PH", "coord": {"lon": 120.132797, "lat": 5.0214}}, {"id": 1681499, "name": "Tondol", "state": "", "country": "PH", "coord": {"lon": 120.0131, "lat": 16.3104}}, {"id": 1681501, "name": "Tondod", "state": "", "country": "PH", "coord": {"lon": 120.96917, "lat": 15.71833}}, {"id": 1681526, "name": "Tominhao", "state": "", "country": "PH", "coord": {"lon": 124.043198, "lat": 11.2277}}, {"id": 1681529, "name": "Tomingad", "state": "", "country": "PH", "coord": {"lon": 122.01667, "lat": 12.45}}, {"id": 1681537, "name": "Tombod", "state": "", "country": "PH", "coord": {"lon": 120.550003, "lat": 15.95}}, {"id": 1681543, "name": "Tamayong", "state": "", "country": "PH", "coord": {"lon": 125.379723, "lat": 7.13306}}, {"id": 1681544, "name": "Tomas Oppus", "state": "", "country": "PH", "coord": {"lon": 124.983063, "lat": 10.25056}}, {"id": 1681563, "name": "Tomado", "state": "", "country": "PH", "coord": {"lon": 124.608063, "lat": 7.1925}}, {"id": 1681570, "name": "Tolosa", "state": "", "country": "PH", "coord": {"lon": 125.01667, "lat": 11.1}}, {"id": 1681571, "name": "Tolosa", "state": "", "country": "PH", "coord": {"lon": 125.03611, "lat": 11.05972}}, {"id": 1681598, "name": "Toledo City", "state": "", "country": "PH", "coord": {"lon": 123.633331, "lat": 10.38333}}, {"id": 1681602, "name": "Toledo", "state": "", "country": "PH", "coord": {"lon": 123.641937, "lat": 10.37917}}, {"id": 1681630, "name": "Tocok", "state": "", "country": "PH", "coord": {"lon": 120.300003, "lat": 15.75}}, {"id": 1681632, "name": "Tococ East", "state": "", "country": "PH", "coord": {"lon": 120.416672, "lat": 15.83333}}, {"id": 1681652, "name": "Tobuan", "state": "", "country": "PH", "coord": {"lon": 120.110237, "lat": 16.05562}}, {"id": 1681655, "name": "Toboy", "state": "", "country": "PH", "coord": {"lon": 120.636902, "lat": 16.0271}}, {"id": 1681656, "name": "Toboso", "state": "", "country": "PH", "coord": {"lon": 123.516197, "lat": 10.71435}}, {"id": 1681676, "name": "Tiwi", "state": "", "country": "PH", "coord": {"lon": 123.680496, "lat": 13.4585}}, {"id": 1681677, "name": "Tiwi", "state": "", "country": "PH", "coord": {"lon": 122.734169, "lat": 10.92972}}, {"id": 1681680, "name": "Tiwi", "state": "", "country": "PH", "coord": {"lon": 123.616669, "lat": 13.46667}}, {"id": 1681689, "name": "Titay", "state": "", "country": "PH", "coord": {"lon": 122.534439, "lat": 7.8125}}, {"id": 1681699, "name": "Tiring", "state": "", "country": "PH", "coord": {"lon": 122.511002, "lat": 10.8527}}, {"id": 1681715, "name": "Tipo-Tipo", "state": "", "country": "PH", "coord": {"lon": 122.179443, "lat": 6.58139}}, {"id": 1681730, "name": "Tipolo", "state": "", "country": "PH", "coord": {"lon": 124.514397, "lat": 10.0196}}, {"id": 1681743, "name": "Tipaz", "state": "", "country": "PH", "coord": {"lon": 121.428886, "lat": 13.83083}}, {"id": 1681745, "name": "Tiparak", "state": "", "country": "PH", "coord": {"lon": 123.528801, "lat": 8.0341}}, {"id": 1681759, "name": "Tinutulan", "state": "", "country": "PH", "coord": {"lon": 124.650002, "lat": 7.1}}, {"id": 1681766, "name": "Tinongan", "state": "", "country": "PH", "coord": {"lon": 123.035278, "lat": 10.215}}, {"id": 1681777, "name": "Tinubuan", "state": "", "country": "PH", "coord": {"lon": 124.007797, "lat": 11.186}}, {"id": 1681782, "name": "Tinoto", "state": "", "country": "PH", "coord": {"lon": 125.070557, "lat": 5.88667}}, {"id": 1681798, "name": "Tinogboc", "state": "", "country": "PH", "coord": {"lon": 121.412209, "lat": 12.00737}}, {"id": 1681820, "name": "Tiniguiban", "state": "", "country": "PH", "coord": {"lon": 119.504898, "lat": 11.3574}}, {"id": 1681830, "name": "Brgy. Tinigao, Kalibo", "state": "", "country": "PH", "coord": {"lon": 122.366669, "lat": 11.7}}, {"id": 1681843, "name": "Tingloy", "state": "", "country": "PH", "coord": {"lon": 120.871101, "lat": 13.66091}}, {"id": 1681846, "name": "Tinglayan", "state": "", "country": "PH", "coord": {"lon": 121.162498, "lat": 17.27611}}, {"id": 1681873, "name": "Tindog", "state": "", "country": "PH", "coord": {"lon": 124.011803, "lat": 11.1247}}, {"id": 1681887, "name": "Tinawagan", "state": "", "country": "PH", "coord": {"lon": 123.48333, "lat": 13.65}}, {"id": 1681907, "name": "Tinaogan", "state": "", "country": "PH", "coord": {"lon": 123.150299, "lat": 9.7791}}, {"id": 1681920, "name": "Tinang", "state": "", "country": "PH", "coord": {"lon": 120.653427, "lat": 15.37626}}, {"id": 1681927, "name": "Tinampo", "state": "", "country": "PH", "coord": {"lon": 123.509438, "lat": 13.23028}}, {"id": 1681931, "name": "Tinamnan", "state": "", "country": "PH", "coord": {"lon": 121.581673, "lat": 14.09694}}, {"id": 1681934, "name": "Tinambacan", "state": "", "country": "PH", "coord": {"lon": 124.502502, "lat": 12.09278}}, {"id": 1681936, "name": "Tinambac", "state": "", "country": "PH", "coord": {"lon": 123.326103, "lat": 13.8164}}, {"id": 1681943, "name": "Tinalmud", "state": "", "country": "PH", "coord": {"lon": 122.877998, "lat": 13.5941}}, {"id": 1681980, "name": "Tinago", "state": "", "country": "PH", "coord": {"lon": 123.650002, "lat": 13.18333}}, {"id": 1681997, "name": "Tinagacan", "state": "", "country": "PH", "coord": {"lon": 125.229439, "lat": 6.19917}}, {"id": 1682026, "name": "Tinaan", "state": "", "country": "PH", "coord": {"lon": 123.75, "lat": 11.26667}}, {"id": 1682044, "name": "Timpas", "state": "", "country": "PH", "coord": {"lon": 122.732399, "lat": 11.479}}, {"id": 1682048, "name": "Timonan", "state": "", "country": "PH", "coord": {"lon": 123.068199, "lat": 8.2117}}, {"id": 1682098, "name": "Tiling", "state": "", "country": "PH", "coord": {"lon": 122.654404, "lat": 9.9736}}, {"id": 1682100, "name": "Tilik", "state": "", "country": "PH", "coord": {"lon": 120.200218, "lat": 13.81436}}, {"id": 1682118, "name": "Tikiw", "state": "", "country": "PH", "coord": {"lon": 120.859398, "lat": 15.311}}, {"id": 1682122, "name": "Ticala-an", "state": "", "country": "PH", "coord": {"lon": 124.620827, "lat": 8.03528}}, {"id": 1682146, "name": "Tigum", "state": "", "country": "PH", "coord": {"lon": 122.566673, "lat": 10.78333}}, {"id": 1682151, "name": "Tiguisan", "state": "", "country": "PH", "coord": {"lon": 121.460518, "lat": 12.83941}}, {"id": 1682155, "name": "Tiguion", "state": "", "country": "PH", "coord": {"lon": 121.861, "lat": 13.3347}}, {"id": 1682164, "name": "Tiguib", "state": "", "country": "PH", "coord": {"lon": 123.135201, "lat": 9.8008}}, {"id": 1682166, "name": "Tigui", "state": "", "country": "PH", "coord": {"lon": 122.041496, "lat": 13.2681}}, {"id": 1682171, "name": "Tigtabon", "state": "", "country": "PH", "coord": {"lon": 122.166939, "lat": 6.89556}}, {"id": 1682180, "name": "Tignoan", "state": "", "country": "PH", "coord": {"lon": 121.61972, "lat": 14.56472}}, {"id": 1682182, "name": "Tignapalan", "state": "", "country": "PH", "coord": {"lon": 124.574722, "lat": 8.26389}}, {"id": 1682196, "name": "Tiglauigan", "state": "", "country": "PH", "coord": {"lon": 123.358063, "lat": 10.95389}}, {"id": 1682219, "name": "Tigbinan", "state": "", "country": "PH", "coord": {"lon": 122.469231, "lat": 14.18648}}, {"id": 1682250, "name": "Tigbauan", "state": "", "country": "PH", "coord": {"lon": 122.377602, "lat": 10.67466}}, {"id": 1682262, "name": "Tigbao", "state": "", "country": "PH", "coord": {"lon": 123.338898, "lat": 12.5546}}, {"id": 1682263, "name": "Tigbaw", "state": "", "country": "PH", "coord": {"lon": 123.590897, "lat": 12.1483}}, {"id": 1682275, "name": "Tigbao", "state": "", "country": "PH", "coord": {"lon": 122.327499, "lat": 7.42833}}, {"id": 1682301, "name": "Tigaon", "state": "", "country": "PH", "coord": {"lon": 123.496803, "lat": 13.6331}}, {"id": 1682304, "name": "Tigao", "state": "", "country": "PH", "coord": {"lon": 126.176109, "lat": 9.20889}}, {"id": 1682315, "name": "Tiep", "state": "", "country": "PH", "coord": {"lon": 119.860901, "lat": 16.238199}}, {"id": 1682321, "name": "Tidman", "state": "", "country": "PH", "coord": {"lon": 126.33889, "lat": 8.29861}}, {"id": 1682393, "name": "Tiblawan", "state": "", "country": "PH", "coord": {"lon": 126.108276, "lat": 6.47834}}, {"id": 1682405, "name": "Tibiao", "state": "", "country": "PH", "coord": {"lon": 122.035408, "lat": 11.29152}}, {"id": 1682421, "name": "Tibanbang", "state": "", "country": "PH", "coord": {"lon": 126.105476, "lat": 6.63153}}, {"id": 1682428, "name": "Tibagon", "state": "", "country": "PH", "coord": {"lon": 125.862801, "lat": 7.2327}}, {"id": 1682442, "name": "Tiaong", "state": "", "country": "PH", "coord": {"lon": 121.316109, "lat": 13.95361}}, {"id": 1682472, "name": "Ternate", "state": "", "country": "PH", "coord": {"lon": 120.716797, "lat": 14.2897}}, {"id": 1682474, "name": "Ternate", "state": "", "country": "PH", "coord": {"lon": 120.699997, "lat": 14.26667}}, {"id": 1682476, "name": "Teresita", "state": "", "country": "PH", "coord": {"lon": 124.707222, "lat": 6.41361}}, {"id": 1682478, "name": "Teresa", "state": "", "country": "PH", "coord": {"lon": 121.219498, "lat": 14.5612}}, {"id": 1682479, "name": "Teresa", "state": "", "country": "PH", "coord": {"lon": 121.23333, "lat": 14.58333}}, {"id": 1682528, "name": "Telbang", "state": "", "country": "PH", "coord": {"lon": 120.059174, "lat": 16.17222}}, {"id": 1682535, "name": "Telafas", "state": "", "country": "PH", "coord": {"lon": 124.974998, "lat": 6.63528}}, {"id": 1682537, "name": "Telabastagan", "state": "", "country": "PH", "coord": {"lon": 120.616669, "lat": 15.11667}}, {"id": 1682559, "name": "Tebag East", "state": "", "country": "PH", "coord": {"lon": 120.466003, "lat": 15.9678}}, {"id": 1682560, "name": "T'boli", "state": "", "country": "PH", "coord": {"lon": 124.833328, "lat": 6.2}}, {"id": 1682562, "name": "Taywanak Ilaya", "state": "", "country": "PH", "coord": {"lon": 120.846542, "lat": 14.15759}}, {"id": 1682570, "name": "Tayum", "state": "", "country": "PH", "coord": {"lon": 120.654198, "lat": 17.617201}}, {"id": 1682574, "name": "Tayug", "state": "", "country": "PH", "coord": {"lon": 120.743401, "lat": 16.027399}}, {"id": 1682576, "name": "Tayud", "state": "", "country": "PH", "coord": {"lon": 123.994003, "lat": 10.3782}}, {"id": 1682594, "name": "Taytayan", "state": "", "country": "PH", "coord": {"lon": 123.977097, "lat": 10.8787}}, {"id": 1682596, "name": "Taytayan", "state": "", "country": "PH", "coord": {"lon": 126.501938, "lat": 7.73389}}, {"id": 1682598, "name": "Taytay", "state": "", "country": "PH", "coord": {"lon": 121.139397, "lat": 14.5678}}, {"id": 1682600, "name": "Taytay", "state": "", "country": "PH", "coord": {"lon": 121.415703, "lat": 14.1122}}, {"id": 1682606, "name": "Taytay", "state": "", "country": "PH", "coord": {"lon": 119.516899, "lat": 10.82526}}, {"id": 1682613, "name": "Taytay", "state": "", "country": "PH", "coord": {"lon": 124.539719, "lat": 8.54111}}, {"id": 1682615, "name": "Taytay", "state": "", "country": "PH", "coord": {"lon": 121.150002, "lat": 14.55}}, {"id": 1682618, "name": "Taysan", "state": "", "country": "PH", "coord": {"lon": 121.097099, "lat": 13.8697}}, {"id": 1682619, "name": "Taysan", "state": "", "country": "PH", "coord": {"lon": 121.189598, "lat": 13.7976}}, {"id": 1682643, "name": "Tayasan", "state": "", "country": "PH", "coord": {"lon": 123.169899, "lat": 9.924}}, {"id": 1682649, "name": "Tayaman", "state": "", "country": "PH", "coord": {"lon": 120.572601, "lat": 13.2295}}, {"id": 1682653, "name": "Tayabo", "state": "", "country": "PH", "coord": {"lon": 121.03083, "lat": 15.83417}}, {"id": 1682659, "name": "Tayabas", "state": "", "country": "PH", "coord": {"lon": 121.59111, "lat": 14.02889}}, {"id": 1682671, "name": "Province of Tawi-Tawi", "state": "", "country": "PH", "coord": {"lon": 120.026497, "lat": 5.2057}}, {"id": 1682689, "name": "Tawan tawan", "state": "", "country": "PH", "coord": {"lon": 125.37278, "lat": 7.16917}}, {"id": 1682694, "name": "Tawagan", "state": "", "country": "PH", "coord": {"lon": 123.475281, "lat": 7.845}}, {"id": 1682699, "name": "Taviran", "state": "", "country": "PH", "coord": {"lon": 124.319717, "lat": 7.12333}}, {"id": 1682715, "name": "Taungoh", "state": "", "country": "PH", "coord": {"lon": 119.493057, "lat": 4.70694}}, {"id": 1682732, "name": "Tawala", "state": "", "country": "PH", "coord": {"lon": 123.769562, "lat": 9.55421}}, {"id": 1682765, "name": "Tasod", "state": "", "country": "PH", "coord": {"lon": 120.533333, "lat": 18.183331}}, {"id": 1682775, "name": "Tarusan", "state": "", "country": "PH", "coord": {"lon": 117.510399, "lat": 8.65462}}, {"id": 1682787, "name": "Tartaro", "state": "", "country": "PH", "coord": {"lon": 121.01667, "lat": 15.16667}}, {"id": 1682792, "name": "Tarragona", "state": "", "country": "PH", "coord": {"lon": 126.447083, "lat": 7.0491}}, {"id": 1682798, "name": "Tarong", "state": "", "country": "PH", "coord": {"lon": 123.132004, "lat": 11.5314}}, {"id": 1682811, "name": "Province of Tarlac", "state": "", "country": "PH", "coord": {"lon": 120.5, "lat": 15.5}}, {"id": 1682812, "name": "Tarlac City", "state": "", "country": "PH", "coord": {"lon": 120.59861, "lat": 15.48889}}, {"id": 1682819, "name": "Tariric", "state": "", "country": "PH", "coord": {"lon": 123.223503, "lat": 13.5723}}, {"id": 1682826, "name": "Tariji", "state": "", "country": "PH", "coord": {"lon": 120.60778, "lat": 15.55139}}, {"id": 1682844, "name": "Tarangnan", "state": "", "country": "PH", "coord": {"lon": 124.745903, "lat": 11.9009}}, {"id": 1682876, "name": "Tara", "state": "", "country": "PH", "coord": {"lon": 122.98333, "lat": 13.81667}}, {"id": 1682913, "name": "Tapon", "state": "", "country": "PH", "coord": {"lon": 123.445297, "lat": 10.0631}}, {"id": 1682914, "name": "Tapon", "state": "", "country": "PH", "coord": {"lon": 123.526802, "lat": 9.7715}}, {"id": 1682934, "name": "Tapilon", "state": "", "country": "PH", "coord": {"lon": 124.030602, "lat": 11.2774}}, {"id": 1682936, "name": "Tapikan", "state": "", "country": "PH", "coord": {"lon": 124.322502, "lat": 6.85194}}, {"id": 1682951, "name": "Tapia", "state": "", "country": "PH", "coord": {"lon": 126.01194, "lat": 7.75417}}, {"id": 1682958, "name": "Tapel", "state": "", "country": "PH", "coord": {"lon": 122.029152, "lat": 18.28907}}, {"id": 1682960, "name": "Tapas", "state": "", "country": "PH", "coord": {"lon": 122.5364, "lat": 11.2613}}, {"id": 1682966, "name": "Tapayan", "state": "", "country": "PH", "coord": {"lon": 124.266113, "lat": 7.29444}}, {"id": 1683013, "name": "Tanza", "state": "", "country": "PH", "coord": {"lon": 120.938904, "lat": 14.6753}}, {"id": 1683014, "name": "Tanza", "state": "", "country": "PH", "coord": {"lon": 120.855438, "lat": 14.39834}}, {"id": 1683016, "name": "Tanza", "state": "", "country": "PH", "coord": {"lon": 122.783607, "lat": 11.5825}}, {"id": 1683018, "name": "Tanza", "state": "", "country": "PH", "coord": {"lon": 123.011002, "lat": 10.83484}}, {"id": 1683029, "name": "Tanudan", "state": "", "country": "PH", "coord": {"lon": 121.237778, "lat": 17.295561}}, {"id": 1683037, "name": "Tantangan", "state": "", "country": "PH", "coord": {"lon": 124.748894, "lat": 6.615}}, {"id": 1683053, "name": "Tanque", "state": "", "country": "PH", "coord": {"lon": 121, "lat": 14.6667}}, {"id": 1683057, "name": "Tangke", "state": "", "country": "PH", "coord": {"lon": 123.860558, "lat": 10.25111}}, {"id": 1683066, "name": "Tanolong", "state": "", "country": "PH", "coord": {"lon": 120.400002, "lat": 15.81667}}, {"id": 1683080, "name": "Tanlad", "state": "", "country": "PH", "coord": {"lon": 125.445, "lat": 6.60222}}, {"id": 1683088, "name": "Tanjay", "state": "", "country": "PH", "coord": {"lon": 123.158333, "lat": 9.51528}}, {"id": 1683112, "name": "Tangub City", "state": "", "country": "PH", "coord": {"lon": 123.73333, "lat": 8.05}}, {"id": 1683114, "name": "Tangub", "state": "", "country": "PH", "coord": {"lon": 122.930557, "lat": 10.63389}}, {"id": 1683116, "name": "Tangub", "state": "", "country": "PH", "coord": {"lon": 123.75, "lat": 8.06}}, {"id": 1683140, "name": "Ta\u00f1go", "state": "", "country": "PH", "coord": {"lon": 125.221939, "lat": 5.88083}}, {"id": 1683145, "name": "Tangnan", "state": "", "country": "PH", "coord": {"lon": 123.773567, "lat": 9.60722}}, {"id": 1683227, "name": "Tangalan", "state": "", "country": "PH", "coord": {"lon": 122.263397, "lat": 11.7789}}, {"id": 1683231, "name": "Tangal", "state": "", "country": "PH", "coord": {"lon": 120.100822, "lat": 13.84536}}, {"id": 1683280, "name": "Tandoc", "state": "", "country": "PH", "coord": {"lon": 120.333328, "lat": 15.96667}}, {"id": 1683293, "name": "Tandayag", "state": "", "country": "PH", "coord": {"lon": 123.229897, "lat": 9.4547}}, {"id": 1683302, "name": "Tandag", "state": "", "country": "PH", "coord": {"lon": 126.198608, "lat": 9.07833}}, {"id": 1683319, "name": "Tanay", "state": "", "country": "PH", "coord": {"lon": 121.284599, "lat": 14.4968}}, {"id": 1683322, "name": "Tanay", "state": "", "country": "PH", "coord": {"lon": 121.349998, "lat": 14.56667}}, {"id": 1683340, "name": "Tanauan", "state": "", "country": "PH", "coord": {"lon": 121.14975, "lat": 14.08627}}, {"id": 1683342, "name": "Tanauan", "state": "", "country": "PH", "coord": {"lon": 125.015556, "lat": 11.10944}}, {"id": 1683343, "name": "City of Tanauan", "state": "", "country": "PH", "coord": {"lon": 121.116669, "lat": 14.08333}}, {"id": 1683344, "name": "Tanauan", "state": "", "country": "PH", "coord": {"lon": 125, "lat": 11.11667}}, {"id": 1683385, "name": "Tamugan", "state": "", "country": "PH", "coord": {"lon": 125.376389, "lat": 7.23083}}, {"id": 1683407, "name": "Tampocon", "state": "", "country": "PH", "coord": {"lon": 123.133331, "lat": 9.85}}, {"id": 1683411, "name": "Tampilisan", "state": "", "country": "PH", "coord": {"lon": 122.683327, "lat": 8.01667}}, {"id": 1683418, "name": "Tampayan", "state": "", "country": "PH", "coord": {"lon": 122.523109, "lat": 12.47943}}, {"id": 1683425, "name": "Tamparan", "state": "", "country": "PH", "coord": {"lon": 124.333061, "lat": 7.87917}}, {"id": 1683430, "name": "Tampakan", "state": "", "country": "PH", "coord": {"lon": 124.926392, "lat": 6.44417}}, {"id": 1683433, "name": "Tampakan", "state": "", "country": "PH", "coord": {"lon": 119.793892, "lat": 4.92278}}, {"id": 1683445, "name": "Tamorong", "state": "", "country": "PH", "coord": {"lon": 120.433327, "lat": 17.33333}}, {"id": 1683447, "name": "Tamontaka", "state": "", "country": "PH", "coord": {"lon": 124.225563, "lat": 7.18056}}, {"id": 1683456, "name": "Tamnag", "state": "", "country": "PH", "coord": {"lon": 124.850563, "lat": 6.56778}}, {"id": 1683461, "name": "Tamlang", "state": "", "country": "PH", "coord": {"lon": 123.457779, "lat": 10.82583}}, {"id": 1683467, "name": "Tamiso", "state": "", "country": "PH", "coord": {"lon": 123.099998, "lat": 9.63333}}, {"id": 1683468, "name": "Tamisan", "state": "", "country": "PH", "coord": {"lon": 126.298378, "lat": 6.84372}}, {"id": 1683506, "name": "Tambulig", "state": "", "country": "PH", "coord": {"lon": 123.534798, "lat": 8.0702}}, {"id": 1683511, "name": "Tambalan", "state": "", "country": "PH", "coord": {"lon": 123.0896, "lat": 9.9085}}, {"id": 1683537, "name": "Tambongon", "state": "", "country": "PH", "coord": {"lon": 123.9244, "lat": 10.9677}}, {"id": 1683538, "name": "Tombongon", "state": "", "country": "PH", "coord": {"lon": 125.948601, "lat": 7.0792}}, {"id": 1683541, "name": "Tambong", "state": "", "country": "PH", "coord": {"lon": 121.484619, "lat": 12.96391}}, {"id": 1683574, "name": "Tambo", "state": "", "country": "PH", "coord": {"lon": 123.035797, "lat": 13.5468}}, {"id": 1683575, "name": "Tambo", "state": "", "country": "PH", "coord": {"lon": 123.290604, "lat": 13.2553}}, {"id": 1683578, "name": "Tambo", "state": "", "country": "PH", "coord": {"lon": 123.055603, "lat": 9.895}}, {"id": 1683586, "name": "Tambo", "state": "", "country": "PH", "coord": {"lon": 125.699173, "lat": 7.15694}}, {"id": 1683602, "name": "Tambilil", "state": "", "country": "PH", "coord": {"lon": 124.669724, "lat": 5.96222}}, {"id": 1683629, "name": "Tambalisa", "state": "", "country": "PH", "coord": {"lon": 123.165001, "lat": 11.2698}}, {"id": 1683638, "name": "Tambac", "state": "", "country": "PH", "coord": {"lon": 122.411201, "lat": 11.6705}}, {"id": 1683642, "name": "Tambak", "state": "", "country": "PH", "coord": {"lon": 124.626389, "lat": 6.72639}}, {"id": 1683663, "name": "Tamayo", "state": "", "country": "PH", "coord": {"lon": 120.283333, "lat": 15.88333}}, {"id": 1683690, "name": "Taluya", "state": "", "country": "PH", "coord": {"lon": 125.172783, "lat": 5.81167}}, {"id": 1683701, "name": "Talusan", "state": "", "country": "PH", "coord": {"lon": 122.81028, "lat": 7.42667}}, {"id": 1683713, "name": "Taluksangay", "state": "", "country": "PH", "coord": {"lon": 122.183891, "lat": 6.95417}}, {"id": 1683718, "name": "Talugtug", "state": "", "country": "PH", "coord": {"lon": 120.811096, "lat": 15.7778}}, {"id": 1683733, "name": "Taltal", "state": "", "country": "PH", "coord": {"lon": 119.945503, "lat": 15.5878}}, {"id": 1683737, "name": "Taloy", "state": "", "country": "PH", "coord": {"lon": 120.5, "lat": 16.33333}}, {"id": 1683738, "name": "Taloy", "state": "", "country": "PH", "coord": {"lon": 120.466667, "lat": 15.95}}, {"id": 1683742, "name": "Platagata", "state": "", "country": "PH", "coord": {"lon": 123.1567, "lat": 11.303}}, {"id": 1683747, "name": "Talospatang", "state": "", "country": "PH", "coord": {"lon": 120.4496, "lat": 15.9179}}, {"id": 1683771, "name": "Talon", "state": "", "country": "PH", "coord": {"lon": 122.681107, "lat": 11.56}}, {"id": 1683779, "name": "Talomo", "state": "", "country": "PH", "coord": {"lon": 125.722778, "lat": 7.52861}}, {"id": 1683784, "name": "Talokga\u00f1gan", "state": "", "country": "PH", "coord": {"lon": 122.845001, "lat": 11.00778}}, {"id": 1683800, "name": "Taloc", "state": "", "country": "PH", "coord": {"lon": 122.896667, "lat": 10.57222}}, {"id": 1683801, "name": "Talubatib", "state": "", "country": "PH", "coord": {"lon": 122.785301, "lat": 14.1825}}, {"id": 1683818, "name": "Talitay", "state": "", "country": "PH", "coord": {"lon": 124.699997, "lat": 7.03333}}, {"id": 1683852, "name": "Talisayan", "state": "", "country": "PH", "coord": {"lon": 124.699997, "lat": 10.95}}, {"id": 1683855, "name": "Talisayan", "state": "", "country": "PH", "coord": {"lon": 124.880913, "lat": 9.0003}}, {"id": 1683856, "name": "Talisayan", "state": "", "country": "PH", "coord": {"lon": 121.927223, "lat": 6.98722}}, {"id": 1683859, "name": "Talisay", "state": "", "country": "PH", "coord": {"lon": 122.9226, "lat": 14.1343}}, {"id": 1683860, "name": "Talisay", "state": "", "country": "PH", "coord": {"lon": 121.021942, "lat": 14.0925}}, {"id": 1683861, "name": "Talisay", "state": "", "country": "PH", "coord": {"lon": 121.20639, "lat": 13.97083}}, {"id": 1683862, "name": "Talisay", "state": "", "country": "PH", "coord": {"lon": 120.62326, "lat": 13.91484}}, {"id": 1683865, "name": "Talisay", "state": "", "country": "PH", "coord": {"lon": 122.623611, "lat": 13.18056}}, {"id": 1683871, "name": "Talisay", "state": "", "country": "PH", "coord": {"lon": 124.061897, "lat": 11.2434}}, {"id": 1683877, "name": "Talisay", "state": "", "country": "PH", "coord": {"lon": 122.966393, "lat": 10.73722}}, {"id": 1683881, "name": "Talisay", "state": "", "country": "PH", "coord": {"lon": 123.849442, "lat": 10.24472}}, {"id": 1683883, "name": "Talisay", "state": "", "country": "PH", "coord": {"lon": 125.615562, "lat": 9.81889}}, {"id": 1683886, "name": "Talisay", "state": "", "country": "PH", "coord": {"lon": 126.099983, "lat": 6.71973}}, {"id": 1683890, "name": "Talisay", "state": "", "country": "PH", "coord": {"lon": 121, "lat": 14.06667}}, {"id": 1683892, "name": "City of Talisay", "state": "", "country": "PH", "coord": {"lon": 123.816673, "lat": 10.3}}, {"id": 1683900, "name": "Talipao", "state": "", "country": "PH", "coord": {"lon": 121.116112, "lat": 5.97639}}, {"id": 1683911, "name": "Talipan", "state": "", "country": "PH", "coord": {"lon": 121.683327, "lat": 13.93333}}, {"id": 1683931, "name": "Tal I Mun Doc", "state": "", "country": "PH", "coord": {"lon": 120.684898, "lat": 15.2121}}, {"id": 1683949, "name": "Taligaman", "state": "", "country": "PH", "coord": {"lon": 125.65583, "lat": 8.90444}}, {"id": 1683961, "name": "Talibon", "state": "", "country": "PH", "coord": {"lon": 124.324997, "lat": 10.14917}}, {"id": 1684007, "name": "Talayan", "state": "", "country": "PH", "coord": {"lon": 124.381943, "lat": 6.98056}}, {"id": 1684010, "name": "Talay", "state": "", "country": "PH", "coord": {"lon": 123.265701, "lat": 9.2896}}, {"id": 1684016, "name": "Talavera", "state": "", "country": "PH", "coord": {"lon": 120.919197, "lat": 15.5883}}, {"id": 1684019, "name": "Talavera", "state": "", "country": "PH", "coord": {"lon": 120.933327, "lat": 15.61667}}, {"id": 1684052, "name": "Talangnan", "state": "", "country": "PH", "coord": {"lon": 123.334396, "lat": 9.634}}, {"id": 1684062, "name": "Talang", "state": "", "country": "PH", "coord": {"lon": 120.837502, "lat": 15.0228}}, {"id": 1684077, "name": "Talalora", "state": "", "country": "PH", "coord": {"lon": 124.836197, "lat": 11.5293}}, {"id": 1684086, "name": "Talakag", "state": "", "country": "PH", "coord": {"lon": 124.600281, "lat": 8.23361}}, {"id": 1684095, "name": "Talaibon", "state": "", "country": "PH", "coord": {"lon": 121.139801, "lat": 13.8378}}, {"id": 1684100, "name": "Talahib Payap", "state": "", "country": "PH", "coord": {"lon": 121.136391, "lat": 13.66083}}, {"id": 1684103, "name": "Talahiban I", "state": "", "country": "PH", "coord": {"lon": 121.388062, "lat": 13.80694}}, {"id": 1684122, "name": "Talaga", "state": "", "country": "PH", "coord": {"lon": 120.585732, "lat": 15.38506}}, {"id": 1684128, "name": "Talaga", "state": "", "country": "PH", "coord": {"lon": 120.93618, "lat": 13.73646}}, {"id": 1684137, "name": "Talacogon", "state": "", "country": "PH", "coord": {"lon": 125.784172, "lat": 8.45611}}, {"id": 1684139, "name": "Talacogon", "state": "", "country": "PH", "coord": {"lon": 125.800003, "lat": 8.41667}}, {"id": 1684154, "name": "Talaban", "state": "", "country": "PH", "coord": {"lon": 122.86972, "lat": 10.1275}}, {"id": 1684177, "name": "Tala", "state": "", "country": "PH", "coord": {"lon": 122.583328, "lat": 13.28333}}, {"id": 1684190, "name": "Tacub", "state": "", "country": "PH", "coord": {"lon": 124.108063, "lat": 8.1875}}, {"id": 1684191, "name": "Takub", "state": "", "country": "PH", "coord": {"lon": 125.422501, "lat": 6.85639}}, {"id": 1684210, "name": "Tajao", "state": "", "country": "PH", "coord": {"lon": 123.583504, "lat": 10.3148}}, {"id": 1684245, "name": "Tagusao", "state": "", "country": "PH", "coord": {"lon": 117.814102, "lat": 9.19238}}, {"id": 1684268, "name": "Tagum Norte", "state": "", "country": "PH", "coord": {"lon": 124.389252, "lat": 10.07454}}, {"id": 1684269, "name": "Magugpo Poblacion", "state": "", "country": "PH", "coord": {"lon": 125.807777, "lat": 7.44778}}, {"id": 1684292, "name": "Taguisa", "state": "", "country": "PH", "coord": {"lon": 124.035828, "lat": 6.69833}}, {"id": 1684300, "name": "Taguing", "state": "", "country": "PH", "coord": {"lon": 121.75885, "lat": 17.944691}}, {"id": 1684308, "name": "Taguig", "state": "", "country": "PH", "coord": {"lon": 121.079201, "lat": 14.5243}}, {"id": 1684309, "name": "Taguig City", "state": "", "country": "PH", "coord": {"lon": 121.066673, "lat": 14.53333}}, {"id": 1684320, "name": "Tagudin", "state": "", "country": "PH", "coord": {"lon": 120.444199, "lat": 16.935499}}, {"id": 1684321, "name": "Tagudin", "state": "", "country": "PH", "coord": {"lon": 119.953903, "lat": 16.080601}}, {"id": 1684322, "name": "Tagudin", "state": "", "country": "PH", "coord": {"lon": 120.466667, "lat": 16.933331}}, {"id": 1684348, "name": "Tagasilay", "state": "", "country": "PH", "coord": {"lon": 122.258614, "lat": 7.3025}}, {"id": 1684361, "name": "Taypano", "state": "", "country": "PH", "coord": {"lon": 124.559441, "lat": 8.37083}}, {"id": 1684364, "name": "Tagoytoy", "state": "", "country": "PH", "coord": {"lon": 123.678001, "lat": 13.4158}}, {"id": 1684379, "name": "Tagoloan", "state": "", "country": "PH", "coord": {"lon": 124.756943, "lat": 8.53889}}, {"id": 1684382, "name": "Tagoloan", "state": "", "country": "PH", "coord": {"lon": 124.783333, "lat": 8.51667}}, {"id": 1684395, "name": "Tago", "state": "", "country": "PH", "coord": {"lon": 126.231667, "lat": 9.02111}}, {"id": 1684409, "name": "Patikul", "state": "", "country": "PH", "coord": {"lon": 121.105278, "lat": 6.08917}}, {"id": 1684422, "name": "Tagkawayan Sabang", "state": "", "country": "PH", "coord": {"lon": 122.528893, "lat": 13.99111}}, {"id": 1684454, "name": "Tagdanua", "state": "", "country": "PH", "coord": {"lon": 125.884102, "lat": 7.2043}}, {"id": 1684462, "name": "Tagcatong", "state": "", "country": "PH", "coord": {"lon": 125.256943, "lat": 9.00222}}, {"id": 1684463, "name": "Tagburos", "state": "", "country": "PH", "coord": {"lon": 118.731941, "lat": 9.82861}}, {"id": 1684466, "name": "Tagbubungang Diot", "state": "", "country": "PH", "coord": {"lon": 124.402802, "lat": 11.1257}}, {"id": 1684491, "name": "Tagbina", "state": "", "country": "PH", "coord": {"lon": 126.171387, "lat": 8.45194}}, {"id": 1684495, "name": "Tagbilaran City", "state": "", "country": "PH", "coord": {"lon": 123.849998, "lat": 9.65}}, {"id": 1684497, "name": "Tagbilaran City", "state": "", "country": "PH", "coord": {"lon": 123.85556, "lat": 9.6475}}, {"id": 1684538, "name": "Tagbacan Ibaba", "state": "", "country": "PH", "coord": {"lon": 122.363892, "lat": 13.63222}}, {"id": 1684542, "name": "Tagbak", "state": "", "country": "PH", "coord": {"lon": 120.088722, "lat": 13.84166}}, {"id": 1684552, "name": "Tagaytay City", "state": "", "country": "PH", "coord": {"lon": 120.933723, "lat": 14.10594}}, {"id": 1684562, "name": "Tugaya", "state": "", "country": "PH", "coord": {"lon": 124.174004, "lat": 7.88277}}, {"id": 1684577, "name": "Tagas", "state": "", "country": "PH", "coord": {"lon": 123.716667, "lat": 13.16667}}, {"id": 1684583, "name": "Tagapul-an", "state": "", "country": "PH", "coord": {"lon": 124.150002, "lat": 12.05}}, {"id": 1684606, "name": "Taganak", "state": "", "country": "PH", "coord": {"lon": 118.300003, "lat": 6.08333}}, {"id": 1684610, "name": "Tagana-an", "state": "", "country": "PH", "coord": {"lon": 125.585564, "lat": 9.69722}}, {"id": 1684629, "name": "Tagakpan", "state": "", "country": "PH", "coord": {"lon": 125.429169, "lat": 7.11278}}, {"id": 1684645, "name": "Tayabas Ibaba", "state": "", "country": "PH", "coord": {"lon": 122.26667, "lat": 13.61667}}, {"id": 1684659, "name": "Taft", "state": "", "country": "PH", "coord": {"lon": 125.418892, "lat": 11.90111}}, {"id": 1684672, "name": "Tadian", "state": "", "country": "PH", "coord": {"lon": 120.820297, "lat": 16.9956}}, {"id": 1684681, "name": "Tacurong", "state": "", "country": "PH", "coord": {"lon": 124.676392, "lat": 6.6925}}, {"id": 1684682, "name": "City of Tacurong", "state": "", "country": "PH", "coord": {"lon": 124.683327, "lat": 6.68333}}, {"id": 1684706, "name": "Taclobo", "state": "", "country": "PH", "coord": {"lon": 122.586014, "lat": 12.30744}}, {"id": 1684711, "name": "Tacloban City", "state": "", "country": "PH", "coord": {"lon": 125, "lat": 11.25}}, {"id": 1684717, "name": "Tacligan", "state": "", "country": "PH", "coord": {"lon": 121.062599, "lat": 13.3975}}, {"id": 1684746, "name": "Tacadang", "state": "", "country": "PH", "coord": {"lon": 120.640503, "lat": 16.7264}}, {"id": 1684759, "name": "Tagbita", "state": "", "country": "PH", "coord": {"lon": 117.339897, "lat": 8.67532}}, {"id": 1684765, "name": "Tabonok", "state": "", "country": "PH", "coord": {"lon": 123.876602, "lat": 10.8512}}, {"id": 1684803, "name": "Tabuk", "state": "", "country": "PH", "coord": {"lon": 121.444298, "lat": 17.4189}}, {"id": 1684818, "name": "Tabug", "state": "", "country": "PH", "coord": {"lon": 120.548798, "lat": 18.0343}}, {"id": 1684821, "name": "Tabuelan", "state": "", "country": "PH", "coord": {"lon": 123.868896, "lat": 10.8209}}, {"id": 1684828, "name": "Tabuc Pontevedra", "state": "", "country": "PH", "coord": {"lon": 122.816673, "lat": 11.48333}}, {"id": 1684842, "name": "Tabuating", "state": "", "country": "PH", "coord": {"lon": 120.938599, "lat": 15.3891}}, {"id": 1684853, "name": "Tabuan", "state": "", "country": "PH", "coord": {"lon": 122.850563, "lat": 9.51556}}, {"id": 1684857, "name": "Tabu", "state": "", "country": "PH", "coord": {"lon": 122.709801, "lat": 9.8923}}, {"id": 1684867, "name": "Tubao", "state": "", "country": "PH", "coord": {"lon": 123.854698, "lat": 8.334}}, {"id": 1684871, "name": "Tabontabon", "state": "", "country": "PH", "coord": {"lon": 124.961113, "lat": 11.04083}}, {"id": 1684876, "name": "Tabunok", "state": "", "country": "PH", "coord": {"lon": 124.012222, "lat": 10.77861}}, {"id": 1684877, "name": "Tabonoc", "state": "", "country": "PH", "coord": {"lon": 124.800003, "lat": 10.35}}, {"id": 1684892, "name": "Tabon", "state": "", "country": "PH", "coord": {"lon": 120.912804, "lat": 15.2746}}, {"id": 1684899, "name": "Tabon", "state": "", "country": "PH", "coord": {"lon": 123.325996, "lat": 10.3019}}, {"id": 1684901, "name": "Tabon", "state": "", "country": "PH", "coord": {"lon": 123.456299, "lat": 9.8042}}, {"id": 1684902, "name": "Tabon", "state": "", "country": "PH", "coord": {"lon": 117.994598, "lat": 9.23877}}, {"id": 1684914, "name": "Tabogon", "state": "", "country": "PH", "coord": {"lon": 124.028198, "lat": 10.9412}}, {"id": 1684938, "name": "Taboc", "state": "", "country": "PH", "coord": {"lon": 124.797501, "lat": 8.87833}}, {"id": 1684967, "name": "Tablac", "state": "", "country": "PH", "coord": {"lon": 120.48333, "lat": 17.216669}}, {"id": 1684977, "name": "Tabio", "state": "", "country": "PH", "coord": {"lon": 120.800003, "lat": 16.85}}, {"id": 1684986, "name": "Tabing", "state": "", "country": "PH", "coord": {"lon": 124.349998, "lat": 11.4}}, {"id": 1684989, "name": "Tabinay", "state": "", "country": "PH", "coord": {"lon": 120.956596, "lat": 13.4871}}, {"id": 1684990, "name": "Tabina", "state": "", "country": "PH", "coord": {"lon": 123.408096, "lat": 7.4669}}, {"id": 1685003, "name": "Tabid", "state": "", "country": "PH", "coord": {"lon": 123.783058, "lat": 8.10889}}, {"id": 1685006, "name": "Tabiauan", "state": "", "country": "PH", "coord": {"lon": 121.893547, "lat": 6.02806}}, {"id": 1685071, "name": "Tabango", "state": "", "country": "PH", "coord": {"lon": 124.373001, "lat": 11.3077}}, {"id": 1685102, "name": "Tabalong", "state": "", "country": "PH", "coord": {"lon": 123.812309, "lat": 9.62157}}, {"id": 1685117, "name": "Tabaco", "state": "", "country": "PH", "coord": {"lon": 123.733612, "lat": 13.35861}}, {"id": 1685118, "name": "City of Tabaco", "state": "", "country": "PH", "coord": {"lon": 123.716667, "lat": 13.33333}}, {"id": 1685125, "name": "Tabaan", "state": "", "country": "PH", "coord": {"lon": 120.51667, "lat": 16.299999}}, {"id": 1685146, "name": "Taal", "state": "", "country": "PH", "coord": {"lon": 120.923111, "lat": 13.87992}}, {"id": 1685148, "name": "Taal", "state": "", "country": "PH", "coord": {"lon": 120.933327, "lat": 13.9}}, {"id": 1685153, "name": "Swan", "state": "", "country": "PH", "coord": {"lon": 121.379097, "lat": 18.224199}}, {"id": 1685161, "name": "Suyo", "state": "", "country": "PH", "coord": {"lon": 120.525398, "lat": 16.9762}}, {"id": 1685166, "name": "Suyan", "state": "", "country": "PH", "coord": {"lon": 125.385277, "lat": 6.06028}}, {"id": 1685196, "name": "Suso", "state": "", "country": "PH", "coord": {"lon": 120.461098, "lat": 17.3594}}, {"id": 1685203, "name": "Surup", "state": "", "country": "PH", "coord": {"lon": 126.145576, "lat": 6.39035}}, {"id": 1685214, "name": "Province of Surigao del Sur", "state": "", "country": "PH", "coord": {"lon": 126, "lat": 8.66667}}, {"id": 1685215, "name": "Province of Surigao del Norte", "state": "", "country": "PH", "coord": {"lon": 125.633331, "lat": 9.66667}}, {"id": 1685216, "name": "Surigao City", "state": "", "country": "PH", "coord": {"lon": 125.5, "lat": 9.75}}, {"id": 1685218, "name": "Surigao", "state": "", "country": "PH", "coord": {"lon": 125.488892, "lat": 9.78389}}, {"id": 1685230, "name": "Surallah", "state": "", "country": "PH", "coord": {"lon": 124.73333, "lat": 6.36667}}, {"id": 1685270, "name": "Sungai", "state": "", "country": "PH", "coord": {"lon": 124.402779, "lat": 8.45139}}, {"id": 1685286, "name": "Sumpong", "state": "", "country": "PH", "coord": {"lon": 125.118332, "lat": 8.16333}}, {"id": 1685296, "name": "Sumisip", "state": "", "country": "PH", "coord": {"lon": 121.97139, "lat": 6.41972}}, {"id": 1685302, "name": "Sumilao", "state": "", "country": "PH", "coord": {"lon": 124.945557, "lat": 8.28722}}, {"id": 1685340, "name": "Sumagui", "state": "", "country": "PH", "coord": {"lon": 121.474022, "lat": 12.79532}}, {"id": 1685360, "name": "Sumabnit", "state": "", "country": "PH", "coord": {"lon": 120.583199, "lat": 16.0303}}, {"id": 1685366, "name": "Sulucan", "state": "", "country": "PH", "coord": {"lon": 120.933327, "lat": 14.8}}, {"id": 1685370, "name": "Province of Sulu", "state": "", "country": "PH", "coord": {"lon": 121, "lat": 6}}, {"id": 1685377, "name": "Province of Sultan Kudarat", "state": "", "country": "PH", "coord": {"lon": 124.283333, "lat": 6.55}}, {"id": 1685378, "name": "Sultan Kudarat", "state": "", "country": "PH", "coord": {"lon": 124.257782, "lat": 7.22889}}, {"id": 1685391, "name": "Sulop", "state": "", "country": "PH", "coord": {"lon": 125.343613, "lat": 6.59861}}, {"id": 1685401, "name": "Sulit", "state": "", "country": "PH", "coord": {"lon": 125.020561, "lat": 6.23611}}, {"id": 1685418, "name": "Sulat", "state": "", "country": "PH", "coord": {"lon": 125.454437, "lat": 11.81028}}, {"id": 1685422, "name": "Sulangan", "state": "", "country": "PH", "coord": {"lon": 123.722801, "lat": 11.1373}}, {"id": 1685423, "name": "Sulangan", "state": "", "country": "PH", "coord": {"lon": 125.826401, "lat": 10.936}}, {"id": 1685424, "name": "Sulangan", "state": "", "country": "PH", "coord": {"lon": 122.690002, "lat": 10.83}}, {"id": 1685434, "name": "Sula", "state": "", "country": "PH", "coord": {"lon": 120.395531, "lat": 15.45725}}, {"id": 1685476, "name": "Sugpon", "state": "", "country": "PH", "coord": {"lon": 120.515701, "lat": 16.843399}}, {"id": 1685484, "name": "Sugod", "state": "", "country": "PH", "coord": {"lon": 124.080498, "lat": 12.987}}, {"id": 1685499, "name": "Sugcad", "state": "", "country": "PH", "coord": {"lon": 123.699997, "lat": 13.36667}}, {"id": 1685506, "name": "Sugbongkogon", "state": "", "country": "PH", "coord": {"lon": 124.791107, "lat": 8.95694}}, {"id": 1685520, "name": "Sugal", "state": "", "country": "PH", "coord": {"lon": 125.46167, "lat": 5.66222}}, {"id": 1685532, "name": "Sudipen", "state": "", "country": "PH", "coord": {"lon": 120.4617, "lat": 16.9056}}, {"id": 1685541, "name": "Sucol", "state": "", "country": "PH", "coord": {"lon": 120.76667, "lat": 14.91667}}, {"id": 1685549, "name": "Suklayin", "state": "", "country": "PH", "coord": {"lon": 121.550301, "lat": 15.7574}}, {"id": 1685556, "name": "Subusub", "state": "", "country": "PH", "coord": {"lon": 120.494698, "lat": 16.226999}}, {"id": 1685577, "name": "Subic", "state": "", "country": "PH", "coord": {"lon": 120.234329, "lat": 14.87999}}, {"id": 1685578, "name": "Subic", "state": "", "country": "PH", "coord": {"lon": 120.940132, "lat": 13.94859}}, {"id": 1685580, "name": "Subic", "state": "", "country": "PH", "coord": {"lon": 120.23333, "lat": 14.9}}, {"id": 1685609, "name": "Saaban", "state": "", "country": "PH", "coord": {"lon": 121.368721, "lat": 13.1305}}, {"id": 1685615, "name": "Suba", "state": "", "country": "PH", "coord": {"lon": 121.010201, "lat": 10.8438}}, {"id": 1685622, "name": "Suay", "state": "", "country": "PH", "coord": {"lon": 122.855278, "lat": 10.06306}}, {"id": 1685625, "name": "Suz-on", "state": "", "country": "PH", "coord": {"lon": 125.638329, "lat": 7.66278}}, {"id": 1685634, "name": "Sual", "state": "", "country": "PH", "coord": {"lon": 120.094139, "lat": 16.06682}}, {"id": 1685681, "name": "Soyung", "state": "", "country": "PH", "coord": {"lon": 121.665497, "lat": 16.7001}}, {"id": 1685692, "name": "South Upi", "state": "", "country": "PH", "coord": {"lon": 124.150002, "lat": 6.83333}}, {"id": 1685725, "name": "Province of Southern Leyte", "state": "", "country": "PH", "coord": {"lon": 125.083328, "lat": 10.33333}}, {"id": 1685731, "name": "Province of South Cotabato", "state": "", "country": "PH", "coord": {"lon": 125.000603, "lat": 6.25218}}, {"id": 1685754, "name": "Province of Sorsogon", "state": "", "country": "PH", "coord": {"lon": 123.916672, "lat": 12.83333}}, {"id": 1685755, "name": "Sorsogon", "state": "", "country": "PH", "coord": {"lon": 123.993332, "lat": 12.97389}}, {"id": 1685759, "name": "City of Sorsogon", "state": "", "country": "PH", "coord": {"lon": 123.98333, "lat": 12.98333}}, {"id": 1685789, "name": "Sonob", "state": "", "country": "PH", "coord": {"lon": 123.15583, "lat": 8.32806}}, {"id": 1685800, "name": "Songculan", "state": "", "country": "PH", "coord": {"lon": 123.828972, "lat": 9.62966}}, {"id": 1685831, "name": "Solsona", "state": "", "country": "PH", "coord": {"lon": 120.769722, "lat": 18.09333}}, {"id": 1685850, "name": "Solo", "state": "", "country": "PH", "coord": {"lon": 120.901192, "lat": 13.74691}}, {"id": 1685867, "name": "Soledad", "state": "", "country": "PH", "coord": {"lon": 120.983902, "lat": 15.4282}}, {"id": 1685875, "name": "Solano", "state": "", "country": "PH", "coord": {"lon": 121.181236, "lat": 16.51918}}, {"id": 1685876, "name": "Solano", "state": "", "country": "PH", "coord": {"lon": 121.199997, "lat": 16.533331}}, {"id": 1685880, "name": "Solana", "state": "", "country": "PH", "coord": {"lon": 121.691002, "lat": 17.6528}}, {"id": 1685882, "name": "Solana", "state": "", "country": "PH", "coord": {"lon": 124.770561, "lat": 8.62306}}, {"id": 1685883, "name": "Solana", "state": "", "country": "PH", "coord": {"lon": 121.666672, "lat": 17.700001}}, {"id": 1685915, "name": "Sogod", "state": "", "country": "PH", "coord": {"lon": 123.316673, "lat": 13.83333}}, {"id": 1685918, "name": "Sogod", "state": "", "country": "PH", "coord": {"lon": 122.684311, "lat": 12.38044}}, {"id": 1685923, "name": "Sogod", "state": "", "country": "PH", "coord": {"lon": 123.99472, "lat": 10.75083}}, {"id": 1685925, "name": "Sogod", "state": "", "country": "PH", "coord": {"lon": 124.9814, "lat": 10.3847}}, {"id": 1685936, "name": "Socorro", "state": "", "country": "PH", "coord": {"lon": 121.411667, "lat": 13.05833}}, {"id": 1685938, "name": "Socorro", "state": "", "country": "PH", "coord": {"lon": 125.966667, "lat": 9.62139}}, {"id": 1686004, "name": "Sitangkai", "state": "", "country": "PH", "coord": {"lon": 119.392776, "lat": 4.66278}}, {"id": 1686007, "name": "Sison", "state": "", "country": "PH", "coord": {"lon": 120.515282, "lat": 16.173889}}, {"id": 1686008, "name": "Sison", "state": "", "country": "PH", "coord": {"lon": 120.510002, "lat": 16.173}}, {"id": 1686009, "name": "Sison", "state": "", "country": "PH", "coord": {"lon": 125.52861, "lat": 9.66028}}, {"id": 1686039, "name": "Siruma", "state": "", "country": "PH", "coord": {"lon": 123.25, "lat": 14}}, {"id": 1686045, "name": "Sirib", "state": "", "country": "PH", "coord": {"lon": 125.407219, "lat": 7.13333}}, {"id": 1686047, "name": "Siraway", "state": "", "country": "PH", "coord": {"lon": 122.139717, "lat": 7.58528}}, {"id": 1686066, "name": "Siquijor", "state": "", "country": "PH", "coord": {"lon": 123.514999, "lat": 9.2142}}, {"id": 1686078, "name": "Sipocot", "state": "", "country": "PH", "coord": {"lon": 122.976196, "lat": 13.768}}, {"id": 1686102, "name": "Sipalay", "state": "", "country": "PH", "coord": {"lon": 122.404167, "lat": 9.75194}}, {"id": 1686104, "name": "City of Sipalay", "state": "", "country": "PH", "coord": {"lon": 122.5, "lat": 9.75}}, {"id": 1686123, "name": "Siocon", "state": "", "country": "PH", "coord": {"lon": 122.135277, "lat": 7.70611}}, {"id": 1686141, "name": "Sinuknipan", "state": "", "country": "PH", "coord": {"lon": 122.637497, "lat": 13.8894}}, {"id": 1686144, "name": "Sinubong", "state": "", "country": "PH", "coord": {"lon": 121.925278, "lat": 7.02806}}, {"id": 1686159, "name": "Sinonoc", "state": "", "country": "PH", "coord": {"lon": 123.8461, "lat": 8.3096}}, {"id": 1686164, "name": "Sinolon", "state": "", "country": "PH", "coord": {"lon": 124.814438, "lat": 6.24389}}, {"id": 1686170, "name": "Sinubong", "state": "", "country": "PH", "coord": {"lon": 125.930801, "lat": 8.0684}}, {"id": 1686175, "name": "Sinisian", "state": "", "country": "PH", "coord": {"lon": 120.844009, "lat": 13.9156}}, {"id": 1686187, "name": "Siniloan", "state": "", "country": "PH", "coord": {"lon": 121.446297, "lat": 14.4216}}, {"id": 1686191, "name": "Sinilian First", "state": "", "country": "PH", "coord": {"lon": 120.459396, "lat": 15.6952}}, {"id": 1686228, "name": "Sindon", "state": "", "country": "PH", "coord": {"lon": 122.015137, "lat": 17.060341}}, {"id": 1686234, "name": "Sindangan", "state": "", "country": "PH", "coord": {"lon": 122.997398, "lat": 8.2376}}, {"id": 1686244, "name": "Sinayawan", "state": "", "country": "PH", "coord": {"lon": 125.309441, "lat": 6.7125}}, {"id": 1686250, "name": "Sinawilan", "state": "", "country": "PH", "coord": {"lon": 125.246391, "lat": 6.75444}}, {"id": 1686290, "name": "Sinamar", "state": "", "country": "PH", "coord": {"lon": 121.566673, "lat": 16.9}}, {"id": 1686311, "name": "Sinala", "state": "", "country": "PH", "coord": {"lon": 120.974632, "lat": 13.8057}}, {"id": 1686318, "name": "Sinait", "state": "", "country": "PH", "coord": {"lon": 120.458298, "lat": 17.8664}}, {"id": 1686319, "name": "Sinait", "state": "", "country": "PH", "coord": {"lon": 120.583061, "lat": 15.53861}}, {"id": 1686335, "name": "Sinacaban", "state": "", "country": "PH", "coord": {"lon": 123.839897, "lat": 8.2864}}, {"id": 1686355, "name": "Simunul", "state": "", "country": "PH", "coord": {"lon": 119.849442, "lat": 4.89833}}, {"id": 1686387, "name": "Simimbaan", "state": "", "country": "PH", "coord": {"lon": 121.582443, "lat": 17.11574}}, {"id": 1686407, "name": "Simanu Sur", "state": "", "country": "PH", "coord": {"lon": 121.835152, "lat": 17.482821}}, {"id": 1686422, "name": "Simala", "state": "", "country": "PH", "coord": {"lon": 123.616478, "lat": 9.97326}}, {"id": 1686435, "name": "Silway 7", "state": "", "country": "PH", "coord": {"lon": 125.120682, "lat": 6.17711}}, {"id": 1686436, "name": "Silvino Lobos", "state": "", "country": "PH", "coord": {"lon": 124.833328, "lat": 12.3}}, {"id": 1686455, "name": "Silongin", "state": "", "country": "PH", "coord": {"lon": 122.521393, "lat": 13.29972}}, {"id": 1686467, "name": "Sillon", "state": "", "country": "PH", "coord": {"lon": 123.767502, "lat": 11.199}}, {"id": 1686499, "name": "Silay City", "state": "", "country": "PH", "coord": {"lon": 122.966667, "lat": 10.8}}, {"id": 1686502, "name": "Sillawit", "state": "", "country": "PH", "coord": {"lon": 121.756393, "lat": 16.878889}}, {"id": 1686545, "name": "Silanga", "state": "", "country": "PH", "coord": {"lon": 124.843063, "lat": 11.81806}}, {"id": 1686547, "name": "Silang", "state": "", "country": "PH", "coord": {"lon": 120.971367, "lat": 14.21567}}, {"id": 1686549, "name": "Silang", "state": "", "country": "PH", "coord": {"lon": 121, "lat": 14.2}}, {"id": 1686559, "name": "Silago", "state": "", "country": "PH", "coord": {"lon": 125.161797, "lat": 10.5291}}, {"id": 1686564, "name": "Silae", "state": "", "country": "PH", "coord": {"lon": 125.282501, "lat": 8.15889}}, {"id": 1686572, "name": "Silab", "state": "", "country": "PH", "coord": {"lon": 123.179199, "lat": 9.4383}}, {"id": 1686582, "name": "Sikatuna", "state": "", "country": "PH", "coord": {"lon": 123.975098, "lat": 9.6883}}, {"id": 1686615, "name": "Sigma", "state": "", "country": "PH", "coord": {"lon": 122.666199, "lat": 11.4214}}, {"id": 1686631, "name": "Sigay", "state": "", "country": "PH", "coord": {"lon": 120.599998, "lat": 17.08333}}, {"id": 1686632, "name": "Sigay", "state": "", "country": "PH", "coord": {"lon": 120.579437, "lat": 17.04528}}, {"id": 1686636, "name": "Cigaras", "state": "", "country": "PH", "coord": {"lon": 121.429802, "lat": 14.2266}}, {"id": 1686652, "name": "Sierra Bullones", "state": "", "country": "PH", "coord": {"lon": 124.292099, "lat": 9.8081}}, {"id": 1686655, "name": "Siempre Viva", "state": "", "country": "PH", "coord": {"lon": 121.632942, "lat": 17.228741}}, {"id": 1686668, "name": "Sico Uno", "state": "", "country": "PH", "coord": {"lon": 121.371231, "lat": 13.8301}}, {"id": 1686678, "name": "Siclong", "state": "", "country": "PH", "coord": {"lon": 121.2239, "lat": 15.5808}}, {"id": 1686712, "name": "Sibutao", "state": "", "country": "PH", "coord": {"lon": 123.485901, "lat": 8.5916}}, {"id": 1686725, "name": "Sibulan", "state": "", "country": "PH", "coord": {"lon": 121.933327, "lat": 14.75}}, {"id": 1686728, "name": "Sibulan", "state": "", "country": "PH", "coord": {"lon": 123.285004, "lat": 9.3584}}, {"id": 1686732, "name": "Sibulan", "state": "", "country": "PH", "coord": {"lon": 125.462219, "lat": 6.93361}}, {"id": 1686735, "name": "Sibul", "state": "", "country": "PH", "coord": {"lon": 121, "lat": 15.8}}, {"id": 1686737, "name": "Sibul", "state": "", "country": "PH", "coord": {"lon": 121.0616, "lat": 15.169}}, {"id": 1686760, "name": "Sibuco", "state": "", "country": "PH", "coord": {"lon": 122.065559, "lat": 7.29111}}, {"id": 1686767, "name": "Sibucao", "state": "", "country": "PH", "coord": {"lon": 122.887001, "lat": 10.4179}}, {"id": 1686777, "name": "Sibonga", "state": "", "country": "PH", "coord": {"lon": 123.617104, "lat": 10.0168}}, {"id": 1686819, "name": "Sibalom", "state": "", "country": "PH", "coord": {"lon": 122.017799, "lat": 10.79}}, {"id": 1686840, "name": "Sibaguan", "state": "", "country": "PH", "coord": {"lon": 122.71389, "lat": 11.55778}}, {"id": 1686847, "name": "Sibagat", "state": "", "country": "PH", "coord": {"lon": 125.697502, "lat": 8.8225}}, {"id": 1686858, "name": "Siayan", "state": "", "country": "PH", "coord": {"lon": 123.099998, "lat": 8.26667}},