[{"id": 4407074, "name": "Saint Louis County", "state": "MO", "country": "US", "coord": {"lon": -90.400124, "lat": 38.633389}}, {"id": 4407084, "name": "City of Saint Louis", "state": "MO", "country": "US", "coord": {"lon": -90.197891, "lat": 38.62727}}, {"id": 4407106, "name": "Saint Martins", "state": "MO", "country": "US", "coord": {"lon": -92.337128, "lat": 38.5942}}, {"id": 4407186, "name": "Saint Paul", "state": "MO", "country": "US", "coord": {"lon": -90.741791, "lat": 38.861439}}, {"id": 4407237, "name": "Saint Peters", "state": "MO", "country": "US", "coord": {"lon": -90.626511, "lat": 38.800331}}, {"id": 4407259, "name": "Saint Robert", "state": "MO", "country": "US", "coord": {"lon": -92.177673, "lat": 37.828098}}, {"id": 4407294, "name": "Sainte Genevieve", "state": "MO", "country": "US", "coord": {"lon": -90.041779, "lat": 37.981441}}, {"id": 4407295, "name": "Sainte Genevieve County", "state": "MO", "country": "US", "coord": {"lon": -90.200119, "lat": 37.883389}}, {"id": 4407308, "name": "Salem", "state": "MO", "country": "US", "coord": {"lon": -91.53598, "lat": 37.645599}}, {"id": 4407399, "name": "Salisbury", "state": "MO", "country": "US", "coord": {"lon": -92.801582, "lat": 39.42392}}, {"id": 4407617, "name": "Sappington", "state": "MO", "country": "US", "coord": {"lon": -90.379837, "lat": 38.536999}}, {"id": 4407631, "name": "Sarcoxie", "state": "MO", "country": "US", "coord": {"lon": -94.1166, "lat": 37.069229}}, {"id": 4407665, "name": "Savannah", "state": "MO", "country": "US", "coord": {"lon": -94.830254, "lat": 39.941662}}, {"id": 4407900, "name": "Scott City", "state": "MO", "country": "US", "coord": {"lon": -89.524529, "lat": 37.216721}}, {"id": 4407901, "name": "Scott County", "state": "MO", "country": "US", "coord": {"lon": -89.56675, "lat": 37.066719}}, {"id": 4408000, "name": "Sedalia", "state": "MO", "country": "US", "coord": {"lon": -93.228256, "lat": 38.70446}}, {"id": 4408052, "name": "Senath", "state": "MO", "country": "US", "coord": {"lon": -90.159821, "lat": 36.134232}}, {"id": 4408054, "name": "Seneca", "state": "MO", "country": "US", "coord": {"lon": -94.611061, "lat": 36.841461}}, {"id": 4408117, "name": "Seymour", "state": "MO", "country": "US", "coord": {"lon": -92.768784, "lat": 37.146439}}, {"id": 4408334, "name": "Shelbina", "state": "MO", "country": "US", "coord": {"lon": -92.042953, "lat": 39.693932}}, {"id": 4408350, "name": "Shelbyville", "state": "MO", "country": "US", "coord": {"lon": -92.041557, "lat": 39.80587}}, {"id": 4408358, "name": "Shell Knob", "state": "MO", "country": "US", "coord": {"lon": -93.634361, "lat": 36.63229}}, {"id": 4408527, "name": "Shirley", "state": "MO", "country": "US", "coord": {"lon": -90.919296, "lat": 37.915051}}, {"id": 4408611, "name": "Shrewsbury", "state": "MO", "country": "US", "coord": {"lon": -90.336777, "lat": 38.590328}}, {"id": 4408672, "name": "Sikeston", "state": "MO", "country": "US", "coord": {"lon": -89.58786, "lat": 36.87672}}, {"id": 4408964, "name": "Slater", "state": "MO", "country": "US", "coord": {"lon": -93.069092, "lat": 39.218079}}, {"id": 4409199, "name": "Smithville", "state": "MO", "country": "US", "coord": {"lon": -94.58107, "lat": 39.38694}}, {"id": 4409591, "name": "Spanish Lake", "state": "MO", "country": "US", "coord": {"lon": -90.215942, "lat": 38.78783}}, {"id": 4409615, "name": "Sparta", "state": "MO", "country": "US", "coord": {"lon": -93.081573, "lat": 37.00116}}, {"id": 4409896, "name": "Springfield", "state": "MO", "country": "US", "coord": {"lon": -93.298241, "lat": 37.215328}}, {"id": 4410101, "name": "Steele", "state": "MO", "country": "US", "coord": {"lon": -89.829247, "lat": 36.083961}}, {"id": 4410113, "name": "Steelville", "state": "MO", "country": "US", "coord": {"lon": -91.354874, "lat": 37.968102}}, {"id": 4410287, "name": "Stockton", "state": "MO", "country": "US", "coord": {"lon": -93.796043, "lat": 37.698929}}, {"id": 4410296, "name": "Stoddard County", "state": "MO", "country": "US", "coord": {"lon": -89.883423, "lat": 36.76672}}, {"id": 4410425, "name": "Stover", "state": "MO", "country": "US", "coord": {"lon": -92.991867, "lat": 38.440861}}, {"id": 4410432, "name": "Strafford", "state": "MO", "country": "US", "coord": {"lon": -93.117126, "lat": 37.268379}}, {"id": 4410585, "name": "Sugar Creek", "state": "MO", "country": "US", "coord": {"lon": -94.444672, "lat": 39.10973}}, {"id": 4410669, "name": "Sullivan", "state": "MO", "country": "US", "coord": {"lon": -91.160423, "lat": 38.208099}}, {"id": 4410836, "name": "Sunset Hills", "state": "MO", "country": "US", "coord": {"lon": -90.407341, "lat": 38.53894}}, {"id": 4410978, "name": "Sweet Springs", "state": "MO", "country": "US", "coord": {"lon": -93.414932, "lat": 38.963631}}, {"id": 4411477, "name": "Thayer", "state": "MO", "country": "US", "coord": {"lon": -91.5382, "lat": 36.524509}}, {"id": 4411809, "name": "Tipton", "state": "MO", "country": "US", "coord": {"lon": -92.779922, "lat": 38.655579}}, {"id": 4411912, "name": "Town and Country", "state": "MO", "country": "US", "coord": {"lon": -90.463448, "lat": 38.612282}}, {"id": 4411926, "name": "Townley", "state": "MO", "country": "US", "coord": {"lon": -89.96981, "lat": 36.616718}}, {"id": 4412089, "name": "Troy", "state": "MO", "country": "US", "coord": {"lon": -90.980698, "lat": 38.979488}}, {"id": 4412325, "name": "Tuscumbia", "state": "MO", "country": "US", "coord": {"lon": -92.458519, "lat": 38.233089}}, {"id": 4412454, "name": "Union", "state": "MO", "country": "US", "coord": {"lon": -91.008476, "lat": 38.45005}}, {"id": 4412697, "name": "University City", "state": "MO", "country": "US", "coord": {"lon": -90.30928, "lat": 38.65588}}, {"id": 4412813, "name": "Valley Forge (historical)", "state": "MO", "country": "US", "coord": {"lon": -90.373459, "lat": 37.785332}}, {"id": 4412820, "name": "Valley Park", "state": "MO", "country": "US", "coord": {"lon": -90.492622, "lat": 38.549221}}, {"id": 4412833, "name": "Valley View", "state": "MO", "country": "US", "coord": {"lon": -93.428261, "lat": 38.206139}}, {"id": 4412847, "name": "Van Buren", "state": "MO", "country": "US", "coord": {"lon": -91.014572, "lat": 36.995609}}, {"id": 4412896, "name": "Vandalia", "state": "MO", "country": "US", "coord": {"lon": -91.488487, "lat": 39.310871}}, {"id": 4412975, "name": "Velda Village", "state": "MO", "country": "US", "coord": {"lon": -90.294281, "lat": 38.690048}}, {"id": 4412976, "name": "Velda Village Hills", "state": "MO", "country": "US", "coord": {"lon": -90.287338, "lat": 38.690609}}, {"id": 4413013, "name": "Versailles", "state": "MO", "country": "US", "coord": {"lon": -92.841026, "lat": 38.431412}}, {"id": 4413031, "name": "Vichy", "state": "MO", "country": "US", "coord": {"lon": -91.760437, "lat": 38.111431}}, {"id": 4413085, "name": "Vienna", "state": "MO", "country": "US", "coord": {"lon": -91.947113, "lat": 38.18671}}, {"id": 4413136, "name": "Vinita Park", "state": "MO", "country": "US", "coord": {"lon": -90.342621, "lat": 38.690048}}, {"id": 4413557, "name": "Wardsville", "state": "MO", "country": "US", "coord": {"lon": -92.174347, "lat": 38.488918}}, {"id": 4413595, "name": "Warrensburg", "state": "MO", "country": "US", "coord": {"lon": -93.736053, "lat": 38.762791}}, {"id": 4413598, "name": "Warrenton", "state": "MO", "country": "US", "coord": {"lon": -91.141541, "lat": 38.81144}}, {"id": 4413601, "name": "Warsaw", "state": "MO", "country": "US", "coord": {"lon": -93.381866, "lat": 38.24308}}, {"id": 4413602, "name": "Warson Woods", "state": "MO", "country": "US", "coord": {"lon": -90.383453, "lat": 38.607269}}, {"id": 4413621, "name": "Washington", "state": "MO", "country": "US", "coord": {"lon": -91.012093, "lat": 38.558109}}, {"id": 4413630, "name": "Washington County", "state": "MO", "country": "US", "coord": {"lon": -90.883469, "lat": 37.95005}}, {"id": 4413802, "name": "Waynesville", "state": "MO", "country": "US", "coord": {"lon": -92.200722, "lat": 37.828651}}, {"id": 4413815, "name": "Weatherby Lake", "state": "MO", "country": "US", "coord": {"lon": -94.696068, "lat": 39.237782}}, {"id": 4413842, "name": "Webb City", "state": "MO", "country": "US", "coord": {"lon": -94.462997, "lat": 37.14645}}, {"id": 4413872, "name": "Webster Groves", "state": "MO", "country": "US", "coord": {"lon": -90.357338, "lat": 38.592548}}, {"id": 4413926, "name": "Weldon Spring", "state": "MO", "country": "US", "coord": {"lon": -90.689293, "lat": 38.71339}}, {"id": 4413977, "name": "Wellston", "state": "MO", "country": "US", "coord": {"lon": -90.299278, "lat": 38.672829}}, {"id": 4413978, "name": "Wellsville", "state": "MO", "country": "US", "coord": {"lon": -91.57016, "lat": 39.07198}}, {"id": 4414001, "name": "Wentzville", "state": "MO", "country": "US", "coord": {"lon": -90.852913, "lat": 38.81144}}, {"id": 4414200, "name": "West Plains", "state": "MO", "country": "US", "coord": {"lon": -91.852371, "lat": 36.728119}}, {"id": 4414270, "name": "Weston", "state": "MO", "country": "US", "coord": {"lon": -94.901627, "lat": 39.41111}}, {"id": 4414749, "name": "Wildwood", "state": "MO", "country": "US", "coord": {"lon": -90.662903, "lat": 38.582829}}, {"id": 4414816, "name": "Willard", "state": "MO", "country": "US", "coord": {"lon": -93.428528, "lat": 37.30505}}, {"id": 4414959, "name": "Willow Springs", "state": "MO", "country": "US", "coord": {"lon": -91.969872, "lat": 36.992279}}, {"id": 4415065, "name": "Winchester", "state": "MO", "country": "US", "coord": {"lon": -90.527901, "lat": 38.590328}}, {"id": 4415076, "name": "Windsor", "state": "MO", "country": "US", "coord": {"lon": -93.522148, "lat": 38.532242}}, {"id": 4415101, "name": "Winfield", "state": "MO", "country": "US", "coord": {"lon": -90.738457, "lat": 38.997269}}, {"id": 4415134, "name": "Winona", "state": "MO", "country": "US", "coord": {"lon": -91.323471, "lat": 37.009769}}, {"id": 4415434, "name": "Woodson Terrace", "state": "MO", "country": "US", "coord": {"lon": -90.358452, "lat": 38.725052}}, {"id": 4415502, "name": "Wright City", "state": "MO", "country": "US", "coord": {"lon": -91.020142, "lat": 38.827549}}, {"id": 4415813, "name": "Aberdeen", "state": "MS", "country": "US", "coord": {"lon": -88.543663, "lat": 33.825111}}, {"id": 4415878, "name": "Ackerman", "state": "MS", "country": "US", "coord": {"lon": -89.172836, "lat": 33.31012}}, {"id": 4415912, "name": "Adams County", "state": "MS", "country": "US", "coord": {"lon": -91.355949, "lat": 31.547939}}, {"id": 4416192, "name": "Amory", "state": "MS", "country": "US", "coord": {"lon": -88.488098, "lat": 33.98428}}, {"id": 4416315, "name": "Ansley", "state": "MS", "country": "US", "coord": {"lon": -89.483658, "lat": 30.225201}}, {"id": 4416533, "name": "Arnold Line", "state": "MS", "country": "US", "coord": {"lon": -89.373398, "lat": 31.335171}}, {"id": 4416602, "name": "Ashland", "state": "MS", "country": "US", "coord": {"lon": -89.175903, "lat": 34.83287}}, {"id": 4416877, "name": "Baldwyn", "state": "MS", "country": "US", "coord": {"lon": -88.63533, "lat": 34.509541}}, {"id": 4417130, "name": "Batesville", "state": "MS", "country": "US", "coord": {"lon": -89.94426, "lat": 34.311501}}, {"id": 4417205, "name": "Bay Saint Louis", "state": "MS", "country": "US", "coord": {"lon": -89.330048, "lat": 30.308809}}, {"id": 4417212, "name": "Bay Springs", "state": "MS", "country": "US", "coord": {"lon": -89.287277, "lat": 31.97904}}, {"id": 4417533, "name": "Beechwood", "state": "MS", "country": "US", "coord": {"lon": -90.826767, "lat": 32.327648}}, {"id": 4417642, "name": "Belmont", "state": "MS", "country": "US", "coord": {"lon": -88.48391, "lat": 31.568769}}, {"id": 4417666, "name": "Belmont", "state": "MS", "country": "US", "coord": {"lon": -88.209213, "lat": 34.509819}}, {"id": 4417676, "name": "Belzoni", "state": "MS", "country": "US", "coord": {"lon": -90.489258, "lat": 33.184292}}, {"id": 4417738, "name": "Benton County", "state": "MS", "country": "US", "coord": {"lon": -89.190628, "lat": 34.82148}}, {"id": 4418462, "name": "Billups", "state": "MS", "country": "US", "coord": {"lon": -88.585052, "lat": 33.430679}}, {"id": 4418478, "name": "Biloxi", "state": "MS", "country": "US", "coord": {"lon": -88.885307, "lat": 30.39603}}, {"id": 4419094, "name": "Booneville", "state": "MS", "country": "US", "coord": {"lon": -88.566719, "lat": 34.65815}}, {"id": 4419138, "name": "Bothwell", "state": "MS", "country": "US", "coord": {"lon": -88.74337, "lat": 31.327681}}, {"id": 4419171, "name": "Bowdre", "state": "MS", "country": "US", "coord": {"lon": -90.332321, "lat": 34.796768}}, {"id": 4419290, "name": "Brandon", "state": "MS", "country": "US", "coord": {"lon": -89.985924, "lat": 32.273201}}, {"id": 4419500, "name": "Brookhaven", "state": "MS", "country": "US", "coord": {"lon": -90.440651, "lat": 31.57906}}, {"id": 4419539, "name": "Brooksville", "state": "MS", "country": "US", "coord": {"lon": -88.582268, "lat": 33.23457}}, {"id": 4419654, "name": "Bruce", "state": "MS", "country": "US", "coord": {"lon": -89.348961, "lat": 33.992062}}, {"id": 4419845, "name": "Bude", "state": "MS", "country": "US", "coord": {"lon": -90.850098, "lat": 31.46295}}, {"id": 4420161, "name": "Byhalia", "state": "MS", "country": "US", "coord": {"lon": -89.690643, "lat": 34.872318}}, {"id": 4420177, "name": "Byram", "state": "MS", "country": "US", "coord": {"lon": -90.245369, "lat": 32.179321}}, {"id": 4420288, "name": "Caledonia", "state": "MS", "country": "US", "coord": {"lon": -88.324478, "lat": 33.682892}}, {"id": 4420304, "name": "Calhoun City", "state": "MS", "country": "US", "coord": {"lon": -89.311462, "lat": 33.855389}}, {"id": 4420309, "name": "Calhoun County", "state": "MS", "country": "US", "coord": {"lon": -89.330353, "lat": 33.93261}}, {"id": 4420617, "name": "Canton", "state": "MS", "country": "US", "coord": {"lon": -90.036751, "lat": 32.61264}}, {"id": 4420729, "name": "Carrollton", "state": "MS", "country": "US", "coord": {"lon": -89.920357, "lat": 33.508179}}, {"id": 4420799, "name": "Carthage", "state": "MS", "country": "US", "coord": {"lon": -89.536179, "lat": 32.732639}}, {"id": 4421208, "name": "Centreville", "state": "MS", "country": "US", "coord": {"lon": -91.068443, "lat": 31.089621}}, {"id": 4421227, "name": "Chalybeate", "state": "MS", "country": "US", "coord": {"lon": -88.868111, "lat": 34.93037}}, {"id": 4421338, "name": "Charleston", "state": "MS", "country": "US", "coord": {"lon": -90.056763, "lat": 34.006779}}, {"id": 4421547, "name": "Choctaw County", "state": "MS", "country": "US", "coord": {"lon": -89.237572, "lat": 33.340401}}, {"id": 4421935, "name": "Clarksdale", "state": "MS", "country": "US", "coord": {"lon": -90.57093, "lat": 34.200111}}, {"id": 4422082, "name": "Cleary", "state": "MS", "country": "US", "coord": {"lon": -90.180641, "lat": 32.165428}}, {"id": 4422106, "name": "Cleveland", "state": "MS", "country": "US", "coord": {"lon": -90.724823, "lat": 33.743999}}, {"id": 4422133, "name": "Clinton", "state": "MS", "country": "US", "coord": {"lon": -90.321762, "lat": 32.34153}}, {"id": 4422178, "name": "Coahoma County", "state": "MS", "country": "US", "coord": {"lon": -90.567879, "lat": 34.217892}}, {"id": 4422281, "name": "Coldwater", "state": "MS", "country": "US", "coord": {"lon": -89.214233, "lat": 32.714859}}, {"id": 4422289, "name": "Coldwater", "state": "MS", "country": "US", "coord": {"lon": -89.97731, "lat": 34.691769}}, {"id": 4422375, "name": "Collins", "state": "MS", "country": "US", "coord": {"lon": -89.555351, "lat": 31.645439}}, {"id": 4422398, "name": "Collinsville", "state": "MS", "country": "US", "coord": {"lon": -88.845879, "lat": 32.497921}}, {"id": 4422442, "name": "Columbus", "state": "MS", "country": "US", "coord": {"lon": -88.427261, "lat": 33.49567}}, {"id": 4422457, "name": "Columbia", "state": "MS", "country": "US", "coord": {"lon": -89.837578, "lat": 31.251841}}, {"id": 4422485, "name": "Como", "state": "MS", "country": "US", "coord": {"lon": -89.939812, "lat": 34.510658}}, {"id": 4422552, "name": "Conehatta", "state": "MS", "country": "US", "coord": {"lon": -89.285339, "lat": 32.451248}}, {"id": 4422713, "name": "Corinth", "state": "MS", "country": "US", "coord": {"lon": -88.52227, "lat": 34.93425}}, {"id": 4422833, "name": "Country Club Subdivision", "state": "MS", "country": "US", "coord": {"lon": -88.806442, "lat": 33.423458}}, {"id": 4422841, "name": "Country Side Estates", "state": "MS", "country": "US", "coord": {"lon": -88.81839, "lat": 33.429291}}, {"id": 4423227, "name": "Crystal Springs", "state": "MS", "country": "US", "coord": {"lon": -90.35704, "lat": 31.987379}}, {"id": 4423395, "name": "D'Iberville", "state": "MS", "country": "US", "coord": {"lon": -88.890862, "lat": 30.42631}}, {"id": 4423639, "name": "De Kalb", "state": "MS", "country": "US", "coord": {"lon": -88.650879, "lat": 32.767632}}, {"id": 4423640, "name": "De Lisle", "state": "MS", "country": "US", "coord": {"lon": -89.264488, "lat": 30.37936}}, {"id": 4423655, "name": "De Soto County", "state": "MS", "country": "US", "coord": {"lon": -89.990372, "lat": 34.92482}}, {"id": 4423701, "name": "Decatur", "state": "MS", "country": "US", "coord": {"lon": -89.108391, "lat": 32.43903}}, {"id": 4423847, "name": "Derma", "state": "MS", "country": "US", "coord": {"lon": -89.284523, "lat": 33.855671}}, {"id": 4423888, "name": "Diamondhead", "state": "MS", "country": "US", "coord": {"lon": -89.363937, "lat": 30.39464}}, {"id": 4424465, "name": "Dixon", "state": "MS", "country": "US", "coord": {"lon": -90.252586, "lat": 32.325699}}, {"id": 4424689, "name": "Drew", "state": "MS", "country": "US", "coord": {"lon": -90.526482, "lat": 33.809559}}, {"id": 4424956, "name": "Durant", "state": "MS", "country": "US", "coord": {"lon": -89.85453, "lat": 33.07513}}, {"id": 4425435, "name": "Edwards", "state": "MS", "country": "US", "coord": {"lon": -90.605652, "lat": 32.330151}}, {"id": 4425603, "name": "Ellisville", "state": "MS", "country": "US", "coord": {"lon": -89.19561, "lat": 31.60405}}, {"id": 4425771, "name": "Epico (historical)", "state": "MS", "country": "US", "coord": {"lon": -89.058372, "lat": 30.41547}}, {"id": 4425816, "name": "Escatawpa", "state": "MS", "country": "US", "coord": {"lon": -88.543633, "lat": 30.440479}}, {"id": 4425862, "name": "Eupora", "state": "MS", "country": "US", "coord": {"lon": -89.267014, "lat": 33.54068}}, {"id": 4426190, "name": "Farmington", "state": "MS", "country": "US", "coord": {"lon": -88.452271, "lat": 34.930092}}, {"id": 4426218, "name": "Fayette", "state": "MS", "country": "US", "coord": {"lon": -91.060661, "lat": 31.71155}}, {"id": 4426772, "name": "Flora", "state": "MS", "country": "US", "coord": {"lon": -90.309258, "lat": 32.543201}}, {"id": 4426781, "name": "Florence", "state": "MS", "country": "US", "coord": {"lon": -90.131203, "lat": 32.153481}}, {"id": 4426803, "name": "Flowerdale", "state": "MS", "country": "US", "coord": {"lon": -88.737549, "lat": 34.28511}}, {"id": 4426822, "name": "Flowood", "state": "MS", "country": "US", "coord": {"lon": -90.138977, "lat": 32.309589}}, {"id": 4426884, "name": "Forest", "state": "MS", "country": "US", "coord": {"lon": -89.474228, "lat": 32.36459}}, {"id": 4426954, "name": "Forrest County", "state": "MS", "country": "US", "coord": {"lon": -89.294228, "lat": 31.314341}}, {"id": 4427216, "name": "Friars Point", "state": "MS", "country": "US", "coord": {"lon": -90.637604, "lat": 34.366772}}, {"id": 4427345, "name": "Fulton", "state": "MS", "country": "US", "coord": {"lon": -88.40921, "lat": 34.273991}}, {"id": 4427569, "name": "Gautier", "state": "MS", "country": "US", "coord": {"lon": -88.611687, "lat": 30.385759}}, {"id": 4427773, "name": "Glendale", "state": "MS", "country": "US", "coord": {"lon": -89.306168, "lat": 31.36462}}, {"id": 4427960, "name": "Goodman", "state": "MS", "country": "US", "coord": {"lon": -89.912308, "lat": 32.970131}}, {"id": 4428420, "name": "Greene County", "state": "MS", "country": "US", "coord": {"lon": -88.66169, "lat": 31.1999}}, {"id": 4428475, "name": "Greenville", "state": "MS", "country": "US", "coord": {"lon": -91.061768, "lat": 33.410118}}, {"id": 4428495, "name": "Greenwood", "state": "MS", "country": "US", "coord": {"lon": -90.179527, "lat": 33.516232}}, {"id": 4428539, "name": "Grenada", "state": "MS", "country": "US", "coord": {"lon": -89.808418, "lat": 33.769001}}, {"id": 4428654, "name": "Gulf Hills", "state": "MS", "country": "US", "coord": {"lon": -88.842247, "lat": 30.430479}}, {"id": 4428663, "name": "Gulf Park Estates", "state": "MS", "country": "US", "coord": {"lon": -88.761139, "lat": 30.39187}}, {"id": 4428667, "name": "Gulfport", "state": "MS", "country": "US", "coord": {"lon": -89.092819, "lat": 30.36742}}, {"id": 4428744, "name": "Guntown", "state": "MS", "country": "US", "coord": {"lon": -88.659782, "lat": 34.443161}}, {"id": 4428961, "name": "Hancock County", "state": "MS", "country": "US", "coord": {"lon": -89.398376, "lat": 30.35158}}, {"id": 4429197, "name": "Harrison County", "state": "MS", "country": "US", "coord": {"lon": -89.043648, "lat": 30.40909}}, {"id": 4429295, "name": "Hattiesburg", "state": "MS", "country": "US", "coord": {"lon": -89.290337, "lat": 31.32712}}, {"id": 4429387, "name": "Hazlehurst", "state": "MS", "country": "US", "coord": {"lon": -90.395927, "lat": 31.860439}}, {"id": 4429484, "name": "Helena", "state": "MS", "country": "US", "coord": {"lon": -88.49585, "lat": 30.49464}}, {"id": 4429589, "name": "Hernando", "state": "MS", "country": "US", "coord": {"lon": -89.993698, "lat": 34.82399}}, {"id": 4429718, "name": "Hickory Hills", "state": "MS", "country": "US", "coord": {"lon": -88.639191, "lat": 30.456869}}, {"id": 4429861, "name": "Hillsboro", "state": "MS", "country": "US", "coord": {"lon": -89.511459, "lat": 32.459309}}, {"id": 4429877, "name": "Hinds County", "state": "MS", "country": "US", "coord": {"lon": -90.244263, "lat": 32.313202}}, {"id": 4430017, "name": "Hollandale", "state": "MS", "country": "US", "coord": {"lon": -90.853989, "lat": 33.16901}}, {"id": 4430103, "name": "Holly Springs", "state": "MS", "country": "US", "coord": {"lon": -89.977859, "lat": 31.315729}}, {"id": 4430104, "name": "Holly Springs", "state": "MS", "country": "US", "coord": {"lon": -89.448692, "lat": 34.767601}}, {"id": 4430400, "name": "Horn Lake", "state": "MS", "country": "US", "coord": {"lon": -90.034813, "lat": 34.955372}}, {"id": 4430529, "name": "Houston", "state": "MS", "country": "US", "coord": {"lon": -88.999229, "lat": 33.898449}}, {"id": 4430576, "name": "Howell (historical)", "state": "MS", "country": "US", "coord": {"lon": -90.111198, "lat": 32.244591}}, {"id": 4430749, "name": "Hurley", "state": "MS", "country": "US", "coord": {"lon": -88.494179, "lat": 30.66103}}, {"id": 4430981, "name": "Indianola", "state": "MS", "country": "US", "coord": {"lon": -90.65509, "lat": 33.450951}}, {"id": 4431209, "name": "Inverness", "state": "MS", "country": "US", "coord": {"lon": -90.59259, "lat": 33.353729}}, {"id": 4431280, "name": "Itta Bena", "state": "MS", "country": "US", "coord": {"lon": -90.319809, "lat": 33.495121}}, {"id": 4431283, "name": "Iuka", "state": "MS", "country": "US", "coord": {"lon": -88.190041, "lat": 34.81176}}, {"id": 4431410, "name": "Jackson", "state": "MS", "country": "US", "coord": {"lon": -90.184807, "lat": 32.298759}}, {"id": 4431425, "name": "Jackson County", "state": "MS", "country": "US", "coord": {"lon": -88.6278, "lat": 30.42325}}, {"id": 4431982, "name": "Jones County", "state": "MS", "country": "US", "coord": {"lon": -89.157562, "lat": 31.672661}}, {"id": 4432041, "name": "Jonestown", "state": "MS", "country": "US", "coord": {"lon": -90.45565, "lat": 34.31955}}, {"id": 4432161, "name": "Kearney Park", "state": "MS", "country": "US", "coord": {"lon": -90.315369, "lat": 32.589031}}, {"id": 4432310, "name": "Kiln", "state": "MS", "country": "US", "coord": {"lon": -89.435051, "lat": 30.409081}}, {"id": 4432542, "name": "Kosciusko", "state": "MS", "country": "US", "coord": {"lon": -89.587578, "lat": 33.057629}}, {"id": 4432670, "name": "Lafayette County", "state": "MS", "country": "US", "coord": {"lon": -89.519531, "lat": 34.36594}}, {"id": 4432931, "name": "Lambert", "state": "MS", "country": "US", "coord": {"lon": -90.283432, "lat": 34.201778}}, {"id": 4433016, "name": "Latimer", "state": "MS", "country": "US", "coord": {"lon": -88.866699, "lat": 30.534639}}, {"id": 4433028, "name": "Lauderdale County", "state": "MS", "country": "US", "coord": {"lon": -88.691162, "lat": 32.398201}}, {"id": 4433039, "name": "Laurel", "state": "MS", "country": "US", "coord": {"lon": -89.130608, "lat": 31.69405}}, {"id": 4433116, "name": "Leakesville", "state": "MS", "country": "US", "coord": {"lon": -88.5578, "lat": 31.155741}}, {"id": 4433190, "name": "Lee County", "state": "MS", "country": "US", "coord": {"lon": -88.707001, "lat": 34.264549}}, {"id": 4433243, "name": "Leflore County", "state": "MS", "country": "US", "coord": {"lon": -90.223137, "lat": 33.51984}}, {"id": 4433289, "name": "Leland", "state": "MS", "country": "US", "coord": {"lon": -90.897598, "lat": 33.405392}}, {"id": 4433359, "name": "Lexington", "state": "MS", "country": "US", "coord": {"lon": -90.053139, "lat": 33.113178}}, {"id": 4433362, "name": "Liberty", "state": "MS", "country": "US", "coord": {"lon": -90.812317, "lat": 31.15823}}, {"id": 4433944, "name": "Livingston", "state": "MS", "country": "US", "coord": {"lon": -90.216202, "lat": 32.552921}}, {"id": 4434069, "name": "Long Beach", "state": "MS", "country": "US", "coord": {"lon": -89.152817, "lat": 30.350479}}, {"id": 4434283, "name": "Louisville", "state": "MS", "country": "US", "coord": {"lon": -89.055061, "lat": 33.123741}}, {"id": 4434357, "name": "Lowndes County", "state": "MS", "country": "US", "coord": {"lon": -88.401711, "lat": 33.517059}}, {"id": 4434388, "name": "Lucedale", "state": "MS", "country": "US", "coord": {"lon": -88.590019, "lat": 30.92519}}, {"id": 4434435, "name": "Lumberton", "state": "MS", "country": "US", "coord": {"lon": -89.452293, "lat": 31.001289}}, {"id": 4434459, "name": "Lyman", "state": "MS", "country": "US", "coord": {"lon": -89.12561, "lat": 30.49474}}, {"id": 4434465, "name": "Lynchburg", "state": "MS", "country": "US", "coord": {"lon": -90.095932, "lat": 34.962318}}, {"id": 4434466, "name": "Lynchburg", "state": "MS", "country": "US", "coord": {"lon": -90.548988, "lat": 32.44014}}, {"id": 4434645, "name": "Macon", "state": "MS", "country": "US", "coord": {"lon": -88.560883, "lat": 33.1054}}, {"id": 4434663, "name": "Madison", "state": "MS", "country": "US", "coord": {"lon": -90.115356, "lat": 32.461811}}, {"id": 4434666, "name": "Madison County", "state": "MS", "country": "US", "coord": {"lon": -90.064529, "lat": 32.56514}}, {"id": 4434697, "name": "Magee", "state": "MS", "country": "US", "coord": {"lon": -89.733688, "lat": 31.87377}}, {"id": 4434720, "name": "Magnolia", "state": "MS", "country": "US", "coord": {"lon": -90.45871, "lat": 31.14323}}, {"id": 4434850, "name": "Mantachie", "state": "MS", "country": "US", "coord": {"lon": -88.491158, "lat": 34.324268}}, {"id": 4434904, "name": "Marion", "state": "MS", "country": "US", "coord": {"lon": -88.64782, "lat": 32.417358}}, {"id": 4434925, "name": "Marks", "state": "MS", "country": "US", "coord": {"lon": -90.272041, "lat": 34.2565}}, {"id": 4435217, "name": "Mayersville", "state": "MS", "country": "US", "coord": {"lon": -91.051224, "lat": 32.902069}}, {"id": 4435318, "name": "McComb", "state": "MS", "country": "US", "coord": {"lon": -90.453148, "lat": 31.24379}}, {"id": 4435652, "name": "Meadville", "state": "MS", "country": "US", "coord": {"lon": -90.896767, "lat": 31.472389}}, {"id": 4435722, "name": "Mendenhall", "state": "MS", "country": "US", "coord": {"lon": -89.870079, "lat": 31.961821}}, {"id": 4435764, "name": "Meridian", "state": "MS", "country": "US", "coord": {"lon": -88.703659, "lat": 32.364311}}, {"id": 4435803, "name": "Metcalfe", "state": "MS", "country": "US", "coord": {"lon": -91.007332, "lat": 33.453999}}, {"id": 4436296, "name": "Mississippi", "state": "MS", "country": "US", "coord": {"lon": -89.750359, "lat": 32.750408}}, {"id": 4436445, "name": "Monticello", "state": "MS", "country": "US", "coord": {"lon": -90.107307, "lat": 31.55378}}, {"id": 4436546, "name": "Moorhead", "state": "MS", "country": "US", "coord": {"lon": -90.505638, "lat": 33.450119}}, {"id": 4436597, "name": "Morgantown", "state": "MS", "country": "US", "coord": {"lon": -91.34761, "lat": 31.57267}}, {"id": 4436694, "name": "Morton", "state": "MS", "country": "US", "coord": {"lon": -89.654518, "lat": 32.35376}}, {"id": 4436743, "name": "Moss Point", "state": "MS", "country": "US", "coord": {"lon": -88.534462, "lat": 30.411591}}, {"id": 4436772, "name": "Mound Bayou", "state": "MS", "country": "US", "coord": {"lon": -90.727318, "lat": 33.87817}}, {"id": 4437979, "name": "Nashville (historical)", "state": "MS", "country": "US", "coord": {"lon": -88.323647, "lat": 33.326511}}, {"id": 4437982, "name": "Natchez", "state": "MS", "country": "US", "coord": {"lon": -91.403168, "lat": 31.56044}}, {"id": 4438077, "name": "Nellieburg", "state": "MS", "country": "US", "coord": {"lon": -88.777267, "lat": 32.406811}}, {"id": 4438112, "name": "Nettleton", "state": "MS", "country": "US", "coord": {"lon": -88.622269, "lat": 34.089001}}, {"id": 4438121, "name": "New Albany", "state": "MS", "country": "US", "coord": {"lon": -89.007843, "lat": 34.49427}}, {"id": 4438134, "name": "New Augusta", "state": "MS", "country": "US", "coord": {"lon": -89.034767, "lat": 31.2024}}, {"id": 4438307, "name": "New Hope", "state": "MS", "country": "US", "coord": {"lon": -88.326698, "lat": 33.46817}}, {"id": 4438820, "name": "Newton", "state": "MS", "country": "US", "coord": {"lon": -89.163391, "lat": 32.321259}}, {"id": 4438855, "name": "Nicholson", "state": "MS", "country": "US", "coord": {"lon": -89.693672, "lat": 30.47714}}, {"id": 4439033, "name": "North Tunica", "state": "MS", "country": "US", "coord": {"lon": -90.378151, "lat": 34.700932}}, {"id": 4439083, "name": "Northwest Hills", "state": "MS", "country": "US", "coord": {"lon": -90.236198, "lat": 32.352921}}, {"id": 4439115, "name": "Noxubee County", "state": "MS", "country": "US", "coord": {"lon": -88.555878, "lat": 33.129009}}, {"id": 4439506, "name": "Ocean Springs", "state": "MS", "country": "US", "coord": {"lon": -88.827812, "lat": 30.41131}}, {"id": 4439566, "name": "Okolona", "state": "MS", "country": "US", "coord": {"lon": -88.755333, "lat": 34.001781}}, {"id": 4439581, "name": "Oktibbeha County", "state": "MS", "country": "US", "coord": {"lon": -88.830048, "lat": 33.438179}}, {"id": 4439869, "name": "Olive Branch", "state": "MS", "country": "US", "coord": {"lon": -89.829529, "lat": 34.961761}}, {"id": 4440076, "name": "Oxford", "state": "MS", "country": "US", "coord": {"lon": -89.519249, "lat": 34.366501}}, {"id": 4440397, "name": "Pascagoula", "state": "MS", "country": "US", "coord": {"lon": -88.556129, "lat": 30.365761}}, {"id": 4440413, "name": "Pass Christian", "state": "MS", "country": "US", "coord": {"lon": -89.247543, "lat": 30.31575}}, {"id": 4440559, "name": "Pearl", "state": "MS", "country": "US", "coord": {"lon": -90.132027, "lat": 32.27459}}, {"id": 4440572, "name": "Pearl River", "state": "MS", "country": "US", "coord": {"lon": -89.227837, "lat": 32.78347}}, {"id": 4440578, "name": "Pearl River County", "state": "MS", "country": "US", "coord": {"lon": -89.641449, "lat": 30.642691}}, {"id": 4440602, "name": "Pearlington", "state": "MS", "country": "US", "coord": {"lon": -89.611168, "lat": 30.24658}}, {"id": 4440660, "name": "Pelahatchie", "state": "MS", "country": "US", "coord": {"lon": -89.798409, "lat": 32.31292}}, {"id": 4440713, "name": "Pendorff", "state": "MS", "country": "US", "coord": {"lon": -89.176453, "lat": 31.653219}}, {"id": 4440837, "name": "Petal", "state": "MS", "country": "US", "coord": {"lon": -89.260063, "lat": 31.34656}}, {"id": 4440906, "name": "Philadelphia", "state": "MS", "country": "US", "coord": {"lon": -89.11673, "lat": 32.771519}}, {"id": 4440975, "name": "Picayune", "state": "MS", "country": "US", "coord": {"lon": -89.679512, "lat": 30.525471}}, {"id": 4440988, "name": "Pickens", "state": "MS", "country": "US", "coord": {"lon": -89.971474, "lat": 32.883739}}, {"id": 4441555, "name": "Pittsboro", "state": "MS", "country": "US", "coord": {"lon": -89.33757, "lat": 33.940392}}, {"id": 4441578, "name": "Plantersville", "state": "MS", "country": "US", "coord": {"lon": -88.664497, "lat": 34.21344}}, {"id": 4442067, "name": "Pontotoc", "state": "MS", "country": "US", "coord": {"lon": -88.998672, "lat": 34.247879}}, {"id": 4442164, "name": "Poplarville", "state": "MS", "country": "US", "coord": {"lon": -89.534233, "lat": 30.840191}}, {"id": 4442187, "name": "Port Gibson", "state": "MS", "country": "US", "coord": {"lon": -90.983994, "lat": 31.960991}}, {"id": 4442363, "name": "Prentiss", "state": "MS", "country": "US", "coord": {"lon": -89.86702, "lat": 31.598499}}, {"id": 4442639, "name": "Purvis", "state": "MS", "country": "US", "coord": {"lon": -89.40979, "lat": 31.14324}}, {"id": 4442692, "name": "Quitman", "state": "MS", "country": "US", "coord": {"lon": -88.728104, "lat": 32.04015}}, {"id": 4442797, "name": "Raleigh", "state": "MS", "country": "US", "coord": {"lon": -89.522293, "lat": 32.033489}}, {"id": 4442841, "name": "Rankin County", "state": "MS", "country": "US", "coord": {"lon": -90.040642, "lat": 32.264309}}, {"id": 4442894, "name": "Rawls Springs", "state": "MS", "country": "US", "coord": {"lon": -89.371452, "lat": 31.38073}}, {"id": 4442913, "name": "Raymond", "state": "MS", "country": "US", "coord": {"lon": -90.4226, "lat": 32.259312}}, {"id": 4443249, "name": "Richland", "state": "MS", "country": "US", "coord": {"lon": -90.158417, "lat": 32.23904}}, {"id": 4443276, "name": "Richton", "state": "MS", "country": "US", "coord": {"lon": -88.940048, "lat": 31.34934}}, {"id": 4443296, "name": "Ridgeland", "state": "MS", "country": "US", "coord": {"lon": -90.132309, "lat": 32.428478}}, {"id": 4443338, "name": "Ripley", "state": "MS", "country": "US", "coord": {"lon": -88.950623, "lat": 34.72982}}, {"id": 4443565, "name": "Rock Hill", "state": "MS", "country": "US", "coord": {"lon": -89.922302, "lat": 32.18626}}, {"id": 4443769, "name": "Rolling Fork", "state": "MS", "country": "US", "coord": {"lon": -90.878159, "lat": 32.906521}}, {"id": 4444067, "name": "Ruleville", "state": "MS", "country": "US", "coord": {"lon": -90.551483, "lat": 33.725948}}, {"id": 4444938, "name": "Saltillo", "state": "MS", "country": "US", "coord": {"lon": -88.681717, "lat": 34.376492}}, {"id": 4445170, "name": "Sardis", "state": "MS", "country": "US", "coord": {"lon": -89.915916, "lat": 34.43705}}, {"id": 4445217, "name": "Saucier", "state": "MS", "country": "US", "coord": {"lon": -89.13504, "lat": 30.63575}}, {"id": 4445247, "name": "Savannah Grove", "state": "MS", "country": "US", "coord": {"lon": -88.744492, "lat": 32.345139}}, {"id": 4445435, "name": "Selma", "state": "MS", "country": "US", "coord": {"lon": -91.278999, "lat": 31.601549}}, {"id": 4445447, "name": "Senatobia", "state": "MS", "country": "US", "coord": {"lon": -89.968697, "lat": 34.617599}}, {"id": 4445668, "name": "Shannon", "state": "MS", "country": "US", "coord": {"lon": -88.711723, "lat": 34.116219}}, {"id": 4445683, "name": "Sharon", "state": "MS", "country": "US", "coord": {"lon": -89.098671, "lat": 31.7896}}, {"id": 4445717, "name": "Shavers (historical)", "state": "MS", "country": "US", "coord": {"lon": -88.530037, "lat": 33.25568}}, {"id": 4445737, "name": "Shelby", "state": "MS", "country": "US", "coord": {"lon": -90.767883, "lat": 33.950939}}, {"id": 4445765, "name": "Shelton", "state": "MS", "country": "US", "coord": {"lon": -89.349228, "lat": 31.49239}}, {"id": 4446675, "name": "Southaven", "state": "MS", "country": "US", "coord": {"lon": -90.012589, "lat": 34.988979}}, {"id": 4447069, "name": "Saint Martin", "state": "MS", "country": "US", "coord": {"lon": -88.868088, "lat": 30.437981}}, {"id": 4447161, "name": "Starkville", "state": "MS", "country": "US", "coord": {"lon": -88.81839, "lat": 33.450401}}, {"id": 4447344, "name": "Stonewall", "state": "MS", "country": "US", "coord": {"lon": -88.793381, "lat": 32.131809}}, {"id": 4447545, "name": "Summit", "state": "MS", "country": "US", "coord": {"lon": -90.46843, "lat": 31.283791}}, {"id": 4447557, "name": "Sumrall", "state": "MS", "country": "US", "coord": {"lon": -89.54229, "lat": 31.417391}}, {"id": 4447577, "name": "Sunflower", "state": "MS", "country": "US", "coord": {"lon": -90.537033, "lat": 33.5429}}, {"id": 4448074, "name": "Taylorsville", "state": "MS", "country": "US", "coord": {"lon": -89.428123, "lat": 31.829599}}, {"id": 4448086, "name": "Tchula", "state": "MS", "country": "US", "coord": {"lon": -90.222862, "lat": 33.182899}}, {"id": 4448168, "name": "Terry", "state": "MS", "country": "US", "coord": {"lon": -90.294258, "lat": 32.09626}}, {"id": 4448467, "name": "Tippah County", "state": "MS", "country": "US", "coord": {"lon": -88.926453, "lat": 34.776482}}, {"id": 4448894, "name": "Tunica", "state": "MS", "country": "US", "coord": {"lon": -90.382881, "lat": 34.684551}}, {"id": 4448903, "name": "Tupelo", "state": "MS", "country": "US", "coord": {"lon": -88.703392, "lat": 34.25761}}, {"id": 4448921, "name": "Tunica County", "state": "MS", "country": "US", "coord": {"lon": -90.363708, "lat": 34.667599}}, {"id": 4449055, "name": "Tutwiler", "state": "MS", "country": "US", "coord": {"lon": -90.431763, "lat": 34.014832}}, {"id": 4449106, "name": "Tylertown", "state": "MS", "country": "US", "coord": {"lon": -90.142029, "lat": 31.116011}}, {"id": 4449144, "name": "Union", "state": "MS", "country": "US", "coord": {"lon": -89.121452, "lat": 32.571529}}, {"id": 4449404, "name": "University", "state": "MS", "country": "US", "coord": {"lon": -89.52536, "lat": 34.36594}}, {"id": 4449532, "name": "Vancleave", "state": "MS", "country": "US", "coord": {"lon": -88.687523, "lat": 30.54047}}, {"id": 4449552, "name": "Vardaman", "state": "MS", "country": "US", "coord": {"lon": -89.177292, "lat": 33.875671}}, {"id": 4449603, "name": "Verona", "state": "MS", "country": "US", "coord": {"lon": -88.719772, "lat": 34.194271}}, {"id": 4449620, "name": "Vicksburg", "state": "MS", "country": "US", "coord": {"lon": -90.877876, "lat": 32.35265}}, {"id": 4449994, "name": "Wade", "state": "MS", "country": "US", "coord": {"lon": -88.56974, "lat": 30.64242}}, {"id": 4450142, "name": "Walls", "state": "MS", "country": "US", "coord": {"lon": -90.151756, "lat": 34.95787}}, {"id": 4450164, "name": "Walnut Grove", "state": "MS", "country": "US", "coord": {"lon": -89.458397, "lat": 32.59042}}, {"id": 4450203, "name": "Walthall", "state": "MS", "country": "US", "coord": {"lon": -89.27729, "lat": 33.607342}}, {"id": 4450285, "name": "Warren County", "state": "MS", "country": "US", "coord": {"lon": -90.85788, "lat": 32.317089}}, {"id": 4450297, "name": "Warrenton", "state": "MS", "country": "US", "coord": {"lon": -90.928436, "lat": 32.247372}}, {"id": 4450315, "name": "Washington County", "state": "MS", "country": "US", "coord": {"lon": -91.006767, "lat": 33.37067}}, {"id": 4450347, "name": "Water Valley", "state": "MS", "country": "US", "coord": {"lon": -89.63147, "lat": 34.151501}}, {"id": 4450411, "name": "Waveland", "state": "MS", "country": "US", "coord": {"lon": -89.37616, "lat": 30.28686}}, {"id": 4450441, "name": "Waynesboro", "state": "MS", "country": "US", "coord": {"lon": -88.646149, "lat": 31.674879}}, {"id": 4450520, "name": "Weir", "state": "MS", "country": "US", "coord": {"lon": -89.290901, "lat": 33.266788}}, {"id": 4450606, "name": "Wesson", "state": "MS", "country": "US", "coord": {"lon": -90.397591, "lat": 31.701281}}, {"id": 4450687, "name": "West Gulfport", "state": "MS", "country": "US", "coord": {"lon": -89.0942, "lat": 30.404091}}, {"id": 4450695, "name": "West Hattiesburg", "state": "MS", "country": "US", "coord": {"lon": -89.375061, "lat": 31.319059}}, {"id": 4450753, "name": "West Point", "state": "MS", "country": "US", "coord": {"lon": -88.65033, "lat": 33.60762}}, {"id": 4451140, "name": "Wiggins", "state": "MS", "country": "US", "coord": {"lon": -89.13533, "lat": 30.85824}}, {"id": 4451173, "name": "Wildwood", "state": "MS", "country": "US", "coord": {"lon": -88.756172, "lat": 34.267609}}, {"id": 4451465, "name": "Winona", "state": "MS", "country": "US", "coord": {"lon": -89.728142, "lat": 33.482071}}, {"id": 4451678, "name": "Woodville", "state": "MS", "country": "US", "coord": {"lon": -91.299561, "lat": 31.10462}}, {"id": 4451810, "name": "Yazoo City", "state": "MS", "country": "US", "coord": {"lon": -90.405647, "lat": 32.855129}}, {"id": 4452137, "name": "Aberdeen", "state": "NC", "country": "US", "coord": {"lon": -79.429482, "lat": 35.13155}}, {"id": 4452253, "name": "Advance", "state": "NC", "country": "US", "coord": {"lon": -80.409218, "lat": 35.94125}}, {"id": 4452256, "name": "Ahoskie", "state": "NC", "country": "US", "coord": {"lon": -76.98468, "lat": 36.286819}}, {"id": 4452290, "name": "Alamance County", "state": "NC", "country": "US", "coord": {"lon": -79.399742, "lat": 36.03347}}, {"id": 4452303, "name": "Albemarle", "state": "NC", "country": "US", "coord": {"lon": -80.200058, "lat": 35.35014}}, {"id": 4452655, "name": "Andrews", "state": "NC", "country": "US", "coord": {"lon": -83.824074, "lat": 35.201752}}, {"id": 4452686, "name": "Angier", "state": "NC", "country": "US", "coord": {"lon": -78.739182, "lat": 35.507099}}, {"id": 4452708, "name": "Anson County", "state": "NC", "country": "US", "coord": {"lon": -80.099777, "lat": 34.98349}}, {"id": 4452808, "name": "Apex", "state": "NC", "country": "US", "coord": {"lon": -78.850288, "lat": 35.732651}}, {"id": 4452848, "name": "Arapahoe", "state": "NC", "country": "US", "coord": {"lon": -76.825493, "lat": 35.025719}}, {"id": 4452871, "name": "Archdale", "state": "NC", "country": "US", "coord": {"lon": -79.971977, "lat": 35.914581}}, {"id": 4452878, "name": "Archer Lodge", "state": "NC", "country": "US", "coord": {"lon": -78.375557, "lat": 35.694038}}, {"id": 4453035, "name": "Asheboro", "state": "NC", "country": "US", "coord": {"lon": -79.813637, "lat": 35.707909}}, {"id": 4453066, "name": "Asheville", "state": "NC", "country": "US", "coord": {"lon": -82.554024, "lat": 35.600948}}, {"id": 4453145, "name": "Atlantic Beach", "state": "NC", "country": "US", "coord": {"lon": -76.740211, "lat": 34.699051}}, {"id": 4453238, "name": "Avery Creek", "state": "NC", "country": "US", "coord": {"lon": -82.582619, "lat": 35.463451}}, {"id": 4453271, "name": "Ayden", "state": "NC", "country": "US", "coord": {"lon": -77.41552, "lat": 35.47266}}, {"id": 4453351, "name": "Badin", "state": "NC", "country": "US", "coord": {"lon": -80.116722, "lat": 35.405972}}, {"id": 4453467, "name": "Bakersville", "state": "NC", "country": "US", "coord": {"lon": -82.158737, "lat": 36.015671}}, {"id": 4453570, "name": "Balfour", "state": "NC", "country": "US", "coord": {"lon": -82.472061, "lat": 35.346512}}, {"id": 4453688, "name": "Banner Elk", "state": "NC", "country": "US", "coord": {"lon": -81.871498, "lat": 36.163181}}, {"id": 4453706, "name": "Barbecue", "state": "NC", "country": "US", "coord": {"lon": -79.038643, "lat": 35.335991}}, {"id": 4453732, "name": "Barclaysville", "state": "NC", "country": "US", "coord": {"lon": -78.694183, "lat": 35.468769}}, {"id": 4453753, "name": "Barium Springs", "state": "NC", "country": "US", "coord": {"lon": -80.898132, "lat": 35.719028}}, {"id": 4453759, "name": "Barker Heights", "state": "NC", "country": "US", "coord": {"lon": -82.444008, "lat": 35.31123}}, {"id": 4454022, "name": "Bayboro", "state": "NC", "country": "US", "coord": {"lon": -76.77021, "lat": 35.142941}}, {"id": 4454034, "name": "Bayshore", "state": "NC", "country": "US", "coord": {"lon": -77.787483, "lat": 34.289612}}, {"id": 4454214, "name": "Bear Poplar", "state": "NC", "country": "US", "coord": {"lon": -80.693398, "lat": 35.675968}}, {"id": 4454370, "name": "Beaufort", "state": "NC", "country": "US", "coord": {"lon": -76.663818, "lat": 34.71822}}, {"id": 4454373, "name": "Beaufort County", "state": "NC", "country": "US", "coord": {"lon": -76.866333, "lat": 35.433498}}, {"id": 4454761, "name": "Belhaven", "state": "NC", "country": "US", "coord": {"lon": -76.622993, "lat": 35.540169}}, {"id": 4454860, "name": "Belmont", "state": "NC", "country": "US", "coord": {"lon": -81.0373, "lat": 35.24292}}, {"id": 4454893, "name": "Belville", "state": "NC", "country": "US", "coord": {"lon": -77.96582, "lat": 34.230728}}, {"id": 4454971, "name": "Benson", "state": "NC", "country": "US", "coord": {"lon": -78.548622, "lat": 35.382111}}, {"id": 4454988, "name": "Bent Creek", "state": "NC", "country": "US", "coord": {"lon": -82.607903, "lat": 35.508999}}, {"id": 4455042, "name": "Bermuda Run", "state": "NC", "country": "US", "coord": {"lon": -80.421997, "lat": 36.00375}}, {"id": 4455043, "name": "Bermuda Run", "state": "", "country": "US", "coord": {"lon": -80.421997, "lat": 36.00375}}, {"id": 4455080, "name": "Bessemer City", "state": "NC", "country": "US", "coord": {"lon": -81.283974, "lat": 35.284859}}, {"id": 4455171, "name": "Bethel", "state": "NC", "country": "US", "coord": {"lon": -77.37886, "lat": 35.807098}}, {"id": 4455335, "name": "Bethlehem", "state": "NC", "country": "US", "coord": {"lon": -81.30703, "lat": 35.825691}}, {"id": 4455473, "name": "Beulaville", "state": "NC", "country": "US", "coord": {"lon": -77.773872, "lat": 34.923779}}, {"id": 4455999, "name": "Biltmore Forest", "state": "NC", "country": "US", "coord": {"lon": -82.528458, "lat": 35.533718}}, {"id": 4456054, "name": "Biscoe", "state": "NC", "country": "US", "coord": {"lon": -79.779762, "lat": 35.359859}}, {"id": 4456121, "name": "Black Mountain", "state": "NC", "country": "US", "coord": {"lon": -82.321228, "lat": 35.617901}}, {"id": 4456253, "name": "Bladenboro", "state": "NC", "country": "US", "coord": {"lon": -78.787521, "lat": 34.53878}}, {"id": 4456376, "name": "Blowing Rock", "state": "NC", "country": "US", "coord": {"lon": -81.677612, "lat": 36.135132}}, {"id": 4456593, "name": "Boiling Spring Lakes", "state": "NC", "country": "US", "coord": {"lon": -78.067207, "lat": 34.030449}}, {"id": 4456595, "name": "Boiling Springs", "state": "NC", "country": "US", "coord": {"lon": -81.667038, "lat": 35.254292}}, {"id": 4456615, "name": "Bolivia", "state": "NC", "country": "US", "coord": {"lon": -78.148331, "lat": 34.067669}}, {"id": 4456703, "name": "Boone", "state": "NC", "country": "US", "coord": {"lon": -81.674553, "lat": 36.216801}}, {"id": 4456748, "name": "Boonville", "state": "NC", "country": "US", "coord": {"lon": -80.708122, "lat": 36.232639}}, {"id": 4456938, "name": "Brake", "state": "NC", "country": "US", "coord": {"lon": -77.737747, "lat": 35.92321}}, {"id": 4457040, "name": "Brevard", "state": "NC", "country": "US", "coord": {"lon": -82.734291, "lat": 35.233452}}, {"id": 4457089, "name": "Brices Creek", "state": "NC", "country": "US", "coord": {"lon": -77.08773, "lat": 35.055988}}, {"id": 4457102, "name": "Brickhaven", "state": "NC", "country": "US", "coord": {"lon": -79.028908, "lat": 35.574879}}, {"id": 4457289, "name": "Broad Creek", "state": "NC", "country": "US", "coord": {"lon": -76.936333, "lat": 34.720718}}, {"id": 4457325, "name": "Broadway", "state": "NC", "country": "US", "coord": {"lon": -79.053078, "lat": 35.457932}}, {"id": 4457342, "name": "Brogden", "state": "NC", "country": "US", "coord": {"lon": -78.034431, "lat": 35.29266}}, {"id": 4457578, "name": "Brunswick", "state": "NC", "country": "US", "coord": {"lon": -78.701134, "lat": 34.286839}}, {"id": 4457580, "name": "Brunswick County", "state": "NC", "country": "US", "coord": {"lon": -78.266388, "lat": 34.066841}}, {"id": 4457719, "name": "Bryson City", "state": "NC", "country": "US", "coord": {"lon": -83.44738, "lat": 35.430931}}, {"id": 4458033, "name": "Buies Creek", "state": "NC", "country": "US", "coord": {"lon": -78.735573, "lat": 35.413219}}, {"id": 4458155, "name": "Buncombe County", "state": "NC", "country": "US", "coord": {"lon": -82.51651, "lat": 35.600109}}, {"id": 4458175, "name": "Burgaw", "state": "NC", "country": "US", "coord": {"lon": -77.926102, "lat": 34.552109}}, {"id": 4458194, "name": "Burke County", "state": "NC", "country": "US", "coord": {"lon": -81.699821, "lat": 35.7668}}, {"id": 4458228, "name": "Burlington", "state": "NC", "country": "US", "coord": {"lon": -79.437798, "lat": 36.095692}}, {"id": 4458264, "name": "Burnsville", "state": "NC", "country": "US", "coord": {"lon": -80.244507, "lat": 35.11237}}, {"id": 4458265, "name": "Burnsville", "state": "NC", "country": "US", "coord": {"lon": -82.300957, "lat": 35.917339}}, {"id": 4458372, "name": "Butner", "state": "NC", "country": "US", "coord": {"lon": -78.756668, "lat": 36.132092}}, {"id": 4458391, "name": "Buxton", "state": "NC", "country": "US", "coord": {"lon": -75.542374, "lat": 35.267681}}, {"id": 4458491, "name": "Cabarrus County", "state": "NC", "country": "US", "coord": {"lon": -80.56646, "lat": 35.36681}}, {"id": 4458580, "name": "Cajahs Mountain", "state": "NC", "country": "US", "coord": {"lon": -81.541481, "lat": 35.83485}}, {"id": 4458584, "name": "Calabash", "state": "NC", "country": "US", "coord": {"lon": -78.573883, "lat": 33.90369}}, {"id": 4458601, "name": "Caldwell County", "state": "NC", "country": "US", "coord": {"lon": -81.54982, "lat": 35.95013}}, {"id": 4458737, "name": "Camden", "state": "NC", "country": "US", "coord": {"lon": -76.171883, "lat": 36.328491}}, {"id": 4458740, "name": "Camden County", "state": "NC", "country": "US", "coord": {"lon": -76.182991, "lat": 36.366821}}, {"id": 4459120, "name": "Canton", "state": "NC", "country": "US", "coord": {"lon": -82.837357, "lat": 35.532879}}, {"id": 4459135, "name": "Cape Carteret", "state": "NC", "country": "US", "coord": {"lon": -77.063004, "lat": 34.691551}}, {"id": 4459138, "name": "Cape Colony", "state": "NC", "country": "US", "coord": {"lon": -76.581612, "lat": 36.019611}}, {"id": 4459261, "name": "Carolina Beach", "state": "NC", "country": "US", "coord": {"lon": -77.8936, "lat": 34.035172}}, {"id": 4459298, "name": "Carolina Shores", "state": "NC", "country": "US", "coord": {"lon": -78.580566, "lat": 33.901009}}, {"id": 4459343, "name": "Carrboro", "state": "NC", "country": "US", "coord": {"lon": -79.075287, "lat": 35.910141}}, {"id": 4459410, "name": "Carteret County", "state": "NC", "country": "US", "coord": {"lon": -76.699654, "lat": 34.800159}}, {"id": 4459426, "name": "Carthage", "state": "NC", "country": "US", "coord": {"lon": -79.416969, "lat": 35.345989}}, {"id": 4459467, "name": "Cary", "state": "NC", "country": "US", "coord": {"lon": -78.78112, "lat": 35.791538}}, {"id": 4459530, "name": "Castle Hayne", "state": "NC", "country": "US", "coord": {"lon": -77.899986, "lat": 34.355721}}, {"id": 4459547, "name": "Caswell County", "state": "NC", "country": "US", "coord": {"lon": -79.349739, "lat": 36.400139}}, {"id": 4459575, "name": "Catawba County", "state": "NC", "country": "US", "coord": {"lon": -81.233139, "lat": 35.666801}}, {"id": 4459620, "name": "Catherine Lake", "state": "NC", "country": "US", "coord": {"lon": -77.563858, "lat": 34.817661}}, {"id": 4459775, "name": "Cedar Grove", "state": "NC", "country": "US", "coord": {"lon": -79.888649, "lat": 35.67569}}, {"id": 4459889, "name": "Cedar Point", "state": "NC", "country": "US", "coord": {"lon": -77.072449, "lat": 34.68766}}, {"id": 4460084, "name": "Chadbourn", "state": "NC", "country": "US", "coord": {"lon": -78.826973, "lat": 34.322109}}, {"id": 4460162, "name": "Chapel Hill", "state": "NC", "country": "US", "coord": {"lon": -79.05584, "lat": 35.9132}}, {"id": 4460243, "name": "Charlotte", "state": "NC", "country": "US", "coord": {"lon": -80.843132, "lat": 35.227089}}, {"id": 4460324, "name": "Chatham County", "state": "NC", "country": "US", "coord": {"lon": -79.266411, "lat": 35.700142}}, {"id": 4460364, "name": "Cherokee", "state": "NC", "country": "US", "coord": {"lon": -83.314873, "lat": 35.47427}}, {"id": 4460465, "name": "Cherryville", "state": "NC", "country": "US", "coord": {"lon": -81.378967, "lat": 35.378738}}, {"id": 4460651, "name": "China Grove", "state": "NC", "country": "US", "coord": {"lon": -80.581734, "lat": 35.569309}}, {"id": 4460702, "name": "Chowan County", "state": "NC", "country": "US", "coord": {"lon": -76.649673, "lat": 36.150162}}, {"id": 4460831, "name": "Claremont", "state": "NC", "country": "US", "coord": {"lon": -81.146187, "lat": 35.714581}}, {"id": 4460927, "name": "Clay County", "state": "NC", "country": "US", "coord": {"lon": -83.766563, "lat": 35.050091}}, {"id": 4460943, "name": "Clayton", "state": "NC", "country": "US", "coord": {"lon": -78.45639, "lat": 35.650711}}, {"id": 4461015, "name": "Clemmons", "state": "NC", "country": "US", "coord": {"lon": -80.382004, "lat": 36.02153}}, {"id": 4461030, "name": "Cleveland County", "state": "NC", "country": "US", "coord": {"lon": -81.549812, "lat": 35.333462}}, {"id": 4461101, "name": "Clinton", "state": "NC", "country": "US", "coord": {"lon": -78.323334, "lat": 34.997952}}, {"id": 4461150, "name": "Clyde", "state": "NC", "country": "US", "coord": {"lon": -82.91069, "lat": 35.53344}}, {"id": 4461169, "name": "Coats", "state": "NC", "country": "US", "coord": {"lon": -78.671959, "lat": 35.40794}}, {"id": 4461493, "name": "Columbia", "state": "NC", "country": "US", "coord": {"lon": -76.252151, "lat": 35.91766}}, {"id": 4461499, "name": "Columbus", "state": "NC", "country": "US", "coord": {"lon": -82.19706, "lat": 35.25317}}, {"id": 4461574, "name": "Concord", "state": "NC", "country": "US", "coord": {"lon": -80.579514, "lat": 35.408749}}, {"id": 4461579, "name": "Concord", "state": "NC", "country": "US", "coord": {"lon": -82.322632, "lat": 35.879841}}, {"id": 4461668, "name": "Connelly Springs", "state": "NC", "country": "US", "coord": {"lon": -81.513428, "lat": 35.742908}}, {"id": 4461696, "name": "Conover", "state": "NC", "country": "US", "coord": {"lon": -81.218689, "lat": 35.70652}}, {"id": 4461697, "name": "Contentnea Junction", "state": "NC", "country": "US", "coord": {"lon": -77.93248, "lat": 35.678211}}, {"id": 4461890, "name": "Cordova", "state": "NC", "country": "US", "coord": {"lon": -79.821999, "lat": 34.91293}}, {"id": 4461941, "name": "Cornelius", "state": "NC", "country": "US", "coord": {"lon": -80.860069, "lat": 35.486801}}, {"id": 4462104, "name": "Cove Creek", "state": "NC", "country": "US", "coord": {"lon": -83.011253, "lat": 35.606491}}, {"id": 4462356, "name": "Cramerton", "state": "NC", "country": "US", "coord": {"lon": -81.075081, "lat": 35.23875}}, {"id": 4462398, "name": "Craven County", "state": "NC", "country": "US", "coord": {"lon": -77.066338, "lat": 35.133492}}, {"id": 4462446, "name": "Creedmoor", "state": "NC", "country": "US", "coord": {"lon": -78.686111, "lat": 36.122372}}, {"id": 4462501, "name": "Cricket", "state": "NC", "country": "US", "coord": {"lon": -81.193977, "lat": 36.17152}}, {"id": 4462525, "name": "Croatan Shores", "state": "NC", "country": "US", "coord": {"lon": -75.664337, "lat": 36.026562}}, {"id": 4462701, "name": "Cullowhee", "state": "NC", "country": "US", "coord": {"lon": -83.176529, "lat": 35.313709}}, {"id": 4462716, "name": "Cumberland County", "state": "NC", "country": "US", "coord": {"lon": -78.866409, "lat": 35.050159}}, {"id": 4462759, "name": "Currituck", "state": "NC", "country": "US", "coord": {"lon": -76.01548, "lat": 36.449879}}, {"id": 4462764, "name": "Currituck County", "state": "NC", "country": "US", "coord": {"lon": -75.937141, "lat": 36.31266}}, {"id": 4462896, "name": "Dallas", "state": "NC", "country": "US", "coord": {"lon": -81.176193, "lat": 35.316528}}, {"id": 4462937, "name": "Dana", "state": "NC", "country": "US", "coord": {"lon": -82.375397, "lat": 35.329281}}, {"id": 4462940, "name": "Danbury", "state": "NC", "country": "US", "coord": {"lon": -80.205879, "lat": 36.409302}}, {"id": 4462997, "name": "Dare County", "state": "NC", "country": "US", "coord": {"lon": -75.766289, "lat": 35.75045}}, {"id": 4463053, "name": "Davidson", "state": "NC", "country": "US", "coord": {"lon": -80.839119, "lat": 35.502331}}, {"id": 4463056, "name": "Davidson County", "state": "NC", "country": "US", "coord": {"lon": -80.233109, "lat": 35.816799}}, {"id": 4463519, "name": "Denton", "state": "NC", "country": "US", "coord": {"lon": -80.115883, "lat": 35.633469}}, {"id": 4463523, "name": "Denver", "state": "NC", "country": "US", "coord": {"lon": -81.0298, "lat": 35.53125}}, {"id": 4463760, "name": "Dixie", "state": "NC", "country": "US", "coord": {"lon": -80.961182, "lat": 35.20459}}, {"id": 4463810, "name": "Dobson", "state": "NC", "country": "US", "coord": {"lon": -80.722572, "lat": 36.395691}}, {"id": 4464080, "name": "Drake", "state": "NC", "country": "US", "coord": {"lon": -77.817482, "lat": 36.038212}}, {"id": 4464096, "name": "Drexel", "state": "NC", "country": "US", "coord": {"lon": -81.604263, "lat": 35.757912}}, {"id": 4464326, "name": "Dunn", "state": "NC", "country": "US", "coord": {"lon": -78.608902, "lat": 35.306271}}, {"id": 4464368, "name": "Durham", "state": "NC", "country": "US", "coord": {"lon": -78.898621, "lat": 35.99403}}, {"id": 4464374, "name": "Durham County", "state": "NC", "country": "US", "coord": {"lon": -78.866402, "lat": 36.033482}}, {"id": 4464564, "name": "East Flat Rock", "state": "NC", "country": "US", "coord": {"lon": -82.422058, "lat": 35.280121}}, {"id": 4464672, "name": "East Rockingham", "state": "NC", "country": "US", "coord": {"lon": -79.762558, "lat": 34.918209}}, {"id": 4464684, "name": "East Spencer", "state": "NC", "country": "US", "coord": {"lon": -80.432281, "lat": 35.681808}}, {"id": 4464750, "name": "Eastover", "state": "NC", "country": "US", "coord": {"lon": -78.800003, "lat": 35.099998}}, {"id": 4464873, "name": "Eden", "state": "NC", "country": "US", "coord": {"lon": -79.766701, "lat": 36.488468}}, {"id": 4464897, "name": "Edenton", "state": "NC", "country": "US", "coord": {"lon": -76.607719, "lat": 36.057941}}, {"id": 4464909, "name": "Edgecombe County", "state": "NC", "country": "US", "coord": {"lon": -77.583031, "lat": 35.900162}}, {"id": 4464963, "name": "Edneyville", "state": "NC", "country": "US", "coord": {"lon": -82.34095, "lat": 35.394009}}, {"id": 4465088, "name": "Elizabeth City", "state": "NC", "country": "US", "coord": {"lon": -76.251053, "lat": 36.294601}}, {"id": 4465106, "name": "Elizabethtown", "state": "NC", "country": "US", "coord": {"lon": -78.605293, "lat": 34.629341}}, {"id": 4465155, "name": "Elkin", "state": "NC", "country": "US", "coord": {"lon": -80.848396, "lat": 36.244301}}, {"id": 4465198, "name": "Ellerbe", "state": "NC", "country": "US", "coord": {"lon": -79.761436, "lat": 35.071259}}, {"id": 4465251, "name": "Elm City", "state": "NC", "country": "US", "coord": {"lon": -77.863319, "lat": 35.806549}}, {"id": 4465285, "name": "Elon", "state": "NC", "country": "US", "coord": {"lon": -79.506691, "lat": 36.102909}}, {"id": 4465291, "name": "Elroy", "state": "NC", "country": "US", "coord": {"lon": -77.908592, "lat": 35.342659}}, {"id": 4465303, "name": "Emerald Isle", "state": "NC", "country": "US", "coord": {"lon": -76.950783, "lat": 34.67794}}, {"id": 4465305, "name": "Emerald Shores", "state": "NC", "country": "US", "coord": {"lon": -80.080612, "lat": 35.25042}}, {"id": 4465364, "name": "Enfield", "state": "NC", "country": "US", "coord": {"lon": -77.666641, "lat": 36.180988}}, {"id": 4465442, "name": "Enochville", "state": "NC", "country": "US", "coord": {"lon": -80.668121, "lat": 35.529861}}, {"id": 4465463, "name": "Erwin", "state": "NC", "country": "US", "coord": {"lon": -78.676132, "lat": 35.326832}}, {"id": 4465507, "name": "Etowah", "state": "NC", "country": "US", "coord": {"lon": -82.594292, "lat": 35.317619}}, {"id": 4465671, "name": "Fairfield Harbour", "state": "NC", "country": "US", "coord": {"lon": -76.963562, "lat": 35.07655}}, {"id": 4465691, "name": "Fairmont", "state": "NC", "country": "US", "coord": {"lon": -79.114197, "lat": 34.49683}}, {"id": 4465700, "name": "Fairplains", "state": "NC", "country": "US", "coord": {"lon": -81.152863, "lat": 36.198471}}, {"id": 4465705, "name": "Fairview", "state": "NC", "country": "US", "coord": {"lon": -82.39595, "lat": 35.514011}}, {"id": 4465711, "name": "Fairview", "state": "NC", "country": "US", "coord": {"lon": -80.537567, "lat": 35.138481}}, {"id": 4465983, "name": "Farmville", "state": "NC", "country": "US", "coord": {"lon": -79.220016, "lat": 35.570709}}, {"id": 4465984, "name": "Farmville", "state": "NC", "country": "US", "coord": {"lon": -77.585251, "lat": 35.59544}}, {"id": 4466031, "name": "Fearrington Village", "state": "NC", "country": "US", "coord": {"lon": -79.090286, "lat": 35.803761}}, {"id": 4466033, "name": "Fayetteville", "state": "NC", "country": "US", "coord": {"lon": -78.878357, "lat": 35.052662}}, {"id": 4466444, "name": "Flat Rock", "state": "NC", "country": "US", "coord": {"lon": -82.441513, "lat": 35.271229}}, {"id": 4466446, "name": "Flat Rock", "state": "NC", "country": "US", "coord": {"lon": -80.569778, "lat": 36.51236}}, {"id": 4466547, "name": "Fletcher", "state": "NC", "country": "US", "coord": {"lon": -82.501228, "lat": 35.430672}}, {"id": 4466604, "name": "Floral College", "state": "NC", "country": "US", "coord": {"lon": -79.318367, "lat": 34.7785}}, {"id": 4466720, "name": "Forest City", "state": "NC", "country": "US", "coord": {"lon": -81.865097, "lat": 35.334011}}, {"id": 4466782, "name": "Forest Oaks", "state": "NC", "country": "US", "coord": {"lon": -79.706139, "lat": 35.98819}}, {"id": 4466900, "name": "Forsyth County", "state": "NC", "country": "US", "coord": {"lon": -80.233101, "lat": 36.133469}}, {"id": 4466951, "name": "Foscoe", "state": "NC", "country": "US", "coord": {"lon": -81.765663, "lat": 36.1618}}, {"id": 4466988, "name": "Four Oaks", "state": "NC", "country": "US", "coord": {"lon": -78.426949, "lat": 35.444881}}, {"id": 4467128, "name": "Franklin", "state": "NC", "country": "US", "coord": {"lon": -83.381538, "lat": 35.18232}}, {"id": 4467129, "name": "Franklin", "state": "NC", "country": "US", "coord": {"lon": -80.498947, "lat": 35.721249}}, {"id": 4467141, "name": "Franklin County", "state": "NC", "country": "US", "coord": {"lon": -78.333054, "lat": 36.066818}}, {"id": 4467161, "name": "Franklinton", "state": "NC", "country": "US", "coord": {"lon": -78.458054, "lat": 36.101822}}, {"id": 4467167, "name": "Franklinville", "state": "NC", "country": "US", "coord": {"lon": -79.692253, "lat": 35.743752}}, {"id": 4467254, "name": "Fremont", "state": "NC", "country": "US", "coord": {"lon": -77.974709, "lat": 35.545441}}, {"id": 4467399, "name": "Fruitland", "state": "NC", "country": "US", "coord": {"lon": -82.393173, "lat": 35.396511}}, {"id": 4467485, "name": "Fuquay-Varina", "state": "NC", "country": "US", "coord": {"lon": -78.800011, "lat": 35.58432}}, {"id": 4467580, "name": "Gamewell", "state": "NC", "country": "US", "coord": {"lon": -81.596207, "lat": 35.869301}}, {"id": 4467657, "name": "Garner", "state": "NC", "country": "US", "coord": {"lon": -78.614166, "lat": 35.711262}}, {"id": 4467701, "name": "Garysburg", "state": "NC", "country": "US", "coord": {"lon": -77.558868, "lat": 36.450981}}, {"id": 4467717, "name": "Gaston County", "state": "NC", "country": "US", "coord": {"lon": -81.199799, "lat": 35.30014}}, {"id": 4467732, "name": "Gastonia", "state": "NC", "country": "US", "coord": {"lon": -81.187302, "lat": 35.262081}}, {"id": 4467743, "name": "Gatesville", "state": "NC", "country": "US", "coord": {"lon": -76.753014, "lat": 36.403488}}, {"id": 4467757, "name": "Gaston", "state": "NC", "country": "US", "coord": {"lon": -77.644981, "lat": 36.500431}}, {"id": 4467926, "name": "Gibsonville", "state": "NC", "country": "US", "coord": {"lon": -79.542252, "lat": 36.10569}}, {"id": 4468056, "name": "Glen Alpine", "state": "NC", "country": "US", "coord": {"lon": -81.779266, "lat": 35.729019}}, {"id": 4468076, "name": "Glen Raven", "state": "NC", "country": "US", "coord": {"lon": -79.47641, "lat": 36.11319}}, {"id": 4468261, "name": "Goldsboro", "state": "NC", "country": "US", "coord": {"lon": -77.992767, "lat": 35.38488}}, {"id": 4468384, "name": "Gorman", "state": "NC", "country": "US", "coord": {"lon": -78.823341, "lat": 36.03653}}, {"id": 4468525, "name": "Graham", "state": "NC", "country": "US", "coord": {"lon": -79.400581, "lat": 36.069031}}, {"id": 4468590, "name": "Granite Falls", "state": "NC", "country": "US", "coord": {"lon": -81.430649, "lat": 35.79652}}, {"id": 4468595, "name": "Granite Quarry", "state": "NC", "country": "US", "coord": {"lon": -80.446732, "lat": 35.612358}}, {"id": 4468989, "name": "Green Level", "state": "NC", "country": "US", "coord": {"lon": -79.344193, "lat": 36.120972}}, {"id": 4468990, "name": "Green Level", "state": "NC", "country": "US", "coord": {"lon": -78.9039, "lat": 35.782089}}, {"id": 4469146, "name": "Greensboro", "state": "NC", "country": "US", "coord": {"lon": -79.791977, "lat": 36.072639}}, {"id": 4469160, "name": "Greenville", "state": "NC", "country": "US", "coord": {"lon": -77.366348, "lat": 35.612659}}, {"id": 4469281, "name": "Grifton", "state": "NC", "country": "US", "coord": {"lon": -77.437462, "lat": 35.372662}}, {"id": 4469393, "name": "Guilford County", "state": "NC", "country": "US", "coord": {"lon": -79.799751, "lat": 36.066799}}, {"id": 4469607, "name": "Half Moon", "state": "NC", "country": "US", "coord": {"lon": -77.459412, "lat": 34.826}}, {"id": 4469617, "name": "Halifax", "state": "NC", "country": "US", "coord": {"lon": -77.589417, "lat": 36.328491}}, {"id": 4469619, "name": "Halifax County", "state": "NC", "country": "US", "coord": {"lon": -77.649696, "lat": 36.250149}}, {"id": 4469730, "name": "Hamlet", "state": "NC", "country": "US", "coord": {"lon": -79.694221, "lat": 34.88488}}, {"id": 4469765, "name": "Hampstead", "state": "NC", "country": "US", "coord": {"lon": -77.710533, "lat": 34.367668}}, {"id": 4469955, "name": "Harkers Island", "state": "NC", "country": "US", "coord": {"lon": -76.559372, "lat": 34.69516}}, {"id": 4470002, "name": "Harnett County", "state": "NC", "country": "US", "coord": {"lon": -78.849739, "lat": 35.383492}}, {"id": 4470109, "name": "Harrisburg", "state": "NC", "country": "US", "coord": {"lon": -80.655899, "lat": 35.32375}}, {"id": 4470244, "name": "Havelock", "state": "NC", "country": "US", "coord": {"lon": -76.901329, "lat": 34.879051}}, {"id": 4470274, "name": "Haw River", "state": "NC", "country": "US", "coord": {"lon": -79.364189, "lat": 36.09153}}, {"id": 4470359, "name": "Hayesville", "state": "NC", "country": "US", "coord": {"lon": -83.817947, "lat": 35.0462}}, {"id": 4470384, "name": "Hays", "state": "NC", "country": "US", "coord": {"lon": -81.115639, "lat": 36.249851}}, {"id": 4470398, "name": "Haywood County", "state": "NC", "country": "US", "coord": {"lon": -82.96653, "lat": 35.550098}}, {"id": 4470416, "name": "Hazelwood", "state": "NC", "country": "US", "coord": {"lon": -83.004028, "lat": 35.468712}}, {"id": 4470545, "name": "Hemby Bridge", "state": "NC", "country": "US", "coord": {"lon": -80.630348, "lat": 35.118759}}, {"id": 4470566, "name": "Henderson", "state": "NC", "country": "US", "coord": {"lon": -78.399162, "lat": 36.32959}}, {"id": 4470592, "name": "Hendersonville", "state": "NC", "country": "US", "coord": {"lon": -82.460953, "lat": 35.318729}}, {"id": 4470727, "name": "Hertford", "state": "NC", "country": "US", "coord": {"lon": -76.466049, "lat": 36.190159}}, {"id": 4470778, "name": "Hickory", "state": "NC", "country": "US", "coord": {"lon": -81.341202, "lat": 35.733189}}, {"id": 4471025, "name": "High Point", "state": "NC", "country": "US", "coord": {"lon": -80.005318, "lat": 35.955688}}, {"id": 4471149, "name": "Hildebran", "state": "NC", "country": "US", "coord": {"lon": -81.422028, "lat": 35.71402}}, {"id": 4471241, "name": "Hillsborough", "state": "NC", "country": "US", "coord": {"lon": -79.099731, "lat": 36.07542}}, {"id": 4471368, "name": "Hoffman", "state": "NC", "country": "US", "coord": {"lon": -79.547539, "lat": 35.032379}}, {"id": 4471629, "name": "Holly Ridge", "state": "NC", "country": "US", "coord": {"lon": -77.55497, "lat": 34.495441}}, {"id": 4471641, "name": "Holly Springs", "state": "NC", "country": "US", "coord": {"lon": -78.833618, "lat": 35.651272}}, {"id": 4471827, "name": "Hoopers Creek", "state": "NC", "country": "US", "coord": {"lon": -82.466789, "lat": 35.438999}}, {"id": 4471851, "name": "Hope Mills", "state": "NC", "country": "US", "coord": {"lon": -78.945312, "lat": 34.97044}}, {"id": 4472025, "name": "Horse Shoe", "state": "NC", "country": "US", "coord": {"lon": -82.556511, "lat": 35.34317}}, {"id": 4472247, "name": "Hudson", "state": "NC", "country": "US", "coord": {"lon": -81.495934, "lat": 35.848461}}, {"id": 4472370, "name": "Huntersville", "state": "NC", "country": "US", "coord": {"lon": -80.84285, "lat": 35.41069}}, {"id": 4472557, "name": "Icard", "state": "NC", "country": "US", "coord": {"lon": -81.47065, "lat": 35.727348}}, {"id": 4472687, "name": "Indian Trail", "state": "NC", "country": "US", "coord": {"lon": -80.669243, "lat": 35.076809}}, {"id": 4472769, "name": "Iredell County", "state": "NC", "country": "US", "coord": {"lon": -80.883133, "lat": 35.78347}}, {"id": 4472818, "name": "Isenhour", "state": "NC", "country": "US", "coord": {"lon": -80.156441, "lat": 35.44986}}, {"id": 4473017, "name": "Jackson", "state": "NC", "country": "US", "coord": {"lon": -77.421356, "lat": 36.389599}}, {"id": 4473083, "name": "Jacksonville", "state": "NC", "country": "US", "coord": {"lon": -77.430237, "lat": 34.754051}}, {"id": 4473137, "name": "James City", "state": "NC", "country": "US", "coord": {"lon": -77.03495, "lat": 35.088772}}, {"id": 4473158, "name": "Jamestown", "state": "NC", "country": "US", "coord": {"lon": -79.93531, "lat": 35.994301}}, {"id": 4473226, "name": "Jefferson", "state": "NC", "country": "US", "coord": {"lon": -81.473442, "lat": 36.420399}}, {"id": 4473631, "name": "Johnston County", "state": "NC", "country": "US", "coord": {"lon": -78.399719, "lat": 35.533489}}, {"id": 4473661, "name": "Jonathan", "state": "NC", "country": "US", "coord": {"lon": -83.017921, "lat": 35.5676}}, {"id": 4473796, "name": "Jonesville", "state": "NC", "country": "US", "coord": {"lon": -80.844521, "lat": 36.2393}}, {"id": 4474040, "name": "Kannapolis", "state": "NC", "country": "US", "coord": {"lon": -80.621727, "lat": 35.487358}}, {"id": 4474147, "name": "Kenansville", "state": "NC", "country": "US", "coord": {"lon": -77.962212, "lat": 34.962391}}, {"id": 4474159, "name": "Kenly", "state": "NC", "country": "US", "coord": {"lon": -78.124161, "lat": 35.596272}}, {"id": 4474221, "name": "Kernersville", "state": "NC", "country": "US", "coord": {"lon": -80.073647, "lat": 36.119862}}, {"id": 4474274, "name": "Kill Devil Hills", "state": "NC", "country": "US", "coord": {"lon": -75.67601, "lat": 36.03072}}, {"id": 4474316, "name": "King", "state": "NC", "country": "US", "coord": {"lon": -80.359222, "lat": 36.280689}}, {"id": 4474382, "name": "Kings Grant", "state": "NC", "country": "US", "coord": {"lon": -77.863602, "lat": 34.262951}}, {"id": 4474383, "name": "Kings Grant", "state": "", "country": "US", "coord": {"lon": -77.860542, "lat": 34.263779}}, {"id": 4474388, "name": "Kings Mountain", "state": "NC", "country": "US", "coord": {"lon": -81.341187, "lat": 35.245129}}, {"id": 4474436, "name": "Kinston", "state": "NC", "country": "US", "coord": {"lon": -77.581642, "lat": 35.262661}}, {"id": 4474505, "name": "Kitty Hawk", "state": "NC", "country": "US", "coord": {"lon": -75.705727, "lat": 36.06461}}, {"id": 4474527, "name": "Knightdale", "state": "NC", "country": "US", "coord": {"lon": -78.48056, "lat": 35.787651}}, {"id": 4474609, "name": "Kure Beach", "state": "NC", "country": "US", "coord": {"lon": -77.907211, "lat": 33.996841}}, {"id": 4474627, "name": "La Grange", "state": "NC", "country": "US", "coord": {"lon": -77.788033, "lat": 35.306831}}, {"id": 4474773, "name": "Lake Junaluska", "state": "NC", "country": "US", "coord": {"lon": -82.959579, "lat": 35.527882}}, {"id": 4474803, "name": "Lake Lure", "state": "NC", "country": "US", "coord": {"lon": -82.204826, "lat": 35.427898}}, {"id": 4474841, "name": "Lake Norman of Catawba", "state": "NC", "country": "US", "coord": {"lon": -80.959518, "lat": 35.5868}}, {"id": 4474845, "name": "Lake Park", "state": "NC", "country": "US", "coord": {"lon": -80.635071, "lat": 35.086262}}, {"id": 4474919, "name": "Lake Waccamaw", "state": "NC", "country": "US", "coord": {"lon": -78.500008, "lat": 34.319061}}, {"id": 4475047, "name": "Lambs Corner", "state": "NC", "country": "US", "coord": {"lon": -76.221878, "lat": 36.379879}}, {"id": 4475057, "name": "Landis", "state": "NC", "country": "US", "coord": {"lon": -80.610901, "lat": 35.545689}}, {"id": 4475276, "name": "Laurel Hill", "state": "NC", "country": "US", "coord": {"lon": -79.547829, "lat": 34.809052}}, {"id": 4475309, "name": "Laurel Park", "state": "NC", "country": "US", "coord": {"lon": -82.493446, "lat": 35.313728}}, {"id": 4475347, "name": "Laurinburg", "state": "NC", "country": "US", "coord": {"lon": -79.462822, "lat": 34.774052}}, {"id": 4475520, "name": "Lee County", "state": "NC", "country": "US", "coord": {"lon": -79.183083, "lat": 35.46682}}, {"id": 4475609, "name": "Legion Park", "state": "NC", "country": "US", "coord": {"lon": -78.906693, "lat": 35.010441}}, {"id": 4475622, "name": "Leland", "state": "NC", "country": "US", "coord": {"lon": -78.044708, "lat": 34.256279}}, {"id": 4475640, "name": "Lenoir", "state": "NC", "country": "US", "coord": {"lon": -81.538979, "lat": 35.914021}}, {"id": 4475647, "name": "Lenoir County", "state": "NC", "country": "US", "coord": {"lon": -77.649689, "lat": 35.233501}}, {"id": 4475767, "name": "Lewisville", "state": "NC", "country": "US", "coord": {"lon": -80.41922, "lat": 36.09708}}, {"id": 4475773, "name": "Lexington", "state": "NC", "country": "US", "coord": {"lon": -80.25338, "lat": 35.824032}}, {"id": 4475785, "name": "Liberty", "state": "NC", "country": "US", "coord": {"lon": -79.571693, "lat": 35.85347}}, {"id": 4475942, "name": "Lillington", "state": "NC", "country": "US", "coord": {"lon": -78.815849, "lat": 35.39933}}, {"id": 4475969, "name": "Lincoln County", "state": "NC", "country": "US", "coord": {"lon": -81.249802, "lat": 35.483471}}, {"id": 4475980, "name": "Lincoln Heights", "state": "NC", "country": "US", "coord": {"lon": -77.904709, "lat": 35.69405}}, {"id": 4475995, "name": "Lincolnton", "state": "NC", "country": "US", "coord": {"lon": -81.254532, "lat": 35.47374}}, {"id": 4476786, "name": "Locust", "state": "NC", "country": "US", "coord": {"lon": -80.425339, "lat": 35.259869}}, {"id": 4476919, "name": "Long Beach", "state": "NC", "country": "US", "coord": {"lon": -78.117767, "lat": 33.91045}}, {"id": 4477228, "name": "Longview", "state": "NC", "country": "US", "coord": {"lon": -81.383423, "lat": 35.729301}}, {"id": 4477296, "name": "Louisburg", "state": "NC", "country": "US", "coord": {"lon": -78.301109, "lat": 36.099041}}, {"id": 4477331, "name": "Lovejoy", "state": "NC", "country": "US", "coord": {"lon": -79.919487, "lat": 35.422642}}, {"id": 4477400, "name": "Lowell", "state": "NC", "country": "US", "coord": {"lon": -81.102852, "lat": 35.267921}}, {"id": 4477481, "name": "Lowesville", "state": "NC", "country": "US", "coord": {"lon": -81.011192, "lat": 35.41708}}, {"id": 4477482, "name": "Lowgap", "state": "NC", "country": "US", "coord": {"lon": -80.867302, "lat": 36.525688}}, {"id": 4477495, "name": "Lucama", "state": "NC", "country": "US", "coord": {"lon": -78.009712, "lat": 35.645439}}, {"id": 4477525, "name": "Lumberton", "state": "NC", "country": "US", "coord": {"lon": -79.008636, "lat": 34.618221}}, {"id": 4477732, "name": "Madison", "state": "NC", "country": "US", "coord": {"lon": -79.95948, "lat": 36.385422}}, {"id": 4477757, "name": "Maggie Valley", "state": "NC", "country": "US", "coord": {"lon": -83.097641, "lat": 35.518162}}, {"id": 4477779, "name": "Maiden", "state": "NC", "country": "US", "coord": {"lon": -81.211746, "lat": 35.575691}}, {"id": 4477832, "name": "Malmo", "state": "NC", "country": "US", "coord": {"lon": -78.098877, "lat": 34.265999}}, {"id": 4477893, "name": "Manteo", "state": "NC", "country": "US", "coord": {"lon": -75.675728, "lat": 35.90823}}, {"id": 4477961, "name": "Mapleville", "state": "NC", "country": "US", "coord": {"lon": -78.227219, "lat": 36.076542}}, {"id": 4477971, "name": "Mar-Mac", "state": "NC", "country": "US", "coord": {"lon": -78.055817, "lat": 35.334881}}, {"id": 4478003, "name": "Marion", "state": "NC", "country": "US", "coord": {"lon": -82.00927, "lat": 35.68401}}, {"id": 4478056, "name": "Mars Hill", "state": "NC", "country": "US", "coord": {"lon": -82.549301, "lat": 35.8265}}, {"id": 4478090, "name": "Marshall", "state": "NC", "country": "US", "coord": {"lon": -82.684029, "lat": 35.797329}}, {"id": 4478116, "name": "Marshville", "state": "NC", "country": "US", "coord": {"lon": -80.367012, "lat": 34.988491}}, {"id": 4478192, "name": "Marvin", "state": "NC", "country": "US", "coord": {"lon": -80.814789, "lat": 34.991821}}, {"id": 4478253, "name": "Masonboro", "state": "NC", "country": "US", "coord": {"lon": -77.847481, "lat": 34.17934}}, {"id": 4478310, "name": "Matkins", "state": "NC", "country": "US", "coord": {"lon": -79.518913, "lat": 36.254581}}, {"id": 4478334, "name": "Matthews", "state": "NC", "country": "US", "coord": {"lon": -80.723679, "lat": 35.11681}}, {"id": 4478365, "name": "Maury", "state": "NC", "country": "US", "coord": {"lon": -77.586082, "lat": 35.482109}}, {"id": 4478372, "name": "Maxton", "state": "NC", "country": "US", "coord": {"lon": -79.34893, "lat": 34.735161}}, {"id": 4478408, "name": "Mayodan", "state": "NC", "country": "US", "coord": {"lon": -79.966988, "lat": 36.412361}}, {"id": 4478424, "name": "Maysville", "state": "NC", "country": "US", "coord": {"lon": -77.231339, "lat": 34.904881}}, {"id": 4478715, "name": "McLeansville", "state": "NC", "country": "US", "coord": {"lon": -79.658638, "lat": 36.107361}}, {"id": 4478877, "name": "Mebane", "state": "NC", "country": "US", "coord": {"lon": -79.26696, "lat": 36.09597}}, {"id": 4478884, "name": "Mecklenburg County", "state": "NC", "country": "US", "coord": {"lon": -80.849792, "lat": 35.266811}}, {"id": 4479047, "name": "Mewborns Crossroads", "state": "NC", "country": "US", "coord": {"lon": -77.592751, "lat": 35.346272}}, {"id": 4479207, "name": "Midland", "state": "NC", "country": "US", "coord": {"lon": -80.500618, "lat": 35.227371}}, {"id": 4479220, "name": "Midway", "state": "NC", "country": "US", "coord": {"lon": -80.218102, "lat": 35.953468}}, {"id": 4479602, "name": "Millers Creek", "state": "NC", "country": "US", "coord": {"lon": -81.237587, "lat": 36.189301}}, {"id": 4479639, "name": "Mills River", "state": "NC", "country": "US", "coord": {"lon": -82.566788, "lat": 35.388451}}, {"id": 4479702, "name": "Mineral Springs", "state": "NC", "country": "US", "coord": {"lon": -80.668678, "lat": 34.937931}}, {"id": 4479759, "name": "Mint Hill", "state": "NC", "country": "US", "coord": {"lon": -80.647293, "lat": 35.179588}}, {"id": 4479891, "name": "Mocksville", "state": "NC", "country": "US", "coord": {"lon": -80.561447, "lat": 35.894032}}, {"id": 4479946, "name": "Monroe", "state": "NC", "country": "US", "coord": {"lon": -80.549507, "lat": 34.985432}}, {"id": 4479988, "name": "Montgomery County", "state": "NC", "country": "US", "coord": {"lon": -79.899773, "lat": 35.35014}}, {"id": 4480125, "name": "Mooresville", "state": "NC", "country": "US", "coord": {"lon": -80.810066, "lat": 35.584862}}, {"id": 4480150, "name": "Moravian Falls", "state": "NC", "country": "US", "coord": {"lon": -81.182312, "lat": 36.096802}}, {"id": 4480153, "name": "Morehead City", "state": "NC", "country": "US", "coord": {"lon": -76.726044, "lat": 34.722939}}, {"id": 4480219, "name": "Morganton", "state": "NC", "country": "US", "coord": {"lon": -81.684822, "lat": 35.745411}}, {"id": 4480285, "name": "Morrisville", "state": "NC", "country": "US", "coord": {"lon": -78.825562, "lat": 35.823479}}, {"id": 4480378, "name": "Mount Airy", "state": "NC", "country": "US", "coord": {"lon": -80.607292, "lat": 36.499298}}, {"id": 4480497, "name": "Mount Gilead", "state": "NC", "country": "US", "coord": {"lon": -80.002281, "lat": 35.21487}}, {"id": 4480560, "name": "Mount Holly", "state": "NC", "country": "US", "coord": {"lon": -81.015907, "lat": 35.298191}}, {"id": 4480638, "name": "Mount Olive", "state": "NC", "country": "US", "coord": {"lon": -78.066383, "lat": 35.196548}}, {"id": 4480727, "name": "Mount Pleasant", "state": "NC", "country": "US", "coord": {"lon": -80.435898, "lat": 35.399311}}, {"id": 4481046, "name": "Mountain Home", "state": "NC", "country": "US", "coord": {"lon": -82.492897, "lat": 35.36956}}, {"id": 4481090, "name": "Mountain View", "state": "NC", "country": "US", "coord": {"lon": -81.36898, "lat": 35.683189}}, {"id": 4481150, "name": "Moyock", "state": "NC", "country": "US", "coord": {"lon": -76.178268, "lat": 36.524601}}, {"id": 4481212, "name": "Mulberry", "state": "NC", "country": "US", "coord": {"lon": -81.180641, "lat": 36.239578}}, {"id": 4481298, "name": "Murfreesboro", "state": "NC", "country": "US", "coord": {"lon": -77.098579, "lat": 36.442379}}, {"id": 4481308, "name": "Murphy", "state": "NC", "country": "US", "coord": {"lon": -84.03463, "lat": 35.087582}}, {"id": 4481345, "name": "Murraysville", "state": "NC", "country": "US", "coord": {"lon": -77.847481, "lat": 34.295719}}, {"id": 4481385, "name": "Myrtle Grove", "state": "NC", "country": "US", "coord": {"lon": -77.881653, "lat": 34.134621}}, {"id": 4481427, "name": "Nags Head", "state": "NC", "country": "US", "coord": {"lon": -75.624062, "lat": 35.95739}}, {"id": 4481511, "name": "Nash County", "state": "NC", "country": "US", "coord": {"lon": -77.96637, "lat": 35.96682}}, {"id": 4481519, "name": "Nashville", "state": "NC", "country": "US", "coord": {"lon": -77.965538, "lat": 35.974602}}, {"id": 4481551, "name": "Navassa", "state": "NC", "country": "US", "coord": {"lon": -78.007492, "lat": 34.255451}}, {"id": 4481626, "name": "Nelms", "state": "NC", "country": "US", "coord": {"lon": -76.704933, "lat": 35.051552}}, {"id": 4481662, "name": "Neuse Forest", "state": "NC", "country": "US", "coord": {"lon": -76.944672, "lat": 34.963772}}, {"id": 4481682, "name": "New Bern", "state": "NC", "country": "US", "coord": {"lon": -77.044113, "lat": 35.10849}}, {"id": 4481757, "name": "New Hanover County", "state": "NC", "country": "US", "coord": {"lon": -77.866371, "lat": 34.25045}}, {"id": 4481967, "name": "New Providence", "state": "NC", "country": "US", "coord": {"lon": -76.093536, "lat": 36.413212}}, {"id": 4482066, "name": "Newland", "state": "NC", "country": "US", "coord": {"lon": -81.927338, "lat": 36.087349}}, {"id": 4482084, "name": "Newport", "state": "NC", "country": "US", "coord": {"lon": -76.859108, "lat": 34.786549}}, {"id": 4482101, "name": "Newton", "state": "NC", "country": "US", "coord": {"lon": -81.221474, "lat": 35.669861}}, {"id": 4482264, "name": "Norlina", "state": "NC", "country": "US", "coord": {"lon": -78.198334, "lat": 36.445702}}, {"id": 4482348, "name": "North Carolina", "state": "NC", "country": "US", "coord": {"lon": -80.00032, "lat": 35.50069}}, {"id": 4482577, "name": "North Wilkesboro", "state": "NC", "country": "US", "coord": {"lon": -81.147583, "lat": 36.15847}}, {"id": 4482621, "name": "Northlakes", "state": "NC", "country": "US", "coord": {"lon": -81.375092, "lat": 35.781799}}, {"id": 4482693, "name": "Norwood", "state": "NC", "country": "US", "coord": {"lon": -80.11895, "lat": 35.219589}}, {"id": 4482916, "name": "Oak Island", "state": "NC", "country": "US", "coord": {"lon": -78.16111, "lat": 33.916561}}, {"id": 4482935, "name": "Oak Park", "state": "NC", "country": "US", "coord": {"lon": -82.508179, "lat": 35.447891}}, {"id": 4482941, "name": "Oak Ridge", "state": "NC", "country": "US", "coord": {"lon": -79.98893, "lat": 36.17347}}, {"id": 4482973, "name": "Oakboro", "state": "NC", "country": "US", "coord": {"lon": -80.328949, "lat": 35.2257}}, {"id": 4483174, "name": "Ogden", "state": "NC", "country": "US", "coord": {"lon": -77.818588, "lat": 34.272388}}, {"id": 4483390, "name": "Old Trap", "state": "NC", "country": "US", "coord": {"lon": -76.026871, "lat": 36.240711}}, {"id": 4483478, "name": "Olympia", "state": "NC", "country": "US", "coord": {"lon": -76.970779, "lat": 35.13905}}, {"id": 4483494, "name": "Onslow County", "state": "NC", "country": "US", "coord": {"lon": -77.433022, "lat": 34.750439}}, {"id": 4483525, "name": "Orange County", "state": "NC", "country": "US", "coord": {"lon": -79.116402, "lat": 36.066811}}, {"id": 4483745, "name": "Oxford", "state": "NC", "country": "US", "coord": {"lon": -78.590828, "lat": 36.310699}}, {"id": 4483897, "name": "Pamlico County", "state": "NC", "country": "US", "coord": {"lon": -76.749649, "lat": 35.133499}}, {"id": 4484186, "name": "Pasquotank County", "state": "NC", "country": "US", "coord": {"lon": -76.28299, "lat": 36.300159}}, {"id": 4484490, "name": "Pembroke", "state": "NC", "country": "US", "coord": {"lon": -79.195038, "lat": 34.680161}}, {"id": 4485005, "name": "Pilot Mountain", "state": "NC", "country": "US", "coord": {"lon": -80.469498, "lat": 36.386532}}, {"id": 4485145, "name": "Pine Knoll Shores", "state": "NC", "country": "US", "coord": {"lon": -76.813271, "lat": 34.69738}}, {"id": 4485161, "name": "Pine Level", "state": "NC", "country": "US", "coord": {"lon": -78.244438, "lat": 35.513222}}, {"id": 4485259, "name": "Pinebluff", "state": "NC", "country": "US", "coord": {"lon": -79.47226, "lat": 35.109879}}, {"id": 4485272, "name": "Pinehurst", "state": "NC", "country": "US", "coord": {"lon": -79.469482, "lat": 35.195431}}, {"id": 4485294, "name": "Pinetops", "state": "NC", "country": "US", "coord": {"lon": -77.637749, "lat": 35.78849}}, {"id": 4485305, "name": "Pineville", "state": "NC", "country": "US", "coord": {"lon": -80.892303, "lat": 35.083199}}, {"id": 4485355, "name": "Piney Green", "state": "NC", "country": "US", "coord": {"lon": -77.320236, "lat": 34.716}}, {"id": 4485528, "name": "Pinkston", "state": "NC", "country": "US", "coord": {"lon": -80.078392, "lat": 35.016258}}, {"id": 4485631, "name": "Pitt County", "state": "NC", "country": "US", "coord": {"lon": -77.383018, "lat": 35.583488}}, {"id": 4485655, "name": "Pittsboro", "state": "NC", "country": "US", "coord": {"lon": -79.177238, "lat": 35.72015}}, {"id": 4485665, "name": "Plain View", "state": "NC", "country": "US", "coord": {"lon": -78.55529, "lat": 35.248501}}, {"id": 4485716, "name": "Pleasant Garden", "state": "NC", "country": "US", "coord": {"lon": -79.762253, "lat": 35.962078}}, {"id": 4485800, "name": "Pleasant Hill", "state": "NC", "country": "US", "coord": {"lon": -79.481689, "lat": 35.87347}}, {"id": 4485973, "name": "Plymouth", "state": "NC", "country": "US", "coord": {"lon": -76.748558, "lat": 35.866829}}, {"id": 4486072, "name": "Polk County", "state": "NC", "country": "US", "coord": {"lon": -82.166496, "lat": 35.283451}}, {"id": 4486078, "name": "Polkton", "state": "NC", "country": "US", "coord": {"lon": -80.20089, "lat": 35.007648}}, {"id": 4486537, "name": "Princeton", "state": "NC", "country": "US", "coord": {"lon": -78.160553, "lat": 35.465988}}, {"id": 4486540, "name": "Princeville", "state": "NC", "country": "US", "coord": {"lon": -77.532188, "lat": 35.889599}}, {"id": 4486727, "name": "Pumpkin Center", "state": "NC", "country": "US", "coord": {"lon": -81.14119, "lat": 35.519299}}, {"id": 4486728, "name": "Pumpkin Center", "state": "NC", "country": "US", "coord": {"lon": -77.372459, "lat": 34.79155}}, {"id": 4486983, "name": "Raeford", "state": "NC", "country": "US", "coord": {"lon": -79.224197, "lat": 34.980999}}, {"id": 4487042, "name": "Raleigh", "state": "NC", "country": "US", "coord": {"lon": -78.638611, "lat": 35.772099}}, {"id": 4487078, "name": "Ramseur", "state": "NC", "country": "US", "coord": {"lon": -79.652527, "lat": 35.733471}}, {"id": 4487116, "name": "Randleman", "state": "NC", "country": "US", "coord": {"lon": -79.803093, "lat": 35.817909}}, {"id": 4487127, "name": "Randolph County", "state": "NC", "country": "US", "coord": {"lon": -79.816422, "lat": 35.700142}}, {"id": 4487158, "name": "Ranlo", "state": "NC", "country": "US", "coord": {"lon": -81.130363, "lat": 35.286251}}, {"id": 4487278, "name": "Rawls", "state": "NC", "country": "US", "coord": {"lon": -78.815292, "lat": 35.537102}}, {"id": 4487401, "name": "Red Oak", "state": "NC", "country": "US", "coord": {"lon": -77.906372, "lat": 36.03849}}, {"id": 4487421, "name": "Red Springs", "state": "NC", "country": "US", "coord": {"lon": -79.18309, "lat": 34.815159}}, {"id": 4487682, "name": "Reidsville", "state": "NC", "country": "US", "coord": {"lon": -79.664467, "lat": 36.354858}}, {"id": 4487761, "name": "Rhodhiss", "state": "NC", "country": "US", "coord": {"lon": -81.431198, "lat": 35.774021}}, {"id": 4487941, "name": "Richlands", "state": "NC", "country": "US", "coord": {"lon": -77.546631, "lat": 34.89933}}, {"id": 4487947, "name": "Richmond County", "state": "NC", "country": "US", "coord": {"lon": -79.752548, "lat": 35.00293}}, {"id": 4488102, "name": "River Bend", "state": "NC", "country": "US", "coord": {"lon": -77.146896, "lat": 35.06905}}, {"id": 4488122, "name": "River Road", "state": "NC", "country": "US", "coord": {"lon": -76.990784, "lat": 35.506828}}, {"id": 4488232, "name": "Roanoke Rapids", "state": "NC", "country": "US", "coord": {"lon": -77.654152, "lat": 36.46154}}, {"id": 4488289, "name": "Robbins", "state": "NC", "country": "US", "coord": {"lon": -79.586967, "lat": 35.434029}}, {"id": 4488298, "name": "Robbinsville", "state": "NC", "country": "US", "coord": {"lon": -83.807404, "lat": 35.322868}}, {"id": 4488314, "name": "Robersonville", "state": "NC", "country": "US", "coord": {"lon": -77.24913, "lat": 35.825161}}, {"id": 4488351, "name": "Robeson County", "state": "NC", "country": "US", "coord": {"lon": -79.099762, "lat": 34.633499}}, {"id": 4488532, "name": "Rockfish", "state": "NC", "country": "US", "coord": {"lon": -79.066139, "lat": 34.992661}}, {"id": 4488575, "name": "Rockingham County", "state": "NC", "country": "US", "coord": {"lon": -79.783089, "lat": 36.400139}}, {"id": 4488587, "name": "Rockingham", "state": "NC", "country": "US", "coord": {"lon": -79.773949, "lat": 34.93932}}, {"id": 4488600, "name": "Rockwell", "state": "NC", "country": "US", "coord": {"lon": -80.406448, "lat": 35.55125}}, {"id": 4488758, "name": "Rocky Point", "state": "NC", "country": "US", "coord": {"lon": -77.887756, "lat": 34.435169}}, {"id": 4488762, "name": "Rocky Mount", "state": "NC", "country": "US", "coord": {"lon": -77.790527, "lat": 35.93821}}, {"id": 4488859, "name": "Rolesville", "state": "NC", "country": "US", "coord": {"lon": -78.457497, "lat": 35.92321}}, {"id": 4488954, "name": "Rose Hill", "state": "NC", "country": "US", "coord": {"lon": -78.023041, "lat": 34.82822}}, {"id": 4488978, "name": "Roseboro", "state": "NC", "country": "US", "coord": {"lon": -78.508621, "lat": 34.95295}}, {"id": 4489019, "name": "Rosin Hill", "state": "NC", "country": "US", "coord": {"lon": -78.414169, "lat": 35.2085}}, {"id": 4489163, "name": "Rowan County", "state": "NC", "country": "US", "coord": {"lon": -80.516449, "lat": 35.650139}}, {"id": 4489185, "name": "Rowland", "state": "NC", "country": "US", "coord": {"lon": -79.291428, "lat": 34.536549}}, {"id": 4489200, "name": "Roxboro", "state": "NC", "country": "US", "coord": {"lon": -78.982788, "lat": 36.393749}}, {"id": 4489236, "name": "Royal Pines", "state": "NC", "country": "US", "coord": {"lon": -82.515953, "lat": 35.475109}}, {"id": 4489303, "name": "Rural Hall", "state": "NC", "country": "US", "coord": {"lon": -80.293381, "lat": 36.240421}}, {"id": 4489354, "name": "Rutherford College", "state": "NC", "country": "US", "coord": {"lon": -81.522591, "lat": 35.748459}}, {"id": 4489365, "name": "Rutherfordton", "state": "NC", "country": "US", "coord": {"lon": -81.956772, "lat": 35.369289}}, {"id": 4489504, "name": "Saint James", "state": "NC", "country": "US", "coord": {"lon": -78.116379, "lat": 33.92934}}, {"id": 4489790, "name": "Saint Pauls", "state": "NC", "country": "US", "coord": {"lon": -78.971138, "lat": 34.806549}}, {"id": 4489915, "name": "Salem", "state": "NC", "country": "US", "coord": {"lon": -81.697037, "lat": 35.698738}}, {"id": 4489985, "name": "Salisbury", "state": "NC", "country": "US", "coord": {"lon": -80.474228, "lat": 35.670971}}, {"id": 4490053, "name": "Sampson County", "state": "NC", "country": "US", "coord": {"lon": -78.399719, "lat": 34.966839}}, {"id": 4490315, "name": "Sandy Springs", "state": "NC", "country": "US", "coord": {"lon": -77.944153, "lat": 35.332661}}, {"id": 4490329, "name": "Sanford", "state": "NC", "country": "US", "coord": {"lon": -79.180298, "lat": 35.479881}}, {"id": 4490510, "name": "Sawmills", "state": "NC", "country": "US", "coord": {"lon": -81.474541, "lat": 35.824848}}, {"id": 4490533, "name": "Saxapahaw", "state": "NC", "country": "US", "coord": {"lon": -79.32196, "lat": 35.947361}}, {"id": 4490602, "name": "Scotland County", "state": "NC", "country": "US", "coord": {"lon": -79.499771, "lat": 34.833488}}, {"id": 4490606, "name": "Scotland Neck", "state": "NC", "country": "US", "coord": {"lon": -77.42025, "lat": 36.129601}}, {"id": 4490671, "name": "Sea Breeze", "state": "NC", "country": "US", "coord": {"lon": -77.891373, "lat": 34.063229}}, {"id": 4490689, "name": "Seagate", "state": "NC", "country": "US", "coord": {"lon": -77.843597, "lat": 34.209339}}, {"id": 4490778, "name": "Selma", "state": "NC", "country": "US", "coord": {"lon": -78.284439, "lat": 35.536549}}, {"id": 4490858, "name": "Seven Lakes", "state": "NC", "country": "US", "coord": {"lon": -79.564484, "lat": 35.278481}}, {"id": 4490976, "name": "Shallotte", "state": "NC", "country": "US", "coord": {"lon": -78.385841, "lat": 33.973228}}, {"id": 4491086, "name": "Sharpsburg", "state": "NC", "country": "US", "coord": {"lon": -77.829147, "lat": 35.8671}}, {"id": 4491180, "name": "Shelby", "state": "NC", "country": "US", "coord": {"lon": -81.535652, "lat": 35.292351}}, {"id": 4491300, "name": "Sherrills Ford", "state": "NC", "country": "US", "coord": {"lon": -80.986473, "lat": 35.620411}}, {"id": 4491651, "name": "Siler City", "state": "NC", "country": "US", "coord": {"lon": -79.462242, "lat": 35.723469}}, {"id": 4491715, "name": "Silver Lake", "state": "NC", "country": "US", "coord": {"lon": -77.913597, "lat": 34.148781}}, {"id": 4491896, "name": "Skippers Corner", "state": "NC", "country": "US", "coord": {"lon": -77.902489, "lat": 34.346001}}, {"id": 4492039, "name": "Smallwood", "state": "NC", "country": "US", "coord": {"lon": -77.03273, "lat": 35.562939}}, {"id": 4492168, "name": "Smithfield", "state": "NC", "country": "US", "coord": {"lon": -78.339447, "lat": 35.508492}}, {"id": 4492300, "name": "Sneads Ferry", "state": "NC", "country": "US", "coord": {"lon": -77.397179, "lat": 34.55267}}, {"id": 4492329, "name": "Snow Hill", "state": "NC", "country": "US", "coord": {"lon": -77.681091, "lat": 35.45155}}, {"id": 4492435, "name": "Solola Valley", "state": "NC", "country": "US", "coord": {"lon": -83.500717, "lat": 35.49704}}, {"id": 4492573, "name": "South Gastonia", "state": "NC", "country": "US", "coord": {"lon": -81.205627, "lat": 35.219299}}, {"id": 4492581, "name": "South Henderson", "state": "NC", "country": "US", "coord": {"lon": -78.406662, "lat": 36.308201}}, {"id": 4492661, "name": "South Rosemary", "state": "NC", "country": "US", "coord": {"lon": -77.697197, "lat": 36.451542}}, {"id": 4492722, "name": "Southern Pines", "state": "NC", "country": "US", "coord": {"lon": -79.39225, "lat": 35.174049}}, {"id": 4492732, "name": "Southern Shores", "state": "NC", "country": "US", "coord": {"lon": -75.731567, "lat": 36.13905}}, {"id": 4492750, "name": "Southmont", "state": "NC", "country": "US", "coord": {"lon": -80.266998, "lat": 35.667919}}, {"id": 4492756, "name": "Southport", "state": "NC", "country": "US", "coord": {"lon": -78.020271, "lat": 33.921558}}, {"id": 4492829, "name": "Sparta", "state": "NC", "country": "US", "coord": {"lon": -81.120918, "lat": 36.505409}}, {"id": 4492871, "name": "Spencer", "state": "NC", "country": "US", "coord": {"lon": -80.434776, "lat": 35.69236}}, {"id": 4492909, "name": "Spindale", "state": "NC", "country": "US", "coord": {"lon": -81.929268, "lat": 35.360119}}, {"id": 4493028, "name": "Spring Hope", "state": "NC", "country": "US", "coord": {"lon": -78.111931, "lat": 35.945148}}, {"id": 4493035, "name": "Spring Lake", "state": "NC", "country": "US", "coord": {"lon": -78.972809, "lat": 35.167938}}, {"id": 4493110, "name": "Spruce Pine", "state": "NC", "country": "US", "coord": {"lon": -82.06456, "lat": 35.915401}}, {"id": 4493146, "name": "Saint Stephens", "state": "NC", "country": "US", "coord": {"lon": -81.27314, "lat": 35.76458}}, {"id": 4493186, "name": "Stallings", "state": "NC", "country": "US", "coord": {"lon": -80.68618, "lat": 35.090698}}, {"id": 4493215, "name": "Stanfield", "state": "NC", "country": "US", "coord": {"lon": -80.42701, "lat": 35.233479}}, {"id": 4493226, "name": "Stanley", "state": "NC", "country": "US", "coord": {"lon": -81.097023, "lat": 35.359032}}, {"id": 4493238, "name": "Stanly County", "state": "NC", "country": "US", "coord": {"lon": -80.249779, "lat": 35.333481}}, {"id": 4493316, "name": "Statesville", "state": "NC", "country": "US", "coord": {"lon": -80.887299, "lat": 35.782639}}, {"id": 4493343, "name": "Stedman", "state": "NC", "country": "US", "coord": {"lon": -78.693909, "lat": 35.0135}}, {"id": 4493374, "name": "Steep Pines Fork", "state": "NC", "country": "US", "coord": {"lon": -76.64798, "lat": 34.724331}}, {"id": 4493547, "name": "Stokesdale", "state": "NC", "country": "US", "coord": {"lon": -79.979477, "lat": 36.23708}}, {"id": 4493592, "name": "Stoneville", "state": "NC", "country": "US", "coord": {"lon": -79.906982, "lat": 36.46653}}, {"id": 4493685, "name": "Stony Point", "state": "NC", "country": "US", "coord": {"lon": -81.047302, "lat": 35.863468}}, {"id": 4493990, "name": "Summerfield", "state": "NC", "country": "US", "coord": {"lon": -79.904762, "lat": 36.208752}}, {"id": 4493991, "name": "Summerfield", "state": "NC", "country": "US", "coord": {"lon": -77.40274, "lat": 35.568218}}, {"id": 4494053, "name": "Sunny View", "state": "NC", "country": "US", "coord": {"lon": -82.187889, "lat": 35.374279}}, {"id": 4494082, "name": "Sunset Beach", "state": "NC", "country": "US", "coord": {"lon": -78.51223, "lat": 33.88073}}, {"id": 4494127, "name": "Surf City", "state": "NC", "country": "US", "coord": {"lon": -77.546082, "lat": 34.427109}}, {"id": 4494132, "name": "Surry County", "state": "NC", "country": "US", "coord": {"lon": -80.683121, "lat": 36.400131}}, {"id": 4494189, "name": "Swain County", "state": "NC", "country": "US", "coord": {"lon": -83.483223, "lat": 35.466759}}, {"id": 4494217, "name": "Swannanoa", "state": "NC", "country": "US", "coord": {"lon": -82.399841, "lat": 35.597889}}, {"id": 4494228, "name": "Swanquarter", "state": "NC", "country": "US", "coord": {"lon": -76.329086, "lat": 35.406281}}, {"id": 4494238, "name": "Swansboro", "state": "NC", "country": "US", "coord": {"lon": -77.119118, "lat": 34.68766}}, {"id": 4494294, "name": "Swepsonville", "state": "NC", "country": "US", "coord": {"lon": -79.361412, "lat": 36.021252}}, {"id": 4494335, "name": "Sylva", "state": "NC", "country": "US", "coord": {"lon": -83.225983, "lat": 35.373711}}, {"id": 4494408, "name": "Tabor City", "state": "NC", "country": "US", "coord": {"lon": -78.876694, "lat": 34.148781}}, {"id": 4494449, "name": "Tanglewood Estates", "state": "NC", "country": "US", "coord": {"lon": -78.900581, "lat": 34.99044}}, {"id": 4494476, "name": "Tar Corner", "state": "NC", "country": "US", "coord": {"lon": -76.286049, "lat": 36.4771}}, {"id": 4494513, "name": "Tarboro", "state": "NC", "country": "US", "coord": {"lon": -77.535797, "lat": 35.89682}}, {"id": 4494650, "name": "Taylorsville", "state": "NC", "country": "US", "coord": {"lon": -81.176468, "lat": 35.921799}}, {"id": 4494942, "name": "Thomasville", "state": "NC", "country": "US", "coord": {"lon": -80.081993, "lat": 35.882641}}, {"id": 4495078, "name": "Thurmond", "state": "NC", "country": "US", "coord": {"lon": -80.928413, "lat": 36.36652}}, {"id": 4495169, "name": "Toast", "state": "NC", "country": "US", "coord": {"lon": -80.62645, "lat": 36.500408}}, {"id": 4495175, "name": "Tobaccoville", "state": "NC", "country": "US", "coord": {"lon": -80.371437, "lat": 36.23819}}, {"id": 4495539, "name": "Tranquil Hill", "state": "NC", "country": "US", "coord": {"lon": -81.558434, "lat": 35.9818}}, {"id": 4495583, "name": "Trent Woods", "state": "NC", "country": "US", "coord": {"lon": -77.086342, "lat": 35.0821}}, {"id": 4495585, "name": "Trenton", "state": "NC", "country": "US", "coord": {"lon": -77.352737, "lat": 35.067101}}, {"id": 4495616, "name": "Trinity", "state": "NC", "country": "US", "coord": {"lon": -79.990868, "lat": 35.894581}}, {"id": 4495710, "name": "Troutman", "state": "NC", "country": "US", "coord": {"lon": -80.88813, "lat": 35.700691}}, {"id": 4495714, "name": "Troy", "state": "NC", "country": "US", "coord": {"lon": -79.894493, "lat": 35.358471}}, {"id": 4495749, "name": "Tryon", "state": "NC", "country": "US", "coord": {"lon": -82.238449, "lat": 35.208172}}, {"id": 4495762, "name": "Tryon", "state": "NC", "country": "US", "coord": {"lon": -81.322029, "lat": 35.339859}}, {"id": 4496065, "name": "Tyro", "state": "NC", "country": "US", "coord": {"lon": -80.372833, "lat": 35.809029}}, {"id": 4496087, "name": "USAR Center", "state": "NC", "country": "US", "coord": {"lon": -77.380241, "lat": 35.631828}}, {"id": 4496196, "name": "Union County", "state": "NC", "country": "US", "coord": {"lon": -80.549789, "lat": 35.000149}}, {"id": 4496304, "name": "Unionville", "state": "NC", "country": "US", "coord": {"lon": -80.508957, "lat": 35.087372}}, {"id": 4496484, "name": "Valdese", "state": "NC", "country": "US", "coord": {"lon": -81.563148, "lat": 35.740688}}, {"id": 4496508, "name": "Valley Hill", "state": "NC", "country": "US", "coord": {"lon": -82.483177, "lat": 35.29845}}, {"id": 4496539, "name": "Vance County", "state": "NC", "country": "US", "coord": {"lon": -78.399719, "lat": 36.36681}}, {"id": 4496570, "name": "Vanceboro", "state": "NC", "country": "US", "coord": {"lon": -77.154121, "lat": 35.308498}}, {"id": 4496582, "name": "Vander", "state": "NC", "country": "US", "coord": {"lon": -78.794739, "lat": 35.032108}}, {"id": 4496605, "name": "Vaughan", "state": "NC", "country": "US", "coord": {"lon": -78.003601, "lat": 36.42654}}, {"id": 4497244, "name": "Wadesboro", "state": "NC", "country": "US", "coord": {"lon": -80.076729, "lat": 34.968208}}, {"id": 4497286, "name": "Wake County", "state": "NC", "country": "US", "coord": {"lon": -78.633057, "lat": 35.783482}}, {"id": 4497290, "name": "Wake Forest", "state": "NC", "country": "US", "coord": {"lon": -78.50972, "lat": 35.97987}}, {"id": 4497373, "name": "Walkertown", "state": "NC", "country": "US", "coord": {"lon": -80.153099, "lat": 36.175411}}, {"id": 4497374, "name": "Walkertown", "state": "NC", "country": "US", "coord": {"lon": -78.813629, "lat": 35.285721}}, {"id": 4497385, "name": "Wallace", "state": "NC", "country": "US", "coord": {"lon": -77.995262, "lat": 34.735722}}, {"id": 4497413, "name": "Wallburg", "state": "NC", "country": "US", "coord": {"lon": -80.139214, "lat": 36.010139}}, {"id": 4497437, "name": "Walnut Cove", "state": "NC", "country": "US", "coord": {"lon": -80.141708, "lat": 36.295422}}, {"id": 4497520, "name": "Wanchese", "state": "NC", "country": "US", "coord": {"lon": -75.638512, "lat": 35.84267}}, {"id": 4497590, "name": "Warne", "state": "NC", "country": "US", "coord": {"lon": -83.89296, "lat": 34.99453}}, {"id": 4497598, "name": "Warren County", "state": "NC", "country": "US", "coord": {"lon": -78.099709, "lat": 36.38348}}, {"id": 4497622, "name": "Warrenton", "state": "NC", "country": "US", "coord": {"lon": -78.155273, "lat": 36.398479}}, {"id": 4497643, "name": "Warsaw", "state": "NC", "country": "US", "coord": {"lon": -78.091103, "lat": 34.999329}}, {"id": 4497666, "name": "Washington", "state": "NC", "country": "US", "coord": {"lon": -77.05217, "lat": 35.546551}}, {"id": 4497680, "name": "Washington Heights", "state": "NC", "country": "US", "coord": {"lon": -77.035507, "lat": 35.54961}}, {"id": 4497707, "name": "Watauga County", "state": "NC", "country": "US", "coord": {"lon": -81.699829, "lat": 36.233459}}, {"id": 4497833, "name": "Waxhaw", "state": "NC", "country": "US", "coord": {"lon": -80.743401, "lat": 34.924591}}, {"id": 4497859, "name": "Wayne County", "state": "NC", "country": "US", "coord": {"lon": -77.999992, "lat": 35.366829}}, {"id": 4497868, "name": "Waynesville", "state": "NC", "country": "US", "coord": {"lon": -82.988747, "lat": 35.488708}}, {"id": 4497912, "name": "Weaverville", "state": "NC", "country": "US", "coord": {"lon": -82.560692, "lat": 35.697048}}, {"id": 4497956, "name": "Weddington", "state": "NC", "country": "US", "coord": {"lon": -80.760902, "lat": 35.022369}}, {"id": 4498003, "name": "Welcome", "state": "NC", "country": "US", "coord": {"lon": -80.256989, "lat": 35.90292}}, {"id": 4498017, "name": "Weldon", "state": "NC", "country": "US", "coord": {"lon": -77.595528, "lat": 36.427101}}, {"id": 4498056, "name": "Wentworth", "state": "NC", "country": "US", "coord": {"lon": -79.774483, "lat": 36.400139}}, {"id": 4498075, "name": "Wesley Chapel", "state": "NC", "country": "US", "coord": {"lon": -80.674507, "lat": 35.007092}}, {"id": 4498084, "name": "Wendell", "state": "NC", "country": "US", "coord": {"lon": -78.36972, "lat": 35.780991}}, {"id": 4498173, "name": "West Canton", "state": "NC", "country": "US", "coord": {"lon": -82.858192, "lat": 35.53788}}, {"id": 4498231, "name": "West Jefferson", "state": "NC", "country": "US", "coord": {"lon": -81.492882, "lat": 36.40374}}, {"id": 4498252, "name": "West Marion", "state": "NC", "country": "US", "coord": {"lon": -82.025391, "lat": 35.657902}}, {"id": 4498303, "name": "West Raleigh", "state": "NC", "country": "US", "coord": {"lon": -78.663887, "lat": 35.786819}}, {"id": 4498428, "name": "Westport", "state": "NC", "country": "US", "coord": {"lon": -80.978691, "lat": 35.501251}}, {"id": 4498447, "name": "Westview", "state": "NC", "country": "US", "coord": {"lon": -78.372498, "lat": 35.532661}}, {"id": 4498560, "name": "Whispering Pines", "state": "NC", "country": "US", "coord": {"lon": -79.372253, "lat": 35.255711}}, {"id": 4498720, "name": "White Plains", "state": "NC", "country": "US", "coord": {"lon": -81.39814, "lat": 35.23402}}, {"id": 4498722, "name": "White Plains", "state": "NC", "country": "US", "coord": {"lon": -80.6334, "lat": 36.44569}}, {"id": 4498899, "name": "Whiteville", "state": "NC", "country": "US", "coord": {"lon": -78.703072, "lat": 34.338779}}, {"id": 4499012, "name": "Wilbar", "state": "NC", "country": "US", "coord": {"lon": -81.298149, "lat": 36.244572}}, {"id": 4499127, "name": "Wilkes County", "state": "NC", "country": "US", "coord": {"lon": -80.999802, "lat": 36.216801}}, {"id": 4499138, "name": "Wilkesboro", "state": "NC", "country": "US", "coord": {"lon": -81.160637, "lat": 36.145962}}, {"id": 4499294, "name": "Williamston", "state": "NC", "country": "US", "coord": {"lon": -77.055511, "lat": 35.854599}}, {"id": 4499379, "name": "Wilmington", "state": "NC", "country": "US", "coord": {"lon": -77.94471, "lat": 34.225731}}, {"id": 4499389, "name": "Wilson", "state": "NC", "country": "US", "coord": {"lon": -77.915543, "lat": 35.721272}}, {"id": 4499428, "name": "Wilson County", "state": "NC", "country": "US", "coord": {"lon": -77.916367, "lat": 35.71682}}, {"id": 4499483, "name": "Wilsons Mills", "state": "NC", "country": "US", "coord": {"lon": -78.355827, "lat": 35.584049}}, {"id": 4499528, "name": "Windsor", "state": "NC", "country": "US", "coord": {"lon": -76.94606, "lat": 35.998489}}, {"id": 4499529, "name": "Windsor", "state": "NC", "country": "US", "coord": {"lon": -77.361076, "lat": 35.55294}}, {"id": 4499573, "name": "Wingate", "state": "NC", "country": "US", "coord": {"lon": -80.449226, "lat": 34.984322}}, {"id": 4499612, "name": "Winston-Salem", "state": "NC", "country": "US", "coord": {"lon": -80.244217, "lat": 36.099861}}, {"id": 4499629, "name": "Winterville", "state": "NC", "country": "US", "coord": {"lon": -77.401077, "lat": 35.529049}}, {"id": 4499635, "name": "Winton", "state": "NC", "country": "US", "coord": {"lon": -76.9319, "lat": 36.39571}}, {"id": 4499850, "name": "Woodfin", "state": "NC", "country": "US", "coord": {"lon": -82.582069, "lat": 35.633438}}, {"id": 4500088, "name": "Wrightsboro", "state": "NC", "country": "US", "coord": {"lon": -77.921097, "lat": 34.288502}}, {"id": 4500092, "name": "Wrightsville Beach", "state": "NC", "country": "US", "coord": {"lon": -77.796371, "lat": 34.2085}}, {"id": 4500154, "name": "Yadkinville", "state": "NC", "country": "US", "coord": {"lon": -80.659508, "lat": 36.134579}}, {"id": 4500160, "name": "Yancey County", "state": "NC", "country": "US", "coord": {"lon": -82.29985, "lat": 35.900108}}, {"id": 4500166, "name": "Yanceyville", "state": "NC", "country": "US", "coord": {"lon": -79.336128, "lat": 36.40403}}, {"id": 4500320, "name": "Youngsville", "state": "NC", "country": "US", "coord": {"lon": -78.474442, "lat": 36.024872}}, {"id": 4500324, "name": "Zebulon", "state": "NC", "country": "US", "coord": {"lon": -78.31472, "lat": 35.824322}}, {"id": 4500458, "name": "Absecon", "state": "NJ", "country": "US", "coord": {"lon": -74.495712, "lat": 39.428452}}, {"id": 4500491, "name": "Alloway", "state": "NJ", "country": "US", "coord": {"lon": -75.362419, "lat": 39.560951}}, {"id": 4500538, "name": "Ashland", "state": "NJ", "country": "US", "coord": {"lon": -75.005997, "lat": 39.863171}}, {"id": 4500546, "name": "Atlantic City", "state": "NJ", "country": "US", "coord": {"lon": -74.422928, "lat": 39.364281}}, {"id": 4500561, "name": "Atlantic County", "state": "NJ", "country": "US", "coord": {"lon": -74.666267, "lat": 39.466782}}, {"id": 4500572, "name": "Audubon", "state": "NJ", "country": "US", "coord": {"lon": -75.072952, "lat": 39.890949}}, {"id": 4500574, "name": "Audubon Park", "state": "NJ", "country": "US", "coord": {"lon": -75.087669, "lat": 39.8965}}, {"id": 4500579, "name": "Avalon", "state": "NJ", "country": "US", "coord": {"lon": -74.717659, "lat": 39.101219}}, {"id": 4500630, "name": "Barnegat", "state": "NJ", "country": "US", "coord": {"lon": -74.222923, "lat": 39.753181}}, {"id": 4500653, "name": "Barrington", "state": "NJ", "country": "US", "coord": {"lon": -75.055168, "lat": 39.864841}}, {"id": 4500696, "name": "Beach Haven", "state": "NJ", "country": "US", "coord": {"lon": -74.243202, "lat": 39.55928}}, {"id": 4500704, "name": "Beach Haven West", "state": "NJ", "country": "US", "coord": {"lon": -74.231812, "lat": 39.669842}}, {"id": 4500709, "name": "Beachwood", "state": "NJ", "country": "US", "coord": {"lon": -74.192917, "lat": 39.939011}}, {"id": 4500739, "name": "Beckett", "state": "NJ", "country": "US", "coord": {"lon": -75.357407, "lat": 39.754002}}, {"id": 4500750, "name": "Bellmawr", "state": "NJ", "country": "US", "coord": {"lon": -75.09462, "lat": 39.867611}}, {"id": 4500771, "name": "Berlin", "state": "NJ", "country": "US", "coord": {"lon": -74.929047, "lat": 39.791229}}, {"id": 4500845, "name": "Blackwood", "state": "NJ", "country": "US", "coord": {"lon": -75.064056, "lat": 39.802341}}, {"id": 4500920, "name": "Brigantine", "state": "NJ", "country": "US", "coord": {"lon": -74.364594, "lat": 39.410118}}, {"id": 4500942, "name": "Bridgeton", "state": "NJ", "country": "US", "coord": {"lon": -75.234077, "lat": 39.427341}}, {"id": 4500950, "name": "Brooklawn", "state": "NJ", "country": "US", "coord": {"lon": -75.120728, "lat": 39.87817}}, {"id": 4500951, "name": "Brooklawn", "state": "", "country": "US", "coord": {"lon": -75.119621, "lat": 39.874279}}, {"id": 4500959, "name": "Browns Mills", "state": "NJ", "country": "US", "coord": {"lon": -74.582932, "lat": 39.97261}}, {"id": 4500977, "name": "Buena", "state": "NJ", "country": "US", "coord": {"lon": -74.924622, "lat": 39.513729}}, {"id": 4500994, "name": "Burlington County", "state": "NJ", "country": "US", "coord": {"lon": -74.641273, "lat": 39.88345}}, {"id": 4501018, "name": "Camden", "state": "NJ", "country": "US", "coord": {"lon": -75.119621, "lat": 39.925949}}, {"id": 4501019, "name": "Camden County", "state": "NJ", "country": "US", "coord": {"lon": -74.966278, "lat": 39.783451}}, {"id": 4501053, "name": "Cape May County", "state": "NJ", "country": "US", "coord": {"lon": -74.782944, "lat": 39.150108}}, {"id": 4501057, "name": "Cape May Court House", "state": "NJ", "country": "US", "coord": {"lon": -74.823776, "lat": 39.082611}}, {"id": 4501066, "name": "Cape May", "state": "NJ", "country": "US", "coord": {"lon": -74.906013, "lat": 38.935108}}, {"id": 4501073, "name": "Carneys Point", "state": "NJ", "country": "US", "coord": {"lon": -75.4702, "lat": 39.71122}}, {"id": 4501111, "name": "Cedar Glen Lakes", "state": "NJ", "country": "US", "coord": {"lon": -74.399872, "lat": 39.952339}}, {"id": 4501198, "name": "Cherry Hill", "state": "NJ", "country": "US", "coord": {"lon": -75.030731, "lat": 39.934841}}, {"id": 4501204, "name": "Cherry Hill Mall", "state": "NJ", "country": "US", "coord": {"lon": -75.009064, "lat": 39.935951}}, {"id": 4501210, "name": "Chesilhurst", "state": "NJ", "country": "US", "coord": {"lon": -74.880997, "lat": 39.732342}}, {"id": 4501234, "name": "Cinnaminson", "state": "NJ", "country": "US", "coord": {"lon": -74.992668, "lat": 39.99678}}, {"id": 4501265, "name": "Clayton", "state": "NJ", "country": "US", "coord": {"lon": -75.092117, "lat": 39.66011}}, {"id": 4501269, "name": "Clementon", "state": "NJ", "country": "US", "coord": {"lon": -74.982941, "lat": 39.811501}}, {"id": 4501305, "name": "Collings Lakes", "state": "NJ", "country": "US", "coord": {"lon": -74.881561, "lat": 39.595669}}, {"id": 4501306, "name": "Collingswood", "state": "NJ", "country": "US", "coord": {"lon": -75.071281, "lat": 39.918171}}, {"id": 4501360, "name": "Country Lake Estates", "state": "NJ", "country": "US", "coord": {"lon": -74.544037, "lat": 39.942619}}, {"id": 4501393, "name": "Crestwood Village", "state": "NJ", "country": "US", "coord": {"lon": -74.360703, "lat": 39.94817}}, {"id": 4501427, "name": "Cumberland County", "state": "NJ", "country": "US", "coord": {"lon": -75.082962, "lat": 39.350109}}, {"id": 4501550, "name": "Dover Beaches North", "state": "NJ", "country": "US", "coord": {"lon": -74.063751, "lat": 39.99123}}, {"id": 4501551, "name": "Dover Beaches South", "state": "NJ", "country": "US", "coord": {"lon": -74.074303, "lat": 39.955669}}, {"id": 4501632, "name": "Echelon", "state": "NJ", "country": "US", "coord": {"lon": -74.99572, "lat": 39.84845}}, {"id": 4501646, "name": "Egg Harbor City", "state": "NJ", "country": "US", "coord": {"lon": -74.647942, "lat": 39.528728}}, {"id": 4501677, "name": "Ellisburg", "state": "NJ", "country": "US", "coord": {"lon": -75.010452, "lat": 39.913719}}, {"id": 4501678, "name": "Elmer", "state": "NJ", "country": "US", "coord": {"lon": -75.170181, "lat": 39.595112}}, {"id": 4501689, "name": "Elwood", "state": "NJ", "country": "US", "coord": {"lon": -74.716827, "lat": 39.576511}}, {"id": 4501706, "name": "Erma", "state": "NJ", "country": "US", "coord": {"lon": -74.907951, "lat": 38.980671}}, {"id": 4501708, "name": "Estell Manor", "state": "NJ", "country": "US", "coord": {"lon": -74.742393, "lat": 39.41206}}, {"id": 4501732, "name": "Fairton", "state": "NJ", "country": "US", "coord": {"lon": -75.21991, "lat": 39.381779}}, {"id": 4501808, "name": "Folsom", "state": "NJ", "country": "US", "coord": {"lon": -74.842667, "lat": 39.602058}}, {"id": 4501818, "name": "Forked River", "state": "NJ", "country": "US", "coord": {"lon": -74.19014, "lat": 39.83984}}, {"id": 4501919, "name": "Gibbsboro", "state": "NJ", "country": "US", "coord": {"lon": -74.96489, "lat": 39.838169}}, {"id": 4501921, "name": "Gibbstown", "state": "NJ", "country": "US", "coord": {"lon": -75.283524, "lat": 39.825111}}, {"id": 4501931, "name": "Glassboro", "state": "NJ", "country": "US", "coord": {"lon": -75.111839, "lat": 39.702888}}, {"id": 4501940, "name": "Glendora", "state": "NJ", "country": "US", "coord": {"lon": -75.073509, "lat": 39.839561}}, {"id": 4501943, "name": "Gloucester City", "state": "NJ", "country": "US", "coord": {"lon": -75.116287, "lat": 39.891781}}, {"id": 4501944, "name": "Gloucester County", "state": "NJ", "country": "US", "coord": {"lon": -75.13295, "lat": 39.733452}}, {"id": 4501956, "name": "Golden Triangle", "state": "NJ", "country": "US", "coord": {"lon": -75.03878, "lat": 39.927891}}, {"id": 4502049, "name": "Greentree", "state": "NJ", "country": "US", "coord": {"lon": -74.955719, "lat": 39.89706}}, {"id": 4502093, "name": "Haddon Heights", "state": "NJ", "country": "US", "coord": {"lon": -75.064621, "lat": 39.877338}}, {"id": 4502103, "name": "Haddonfield", "state": "NJ", "country": "US", "coord": {"lon": -75.037666, "lat": 39.891499}}, {"id": 4502129, "name": "Hammonton", "state": "NJ", "country": "US", "coord": {"lon": -74.802391, "lat": 39.636509}}, {"id": 4502271, "name": "Holiday Heights", "state": "NJ", "country": "US", "coord": {"lon": -74.254028, "lat": 39.94595}}, {"id": 4502420, "name": "Island Heights", "state": "NJ", "country": "US", "coord": {"lon": -74.149857, "lat": 39.942059}}, {"id": 4502434, "name": "Jackson", "state": "NJ", "country": "US", "coord": {"lon": -74.862381, "lat": 39.776501}}, {"id": 4502543, "name": "Kingston Estates", "state": "NJ", "country": "US", "coord": {"lon": -74.987953, "lat": 39.923721}}, {"id": 4502621, "name": "Laurel Lake", "state": "NJ", "country": "US", "coord": {"lon": -75.0299, "lat": 39.339561}}, {"id": 4502635, "name": "Lavallette", "state": "NJ", "country": "US", "coord": {"lon": -74.068748, "lat": 39.970402}}, {"id": 4502641, "name": "Lawnside", "state": "NJ", "country": "US", "coord": {"lon": -75.028229, "lat": 39.866501}}]