[{"id": 5332748, "name": "California City", "state": "CA", "country": "US", "coord": {"lon": -117.985901, "lat": 35.125801}}, {"id": 5332921, "name": "California", "state": "CA", "country": "US", "coord": {"lon": -119.751259, "lat": 37.250221}}, {"id": 5332929, "name": "Calipatria", "state": "CA", "country": "US", "coord": {"lon": -115.514153, "lat": 33.125599}}, {"id": 5332937, "name": "Calistoga", "state": "CA", "country": "US", "coord": {"lon": -122.579712, "lat": 38.5788}}, {"id": 5332957, "name": "Calimesa", "state": "CA", "country": "US", "coord": {"lon": -117.052971, "lat": 33.988209}}, {"id": 5332963, "name": "Callender", "state": "CA", "country": "US", "coord": {"lon": -120.596283, "lat": 35.053028}}, {"id": 5333177, "name": "Camanche Village", "state": "CA", "country": "US", "coord": {"lon": -120.973267, "lat": 38.26992}}, {"id": 5333180, "name": "Camarillo", "state": "CA", "country": "US", "coord": {"lon": -119.037598, "lat": 34.216389}}, {"id": 5333207, "name": "Cambria", "state": "CA", "country": "US", "coord": {"lon": -121.08075, "lat": 35.56414}}, {"id": 5333219, "name": "Cambrian Park", "state": "CA", "country": "US", "coord": {"lon": -121.930794, "lat": 37.256889}}, {"id": 5333282, "name": "Cameron Park", "state": "CA", "country": "US", "coord": {"lon": -120.98716, "lat": 38.668789}}, {"id": 5333295, "name": "Camino", "state": "CA", "country": "US", "coord": {"lon": -120.674927, "lat": 38.738239}}, {"id": 5333689, "name": "Campbell", "state": "CA", "country": "US", "coord": {"lon": -121.949959, "lat": 37.28717}}, {"id": 5333749, "name": "Campo", "state": "CA", "country": "US", "coord": {"lon": -116.46891, "lat": 32.606449}}, {"id": 5333944, "name": "Canyon Country", "state": "CA", "country": "US", "coord": {"lon": -118.472031, "lat": 34.423328}}, {"id": 5333976, "name": "Canyon Lake", "state": "CA", "country": "US", "coord": {"lon": -117.273087, "lat": 33.68502}}, {"id": 5334096, "name": "Capitola", "state": "CA", "country": "US", "coord": {"lon": -121.953293, "lat": 36.975231}}, {"id": 5334145, "name": "Carbondale", "state": "CA", "country": "US", "coord": {"lon": -121.006889, "lat": 38.408798}}, {"id": 5334223, "name": "Carlsbad", "state": "CA", "country": "US", "coord": {"lon": -117.350594, "lat": 33.158089}}, {"id": 5334312, "name": "Carmel Valley Village", "state": "CA", "country": "US", "coord": {"lon": -121.765938, "lat": 36.50605}}, {"id": 5334320, "name": "Carmel-by-the-Sea", "state": "CA", "country": "US", "coord": {"lon": -121.923286, "lat": 36.555241}}, {"id": 5334336, "name": "Carmichael", "state": "CA", "country": "US", "coord": {"lon": -121.328278, "lat": 38.61713}}, {"id": 5334423, "name": "Carpinteria", "state": "CA", "country": "US", "coord": {"lon": -119.518463, "lat": 34.39888}}, {"id": 5334519, "name": "Carson", "state": "CA", "country": "US", "coord": {"lon": -118.282021, "lat": 33.831409}}, {"id": 5334575, "name": "Caruthers", "state": "CA", "country": "US", "coord": {"lon": -119.833199, "lat": 36.542728}}, {"id": 5334619, "name": "Casa Conejo", "state": "CA", "country": "US", "coord": {"lon": -118.943428, "lat": 34.18362}}, {"id": 5334799, "name": "Castaic", "state": "CA", "country": "US", "coord": {"lon": -118.622871, "lat": 34.48888}}, {"id": 5334928, "name": "Castro Valley", "state": "CA", "country": "US", "coord": {"lon": -122.086349, "lat": 37.694099}}, {"id": 5334937, "name": "Castroville", "state": "CA", "country": "US", "coord": {"lon": -121.758003, "lat": 36.765789}}, {"id": 5335006, "name": "Cathedral City", "state": "CA", "country": "US", "coord": {"lon": -116.465286, "lat": 33.779739}}, {"id": 5335078, "name": "Catlett", "state": "CA", "country": "US", "coord": {"lon": -121.538567, "lat": 38.845181}}, {"id": 5335131, "name": "Cayucos", "state": "CA", "country": "US", "coord": {"lon": -120.892128, "lat": 35.442749}}, {"id": 5335256, "name": "Cedar Ridge", "state": "CA", "country": "US", "coord": {"lon": -120.276863, "lat": 38.065762}}, {"id": 5335650, "name": "Ceres", "state": "CA", "country": "US", "coord": {"lon": -120.95771, "lat": 37.594929}}, {"id": 5335663, "name": "Cerritos", "state": "CA", "country": "US", "coord": {"lon": -118.064789, "lat": 33.858349}}, {"id": 5335736, "name": "Chalfant Valley", "state": "CA", "country": "US", "coord": {"lon": -118.363449, "lat": 37.529369}}, {"id": 5335846, "name": "Channel Islands Beach", "state": "CA", "country": "US", "coord": {"lon": -119.22316, "lat": 34.158058}}, {"id": 5336017, "name": "Charter Oak", "state": "CA", "country": "US", "coord": {"lon": -117.845886, "lat": 34.103062}}, {"id": 5336185, "name": "Cherry Valley", "state": "CA", "country": "US", "coord": {"lon": -116.977249, "lat": 33.972519}}, {"id": 5336190, "name": "Cherryland", "state": "CA", "country": "US", "coord": {"lon": -122.103302, "lat": 37.679379}}, {"id": 5336269, "name": "Chico", "state": "CA", "country": "US", "coord": {"lon": -121.837479, "lat": 39.728489}}, {"id": 5336457, "name": "China Lake Acres", "state": "CA", "country": "US", "coord": {"lon": -117.763962, "lat": 35.640511}}, {"id": 5336537, "name": "Chino", "state": "CA", "country": "US", "coord": {"lon": -117.688942, "lat": 34.01223}}, {"id": 5336545, "name": "Chino Hills", "state": "CA", "country": "US", "coord": {"lon": -117.758881, "lat": 33.993801}}, {"id": 5336667, "name": "Chowchilla", "state": "CA", "country": "US", "coord": {"lon": -120.260178, "lat": 37.123001}}, {"id": 5336873, "name": "Chualar", "state": "CA", "country": "US", "coord": {"lon": -121.518547, "lat": 36.570518}}, {"id": 5336899, "name": "Chula Vista", "state": "CA", "country": "US", "coord": {"lon": -117.084198, "lat": 32.640049}}, {"id": 5337551, "name": "Citrus", "state": "CA", "country": "US", "coord": {"lon": -117.891731, "lat": 34.115009}}, {"id": 5337561, "name": "Citrus Heights", "state": "CA", "country": "US", "coord": {"lon": -121.281059, "lat": 38.707119}}, {"id": 5337696, "name": "Claremont", "state": "CA", "country": "US", "coord": {"lon": -117.71978, "lat": 34.09668}}, {"id": 5337829, "name": "Clay", "state": "CA", "country": "US", "coord": {"lon": -121.159393, "lat": 38.336021}}, {"id": 5337841, "name": "Clayton", "state": "CA", "country": "US", "coord": {"lon": -121.935791, "lat": 37.941029}}, {"id": 5337908, "name": "Clearlake", "state": "CA", "country": "US", "coord": {"lon": -122.626373, "lat": 38.958229}}, {"id": 5337912, "name": "Clearlake Oaks", "state": "CA", "country": "US", "coord": {"lon": -122.671928, "lat": 39.026279}}, {"id": 5338104, "name": "Cloverdale", "state": "CA", "country": "US", "coord": {"lon": -123.01722, "lat": 38.805462}}, {"id": 5338122, "name": "Clovis", "state": "CA", "country": "US", "coord": {"lon": -119.702919, "lat": 36.82523}}, {"id": 5338166, "name": "Coachella", "state": "CA", "country": "US", "coord": {"lon": -116.173889, "lat": 33.680302}}, {"id": 5338196, "name": "Coalinga", "state": "CA", "country": "US", "coord": {"lon": -120.360153, "lat": 36.139679}}, {"id": 5338225, "name": "Coarsegold", "state": "CA", "country": "US", "coord": {"lon": -119.700981, "lat": 37.262169}}, {"id": 5338258, "name": "Cobb", "state": "CA", "country": "US", "coord": {"lon": -122.723053, "lat": 38.822128}}, {"id": 5338567, "name": "Colfax", "state": "CA", "country": "US", "coord": {"lon": -120.953278, "lat": 39.100731}}, {"id": 5338681, "name": "Collierville", "state": "CA", "country": "US", "coord": {"lon": -121.268837, "lat": 38.214642}}, {"id": 5338683, "name": "Collins (historical)", "state": "CA", "country": "US", "coord": {"lon": -119.620689, "lat": 36.866341}}, {"id": 5338703, "name": "Colma", "state": "CA", "country": "US", "coord": {"lon": -122.459702, "lat": 37.67688}}, {"id": 5338783, "name": "Colton", "state": "CA", "country": "US", "coord": {"lon": -117.313652, "lat": 34.073898}}, {"id": 5338800, "name": "Columbia", "state": "CA", "country": "US", "coord": {"lon": -120.401314, "lat": 38.036308}}, {"id": 5338866, "name": "Colusa", "state": "CA", "country": "US", "coord": {"lon": -122.009422, "lat": 39.214329}}, {"id": 5338872, "name": "Colusa County", "state": "CA", "country": "US", "coord": {"lon": -122.267754, "lat": 39.18322}}, {"id": 5338882, "name": "Colusa Rancheria", "state": "CA", "country": "US", "coord": {"lon": -122.02581, "lat": 39.250172}}, {"id": 5338929, "name": "Commerce", "state": "CA", "country": "US", "coord": {"lon": -118.15979, "lat": 34.000568}}, {"id": 5339066, "name": "Compton", "state": "CA", "country": "US", "coord": {"lon": -118.22007, "lat": 33.895851}}, {"id": 5339111, "name": "Concord", "state": "CA", "country": "US", "coord": {"lon": -122.031067, "lat": 37.977982}}, {"id": 5339268, "name": "Contra Costa County", "state": "CA", "country": "US", "coord": {"lon": -121.934402, "lat": 37.933262}}, {"id": 5339460, "name": "Copper Cove Village", "state": "CA", "country": "US", "coord": {"lon": -120.635483, "lat": 37.959648}}, {"id": 5339498, "name": "Copperopolis", "state": "CA", "country": "US", "coord": {"lon": -120.641869, "lat": 37.981041}}, {"id": 5339539, "name": "Corcoran", "state": "CA", "country": "US", "coord": {"lon": -119.560402, "lat": 36.098011}}, {"id": 5339614, "name": "Corning", "state": "CA", "country": "US", "coord": {"lon": -122.179161, "lat": 39.927662}}, {"id": 5339631, "name": "Corona", "state": "CA", "country": "US", "coord": {"lon": -117.566437, "lat": 33.87529}}, {"id": 5339663, "name": "Coronado", "state": "CA", "country": "US", "coord": {"lon": -117.18309, "lat": 32.68589}}, {"id": 5339749, "name": "Corralitos", "state": "CA", "country": "US", "coord": {"lon": -121.806343, "lat": 36.98856}}, {"id": 5339766, "name": "Corte Madera", "state": "CA", "country": "US", "coord": {"lon": -122.527481, "lat": 37.92548}}, {"id": 5339840, "name": "Costa Mesa", "state": "CA", "country": "US", "coord": {"lon": -117.918671, "lat": 33.641129}}, {"id": 5339865, "name": "Cotati", "state": "CA", "country": "US", "coord": {"lon": -122.707207, "lat": 38.326859}}, {"id": 5339873, "name": "Coto De Caza", "state": "CA", "country": "US", "coord": {"lon": -117.58699, "lat": 33.604191}}, {"id": 5339875, "name": "Cottage Corners", "state": "CA", "country": "US", "coord": {"lon": -121.40049, "lat": 36.8694}}, {"id": 5339928, "name": "Cottonwood", "state": "CA", "country": "US", "coord": {"lon": -121.971077, "lat": 38.658241}}, {"id": 5340066, "name": "Country Club", "state": "CA", "country": "US", "coord": {"lon": -121.340782, "lat": 37.968811}}, {"id": 5340160, "name": "Covelo", "state": "CA", "country": "US", "coord": {"lon": -123.24807, "lat": 39.792931}}, {"id": 5340175, "name": "Covina", "state": "CA", "country": "US", "coord": {"lon": -117.890343, "lat": 34.090012}}, {"id": 5340655, "name": "Crest", "state": "CA", "country": "US", "coord": {"lon": -116.86808, "lat": 32.80727}}, {"id": 5340674, "name": "Crestline", "state": "CA", "country": "US", "coord": {"lon": -117.285599, "lat": 34.241951}}, {"id": 5340687, "name": "Creston", "state": "CA", "country": "US", "coord": {"lon": -120.523773, "lat": 35.51886}}, {"id": 5340758, "name": "Crockett", "state": "CA", "country": "US", "coord": {"lon": -122.21302, "lat": 38.052422}}, {"id": 5341051, "name": "Cudahy", "state": "CA", "country": "US", "coord": {"lon": -118.185349, "lat": 33.960571}}, {"id": 5341114, "name": "Culver City", "state": "CA", "country": "US", "coord": {"lon": -118.396469, "lat": 34.021118}}, {"id": 5341145, "name": "Cupertino", "state": "CA", "country": "US", "coord": {"lon": -122.032181, "lat": 37.323002}}, {"id": 5341170, "name": "Curry Village", "state": "CA", "country": "US", "coord": {"lon": -119.572662, "lat": 37.73687}}, {"id": 5341210, "name": "Cutler", "state": "CA", "country": "US", "coord": {"lon": -119.286781, "lat": 36.523281}}, {"id": 5341256, "name": "Cypress", "state": "CA", "country": "US", "coord": {"lon": -118.037292, "lat": 33.816959}}, {"id": 5341430, "name": "Daly City", "state": "CA", "country": "US", "coord": {"lon": -122.461922, "lat": 37.705769}}, {"id": 5341483, "name": "Dana Point", "state": "CA", "country": "US", "coord": {"lon": -117.698112, "lat": 33.466969}}, {"id": 5341531, "name": "Danville", "state": "CA", "country": "US", "coord": {"lon": -121.999962, "lat": 37.82159}}, {"id": 5341704, "name": "Davis", "state": "CA", "country": "US", "coord": {"lon": -121.740517, "lat": 38.54491}}, {"id": 5341789, "name": "Day Valley", "state": "CA", "country": "US", "coord": {"lon": -121.862457, "lat": 37.035782}}, {"id": 5341850, "name": "De Luz Heights", "state": "CA", "country": "US", "coord": {"lon": -117.276703, "lat": 33.431141}}, {"id": 5342252, "name": "Deer Park", "state": "CA", "country": "US", "coord": {"lon": -120.823273, "lat": 38.68185}}, {"id": 5342254, "name": "Deer Park", "state": "CA", "country": "US", "coord": {"lon": -122.469704, "lat": 38.532688}}, {"id": 5342353, "name": "Del Mar", "state": "CA", "country": "US", "coord": {"lon": -117.265312, "lat": 32.959492}}, {"id": 5342381, "name": "Del Monte Forest", "state": "CA", "country": "US", "coord": {"lon": -121.947456, "lat": 36.586349}}, {"id": 5342425, "name": "Del Aire", "state": "CA", "country": "US", "coord": {"lon": -118.369522, "lat": 33.91613}}, {"id": 5342434, "name": "Del Rey", "state": "CA", "country": "US", "coord": {"lon": -119.593742, "lat": 36.659119}}, {"id": 5342441, "name": "Del Rey Oaks", "state": "CA", "country": "US", "coord": {"lon": -121.834953, "lat": 36.593288}}, {"id": 5342449, "name": "Del Rio", "state": "CA", "country": "US", "coord": {"lon": -121.011879, "lat": 37.743542}}, {"id": 5342485, "name": "Delano", "state": "CA", "country": "US", "coord": {"lon": -119.247047, "lat": 35.768841}}, {"id": 5342512, "name": "Delft Colony", "state": "CA", "country": "US", "coord": {"lon": -119.445961, "lat": 36.511902}}, {"id": 5342514, "name": "Delevan", "state": "CA", "country": "US", "coord": {"lon": -122.191093, "lat": 39.35405}}, {"id": 5342522, "name": "Delhi", "state": "CA", "country": "US", "coord": {"lon": -120.778542, "lat": 37.432159}}, {"id": 5342586, "name": "Denair", "state": "CA", "country": "US", "coord": {"lon": -120.796867, "lat": 37.526321}}, {"id": 5342657, "name": "Descanso", "state": "CA", "country": "US", "coord": {"lon": -116.615852, "lat": 32.852829}}, {"id": 5342707, "name": "Desert Hills Trailer Park", "state": "CA", "country": "US", "coord": {"lon": -116.478897, "lat": 33.784191}}, {"id": 5342710, "name": "Desert Hot Springs", "state": "CA", "country": "US", "coord": {"lon": -116.501678, "lat": 33.961121}}, {"id": 5342741, "name": "Desert Shores", "state": "CA", "country": "US", "coord": {"lon": -116.039719, "lat": 33.404202}}, {"id": 5342750, "name": "Desert View Highlands", "state": "CA", "country": "US", "coord": {"lon": -118.152573, "lat": 34.59082}}, {"id": 5342970, "name": "Diablo", "state": "CA", "country": "US", "coord": {"lon": -121.958008, "lat": 37.83493}}, {"id": 5342992, "name": "Diamond Bar", "state": "CA", "country": "US", "coord": {"lon": -117.810341, "lat": 34.028622}}, {"id": 5343038, "name": "Diamond Springs", "state": "CA", "country": "US", "coord": {"lon": -120.814941, "lat": 38.69463}}, {"id": 5343171, "name": "Dinuba", "state": "CA", "country": "US", "coord": {"lon": -119.38707, "lat": 36.543282}}, {"id": 5343202, "name": "Discovery Bay", "state": "CA", "country": "US", "coord": {"lon": -121.600227, "lat": 37.908539}}, {"id": 5343303, "name": "Dixon", "state": "CA", "country": "US", "coord": {"lon": -121.823303, "lat": 38.445461}}, {"id": 5343434, "name": "Dogtown", "state": "CA", "country": "US", "coord": {"lon": -121.088547, "lat": 38.21381}}, {"id": 5343475, "name": "Dollar Point", "state": "CA", "country": "US", "coord": {"lon": -120.099907, "lat": 39.187962}}, {"id": 5343728, "name": "Dos Palos", "state": "CA", "country": "US", "coord": {"lon": -120.626572, "lat": 36.986061}}, {"id": 5343792, "name": "Douds Landing", "state": "CA", "country": "US", "coord": {"lon": -120.32547, "lat": 38.2127}}, {"id": 5343858, "name": "Downey", "state": "CA", "country": "US", "coord": {"lon": -118.132568, "lat": 33.94001}}, {"id": 5343876, "name": "Downieville", "state": "CA", "country": "US", "coord": {"lon": -120.826889, "lat": 39.559341}}, {"id": 5344147, "name": "Duarte", "state": "CA", "country": "US", "coord": {"lon": -117.977287, "lat": 34.13945}}, {"id": 5344157, "name": "Dublin", "state": "CA", "country": "US", "coord": {"lon": -121.935791, "lat": 37.702148}}, {"id": 5344332, "name": "Dunnigan", "state": "CA", "country": "US", "coord": {"lon": -121.969688, "lat": 38.885181}}, {"id": 5344359, "name": "Durham", "state": "CA", "country": "US", "coord": {"lon": -121.79998, "lat": 39.646271}}, {"id": 5344702, "name": "Earlimart", "state": "CA", "country": "US", "coord": {"lon": -119.272331, "lat": 35.884121}}, {"id": 5344817, "name": "East Rancho Dominguez", "state": "CA", "country": "US", "coord": {"lon": -118.195351, "lat": 33.898071}}, {"id": 5344844, "name": "East Foothills", "state": "CA", "country": "US", "coord": {"lon": -121.817451, "lat": 37.38105}}, {"id": 5344942, "name": "East Hemet", "state": "CA", "country": "US", "coord": {"lon": -116.938911, "lat": 33.740021}}, {"id": 5344987, "name": "East La Mirada", "state": "CA", "country": "US", "coord": {"lon": -117.988953, "lat": 33.924461}}, {"id": 5344994, "name": "East Los Angeles", "state": "CA", "country": "US", "coord": {"lon": -118.17202, "lat": 34.023899}}, {"id": 5345025, "name": "East Oakdale", "state": "CA", "country": "US", "coord": {"lon": -120.803818, "lat": 37.787979}}, {"id": 5345032, "name": "East Palo Alto", "state": "CA", "country": "US", "coord": {"lon": -122.141083, "lat": 37.46883}}, {"id": 5345038, "name": "East Pasadena", "state": "CA", "country": "US", "coord": {"lon": -118.094238, "lat": 34.146118}}, {"id": 5345044, "name": "East Pleasanton", "state": "CA", "country": "US", "coord": {"lon": -121.829964, "lat": 37.673538}}, {"id": 5345049, "name": "East Porterville", "state": "CA", "country": "US", "coord": {"lon": -118.975662, "lat": 36.057449}}, {"id": 5345053, "name": "East Quincy", "state": "CA", "country": "US", "coord": {"lon": -120.89801, "lat": 39.934059}}, {"id": 5345063, "name": "East Richmond Heights", "state": "CA", "country": "US", "coord": {"lon": -122.313583, "lat": 37.94492}}, {"id": 5345071, "name": "East San Gabriel", "state": "CA", "country": "US", "coord": {"lon": -118.091179, "lat": 34.091679}}, {"id": 5345098, "name": "East Sonora", "state": "CA", "country": "US", "coord": {"lon": -120.361298, "lat": 37.977699}}, {"id": 5345171, "name": "Easton", "state": "CA", "country": "US", "coord": {"lon": -119.790703, "lat": 36.65023}}, {"id": 5345529, "name": "El Cajon", "state": "CA", "country": "US", "coord": {"lon": -116.962532, "lat": 32.794769}}, {"id": 5345605, "name": "El Casco", "state": "CA", "country": "US", "coord": {"lon": -117.11837, "lat": 33.981129}}, {"id": 5345609, "name": "El Centro", "state": "CA", "country": "US", "coord": {"lon": -115.563049, "lat": 32.792}}, {"id": 5345623, "name": "El Cerrito", "state": "CA", "country": "US", "coord": {"lon": -122.311638, "lat": 37.91576}}, {"id": 5345624, "name": "El Cerrito Corona", "state": "CA", "country": "US", "coord": {"lon": -117.522827, "lat": 33.840569}}, {"id": 5345659, "name": "El Dorado County", "state": "CA", "country": "US", "coord": {"lon": -120.5177, "lat": 38.766571}}, {"id": 5345679, "name": "El Dorado Hills", "state": "CA", "country": "US", "coord": {"lon": -121.082169, "lat": 38.685741}}, {"id": 5345716, "name": "El Granada", "state": "CA", "country": "US", "coord": {"lon": -122.469421, "lat": 37.50272}}, {"id": 5345743, "name": "El Monte", "state": "CA", "country": "US", "coord": {"lon": -118.027573, "lat": 34.068619}}, {"id": 5345768, "name": "El Nido Mobile Home Estates", "state": "CA", "country": "US", "coord": {"lon": -117.646988, "lat": 33.511139}}, {"id": 5345844, "name": "El Rio", "state": "CA", "country": "US", "coord": {"lon": -119.163834, "lat": 34.235779}}, {"id": 5345860, "name": "El Segundo", "state": "CA", "country": "US", "coord": {"lon": -118.416473, "lat": 33.919182}}, {"id": 5345888, "name": "El Sobrante", "state": "CA", "country": "US", "coord": {"lon": -122.29525, "lat": 37.97715}}, {"id": 5345916, "name": "El Verano", "state": "CA", "country": "US", "coord": {"lon": -122.491653, "lat": 38.297691}}, {"id": 5345971, "name": "Elderwood", "state": "CA", "country": "US", "coord": {"lon": -119.12233, "lat": 36.471619}}, {"id": 5345990, "name": "Eldridge", "state": "CA", "country": "US", "coord": {"lon": -122.510818, "lat": 38.348801}}, {"id": 5346111, "name": "Elk Grove", "state": "CA", "country": "US", "coord": {"lon": -121.37162, "lat": 38.408798}}, {"id": 5346162, "name": "Elkhorn", "state": "CA", "country": "US", "coord": {"lon": -121.740501, "lat": 36.824402}}, {"id": 5346342, "name": "Elverta", "state": "CA", "country": "US", "coord": {"lon": -121.46273, "lat": 38.713791}}, {"id": 5346413, "name": "Emerald Lake Hills", "state": "CA", "country": "US", "coord": {"lon": -122.268021, "lat": 37.464661}}, {"id": 5346462, "name": "Emeryville", "state": "CA", "country": "US", "coord": {"lon": -122.285248, "lat": 37.831322}}, {"id": 5346551, "name": "Empire", "state": "CA", "country": "US", "coord": {"lon": -120.902153, "lat": 37.63826}}, {"id": 5346646, "name": "Encinitas", "state": "CA", "country": "US", "coord": {"lon": -117.291977, "lat": 33.036991}}, {"id": 5346790, "name": "Erle (historical)", "state": "CA", "country": "US", "coord": {"lon": -121.39579, "lat": 39.100731}}, {"id": 5346811, "name": "Escalon", "state": "CA", "country": "US", "coord": {"lon": -120.996597, "lat": 37.797428}}, {"id": 5346827, "name": "Escondido", "state": "CA", "country": "US", "coord": {"lon": -117.086418, "lat": 33.119209}}, {"id": 5346871, "name": "Esparto", "state": "CA", "country": "US", "coord": {"lon": -122.017189, "lat": 38.692131}}, {"id": 5346935, "name": "Estrella", "state": "CA", "country": "US", "coord": {"lon": -120.610168, "lat": 35.705521}}, {"id": 5346986, "name": "Eucalyptus Hills", "state": "CA", "country": "US", "coord": {"lon": -116.946693, "lat": 32.879768}}, {"id": 5347239, "name": "Exeter", "state": "CA", "country": "US", "coord": {"lon": -119.142052, "lat": 36.296059}}, {"id": 5347287, "name": "Fair Oaks", "state": "CA", "country": "US", "coord": {"lon": -121.272171, "lat": 38.64463}}, {"id": 5347315, "name": "Fairbanks Ranch", "state": "CA", "country": "US", "coord": {"lon": -117.187263, "lat": 32.993931}}, {"id": 5347322, "name": "Fairfax", "state": "CA", "country": "US", "coord": {"lon": -122.588867, "lat": 37.987148}}, {"id": 5347335, "name": "Fairfield", "state": "CA", "country": "US", "coord": {"lon": -122.03997, "lat": 38.249359}}, {"id": 5347359, "name": "Fairmead", "state": "CA", "country": "US", "coord": {"lon": -120.192947, "lat": 37.076328}}, {"id": 5347397, "name": "Fairview", "state": "CA", "country": "US", "coord": {"lon": -122.045799, "lat": 37.678539}}, {"id": 5347578, "name": "Fallbrook", "state": "CA", "country": "US", "coord": {"lon": -117.251152, "lat": 33.376419}}, {"id": 5347742, "name": "Farmersville", "state": "CA", "country": "US", "coord": {"lon": -119.206779, "lat": 36.297729}}, {"id": 5347903, "name": "Felton", "state": "CA", "country": "US", "coord": {"lon": -122.073303, "lat": 37.051338}}, {"id": 5348299, "name": "Firebaugh", "state": "CA", "country": "US", "coord": {"lon": -120.456009, "lat": 36.858841}}, {"id": 5349613, "name": "Florin", "state": "CA", "country": "US", "coord": {"lon": -121.408836, "lat": 38.496021}}, {"id": 5349705, "name": "Folsom", "state": "CA", "country": "US", "coord": {"lon": -121.176064, "lat": 38.677959}}, {"id": 5349755, "name": "Fontana", "state": "CA", "country": "US", "coord": {"lon": -117.435051, "lat": 34.092232}}, {"id": 5349803, "name": "Foothill Farms", "state": "CA", "country": "US", "coord": {"lon": -121.351143, "lat": 38.678768}}, {"id": 5349828, "name": "Foothill Ranch", "state": "CA", "country": "US", "coord": {"lon": -117.660881, "lat": 33.686409}}, {"id": 5349876, "name": "Ford City", "state": "CA", "country": "US", "coord": {"lon": -119.45623, "lat": 35.154411}}, {"id": 5349949, "name": "Forest Meadows", "state": "CA", "country": "US", "coord": {"lon": -120.405479, "lat": 38.16798}}, {"id": 5349956, "name": "Forest Ranch", "state": "CA", "country": "US", "coord": {"lon": -121.672752, "lat": 39.882111}}, {"id": 5349975, "name": "Foresthill", "state": "CA", "country": "US", "coord": {"lon": -120.817993, "lat": 39.02018}}, {"id": 5349984, "name": "Forestville", "state": "CA", "country": "US", "coord": {"lon": -122.890266, "lat": 38.473518}}, {"id": 5350039, "name": "Fort Bragg", "state": "CA", "country": "US", "coord": {"lon": -123.80529, "lat": 39.445721}}, {"id": 5350057, "name": "Fort Irwin", "state": "CA", "country": "US", "coord": {"lon": -116.684753, "lat": 35.262749}}, {"id": 5350159, "name": "Foster City", "state": "CA", "country": "US", "coord": {"lon": -122.27108, "lat": 37.558552}}, {"id": 5350207, "name": "Fountain Valley", "state": "CA", "country": "US", "coord": {"lon": -117.953667, "lat": 33.709179}}, {"id": 5350351, "name": "Fowler", "state": "CA", "country": "US", "coord": {"lon": -119.678467, "lat": 36.630508}}, {"id": 5350605, "name": "Frazier Park", "state": "CA", "country": "US", "coord": {"lon": -118.944817, "lat": 34.822762}}, {"id": 5350678, "name": "Freedom", "state": "CA", "country": "US", "coord": {"lon": -121.781128, "lat": 36.9394}}, {"id": 5350734, "name": "Fremont", "state": "CA", "country": "US", "coord": {"lon": -121.988571, "lat": 37.548271}}, {"id": 5350821, "name": "French Camp", "state": "CA", "country": "US", "coord": {"lon": -121.271057, "lat": 37.88409}}, {"id": 5350937, "name": "Fresno", "state": "CA", "country": "US", "coord": {"lon": -119.772369, "lat": 36.74773}}, {"id": 5350964, "name": "Fresno County", "state": "CA", "country": "US", "coord": {"lon": -119.834312, "lat": 36.666618}}, {"id": 5351247, "name": "Fullerton", "state": "CA", "country": "US", "coord": {"lon": -117.925339, "lat": 33.870289}}, {"id": 5351414, "name": "Gallinas", "state": "CA", "country": "US", "coord": {"lon": -122.525253, "lat": 38.020199}}, {"id": 5351428, "name": "Galt", "state": "CA", "country": "US", "coord": {"lon": -121.29995, "lat": 38.254639}}, {"id": 5351496, "name": "Garden Acres", "state": "CA", "country": "US", "coord": {"lon": -121.229393, "lat": 37.96381}}, {"id": 5351515, "name": "Garden Grove", "state": "CA", "country": "US", "coord": {"lon": -117.941452, "lat": 33.773911}}, {"id": 5351549, "name": "Gardena", "state": "CA", "country": "US", "coord": {"lon": -118.30896, "lat": 33.888351}}, {"id": 5351654, "name": "Garnet", "state": "CA", "country": "US", "coord": {"lon": -116.54557, "lat": 33.901958}}, {"id": 5351983, "name": "Georgetown", "state": "CA", "country": "US", "coord": {"lon": -120.838547, "lat": 38.906841}}, {"id": 5352194, "name": "Gillis", "state": "CA", "country": "US", "coord": {"lon": -121.383003, "lat": 37.93409}}, {"id": 5352214, "name": "Gilroy", "state": "CA", "country": "US", "coord": {"lon": -121.568283, "lat": 37.005779}}, {"id": 5352350, "name": "Glen Avon", "state": "CA", "country": "US", "coord": {"lon": -117.484772, "lat": 34.011681}}, {"id": 5352423, "name": "Glendale", "state": "CA", "country": "US", "coord": {"lon": -118.255081, "lat": 34.142509}}, {"id": 5352439, "name": "Glendora", "state": "CA", "country": "US", "coord": {"lon": -117.865341, "lat": 34.13612}}, {"id": 5352462, "name": "Glenn County", "state": "CA", "country": "US", "coord": {"lon": -122.434433, "lat": 39.59988}}, {"id": 5352771, "name": "Gold River", "state": "CA", "country": "US", "coord": {"lon": -121.24662, "lat": 38.626289}}, {"id": 5352875, "name": "Golden Hills", "state": "CA", "country": "US", "coord": {"lon": -118.490356, "lat": 35.14246}}, {"id": 5352950, "name": "Goldstone", "state": "CA", "country": "US", "coord": {"lon": -116.913933, "lat": 35.297192}}, {"id": 5352963, "name": "Goleta", "state": "CA", "country": "US", "coord": {"lon": -119.827637, "lat": 34.435829}}, {"id": 5352997, "name": "Gonzales", "state": "CA", "country": "US", "coord": {"lon": -121.444382, "lat": 36.50663}}, {"id": 5353058, "name": "Good Hope", "state": "CA", "country": "US", "coord": {"lon": -117.266983, "lat": 33.76474}}, {"id": 5353181, "name": "Goshen", "state": "CA", "country": "US", "coord": {"lon": -119.42012, "lat": 36.351059}}, {"id": 5353484, "name": "Grand Terrace", "state": "CA", "country": "US", "coord": {"lon": -117.313652, "lat": 34.033901}}, {"id": 5353530, "name": "Granite Bay", "state": "CA", "country": "US", "coord": {"lon": -121.163841, "lat": 38.763229}}, {"id": 5353559, "name": "Granite Hills", "state": "CA", "country": "US", "coord": {"lon": -116.904747, "lat": 32.803108}}, {"id": 5353775, "name": "Grass Valley", "state": "CA", "country": "US", "coord": {"lon": -121.061058, "lat": 39.219059}}, {"id": 5353815, "name": "Graton", "state": "CA", "country": "US", "coord": {"lon": -122.86972, "lat": 38.436298}}, {"id": 5354008, "name": "Green Acres", "state": "CA", "country": "US", "coord": {"lon": -117.076424, "lat": 33.738079}}, {"id": 5354104, "name": "Green Valley", "state": "CA", "country": "US", "coord": {"lon": -118.413971, "lat": 34.621651}}, {"id": 5354114, "name": "Green Valley", "state": "CA", "country": "US", "coord": {"lon": -122.162193, "lat": 38.252972}}, {"id": 5354157, "name": "Greenacres", "state": "CA", "country": "US", "coord": {"lon": -119.109833, "lat": 35.383289}}, {"id": 5354171, "name": "Greenfield", "state": "CA", "country": "US", "coord": {"lon": -119.002876, "lat": 35.268848}}, {"id": 5354172, "name": "Greenfield", "state": "CA", "country": "US", "coord": {"lon": -121.243813, "lat": 36.320801}}, {"id": 5354307, "name": "Gridley", "state": "CA", "country": "US", "coord": {"lon": -121.693581, "lat": 39.363781}}, {"id": 5354552, "name": "Grover Beach", "state": "CA", "country": "US", "coord": {"lon": -120.621277, "lat": 35.121639}}, {"id": 5354590, "name": "Guadalcanal Village", "state": "CA", "country": "US", "coord": {"lon": -122.293861, "lat": 38.11853}}, {"id": 5354591, "name": "Guadalupe", "state": "CA", "country": "US", "coord": {"lon": -120.571838, "lat": 34.971642}}, {"id": 5354651, "name": "Guenoc (historical)", "state": "CA", "country": "US", "coord": {"lon": -122.565819, "lat": 38.78907}}, {"id": 5354655, "name": "Guerneville", "state": "CA", "country": "US", "coord": {"lon": -122.996109, "lat": 38.501862}}, {"id": 5354747, "name": "Gustine", "state": "CA", "country": "US", "coord": {"lon": -120.998817, "lat": 37.257721}}, {"id": 5354812, "name": "Hacienda Carmel", "state": "CA", "country": "US", "coord": {"lon": -121.87912, "lat": 36.537182}}, {"id": 5354819, "name": "Hacienda Heights", "state": "CA", "country": "US", "coord": {"lon": -117.968681, "lat": 33.993069}}, {"id": 5354943, "name": "Half Moon Bay", "state": "CA", "country": "US", "coord": {"lon": -122.428589, "lat": 37.463551}}, {"id": 5355074, "name": "Hamilton City", "state": "CA", "country": "US", "coord": {"lon": -122.013588, "lat": 39.742661}}, {"id": 5355180, "name": "Hanford", "state": "CA", "country": "US", "coord": {"lon": -119.645683, "lat": 36.32745}}, {"id": 5355318, "name": "Harbison Canyon", "state": "CA", "country": "US", "coord": {"lon": -116.830017, "lat": 32.820332}}, {"id": 5355463, "name": "Harmony Acres", "state": "CA", "country": "US", "coord": {"lon": -116.109451, "lat": 34.143608}}, {"id": 5355612, "name": "Hartley", "state": "CA", "country": "US", "coord": {"lon": -121.946907, "lat": 38.41713}}, {"id": 5355782, "name": "Hawaiian Gardens", "state": "CA", "country": "US", "coord": {"lon": -118.072838, "lat": 33.831402}}, {"id": 5355828, "name": "Hawthorne", "state": "CA", "country": "US", "coord": {"lon": -118.35257, "lat": 33.916401}}, {"id": 5355933, "name": "Hayward", "state": "CA", "country": "US", "coord": {"lon": -122.080803, "lat": 37.668819}}, {"id": 5356012, "name": "Healdsburg", "state": "CA", "country": "US", "coord": {"lon": -122.869164, "lat": 38.61047}}, {"id": 5356096, "name": "Heber", "state": "CA", "country": "US", "coord": {"lon": -115.529716, "lat": 32.730888}}, {"id": 5356277, "name": "Hemet", "state": "CA", "country": "US", "coord": {"lon": -116.97197, "lat": 33.74752}}, {"id": 5356429, "name": "Herald", "state": "CA", "country": "US", "coord": {"lon": -121.244392, "lat": 38.29575}}, {"id": 5356451, "name": "Hercules", "state": "CA", "country": "US", "coord": {"lon": -122.288582, "lat": 38.017139}}, {"id": 5356521, "name": "Hermosa Beach", "state": "CA", "country": "US", "coord": {"lon": -118.399521, "lat": 33.86224}}, {"id": 5356576, "name": "Hesperia", "state": "CA", "country": "US", "coord": {"lon": -117.30088, "lat": 34.426392}}, {"id": 5356594, "name": "Hess Mill", "state": "CA", "country": "US", "coord": {"lon": -120.237694, "lat": 38.102421}}, {"id": 5356700, "name": "Hidden Hills", "state": "CA", "country": "US", "coord": {"lon": -118.652313, "lat": 34.160278}}, {"id": 5356722, "name": "Hidden Meadows", "state": "CA", "country": "US", "coord": {"lon": -117.112534, "lat": 33.225311}}, {"id": 5356739, "name": "Hidden Palms", "state": "CA", "country": "US", "coord": {"lon": -116.301399, "lat": 33.820301}}, {"id": 5356767, "name": "Hidden Valley Lake", "state": "CA", "country": "US", "coord": {"lon": -122.558319, "lat": 38.807961}}, {"id": 5356864, "name": "Highgrove", "state": "CA", "country": "US", "coord": {"lon": -117.333382, "lat": 34.01585}}, {"id": 5356868, "name": "Highland", "state": "CA", "country": "US", "coord": {"lon": -117.208649, "lat": 34.128342}}, {"id": 5357155, "name": "Hillsborough", "state": "CA", "country": "US", "coord": {"lon": -122.379417, "lat": 37.5741}}, {"id": 5357499, "name": "Hollister", "state": "CA", "country": "US", "coord": {"lon": -121.401604, "lat": 36.852451}}, {"id": 5357527, "name": "Hollywood", "state": "CA", "country": "US", "coord": {"lon": -118.326736, "lat": 34.098339}}, {"id": 5357598, "name": "Holtville", "state": "CA", "country": "US", "coord": {"lon": -115.380257, "lat": 32.811161}}, {"id": 5357730, "name": "Home Garden", "state": "CA", "country": "US", "coord": {"lon": -119.636238, "lat": 36.30328}}, {"id": 5357731, "name": "Home Gardens", "state": "CA", "country": "US", "coord": {"lon": -117.520882, "lat": 33.878071}}, {"id": 5357755, "name": "Homeland", "state": "CA", "country": "US", "coord": {"lon": -117.1092, "lat": 33.74308}}, {"id": 5358539, "name": "Hughson", "state": "CA", "country": "US", "coord": {"lon": -120.866043, "lat": 37.596882}}, {"id": 5358705, "name": "Huntington Beach", "state": "CA", "country": "US", "coord": {"lon": -117.999229, "lat": 33.660301}}, {"id": 5358736, "name": "Huntington Park", "state": "CA", "country": "US", "coord": {"lon": -118.225067, "lat": 33.981682}}, {"id": 5358769, "name": "Huron", "state": "CA", "country": "US", "coord": {"lon": -120.102921, "lat": 36.202728}}, {"id": 5358901, "name": "Idyllwild", "state": "CA", "country": "US", "coord": {"lon": -116.71891, "lat": 33.740021}}, {"id": 5359052, "name": "Imperial", "state": "CA", "country": "US", "coord": {"lon": -115.569443, "lat": 32.847549}}, {"id": 5359054, "name": "Imperial Beach", "state": "CA", "country": "US", "coord": {"lon": -117.113083, "lat": 32.583939}}, {"id": 5359067, "name": "Imperial County", "state": "CA", "country": "US", "coord": {"lon": -115.41748, "lat": 33.033379}}, {"id": 5359426, "name": "Indian Wells", "state": "CA", "country": "US", "coord": {"lon": -116.308342, "lat": 33.718632}}, {"id": 5359446, "name": "Indio", "state": "CA", "country": "US", "coord": {"lon": -116.215561, "lat": 33.720581}}, {"id": 5359488, "name": "Inglewood", "state": "CA", "country": "US", "coord": {"lon": -118.353127, "lat": 33.961681}}, {"id": 5359577, "name": "Interlaken", "state": "CA", "country": "US", "coord": {"lon": -121.733841, "lat": 36.95134}}, {"id": 5359595, "name": "Inverness", "state": "CA", "country": "US", "coord": {"lon": -122.856941, "lat": 38.101028}}, {"id": 5359604, "name": "Inyo County", "state": "CA", "country": "US", "coord": {"lon": -117.417572, "lat": 36.583271}}, {"id": 5359623, "name": "Inyokern", "state": "CA", "country": "US", "coord": {"lon": -117.812569, "lat": 35.6469}}, {"id": 5359634, "name": "Ione", "state": "CA", "country": "US", "coord": {"lon": -120.932716, "lat": 38.352692}}, {"id": 5359777, "name": "Irvine", "state": "CA", "country": "US", "coord": {"lon": -117.823112, "lat": 33.66946}}, {"id": 5359817, "name": "Irwindale", "state": "CA", "country": "US", "coord": {"lon": -117.935341, "lat": 34.106949}}, {"id": 5359864, "name": "Isla Vista", "state": "CA", "country": "US", "coord": {"lon": -119.86097, "lat": 34.41333}}, {"id": 5359959, "name": "Ivanhoe", "state": "CA", "country": "US", "coord": {"lon": -119.217888, "lat": 36.387169}}, {"id": 5360160, "name": "Jackson", "state": "CA", "country": "US", "coord": {"lon": -120.774101, "lat": 38.348801}}, {"id": 5360382, "name": "Jamestown", "state": "CA", "country": "US", "coord": {"lon": -120.422699, "lat": 37.953259}}, {"id": 5360403, "name": "Jamul", "state": "CA", "country": "US", "coord": {"lon": -116.876129, "lat": 32.716999}}, {"id": 5360719, "name": "Jet", "state": "CA", "country": "US", "coord": {"lon": -121.09993, "lat": 37.432709}}, {"id": 5361298, "name": "Joshua Tree", "state": "CA", "country": "US", "coord": {"lon": -116.313072, "lat": 34.134731}}, {"id": 5361384, "name": "Julian", "state": "CA", "country": "US", "coord": {"lon": -116.601959, "lat": 33.078659}}, {"id": 5361432, "name": "Junction Camp", "state": "CA", "country": "US", "coord": {"lon": -119.980141, "lat": 34.731651}}, {"id": 5362725, "name": "Kelseyville", "state": "CA", "country": "US", "coord": {"lon": -122.839439, "lat": 38.977951}}, {"id": 5362776, "name": "Kennedy", "state": "CA", "country": "US", "coord": {"lon": -121.252724, "lat": 37.92992}}, {"id": 5362849, "name": "Kensington", "state": "CA", "country": "US", "coord": {"lon": -122.280251, "lat": 37.91048}}, {"id": 5362864, "name": "Kentfield", "state": "CA", "country": "US", "coord": {"lon": -122.557198, "lat": 37.952148}}, {"id": 5362885, "name": "Kenwood", "state": "CA", "country": "US", "coord": {"lon": -122.546089, "lat": 38.413799}}, {"id": 5362909, "name": "Kerman", "state": "CA", "country": "US", "coord": {"lon": -120.059883, "lat": 36.72356}}, {"id": 5362932, "name": "Kern County", "state": "CA", "country": "US", "coord": {"lon": -118.667587, "lat": 35.29607}}, {"id": 5362994, "name": "Kernville", "state": "CA", "country": "US", "coord": {"lon": -118.425362, "lat": 35.754669}}, {"id": 5363042, "name": "Kettleman City", "state": "CA", "country": "US", "coord": {"lon": -119.9618, "lat": 36.008289}}, {"id": 5363058, "name": "Keyes", "state": "CA", "country": "US", "coord": {"lon": -120.915489, "lat": 37.556599}}, {"id": 5363129, "name": "Kilaga Springs", "state": "CA", "country": "US", "coord": {"lon": -121.248009, "lat": 38.971008}}, {"id": 5363208, "name": "King City", "state": "CA", "country": "US", "coord": {"lon": -121.12603, "lat": 36.212742}}, {"id": 5363364, "name": "Kings Beach", "state": "CA", "country": "US", "coord": {"lon": -120.026581, "lat": 39.237679}}, {"id": 5363385, "name": "Kings County", "state": "CA", "country": "US", "coord": {"lon": -119.834297, "lat": 36.033291}}, {"id": 5363429, "name": "Kingsburg", "state": "CA", "country": "US", "coord": {"lon": -119.554024, "lat": 36.51384}}, {"id": 5363606, "name": "Knights Ferry", "state": "CA", "country": "US", "coord": {"lon": -120.67215, "lat": 37.819649}}, {"id": 5363616, "name": "Knightsen", "state": "CA", "country": "US", "coord": {"lon": -121.668007, "lat": 37.968811}}, {"id": 5363859, "name": "La Ca\u00f1ada Flintridge", "state": "CA", "country": "US", "coord": {"lon": -118.187851, "lat": 34.199169}}, {"id": 5363892, "name": "La Cresta Highlands", "state": "CA", "country": "US", "coord": {"lon": -117.346153, "lat": 33.5228}}, {"id": 5363907, "name": "La Fetra", "state": "CA", "country": "US", "coord": {"lon": -117.881447, "lat": 34.138901}}, {"id": 5363922, "name": "La Habra", "state": "CA", "country": "US", "coord": {"lon": -117.946167, "lat": 33.931961}}, {"id": 5363925, "name": "La Habra Heights", "state": "CA", "country": "US", "coord": {"lon": -117.950623, "lat": 33.96085}}, {"id": 5363943, "name": "La Jolla", "state": "CA", "country": "US", "coord": {"lon": -117.2742, "lat": 32.847271}}, {"id": 5363944, "name": "La Jolla Amago", "state": "CA", "country": "US", "coord": {"lon": -116.863358, "lat": 33.28281}}, {"id": 5363990, "name": "La Mesa", "state": "CA", "country": "US", "coord": {"lon": -117.023079, "lat": 32.76783}}, {"id": 5364007, "name": "La Mirada", "state": "CA", "country": "US", "coord": {"lon": -118.012009, "lat": 33.91724}}, {"id": 5364022, "name": "La Palma", "state": "CA", "country": "US", "coord": {"lon": -118.04673, "lat": 33.846401}}, {"id": 5364038, "name": "La Patera", "state": "CA", "country": "US", "coord": {"lon": -119.842079, "lat": 34.4375}}, {"id": 5364059, "name": "La Presa", "state": "CA", "country": "US", "coord": {"lon": -116.997253, "lat": 32.708111}}, {"id": 5364066, "name": "La Puente", "state": "CA", "country": "US", "coord": {"lon": -117.949509, "lat": 34.020012}}, {"id": 5364079, "name": "La Quinta", "state": "CA", "country": "US", "coord": {"lon": -116.310013, "lat": 33.663361}}, {"id": 5364095, "name": "La Riviera", "state": "CA", "country": "US", "coord": {"lon": -121.356903, "lat": 38.566849}}, {"id": 5364104, "name": "La Selva Beach", "state": "CA", "country": "US", "coord": {"lon": -121.864677, "lat": 36.936619}}, {"id": 5364134, "name": "La Verne", "state": "CA", "country": "US", "coord": {"lon": -117.767838, "lat": 34.100842}}, {"id": 5364192, "name": "Ladera", "state": "CA", "country": "US", "coord": {"lon": -122.198303, "lat": 37.39994}}, {"id": 5364195, "name": "Ladera Heights", "state": "CA", "country": "US", "coord": {"lon": -118.375351, "lat": 33.994179}}, {"id": 5364199, "name": "Ladera Ranch", "state": "CA", "country": "US", "coord": {"lon": -117.635612, "lat": 33.570862}}, {"id": 5364226, "name": "Lafayette", "state": "CA", "country": "US", "coord": {"lon": -122.118019, "lat": 37.885761}}, {"id": 5364271, "name": "Laguna", "state": "CA", "country": "US", "coord": {"lon": -121.423843, "lat": 38.421021}}, {"id": 5364275, "name": "Laguna Beach", "state": "CA", "country": "US", "coord": {"lon": -117.783112, "lat": 33.542252}}, {"id": 5364306, "name": "Laguna Hills", "state": "CA", "country": "US", "coord": {"lon": -117.70031, "lat": 33.5956}}, {"id": 5364329, "name": "Laguna Niguel", "state": "CA", "country": "US", "coord": {"lon": -117.70755, "lat": 33.52253}}, {"id": 5364369, "name": "Laguna Woods", "state": "CA", "country": "US", "coord": {"lon": -117.725327, "lat": 33.610298}}, {"id": 5364414, "name": "Lake Arrowhead", "state": "CA", "country": "US", "coord": {"lon": -117.189209, "lat": 34.248341}}, {"id": 5364466, "name": "Lake County", "state": "CA", "country": "US", "coord": {"lon": -122.784439, "lat": 39.099892}}, {"id": 5364499, "name": "Lake Elsinore", "state": "CA", "country": "US", "coord": {"lon": -117.327263, "lat": 33.668079}}, {"id": 5364514, "name": "Lake Forest", "state": "CA", "country": "US", "coord": {"lon": -117.689217, "lat": 33.646969}}, {"id": 5364554, "name": "Lake Isabella", "state": "CA", "country": "US", "coord": {"lon": -118.473137, "lat": 35.618011}}, {"id": 5364571, "name": "Lake Los Angeles", "state": "CA", "country": "US", "coord": {"lon": -117.828117, "lat": 34.612492}}, {"id": 5364615, "name": "Lake Nacimiento", "state": "CA", "country": "US", "coord": {"lon": -120.879631, "lat": 35.728298}}, {"id": 5364663, "name": "Lake San Marcos", "state": "CA", "country": "US", "coord": {"lon": -117.208366, "lat": 33.126148}}, {"id": 5364729, "name": "Lake Wildwood", "state": "CA", "country": "US", "coord": {"lon": -121.200508, "lat": 39.232948}}, {"id": 5364741, "name": "Lake of the Pines", "state": "CA", "country": "US", "coord": {"lon": -121.05661, "lat": 39.039619}}, {"id": 5364750, "name": "Lakeland Village", "state": "CA", "country": "US", "coord": {"lon": -117.343933, "lat": 33.63863}}, {"id": 5364753, "name": "Lakeport", "state": "CA", "country": "US", "coord": {"lon": -122.915833, "lat": 39.04295}}, {"id": 5364782, "name": "Lakeside", "state": "CA", "country": "US", "coord": {"lon": -116.922249, "lat": 32.857269}}, {"id": 5364826, "name": "Lakeview", "state": "CA", "country": "US", "coord": {"lon": -117.118088, "lat": 33.838631}}, {"id": 5364855, "name": "Lakewood", "state": "CA", "country": "US", "coord": {"lon": -118.133957, "lat": 33.85363}}, {"id": 5364916, "name": "Lamont", "state": "CA", "country": "US", "coord": {"lon": -118.914268, "lat": 35.259682}}, {"id": 5364940, "name": "Lancaster", "state": "CA", "country": "US", "coord": {"lon": -118.136742, "lat": 34.69804}}, {"id": 5365089, "name": "Largo", "state": "CA", "country": "US", "coord": {"lon": -123.129997, "lat": 39.021561}}, {"id": 5365113, "name": "Larkspur", "state": "CA", "country": "US", "coord": {"lon": -122.535248, "lat": 37.93409}}, {"id": 5365171, "name": "Las Flores", "state": "CA", "country": "US", "coord": {"lon": -118.635918, "lat": 34.037231}}, {"id": 5365172, "name": "Las Flores", "state": "CA", "country": "US", "coord": {"lon": -117.626717, "lat": 33.588081}}, {"id": 5365203, "name": "Las Lomas", "state": "CA", "country": "US", "coord": {"lon": -121.734947, "lat": 36.865231}}, {"id": 5365425, "name": "Lathrop", "state": "CA", "country": "US", "coord": {"lon": -121.276611, "lat": 37.822701}}, {"id": 5365442, "name": "Laton", "state": "CA", "country": "US", "coord": {"lon": -119.686798, "lat": 36.433281}}, {"id": 5365603, "name": "Lawndale", "state": "CA", "country": "US", "coord": {"lon": -118.35257, "lat": 33.887241}}, {"id": 5365660, "name": "Laytonville", "state": "CA", "country": "US", "coord": {"lon": -123.482788, "lat": 39.68821}}, {"id": 5365687, "name": "Le Grand", "state": "CA", "country": "US", "coord": {"lon": -120.24823, "lat": 37.22855}}, {"id": 5365741, "name": "Lebec", "state": "CA", "country": "US", "coord": {"lon": -118.864822, "lat": 34.84164}}, {"id": 5365893, "name": "Lemon Grove", "state": "CA", "country": "US", "coord": {"lon": -117.031418, "lat": 32.74255}}, {"id": 5365918, "name": "Lemoore", "state": "CA", "country": "US", "coord": {"lon": -119.782913, "lat": 36.300781}}, {"id": 5365937, "name": "Lennox", "state": "CA", "country": "US", "coord": {"lon": -118.352577, "lat": 33.938068}}, {"id": 5365945, "name": "Lenwood", "state": "CA", "country": "US", "coord": {"lon": -117.103928, "lat": 34.876652}}, {"id": 5365976, "name": "Leona Valley", "state": "CA", "country": "US", "coord": {"lon": -118.288132, "lat": 34.61832}}, {"id": 5366107, "name": "Lexington Hills", "state": "CA", "country": "US", "coord": {"lon": -121.973007, "lat": 37.164669}}, {"id": 5366375, "name": "Lincoln", "state": "CA", "country": "US", "coord": {"lon": -121.293007, "lat": 38.89156}}, {"id": 5366524, "name": "Lincoln Village", "state": "CA", "country": "US", "coord": {"lon": -121.328278, "lat": 38.005199}}, {"id": 5366531, "name": "Linda", "state": "CA", "country": "US", "coord": {"lon": -121.550797, "lat": 39.12767}}, {"id": 5366549, "name": "Linda Vista (historical)", "state": "CA", "country": "US", "coord": {"lon": -117.174477, "lat": 32.877819}}, {"id": 5366582, "name": "Linden", "state": "CA", "country": "US", "coord": {"lon": -121.083832, "lat": 38.021309}}, {"id": 5366604, "name": "Lindsay", "state": "CA", "country": "US", "coord": {"lon": -119.088158, "lat": 36.203011}}, {"id": 5367308, "name": "Littlerock", "state": "CA", "country": "US", "coord": {"lon": -117.983681, "lat": 34.521099}}, {"id": 5367314, "name": "Live Oak", "state": "CA", "country": "US", "coord": {"lon": -121.980522, "lat": 36.983559}}, {"id": 5367315, "name": "Live Oak", "state": "CA", "country": "US", "coord": {"lon": -121.659973, "lat": 39.275719}}, {"id": 5367427, "name": "Livingston", "state": "CA", "country": "US", "coord": {"lon": -120.723534, "lat": 37.386879}}, {"id": 5367440, "name": "Livermore", "state": "CA", "country": "US", "coord": {"lon": -121.768013, "lat": 37.68187}}, {"id": 5367523, "name": "Lockeford", "state": "CA", "country": "US", "coord": {"lon": -121.14994, "lat": 38.163528}}, {"id": 5367565, "name": "Lodi", "state": "CA", "country": "US", "coord": {"lon": -121.272453, "lat": 38.130199}}, {"id": 5367696, "name": "Loma Linda", "state": "CA", "country": "US", "coord": {"lon": -117.261147, "lat": 34.048351}}, {"id": 5367721, "name": "Loma Rica", "state": "CA", "country": "US", "coord": {"lon": -121.41774, "lat": 39.311829}}, {"id": 5367767, "name": "Lomita", "state": "CA", "country": "US", "coord": {"lon": -118.315071, "lat": 33.79224}}, {"id": 5367785, "name": "Lompico", "state": "CA", "country": "US", "coord": {"lon": -122.052742, "lat": 37.105499}}, {"id": 5367788, "name": "Lompoc", "state": "CA", "country": "US", "coord": {"lon": -120.457939, "lat": 34.639149}}, {"id": 5367815, "name": "London", "state": "CA", "country": "US", "coord": {"lon": -119.443176, "lat": 36.476059}}, {"id": 5367846, "name": "Lone Pine", "state": "CA", "country": "US", "coord": {"lon": -118.062866, "lat": 36.606041}}, {"id": 5367929, "name": "Long Beach", "state": "CA", "country": "US", "coord": {"lon": -118.189232, "lat": 33.76696}}, {"id": 5368233, "name": "Loomis", "state": "CA", "country": "US", "coord": {"lon": -121.193001, "lat": 38.821289}}, {"id": 5368301, "name": "Lorraine (historical)", "state": "CA", "country": "US", "coord": {"lon": -121.650253, "lat": 39.469051}}, {"id": 5368304, "name": "Los Alamitos", "state": "CA", "country": "US", "coord": {"lon": -118.072563, "lat": 33.80307}}, {"id": 5368321, "name": "Los Alamos", "state": "CA", "country": "US", "coord": {"lon": -120.278214, "lat": 34.744431}}, {"id": 5368335, "name": "Los Altos", "state": "CA", "country": "US", "coord": {"lon": -122.114128, "lat": 37.38522}}, {"id": 5368346, "name": "Los Altos Hills", "state": "CA", "country": "US", "coord": {"lon": -122.137459, "lat": 37.379662}}, {"id": 5368361, "name": "Los Angeles", "state": "CA", "country": "US", "coord": {"lon": -118.243683, "lat": 34.052231}}, {"id": 5368381, "name": "Los Angeles County", "state": "CA", "country": "US", "coord": {"lon": -118.200912, "lat": 34.366661}}, {"id": 5368453, "name": "Los Banos", "state": "CA", "country": "US", "coord": {"lon": -120.849922, "lat": 37.058281}}, {"id": 5368518, "name": "Los Gatos", "state": "CA", "country": "US", "coord": {"lon": -121.974678, "lat": 37.226608}}, {"id": 5368559, "name": "Los Olivos", "state": "CA", "country": "US", "coord": {"lon": -120.114868, "lat": 34.667759}}, {"id": 5368565, "name": "Los Osos", "state": "CA", "country": "US", "coord": {"lon": -120.832397, "lat": 35.311089}}, {"id": 5368618, "name": "Los Serranos", "state": "CA", "country": "US", "coord": {"lon": -117.708107, "lat": 33.97279}}, {"id": 5368676, "name": "Lost Hills", "state": "CA", "country": "US", "coord": {"lon": -119.69429, "lat": 35.616348}}, {"id": 5368980, "name": "Lower Lake", "state": "CA", "country": "US", "coord": {"lon": -122.61026, "lat": 38.91045}}, {"id": 5369114, "name": "Loyola", "state": "CA", "country": "US", "coord": {"lon": -122.100517, "lat": 37.35133}}, {"id": 5369143, "name": "Lucerne", "state": "CA", "country": "US", "coord": {"lon": -119.664299, "lat": 36.380779}}, {"id": 5369144, "name": "Lucerne", "state": "CA", "country": "US", "coord": {"lon": -122.796379, "lat": 39.090172}}, {"id": 5369150, "name": "Lucerne Valley", "state": "CA", "country": "US", "coord": {"lon": -116.967812, "lat": 34.44389}}, {"id": 5369367, "name": "Lynwood", "state": "CA", "country": "US", "coord": {"lon": -118.211456, "lat": 33.93029}}, {"id": 5369568, "name": "Madera", "state": "CA", "country": "US", "coord": {"lon": -120.060722, "lat": 36.961342}}, {"id": 5369569, "name": "Madera Acres", "state": "CA", "country": "US", "coord": {"lon": -120.066833, "lat": 37.019112}}, {"id": 5369578, "name": "Madera County", "state": "CA", "country": "US", "coord": {"lon": -119.83432, "lat": 37.166611}}, {"id": 5369690, "name": "Magalia", "state": "CA", "country": "US", "coord": {"lon": -121.578308, "lat": 39.812111}}, {"id": 5369906, "name": "Malibu", "state": "CA", "country": "US", "coord": {"lon": -118.810089, "lat": 34.005009}}, {"id": 5369909, "name": "Malibu Beach", "state": "CA", "country": "US", "coord": {"lon": -118.688423, "lat": 34.032791}}, {"id": 5370006, "name": "Mammoth Lakes", "state": "CA", "country": "US", "coord": {"lon": -118.972076, "lat": 37.648548}}, {"id": 5370082, "name": "Manhattan Beach", "state": "CA", "country": "US", "coord": {"lon": -118.410912, "lat": 33.884739}}, {"id": 5370164, "name": "Manteca", "state": "CA", "country": "US", "coord": {"lon": -121.216049, "lat": 37.797428}}, {"id": 5370371, "name": "Marconi", "state": "CA", "country": "US", "coord": {"lon": -122.878326, "lat": 38.14381}}, {"id": 5370440, "name": "Maricopa", "state": "CA", "country": "US", "coord": {"lon": -119.400948, "lat": 35.058861}}, {"id": 5370464, "name": "Marin City", "state": "CA", "country": "US", "coord": {"lon": -122.50914, "lat": 37.868542}}, {"id": 5370468, "name": "Marin County", "state": "CA", "country": "US", "coord": {"lon": -122.734428, "lat": 38.066589}}, {"id": 5370493, "name": "Marina", "state": "CA", "country": "US", "coord": {"lon": -121.80217, "lat": 36.684399}}, {"id": 5370542, "name": "Marina del Rey", "state": "CA", "country": "US", "coord": {"lon": -118.451736, "lat": 33.980289}}, {"id": 5370590, "name": "Mariposa", "state": "CA", "country": "US", "coord": {"lon": -119.966278, "lat": 37.48494}}, {"id": 5370594, "name": "Mariposa County", "state": "CA", "country": "US", "coord": {"lon": -119.901009, "lat": 37.549938}}, {"id": 5370868, "name": "Martinez", "state": "CA", "country": "US", "coord": {"lon": -122.134132, "lat": 38.019371}}, {"id": 5370984, "name": "Marysville", "state": "CA", "country": "US", "coord": {"lon": -121.591347, "lat": 39.145729}}, {"id": 5371068, "name": "Mather Field", "state": "CA", "country": "US", "coord": {"lon": -121.29689, "lat": 38.56657}}, {"id": 5371159, "name": "Maxwell", "state": "CA", "country": "US", "coord": {"lon": -122.191368, "lat": 39.276279}}, {"id": 5371243, "name": "Mayflower Village", "state": "CA", "country": "US", "coord": {"lon": -118.009789, "lat": 34.115009}}, {"id": 5371261, "name": "Maywood", "state": "CA", "country": "US", "coord": {"lon": -118.185349, "lat": 33.986679}}, {"id": 5371530, "name": "McFarland", "state": "CA", "country": "US", "coord": {"lon": -119.229271, "lat": 35.678009}}, {"id": 5371858, "name": "Mead Valley", "state": "CA", "country": "US", "coord": {"lon": -117.29615, "lat": 33.833351}}, {"id": 5371905, "name": "Meadow Vista", "state": "CA", "country": "US", "coord": {"lon": -121.021889, "lat": 39.001011}}, {"id": 5371965, "name": "Mecca", "state": "CA", "country": "US", "coord": {"lon": -116.077217, "lat": 33.57169}}, {"id": 5372024, "name": "Meiners Oaks", "state": "CA", "country": "US", "coord": {"lon": -119.279282, "lat": 34.446941}}, {"id": 5372148, "name": "Mendenhall Springs", "state": "CA", "country": "US", "coord": {"lon": -121.647728, "lat": 37.588268}}, {"id": 5372163, "name": "Mendocino County", "state": "CA", "country": "US", "coord": {"lon": -123.417793, "lat": 39.41655}}, {"id": 5372190, "name": "Mendota", "state": "CA", "country": "US", "coord": {"lon": -120.381561, "lat": 36.753559}}, {"id": 5372205, "name": "Menifee", "state": "CA", "country": "US", "coord": {"lon": -117.146423, "lat": 33.728352}}, {"id": 5372223, "name": "Menlo Park", "state": "CA", "country": "US", "coord": {"lon": -122.18219, "lat": 37.453831}}, {"id": 5372242, "name": "Mentone", "state": "CA", "country": "US", "coord": {"lon": -117.134483, "lat": 34.070011}}, {"id": 5372253, "name": "Merced", "state": "CA", "country": "US", "coord": {"lon": -120.482971, "lat": 37.302158}}, {"id": 5372259, "name": "Merced County", "state": "CA", "country": "US", "coord": {"lon": -120.751579, "lat": 37.166611}}, {"id": 5372433, "name": "Mesa Verde", "state": "CA", "country": "US", "coord": {"lon": -114.731071, "lat": 33.605862}}, {"id": 5372656, "name": "Michopdo (historical)", "state": "CA", "country": "US", "coord": {"lon": -121.853867, "lat": 39.731831}}, {"id": 5372844, "name": "Middleton", "state": "CA", "country": "US", "coord": {"lon": -122.263031, "lat": 38.206581}}, {"id": 5372868, "name": "Midpines", "state": "CA", "country": "US", "coord": {"lon": -119.920448, "lat": 37.54438}}, {"id": 5372902, "name": "Midway City", "state": "CA", "country": "US", "coord": {"lon": -117.989227, "lat": 33.74474}}, {"id": 5372954, "name": "Miles", "state": "CA", "country": "US", "coord": {"lon": -120.703232, "lat": 35.185532}}, {"id": 5373121, "name": "Mill Valley", "state": "CA", "country": "US", "coord": {"lon": -122.544983, "lat": 37.90604}}, {"id": 5373129, "name": "Millbrae", "state": "CA", "country": "US", "coord": {"lon": -122.387192, "lat": 37.598549}}, {"id": 5373327, "name": "Milpitas", "state": "CA", "country": "US", "coord": {"lon": -121.906616, "lat": 37.428268}}, {"id": 5373452, "name": "Minkler", "state": "CA", "country": "US", "coord": {"lon": -119.458183, "lat": 36.723839}}, {"id": 5373463, "name": "Minneola", "state": "CA", "country": "US", "coord": {"lon": -116.776978, "lat": 34.8461}}, {"id": 5373492, "name": "Jurupa Valley", "state": "CA", "country": "US", "coord": {"lon": -117.516441, "lat": 33.992512}}, {"id": 5373504, "name": "Mira Monte", "state": "CA", "country": "US", "coord": {"lon": -119.28511, "lat": 34.433609}}, {"id": 5373614, "name": "Mission Canyon", "state": "CA", "country": "US", "coord": {"lon": -119.712914, "lat": 34.450829}}, {"id": 5373650, "name": "Mission Hills", "state": "CA", "country": "US", "coord": {"lon": -120.436829, "lat": 34.686089}}, {"id": 5373763, "name": "Mission Viejo", "state": "CA", "country": "US", "coord": {"lon": -117.671997, "lat": 33.600021}}, {"id": 5373900, "name": "Modesto", "state": "CA", "country": "US", "coord": {"lon": -120.99688, "lat": 37.639099}}, {"id": 5373965, "name": "Mojave", "state": "CA", "country": "US", "coord": {"lon": -118.173958, "lat": 35.052471}}, {"id": 5374091, "name": "Mono County", "state": "CA", "country": "US", "coord": {"lon": -118.867638, "lat": 37.916599}}, {"id": 5374128, "name": "Mono Vista", "state": "CA", "country": "US", "coord": {"lon": -120.269913, "lat": 37.9977}}, {"id": 5374175, "name": "Monrovia", "state": "CA", "country": "US", "coord": {"lon": -117.998947, "lat": 34.14806}}, {"id": 5374212, "name": "Montalvin", "state": "CA", "country": "US", "coord": {"lon": -122.332748, "lat": 37.99548}}, {"id": 5374222, "name": "Montara", "state": "CA", "country": "US", "coord": {"lon": -122.51609, "lat": 37.54216}}, {"id": 5374232, "name": "Montclair", "state": "CA", "country": "US", "coord": {"lon": -117.689781, "lat": 34.077511}}, {"id": 5374275, "name": "Monte Rio", "state": "CA", "country": "US", "coord": {"lon": -123.008888, "lat": 38.465469}}, {"id": 5374283, "name": "Monte Sereno", "state": "CA", "country": "US", "coord": {"lon": -121.992462, "lat": 37.236328}}, {"id": 5374322, "name": "Montebello", "state": "CA", "country": "US", "coord": {"lon": -118.105347, "lat": 34.00946}}, {"id": 5374340, "name": "Montecito", "state": "CA", "country": "US", "coord": {"lon": -119.63208, "lat": 34.436661}}, {"id": 5374361, "name": "Monterey", "state": "CA", "country": "US", "coord": {"lon": -121.894676, "lat": 36.600239}}, {"id": 5374376, "name": "Monterey County", "state": "CA", "country": "US", "coord": {"lon": -121.251587, "lat": 36.250519}}, {"id": 5374406, "name": "Monterey Park", "state": "CA", "country": "US", "coord": {"lon": -118.122849, "lat": 34.062511}}, {"id": 5374648, "name": "Moorpark", "state": "CA", "country": "US", "coord": {"lon": -118.882042, "lat": 34.285561}}, {"id": 5374669, "name": "Morada", "state": "CA", "country": "US", "coord": {"lon": -121.245781, "lat": 38.038528}}, {"id": 5374671, "name": "Moraga", "state": "CA", "country": "US", "coord": {"lon": -122.129692, "lat": 37.83493}}, {"id": 5374732, "name": "Moreno Valley", "state": "CA", "country": "US", "coord": {"lon": -117.230591, "lat": 33.937519}}, {"id": 5374764, "name": "Morgan Hill", "state": "CA", "country": "US", "coord": {"lon": -121.654388, "lat": 37.130501}}, {"id": 5374871, "name": "Morongo Valley", "state": "CA", "country": "US", "coord": {"lon": -116.580849, "lat": 34.046959}}, {"id": 5374920, "name": "Morro Bay", "state": "CA", "country": "US", "coord": {"lon": -120.849899, "lat": 35.36581}}, {"id": 5375034, "name": "Moss Beach", "state": "CA", "country": "US", "coord": {"lon": -122.513313, "lat": 37.527439}}, {"id": 5375187, "name": "Mount Hermon", "state": "CA", "country": "US", "coord": {"lon": -122.058571, "lat": 37.05106}}, {"id": 5375407, "name": "Mountain House", "state": "CA", "country": "US", "coord": {"lon": -121.542732, "lat": 37.78326}}, {"id": 5375439, "name": "Mountain Ranch", "state": "CA", "country": "US", "coord": {"lon": -120.540756, "lat": 38.228249}}, {"id": 5375478, "name": "Mountain View", "state": "CA", "country": "US", "coord": {"lon": -122.117462, "lat": 38.008808}}, {"id": 5375480, "name": "Mountain View", "state": "CA", "country": "US", "coord": {"lon": -122.083847, "lat": 37.386051}}, {"id": 5375482, "name": "Mountain View Acres", "state": "CA", "country": "US", "coord": {"lon": -117.348938, "lat": 34.496658}}, {"id": 5375835, "name": "Muroc (historical)", "state": "CA", "country": "US", "coord": {"lon": -117.872292, "lat": 34.923031}}, {"id": 5375883, "name": "Murphys", "state": "CA", "country": "US", "coord": {"lon": -120.459641, "lat": 38.137421}}, {"id": 5375911, "name": "Murrieta", "state": "CA", "country": "US", "coord": {"lon": -117.213921, "lat": 33.553909}}, {"id": 5375916, "name": "Murrieta Hot Springs", "state": "CA", "country": "US", "coord": {"lon": -117.158089, "lat": 33.560581}}, {"id": 5375938, "name": "Muscoy", "state": "CA", "country": "US", "coord": {"lon": -117.344208, "lat": 34.154179}}, {"id": 5376095, "name": "Napa", "state": "CA", "country": "US", "coord": {"lon": -122.28553, "lat": 38.297138}}, {"id": 5376101, "name": "Napa County", "state": "CA", "country": "US", "coord": {"lon": -122.334419, "lat": 38.483238}}, {"id": 5376200, "name": "National City", "state": "CA", "country": "US", "coord": {"lon": -117.099197, "lat": 32.678108}}, {"id": 5376285, "name": "Navelencia", "state": "CA", "country": "US", "coord": {"lon": -119.385681, "lat": 36.683281}}, {"id": 5376358, "name": "Needles", "state": "CA", "country": "US", "coord": {"lon": -114.614128, "lat": 34.848061}}, {"id": 5376502, "name": "Nevada City", "state": "CA", "country": "US", "coord": {"lon": -121.01606, "lat": 39.261559}}, {"id": 5376509, "name": "Nevada County", "state": "CA", "country": "US", "coord": {"lon": -120.884392, "lat": 39.349899}}, {"id": 5376803, "name": "Newark", "state": "CA", "country": "US", "coord": {"lon": -122.040237, "lat": 37.529659}}, {"id": 5376831, "name": "Newcastle", "state": "CA", "country": "US", "coord": {"lon": -121.133278, "lat": 38.874069}}, {"id": 5376870, "name": "Newman", "state": "CA", "country": "US", "coord": {"lon": -121.02076, "lat": 37.313831}}, {"id": 5376890, "name": "Newport Beach", "state": "CA", "country": "US", "coord": {"lon": -117.928947, "lat": 33.618912}}, {"id": 5376959, "name": "Nice", "state": "CA", "country": "US", "coord": {"lon": -122.848328, "lat": 39.12323}}, {"id": 5377032, "name": "Niland", "state": "CA", "country": "US", "coord": {"lon": -115.518883, "lat": 33.24004}}, {"id": 5377100, "name": "Nipomo", "state": "CA", "country": "US", "coord": {"lon": -120.475998, "lat": 35.042751}}, {"id": 5377199, "name": "Norco", "state": "CA", "country": "US", "coord": {"lon": -117.54866, "lat": 33.931129}}, {"id": 5377266, "name": "North Auburn", "state": "CA", "country": "US", "coord": {"lon": -121.081886, "lat": 38.93129}}, {"id": 5377380, "name": "North Edwards", "state": "CA", "country": "US", "coord": {"lon": -117.83284, "lat": 35.01664}}, {"id": 5377381, "name": "North El Monte", "state": "CA", "country": "US", "coord": {"lon": -118.024231, "lat": 34.102791}}, {"id": 5377389, "name": "North Fair Oaks", "state": "CA", "country": "US", "coord": {"lon": -122.196632, "lat": 37.47438}}, {"id": 5377613, "name": "North Glendale", "state": "CA", "country": "US", "coord": {"lon": -118.264519, "lat": 34.160561}}, {"id": 5377640, "name": "North Highlands", "state": "CA", "country": "US", "coord": {"lon": -121.372169, "lat": 38.685741}}, {"id": 5377708, "name": "North Norton", "state": "CA", "country": "US", "coord": {"lon": -117.252823, "lat": 34.105572}}, {"id": 5377775, "name": "North Richmond", "state": "CA", "country": "US", "coord": {"lon": -122.36747, "lat": 37.958809}}, {"id": 5377995, "name": "Norwalk", "state": "CA", "country": "US", "coord": {"lon": -118.081734, "lat": 33.902241}}, {"id": 5378044, "name": "Novato", "state": "CA", "country": "US", "coord": {"lon": -122.569702, "lat": 38.107422}}, {"id": 5378087, "name": "Nuevo", "state": "CA", "country": "US", "coord": {"lon": -117.145866, "lat": 33.801411}}, {"id": 5378339, "name": "Oak Hill", "state": "CA", "country": "US", "coord": {"lon": -118.785088, "lat": 34.065281}}, {"id": 5378354, "name": "Oak Hills", "state": "CA", "country": "US", "coord": {"lon": -117.381363, "lat": 34.383129}}, {"id": 5378408, "name": "Oak Park", "state": "CA", "country": "US", "coord": {"lon": -118.762871, "lat": 34.179169}}, {"id": 5378481, "name": "Oak View", "state": "CA", "country": "US", "coord": {"lon": -119.30011, "lat": 34.400002}}, {"id": 5378500, "name": "Oakdale", "state": "CA", "country": "US", "coord": {"lon": -120.847153, "lat": 37.76659}}, {"id": 5378529, "name": "Oakhurst", "state": "CA", "country": "US", "coord": {"lon": -119.649323, "lat": 37.327999}}, {"id": 5378538, "name": "Oakland", "state": "CA", "country": "US", "coord": {"lon": -122.270798, "lat": 37.804371}}, {"id": 5378566, "name": "Oakley", "state": "CA", "country": "US", "coord": {"lon": -121.712448, "lat": 37.997421}}, {"id": 5378617, "name": "Oasis", "state": "CA", "country": "US", "coord": {"lon": -116.098892, "lat": 33.465858}}, {"id": 5378692, "name": "Occidental", "state": "CA", "country": "US", "coord": {"lon": -122.948334, "lat": 38.40741}}, {"id": 5378763, "name": "Oceano", "state": "CA", "country": "US", "coord": {"lon": -120.612389, "lat": 35.098862}}, {"id": 5378771, "name": "Oceanside", "state": "CA", "country": "US", "coord": {"lon": -117.379478, "lat": 33.195869}}, {"id": 5378819, "name": "Odessa (historical)", "state": "CA", "country": "US", "coord": {"lon": -119.645958, "lat": 36.271339}}, {"id": 5378870, "name": "Oildale", "state": "CA", "country": "US", "coord": {"lon": -119.019547, "lat": 35.419682}}, {"id": 5378880, "name": "Ojai", "state": "CA", "country": "US", "coord": {"lon": -119.242889, "lat": 34.448051}}, {"id": 5379264, "name": "Olivehurst", "state": "CA", "country": "US", "coord": {"lon": -121.552193, "lat": 39.095451}}, {"id": 5379439, "name": "Ontario", "state": "CA", "country": "US", "coord": {"lon": -117.650887, "lat": 34.063339}}, {"id": 5379475, "name": "Opal Cliffs", "state": "", "country": "US", "coord": {"lon": -121.964127, "lat": 36.960781}}, {"id": 5379513, "name": "Orange", "state": "CA", "country": "US", "coord": {"lon": -117.853111, "lat": 33.787788}}, {"id": 5379524, "name": "Orange County", "state": "CA", "country": "US", "coord": {"lon": -117.767548, "lat": 33.70002}}, {"id": 5379533, "name": "Orange Cove", "state": "CA", "country": "US", "coord": {"lon": -119.313728, "lat": 36.62439}}, {"id": 5379566, "name": "Orangevale", "state": "CA", "country": "US", "coord": {"lon": -121.225777, "lat": 38.678509}}, {"id": 5379609, "name": "Orcutt", "state": "CA", "country": "US", "coord": {"lon": -120.435997, "lat": 34.865261}}, {"id": 5379678, "name": "Orinda", "state": "CA", "country": "US", "coord": {"lon": -122.179688, "lat": 37.877151}}, {"id": 5379698, "name": "Orland", "state": "CA", "country": "US", "coord": {"lon": -122.196373, "lat": 39.747379}}, {"id": 5379755, "name": "Orosi", "state": "CA", "country": "US", "coord": {"lon": -119.287338, "lat": 36.544949}}, {"id": 5379759, "name": "Oroville", "state": "CA", "country": "US", "coord": {"lon": -121.556358, "lat": 39.513779}}, {"id": 5380141, "name": "Owl", "state": "CA", "country": "US", "coord": {"lon": -116.81752, "lat": 33.927792}}, {"id": 5380184, "name": "Oxnard", "state": "CA", "country": "US", "coord": {"lon": -119.177048, "lat": 34.197498}}, {"id": 5380202, "name": "Oxnard Shores", "state": "CA", "country": "US", "coord": {"lon": -119.241501, "lat": 34.190842}}, {"id": 5380256, "name": "Pacheco", "state": "CA", "country": "US", "coord": {"lon": -122.075241, "lat": 37.983528}}, {"id": 5380420, "name": "Pacifica", "state": "CA", "country": "US", "coord": {"lon": -122.486923, "lat": 37.613831}}, {"id": 5380437, "name": "Pacific Grove", "state": "CA", "country": "US", "coord": {"lon": -121.916618, "lat": 36.617741}}, {"id": 5380537, "name": "Pajaro", "state": "CA", "country": "US", "coord": {"lon": -121.748558, "lat": 36.904121}}, {"id": 5380571, "name": "Palermo", "state": "CA", "country": "US", "coord": {"lon": -121.538017, "lat": 39.43544}}, {"id": 5380626, "name": "Palm Desert", "state": "CA", "country": "US", "coord": {"lon": -116.374458, "lat": 33.72224}}, {"id": 5380668, "name": "Palm Springs", "state": "CA", "country": "US", "coord": {"lon": -116.545288, "lat": 33.830299}}, {"id": 5380698, "name": "Palmdale", "state": "CA", "country": "US", "coord": {"lon": -118.116463, "lat": 34.57943}}, {"id": 5380710, "name": "Palm Wells", "state": "CA", "country": "US", "coord": {"lon": -116.539459, "lat": 34.077789}}, {"id": 5380748, "name": "Palo Alto", "state": "CA", "country": "US", "coord": {"lon": -122.143021, "lat": 37.441879}}, {"id": 5380883, "name": "Palos Verdes Estates", "state": "CA", "country": "US", "coord": {"lon": -118.390068, "lat": 33.800571}}, {"id": 5381002, "name": "Paradise", "state": "CA", "country": "US", "coord": {"lon": -121.621918, "lat": 39.759609}}, {"id": 5381110, "name": "Paramount", "state": "CA", "country": "US", "coord": {"lon": -118.15979, "lat": 33.889462}}, {"id": 5381231, "name": "Parker Junction", "state": "CA", "country": "US", "coord": {"lon": -114.596077, "lat": 34.770279}}, {"id": 5381276, "name": "Parksdale", "state": "CA", "country": "US", "coord": {"lon": -120.022942, "lat": 36.94717}}, {"id": 5381305, "name": "Parkway", "state": "CA", "country": "US", "coord": {"lon": -121.458839, "lat": 38.496021}}, {"id": 5381320, "name": "Parkwood", "state": "CA", "country": "US", "coord": {"lon": -120.044609, "lat": 36.926891}}, {"id": 5381325, "name": "Parlier", "state": "CA", "country": "US", "coord": {"lon": -119.527069, "lat": 36.611622}}, {"id": 5381396, "name": "Pasadena", "state": "CA", "country": "US", "coord": {"lon": -118.144524, "lat": 34.147781}}, {"id": 5381421, "name": "Pasatiempo", "state": "CA", "country": "US", "coord": {"lon": -122.025803, "lat": 37.004391}}, {"id": 5381438, "name": "Paso Robles", "state": "CA", "country": "US", "coord": {"lon": -120.691002, "lat": 35.62664}}, {"id": 5381515, "name": "Patterson", "state": "CA", "country": "US", "coord": {"lon": -121.129662, "lat": 37.4716}}, {"id": 5381574, "name": "Paularino", "state": "CA", "country": "US", "coord": {"lon": -117.87867, "lat": 33.681412}}, {"id": 5381796, "name": "Pedley", "state": "CA", "country": "US", "coord": {"lon": -117.475883, "lat": 33.975288}}, {"id": 5381928, "name": "Penn Valley", "state": "CA", "country": "US", "coord": {"lon": -121.191071, "lat": 39.195999}}, {"id": 5381932, "name": "Penngrove", "state": "CA", "country": "US", "coord": {"lon": -122.666649, "lat": 38.299641}}, {"id": 5382146, "name": "Perris", "state": "CA", "country": "US", "coord": {"lon": -117.228653, "lat": 33.78252}}, {"id": 5382232, "name": "Petaluma", "state": "CA", "country": "US", "coord": {"lon": -122.63665, "lat": 38.232422}}, {"id": 5382362, "name": "Phelan", "state": "CA", "country": "US", "coord": {"lon": -117.572281, "lat": 34.426109}}, {"id": 5382489, "name": "Pico", "state": "CA", "country": "US", "coord": {"lon": -118.61203, "lat": 34.377499}}, {"id": 5382496, "name": "Pico Rivera", "state": "CA", "country": "US", "coord": {"lon": -118.096741, "lat": 33.98307}}, {"id": 5382514, "name": "Piedmont", "state": "CA", "country": "US", "coord": {"lon": -122.231644, "lat": 37.824371}}, {"id": 5382907, "name": "Pine Grove", "state": "CA", "country": "US", "coord": {"lon": -120.658821, "lat": 38.412971}}, {"id": 5382989, "name": "Pine Mountain Club", "state": "CA", "country": "US", "coord": {"lon": -119.149551, "lat": 34.846371}}, {"id": 5382990, "name": "Pine Mountain Club", "state": "", "country": "US", "coord": {"lon": -119.156776, "lat": 34.84692}}, {"id": 5383075, "name": "Pine Valley", "state": "CA", "country": "US", "coord": {"lon": -116.529182, "lat": 32.821442}}, {"id": 5383187, "name": "Pinole", "state": "CA", "country": "US", "coord": {"lon": -122.298859, "lat": 38.004372}}, {"id": 5383283, "name": "Pioneer", "state": "CA", "country": "US", "coord": {"lon": -120.571869, "lat": 38.431862}}, {"id": 5383413, "name": "Piru", "state": "CA", "country": "US", "coord": {"lon": -118.793983, "lat": 34.415272}}, {"id": 5383431, "name": "Pismo Beach", "state": "CA", "country": "US", "coord": {"lon": -120.641281, "lat": 35.14275}}, {"id": 5383465, "name": "Pittsburg", "state": "CA", "country": "US", "coord": {"lon": -121.884682, "lat": 38.027981}}, {"id": 5383518, "name": "Pixley", "state": "CA", "country": "US", "coord": {"lon": -119.291779, "lat": 35.968559}}, {"id": 5383526, "name": "Pi\u00f1on Hills", "state": "CA", "country": "US", "coord": {"lon": -117.646721, "lat": 34.433331}}, {"id": 5383527, "name": "Placentia", "state": "CA", "country": "US", "coord": {"lon": -117.870338, "lat": 33.872238}}, {"id": 5383537, "name": "Placer County", "state": "CA", "country": "US", "coord": {"lon": -120.767708, "lat": 39.06657}}, {"id": 5383559, "name": "Placerville", "state": "CA", "country": "US", "coord": {"lon": -120.798553, "lat": 38.72963}}, {"id": 5383600, "name": "Planada", "state": "CA", "country": "US", "coord": {"lon": -120.31852, "lat": 37.290771}}, {"id": 5383720, "name": "Pleasant Hill", "state": "CA", "country": "US", "coord": {"lon": -122.060799, "lat": 37.947979}}, {"id": 5383777, "name": "Pleasanton", "state": "CA", "country": "US", "coord": {"lon": -121.87468, "lat": 37.66243}}, {"id": 5383832, "name": "Plumas County", "state": "CA", "country": "US", "coord": {"lon": -120.867729, "lat": 39.983231}}, {"id": 5383844, "name": "Plumas Lake", "state": "CA", "country": "US", "coord": {"lon": -121.558022, "lat": 39.020729}}, {"id": 5383872, "name": "Plymouth", "state": "CA", "country": "US", "coord": {"lon": -120.844658, "lat": 38.48185}}, {"id": 5384095, "name": "Pokerville (historical)", "state": "CA", "country": "US", "coord": {"lon": -120.859383, "lat": 38.480461}}, {"id": 5384099, "name": "Polaris", "state": "CA", "country": "US", "coord": {"lon": -120.13575, "lat": 39.339069}}, {"id": 5384133, "name": "Pollock Pines", "state": "CA", "country": "US", "coord": {"lon": -120.586594, "lat": 38.761292}}, {"id": 5384170, "name": "Pomona", "state": "CA", "country": "US", "coord": {"lon": -117.752281, "lat": 34.05529}}, {"id": 5384214, "name": "Ponderosa", "state": "CA", "country": "US", "coord": {"lon": -118.528137, "lat": 36.105499}}, {"id": 5384339, "name": "Port Hueneme", "state": "CA", "country": "US", "coord": {"lon": -119.195107, "lat": 34.147781}}, {"id": 5384438, "name": "Portola", "state": "CA", "country": "US", "coord": {"lon": -120.469101, "lat": 39.810459}}, {"id": 5384452, "name": "Portola Hills", "state": "CA", "country": "US", "coord": {"lon": -117.631157, "lat": 33.679192}}, {"id": 5384471, "name": "Porterville", "state": "CA", "country": "US", "coord": {"lon": -119.016769, "lat": 36.065231}}, {"id": 5384478, "name": "Portola Valley", "state": "CA", "country": "US", "coord": {"lon": -122.235237, "lat": 37.384109}}, {"id": 5384690, "name": "Poway", "state": "CA", "country": "US", "coord": {"lon": -117.035858, "lat": 32.962818}}, {"id": 5385082, "name": "Prunedale", "state": "CA", "country": "US", "coord": {"lon": -121.66967, "lat": 36.775791}}, {"id": 5385346, "name": "Quail Valley", "state": "CA", "country": "US", "coord": {"lon": -117.245041, "lat": 33.70697}}, {"id": 5385393, "name": "Quartz Hill", "state": "CA", "country": "US", "coord": {"lon": -118.218132, "lat": 34.64526}}, {"id": 5385487, "name": "Quincy", "state": "CA", "country": "US", "coord": {"lon": -120.947182, "lat": 39.93684}}, {"id": 5385662, "name": "Rainbow", "state": "CA", "country": "US", "coord": {"lon": -117.147812, "lat": 33.410309}}, {"id": 5385793, "name": "Ramona", "state": "CA", "country": "US", "coord": {"lon": -116.86808, "lat": 33.04171}}, {"id": 5385925, "name": "Rancho Calaveras", "state": "CA", "country": "US", "coord": {"lon": -120.858269, "lat": 38.127419}}, {"id": 5385926, "name": "Rancho Calaveras", "state": "", "country": "US", "coord": {"lon": -120.85833, "lat": 38.127499}}, {"id": 5385941, "name": "Rancho Cordova", "state": "CA", "country": "US", "coord": {"lon": -121.302727, "lat": 38.589069}}, {"id": 5385955, "name": "Rancho Cucamonga", "state": "CA", "country": "US", "coord": {"lon": -117.593109, "lat": 34.1064}}, {"id": 5386002, "name": "Rancho Loma Rica", "state": "CA", "country": "US", "coord": {"lon": -121.354134, "lat": 39.308781}}, {"id": 5386015, "name": "Rancho Mirage", "state": "CA", "country": "US", "coord": {"lon": -116.412788, "lat": 33.739738}}, {"id": 5386027, "name": "Rancho Murieta", "state": "CA", "country": "US", "coord": {"lon": -121.094673, "lat": 38.50185}}, {"id": 5386035, "name": "Rancho Palos Verdes", "state": "CA", "country": "US", "coord": {"lon": -118.387016, "lat": 33.744461}}, {"id": 5386053, "name": "Rancho San Diego", "state": "CA", "country": "US", "coord": {"lon": -116.935303, "lat": 32.747269}}, {"id": 5386073, "name": "Rancho Santa Fe", "state": "CA", "country": "US", "coord": {"lon": -117.202812, "lat": 33.020321}}, {"id": 5386082, "name": "Rancho Santa Margarita", "state": "CA", "country": "US", "coord": {"lon": -117.603104, "lat": 33.640862}}, {"id": 5386335, "name": "Ravenswood", "state": "CA", "country": "US", "coord": {"lon": -122.135239, "lat": 37.47633}}, {"id": 5386729, "name": "Redbud Park (historical)", "state": "CA", "country": "US", "coord": {"lon": -122.137199, "lat": 38.519348}}, {"id": 5386754, "name": "Redlands", "state": "CA", "country": "US", "coord": {"lon": -117.182541, "lat": 34.055569}}, {"id": 5386785, "name": "Redondo Beach", "state": "CA", "country": "US", "coord": {"lon": -118.388412, "lat": 33.849178}}, {"id": 5386834, "name": "Redwood City", "state": "CA", "country": "US", "coord": {"lon": -122.236351, "lat": 37.485222}}, {"id": 5386938, "name": "Redwood Terrace", "state": "CA", "country": "US", "coord": {"lon": -122.294968, "lat": 37.314659}}, {"id": 5386943, "name": "Redwood Valley", "state": "CA", "country": "US", "coord": {"lon": -123.204453, "lat": 39.265442}}, {"id": 5386984, "name": "Reedley", "state": "CA", "country": "US", "coord": {"lon": -119.450401, "lat": 36.59634}}, {"id": 5387078, "name": "Relief", "state": "CA", "country": "US", "coord": {"lon": -120.860779, "lat": 39.36129}}, {"id": 5387288, "name": "Rialto", "state": "CA", "country": "US", "coord": {"lon": -117.370323, "lat": 34.1064}}, {"id": 5387307, "name": "Ribbonwood", "state": "CA", "country": "US", "coord": {"lon": -116.498901, "lat": 33.570309}}, {"id": 5387411, "name": "Richgrove", "state": "CA", "country": "US", "coord": {"lon": -119.10788, "lat": 35.796619}}, {"id": 5387428, "name": "Richmond", "state": "CA", "country": "US", "coord": {"lon": -122.347748, "lat": 37.93576}}, {"id": 5387494, "name": "Ridgecrest", "state": "CA", "country": "US", "coord": {"lon": -117.670898, "lat": 35.622459}}, {"id": 5387509, "name": "Ridgemark", "state": "CA", "country": "US", "coord": {"lon": -121.365768, "lat": 36.812462}}, {"id": 5387673, "name": "Rio Del Mar", "state": "CA", "country": "US", "coord": {"lon": -121.90023, "lat": 36.968281}}, {"id": 5387687, "name": "Rio Linda", "state": "CA", "country": "US", "coord": {"lon": -121.44857, "lat": 38.69101}}, {"id": 5387716, "name": "Rio Vista", "state": "", "country": "US", "coord": {"lon": -121.691338, "lat": 38.15575}}, {"id": 5387749, "name": "Ripon", "state": "CA", "country": "US", "coord": {"lon": -121.124382, "lat": 37.7416}}, {"id": 5387844, "name": "Riverbank", "state": "CA", "country": "US", "coord": {"lon": -120.935493, "lat": 37.736038}}, {"id": 5387854, "name": "Riverdale", "state": "CA", "country": "US", "coord": {"lon": -119.859581, "lat": 36.431061}}, {"id": 5387865, "name": "Riverdale Park", "state": "CA", "country": "US", "coord": {"lon": -121.05188, "lat": 37.609379}}, {"id": 5387877, "name": "Riverside", "state": "CA", "country": "US", "coord": {"lon": -117.396156, "lat": 33.95335}}, {"id": 5387890, "name": "Riverside County", "state": "CA", "country": "US", "coord": {"lon": -116.050827, "lat": 33.733349}}, {"id": 5388241, "name": "Rock Haven", "state": "CA", "country": "US", "coord": {"lon": -119.31929, "lat": 37.125778}}, {"id": 5388319, "name": "Rocklin", "state": "CA", "country": "US", "coord": {"lon": -121.235779, "lat": 38.79073}}, {"id": 5388467, "name": "Rodeo", "state": "CA", "country": "US", "coord": {"lon": -122.266907, "lat": 38.032982}}, {"id": 5388564, "name": "Rohnert Park", "state": "CA", "country": "US", "coord": {"lon": -122.701103, "lat": 38.339642}}, {"id": 5388593, "name": "Rolling Hills", "state": "CA", "country": "US", "coord": {"lon": -118.353958, "lat": 33.756962}}, {"id": 5388601, "name": "Rolling Hills Estates", "state": "CA", "country": "US", "coord": {"lon": -118.358131, "lat": 33.787788}}, {"id": 5388611, "name": "Rollingwood", "state": "CA", "country": "US", "coord": {"lon": -122.329971, "lat": 37.965199}}, {"id": 5388644, "name": "Romoland", "state": "CA", "country": "US", "coord": {"lon": -117.175034, "lat": 33.74585}}, {"id": 5388735, "name": "Rosamond", "state": "CA", "country": "US", "coord": {"lon": -118.163406, "lat": 34.86414}}, {"id": 5388843, "name": "Rosedale", "state": "CA", "country": "US", "coord": {"lon": -119.145378, "lat": 35.383572}}, {"id": 5388858, "name": "Roseland", "state": "CA", "country": "US", "coord": {"lon": -122.728043, "lat": 38.422131}}, {"id": 5388867, "name": "Rosemead", "state": "CA", "country": "US", "coord": {"lon": -118.072853, "lat": 34.08057}}, {"id": 5388873, "name": "Rosemont", "state": "CA", "country": "US", "coord": {"lon": -121.36467, "lat": 38.551849}}, {"id": 5388881, "name": "Roseville", "state": "CA", "country": "US", "coord": {"lon": -121.28801, "lat": 38.752121}}, {"id": 5388907, "name": "Ross", "state": "CA", "country": "US", "coord": {"lon": -122.554977, "lat": 37.962421}}, {"id": 5388953, "name": "Rossmoor", "state": "CA", "country": "US", "coord": {"lon": -118.08506, "lat": 33.785568}}, {"id": 5389126, "name": "Rowland Heights", "state": "CA", "country": "US", "coord": {"lon": -117.905342, "lat": 33.97612}}, {"id": 5389213, "name": "Rubidoux", "state": "CA", "country": "US", "coord": {"lon": -117.405602, "lat": 33.996132}}, {"id": 5389288, "name": "Running Springs", "state": "CA", "country": "US", "coord": {"lon": -117.1092, "lat": 34.20779}}, {"id": 5389292, "name": "Runnymeade (historical)", "state": "CA", "country": "US", "coord": {"lon": -122.134956, "lat": 37.46772}}, {"id": 5389342, "name": "Russell City", "state": "CA", "country": "US", "coord": {"lon": -122.133583, "lat": 37.65271}}, {"id": 5389489, "name": "Sacramento", "state": "CA", "country": "US", "coord": {"lon": -121.4944, "lat": 38.58157}}, {"id": 5389519, "name": "Sacramento County", "state": "CA", "country": "US", "coord": {"lon": -121.317734, "lat": 38.466579}}, {"id": 5390267, "name": "Saint Helena", "state": "CA", "country": "US", "coord": {"lon": -122.470261, "lat": 38.505192}}, {"id": 5391291, "name": "Salida", "state": "CA", "country": "US", "coord": {"lon": -121.084938, "lat": 37.705761}}, {"id": 5391295, "name": "Salinas", "state": "CA", "country": "US", "coord": {"lon": -121.655502, "lat": 36.677738}}, {"id": 5391503, "name": "Salton City", "state": "CA", "country": "US", "coord": {"lon": -115.956108, "lat": 33.298649}}, {"id": 5391597, "name": "San Andreas", "state": "CA", "country": "US", "coord": {"lon": -120.680489, "lat": 38.19603}}, {"id": 5391615, "name": "San Anselmo", "state": "CA", "country": "US", "coord": {"lon": -122.561638, "lat": 37.974651}}, {"id": 5391648, "name": "San Antonio Heights", "state": "CA", "country": "US", "coord": {"lon": -117.656441, "lat": 34.15556}}, {"id": 5391692, "name": "San Benito County", "state": "CA", "country": "US", "coord": {"lon": -121.084358, "lat": 36.616631}}, {"id": 5391710, "name": "San Bernardino", "state": "CA", "country": "US", "coord": {"lon": -117.289772, "lat": 34.108341}}, {"id": 5391726, "name": "San Bernardino County", "state": "CA", "country": "US", "coord": {"lon": -116.167511, "lat": 34.66666}}, {"id": 5391749, "name": "San Bruno", "state": "CA", "country": "US", "coord": {"lon": -122.411079, "lat": 37.630489}}, {"id": 5391760, "name": "San Carlos", "state": "CA", "country": "US", "coord": {"lon": -122.260521, "lat": 37.50716}}, {"id": 5391791, "name": "San Clemente", "state": "CA", "country": "US", "coord": {"lon": -117.611992, "lat": 33.426971}}, {"id": 5391811, "name": "San Diego", "state": "CA", "country": "US", "coord": {"lon": -117.157257, "lat": 32.715328}}, {"id": 5391831, "name": "San Diego Country Estates", "state": "CA", "country": "US", "coord": {"lon": -116.783638, "lat": 33.00671}}, {"id": 5391832, "name": "San Diego County", "state": "CA", "country": "US", "coord": {"lon": -116.800858, "lat": 33.033379}}, {"id": 5391891, "name": "San Dimas", "state": "CA", "country": "US", "coord": {"lon": -117.806732, "lat": 34.106682}}, {"id": 5391945, "name": "San Fernando", "state": "CA", "country": "US", "coord": {"lon": -118.438972, "lat": 34.281952}}, {"id": 5391959, "name": "San Francisco", "state": "CA", "country": "US", "coord": {"lon": -122.419418, "lat": 37.774929}}, {"id": 5391997, "name": "City and County of San Francisco", "state": "CA", "country": "US", "coord": {"lon": -122.45108, "lat": 37.766602}}, {"id": 5392034, "name": "San Gabriel", "state": "CA", "country": "US", "coord": {"lon": -118.105827, "lat": 34.096111}}, {"id": 5392090, "name": "San Jacinto", "state": "CA", "country": "US", "coord": {"lon": -116.958641, "lat": 33.783909}}, {"id": 5392114, "name": "San Joaquin", "state": "CA", "country": "US", "coord": {"lon": -120.189041, "lat": 36.606621}}, {"id": 5392126, "name": "San Joaquin County", "state": "CA", "country": "US", "coord": {"lon": -121.301064, "lat": 37.933262}}, {"id": 5392148, "name": "San Joaquin Hills", "state": "CA", "country": "US", "coord": {"lon": -117.836723, "lat": 33.611691}}, {"id": 5392171, "name": "San Jose", "state": "CA", "country": "US", "coord": {"lon": -121.894958, "lat": 37.33939}}, {"id": 5392215, "name": "San Juan Bautista", "state": "CA", "country": "US", "coord": {"lon": -121.538002, "lat": 36.845509}}, {"id": 5392229, "name": "San Juan Capistrano", "state": "CA", "country": "US", "coord": {"lon": -117.662552, "lat": 33.50169}}, {"id": 5392263, "name": "San Leandro", "state": "CA", "country": "US", "coord": {"lon": -122.156082, "lat": 37.72493}}, {"id": 5392281, "name": "San Lorenzo", "state": "CA", "country": "US", "coord": {"lon": -122.124413, "lat": 37.681042}}, {"id": 5392323, "name": "San Luis Obispo", "state": "CA", "country": "US", "coord": {"lon": -120.659622, "lat": 35.282749}}, {"id": 5392329, "name": "San Luis Obispo County", "state": "CA", "country": "US", "coord": {"lon": -120.534332, "lat": 35.366638}}, {"id": 5392368, "name": "San Marcos", "state": "CA", "country": "US", "coord": {"lon": -117.166138, "lat": 33.143372}}, {"id": 5392400, "name": "San Marino", "state": "CA", "country": "US", "coord": {"lon": -118.106461, "lat": 34.121399}}, {"id": 5392408, "name": "San Martin", "state": "CA", "country": "US", "coord": {"lon": -121.610222, "lat": 37.084949}}, {"id": 5392423, "name": "San Mateo", "state": "CA", "country": "US", "coord": {"lon": -122.325531, "lat": 37.562988}}, {"id": 5392427, "name": "San Mateo County", "state": "CA", "country": "US", "coord": {"lon": -122.351082, "lat": 37.44994}}, {"id": 5392448, "name": "San Miguel", "state": "CA", "country": "US", "coord": {"lon": -120.696281, "lat": 35.752468}}, {"id": 5392508, "name": "San Pablo", "state": "CA", "country": "US", "coord": {"lon": -122.345528, "lat": 37.962151}}, {"id": 5392517, "name": "San Pasqual", "state": "CA", "country": "US", "coord": {"lon": -116.953918, "lat": 33.091709}}, {"id": 5392528, "name": "San Pedro", "state": "CA", "country": "US", "coord": {"lon": -118.29229, "lat": 33.735851}}, {"id": 5392567, "name": "San Rafael", "state": "CA", "country": "US", "coord": {"lon": -122.53109, "lat": 37.97353}}, {"id": 5392593, "name": "San Ramon", "state": "CA", "country": "US", "coord": {"lon": -121.97802, "lat": 37.77993}}, {"id": 5392816, "name": "Sandpiper Mobile Home Park", "state": "CA", "country": "US", "coord": {"lon": -119.540962, "lat": 34.409161}}, {"id": 5392868, "name": "Sanger", "state": "CA", "country": "US", "coord": {"lon": -119.555969, "lat": 36.708012}}, {"id": 5392900, "name": "Santa Ana", "state": "CA", "country": "US", "coord": {"lon": -117.867828, "lat": 33.745571}}, {"id": 5392952, "name": "Santa Barbara", "state": "CA", "country": "US", "coord": {"lon": -119.698189, "lat": 34.42083}}, {"id": 5392967, "name": "Santa Barbara County", "state": "CA", "country": "US", "coord": {"lon": -120.034309, "lat": 34.733318}}, {"id": 5393015, "name": "Santa Clara", "state": "CA", "country": "US", "coord": {"lon": -121.955238, "lat": 37.354111}}, {"id": 5393021, "name": "Santa Clara County", "state": "CA", "country": "US", "coord": {"lon": -121.767731, "lat": 37.23328}}, {"id": 5393049, "name": "Santa Clarita", "state": "CA", "country": "US", "coord": {"lon": -118.542587, "lat": 34.391659}}, {"id": 5393052, "name": "Santa Cruz", "state": "CA", "country": "US", "coord": {"lon": -122.0308, "lat": 36.974121}}, {"id": 5393068, "name": "Santa Cruz County", "state": "CA", "country": "US", "coord": {"lon": -122.051071, "lat": 37.066608}}, {"id": 5393128, "name": "Santa Fe Springs", "state": "CA", "country": "US", "coord": {"lon": -118.08535, "lat": 33.947239}}, {"id": 5393154, "name": "Santa Margarita", "state": "CA", "country": "US", "coord": {"lon": -120.609062, "lat": 35.389969}}, {"id": 5393180, "name": "Santa Maria", "state": "CA", "country": "US", "coord": {"lon": -120.435722, "lat": 34.95303}}, {"id": 5393212, "name": "Santa Monica", "state": "CA", "country": "US", "coord": {"lon": -118.491188, "lat": 34.019451}}, {"id": 5393244, "name": "Santa Nella Village", "state": "CA", "country": "US", "coord": {"lon": -121.016869, "lat": 37.097721}}, {"id": 5393245, "name": "Santa Paula", "state": "CA", "country": "US", "coord": {"lon": -119.059273, "lat": 34.354172}}, {"id": 5393287, "name": "Santa Rosa", "state": "CA", "country": "US", "coord": {"lon": -122.714432, "lat": 38.440472}}, {"id": 5393358, "name": "Santa Susana", "state": "CA", "country": "US", "coord": {"lon": -118.708977, "lat": 34.271671}}, {"id": 5393384, "name": "Santa Venetia", "state": "CA", "country": "US", "coord": {"lon": -122.525253, "lat": 37.998531}}, {"id": 5393388, "name": "Santa Ynez", "state": "CA", "country": "US", "coord": {"lon": -120.079872, "lat": 34.614429}}, {"id": 5393429, "name": "Santee", "state": "CA", "country": "US", "coord": {"lon": -116.973923, "lat": 32.838379}}, {"id": 5393484, "name": "Saranap", "state": "CA", "country": "US", "coord": {"lon": -122.076073, "lat": 37.884918}}, {"id": 5393485, "name": "Saratoga", "state": "CA", "country": "US", "coord": {"lon": -122.02301, "lat": 37.263828}}, {"id": 5393545, "name": "Saticoy", "state": "CA", "country": "US", "coord": {"lon": -119.149834, "lat": 34.283058}}, {"id": 5393611, "name": "Sausalito", "state": "CA", "country": "US", "coord": {"lon": -122.485252, "lat": 37.859089}}, {"id": 5393719, "name": "Saxon", "state": "CA", "country": "US", "coord": {"lon": -121.656349, "lat": 38.466572}}, {"id": 5393971, "name": "Scotts Valley", "state": "CA", "country": "US", "coord": {"lon": -122.014679, "lat": 37.05106}}, {"id": 5394063, "name": "Sea Ranch", "state": "CA", "country": "US", "coord": {"lon": -123.454453, "lat": 38.715191}}, {"id": 5394076, "name": "Seacliff", "state": "CA", "country": "US", "coord": {"lon": -121.915787, "lat": 36.974121}}, {"id": 5394086, "name": "Seal Beach", "state": "CA", "country": "US", "coord": {"lon": -118.10479, "lat": 33.741409}}, {"id": 5394124, "name": "Searles Valley", "state": "CA", "country": "US", "coord": {"lon": -117.403954, "lat": 35.767448}}, {"id": 5394136, "name": "Seaside", "state": "CA", "country": "US", "coord": {"lon": -121.851624, "lat": 36.611069}}, {"id": 5394165, "name": "Sebastopol", "state": "CA", "country": "US", "coord": {"lon": -122.823883, "lat": 38.402142}}, {"id": 5394273, "name": "Sedco Hills", "state": "CA", "country": "US", "coord": {"lon": -117.290871, "lat": 33.641689}}, {"id": 5394279, "name": "Seeley", "state": "CA", "country": "US", "coord": {"lon": -115.691109, "lat": 32.79311}}, {"id": 5394329, "name": "Selma", "state": "CA", "country": "US", "coord": {"lon": -119.612083, "lat": 36.570782}}, {"id": 5394503, "name": "Serra Mesa", "state": "CA", "country": "US", "coord": {"lon": -117.138367, "lat": 32.80283}}, {"id": 5394588, "name": "Seven Trees", "state": "CA", "country": "US", "coord": {"lon": -121.838562, "lat": 37.286049}}, {"id": 5394774, "name": "Shackelford", "state": "CA", "country": "US", "coord": {"lon": -120.992706, "lat": 37.613819}}, {"id": 5394842, "name": "Shafter", "state": "CA", "country": "US", "coord": {"lon": -119.271782, "lat": 35.500511}}, {"id": 5394892, "name": "Shandon", "state": "CA", "country": "US", "coord": {"lon": -120.375427, "lat": 35.655251}}, {"id": 5395169, "name": "Shepards", "state": "CA", "country": "US", "coord": {"lon": -119.453453, "lat": 34.39888}}, {"id": 5395244, "name": "Sherman Oaks", "state": "CA", "country": "US", "coord": {"lon": -118.449249, "lat": 34.151119}}, {"id": 5395311, "name": "Shiloh", "state": "CA", "country": "US", "coord": {"lon": -122.795822, "lat": 38.523521}}, {"id": 5395351, "name": "Shingle Springs", "state": "CA", "country": "US", "coord": {"lon": -120.926048, "lat": 38.665741}}, {"id": 5395622, "name": "Sierra Madre", "state": "CA", "country": "US", "coord": {"lon": -118.052849, "lat": 34.161671}}, {"id": 5395754, "name": "Signal Hill", "state": "CA", "country": "US", "coord": {"lon": -118.167847, "lat": 33.804459}}, {"id": 5396003, "name": "Simi Valley", "state": "CA", "country": "US", "coord": {"lon": -118.781479, "lat": 34.269451}}, {"id": 5396291, "name": "Sky Valley", "state": "CA", "country": "US", "coord": {"lon": -116.352509, "lat": 33.890018}}, {"id": 5396422, "name": "Sleepy Hollow", "state": "CA", "country": "US", "coord": {"lon": -122.584419, "lat": 38.010479}}, {"id": 5396498, "name": "Sloughhouse", "state": "CA", "country": "US", "coord": {"lon": -121.19384, "lat": 38.495739}}, {"id": 5396895, "name": "Soda Bay", "state": "CA", "country": "US", "coord": {"lon": -122.789162, "lat": 39.001011}}, {"id": 5396974, "name": "Solana Beach", "state": "CA", "country": "US", "coord": {"lon": -117.271149, "lat": 32.991161}}, {"id": 5396987, "name": "Solano County", "state": "CA", "country": "US", "coord": {"lon": -121.951073, "lat": 38.23325}}, {"id": 5397018, "name": "Soledad", "state": "CA", "country": "US", "coord": {"lon": -121.326317, "lat": 36.42469}}, {"id": 5397059, "name": "Solvang", "state": "CA", "country": "US", "coord": {"lon": -120.13765, "lat": 34.595821}}, {"id": 5397095, "name": "Sonoma", "state": "CA", "country": "US", "coord": {"lon": -122.458038, "lat": 38.291859}}, {"id": 5397100, "name": "Sonoma County", "state": "CA", "country": "US", "coord": {"lon": -122.901108, "lat": 38.549999}}, {"id": 5397165, "name": "Sonora", "state": "CA", "country": "US", "coord": {"lon": -120.382141, "lat": 37.984089}}, {"id": 5397166, "name": "Soquel", "state": "CA", "country": "US", "coord": {"lon": -121.956627, "lat": 36.98801}}, {"id": 5397227, "name": "Soulsbyville", "state": "CA", "country": "US", "coord": {"lon": -120.263802, "lat": 37.98465}}, {"id": 5397374, "name": "South Dos Palos", "state": "CA", "country": "US", "coord": {"lon": -120.653236, "lat": 36.96439}}, {"id": 5397376, "name": "South El Monte", "state": "CA", "country": "US", "coord": {"lon": -118.04673, "lat": 34.051949}}, {"id": 5397603, "name": "South Gate", "state": "CA", "country": "US", "coord": {"lon": -118.212021, "lat": 33.954739}}, {"id": 5397664, "name": "South Lake Tahoe", "state": "CA", "country": "US", "coord": {"lon": -119.984352, "lat": 38.933239}}, {"id": 5397700, "name": "South Oroville", "state": "CA", "country": "US", "coord": {"lon": -121.552193, "lat": 39.496552}}, {"id": 5397717, "name": "South Pasadena", "state": "CA", "country": "US", "coord": {"lon": -118.150352, "lat": 34.116119}}, {"id": 5397765, "name": "South San Francisco", "state": "CA", "country": "US", "coord": {"lon": -122.407753, "lat": 37.654659}}, {"id": 5397771, "name": "South San Gabriel", "state": "CA", "country": "US", "coord": {"lon": -118.090347, "lat": 34.062511}}, {"id": 5397777, "name": "South San Jose Hills", "state": "CA", "country": "US", "coord": {"lon": -117.904778, "lat": 34.012791}}, {"id": 5397841, "name": "South Whittier", "state": "CA", "country": "US", "coord": {"lon": -118.041733, "lat": 33.96085}}, {"id": 5397851, "name": "South Yuba City", "state": "CA", "country": "US", "coord": {"lon": -121.63913, "lat": 39.116562}}, {"id": 5397976, "name": "Spangler", "state": "CA", "country": "US", "coord": {"lon": -117.451439, "lat": 35.548851}}, {"id": 5398168, "name": "Spreckels Junction", "state": "CA", "country": "US", "coord": {"lon": -121.630783, "lat": 36.658291}}, {"id": 5398277, "name": "Spring Valley", "state": "CA", "country": "US", "coord": {"lon": -116.998917, "lat": 32.74477}}, {"id": 5398440, "name": "Squaw Valley", "state": "CA", "country": "US", "coord": {"lon": -119.24678, "lat": 36.740231}}, {"id": 5398521, "name": "Stallion Springs", "state": "CA", "country": "US", "coord": {"lon": -118.642593, "lat": 35.08886}}, {"id": 5398563, "name": "Stanford", "state": "CA", "country": "US", "coord": {"lon": -122.166077, "lat": 37.42411}}, {"id": 5398597, "name": "Stanislaus County", "state": "CA", "country": "US", "coord": {"lon": -121.001602, "lat": 37.549931}}, {"id": 5398630, "name": "Stanton", "state": "CA", "country": "US", "coord": {"lon": -117.993118, "lat": 33.802521}}, {"id": 5399020, "name": "Stockton", "state": "CA", "country": "US", "coord": {"lon": -121.290779, "lat": 37.957699}}, {"id": 5399292, "name": "Stratford", "state": "CA", "country": "US", "coord": {"lon": -119.823189, "lat": 36.1894}}, {"id": 5399305, "name": "Strathmore", "state": "CA", "country": "US", "coord": {"lon": -119.060661, "lat": 36.145512}}, {"id": 5399319, "name": "Strawberry", "state": "CA", "country": "US", "coord": {"lon": -122.508858, "lat": 37.89687}}, {"id": 5399629, "name": "Suisun", "state": "CA", "country": "US", "coord": {"lon": -122.040237, "lat": 38.238251}}, {"id": 5399786, "name": "Summerland", "state": "CA", "country": "US", "coord": {"lon": -119.596519, "lat": 34.421379}}, {"id": 5399901, "name": "Sun City", "state": "CA", "country": "US", "coord": {"lon": -117.197258, "lat": 33.70919}}, {"id": 5399922, "name": "Sun Valley", "state": "CA", "country": "US", "coord": {"lon": -118.370361, "lat": 34.217499}}, {"id": 5400032, "name": "Sunnyside", "state": "CA", "country": "US", "coord": {"lon": -119.69931, "lat": 36.749119}}, {"id": 5400065, "name": "Sunnyslope", "state": "CA", "country": "US", "coord": {"lon": -117.43338, "lat": 34.011959}}, {"id": 5400075, "name": "Sunnyvale", "state": "CA", "country": "US", "coord": {"lon": -122.036346, "lat": 37.368832}}, {"id": 5400376, "name": "Sutter", "state": "CA", "country": "US", "coord": {"lon": -121.752747, "lat": 39.159889}}, {"id": 5400390, "name": "Sutter County", "state": "CA", "country": "US", "coord": {"lon": -121.70108, "lat": 39.01656}}, {"id": 5400400, "name": "Sutter Creek", "state": "CA", "country": "US", "coord": {"lon": -120.802437, "lat": 38.392971}}, {"id": 5400877, "name": "Taft", "state": "CA", "country": "US", "coord": {"lon": -119.456512, "lat": 35.142471}}, {"id": 5400890, "name": "Taft Heights", "state": "CA", "country": "US", "coord": {"lon": -119.472618, "lat": 35.134689}}, {"id": 5400943, "name": "Tahoe Vista", "state": "CA", "country": "US", "coord": {"lon": -120.051018, "lat": 39.23991}}, {"id": 5400946, "name": "Tahoma", "state": "CA", "country": "US", "coord": {"lon": -120.128242, "lat": 39.06741}}, {"id": 5400963, "name": "Tajiguas", "state": "CA", "country": "US", "coord": {"lon": -120.108482, "lat": 34.46666}}, {"id": 5400996, "name": "Talmage", "state": "CA", "country": "US", "coord": {"lon": -123.167778, "lat": 39.133228}}, {"id": 5401000, "name": "Talus", "state": "CA", "country": "US", "coord": {"lon": -117.972862, "lat": 36.086891}}, {"id": 5401121, "name": "Tara Hills", "state": "CA", "country": "US", "coord": {"lon": -122.31636, "lat": 37.99353}}, {"id": 5401133, "name": "Tarpey Village", "state": "CA", "country": "US", "coord": {"lon": -119.700974, "lat": 36.793011}}, {"id": 5401254, "name": "Teagueville (historical)", "state": "CA", "country": "US", "coord": {"lon": -119.082047, "lat": 34.408329}}, {"id": 5401297, "name": "Tehachapi", "state": "CA", "country": "US", "coord": {"lon": -118.448967, "lat": 35.132191}}, {"id": 5401395, "name": "Temecula", "state": "CA", "country": "US", "coord": {"lon": -117.148361, "lat": 33.493641}}, {"id": 5401408, "name": "Temelec", "state": "CA", "country": "US", "coord": {"lon": -122.49276, "lat": 38.266579}}, {"id": 5401469, "name": "Temple City", "state": "CA", "country": "US", "coord": {"lon": -118.057854, "lat": 34.107231}}, {"id": 5401516, "name": "Templeton", "state": "CA", "country": "US", "coord": {"lon": -120.706001, "lat": 35.54969}}, {"id": 5401670, "name": "Terra Bella", "state": "CA", "country": "US", "coord": {"lon": -119.044273, "lat": 35.962448}}, {"id": 5401954, "name": "The Colony Mobile Home Park", "state": "CA", "country": "US", "coord": {"lon": -119.138718, "lat": 34.16362}}, {"id": 5402128, "name": "The Willows", "state": "CA", "country": "US", "coord": {"lon": -116.722519, "lat": 32.83477}}, {"id": 5402152, "name": "Thermal", "state": "CA", "country": "US", "coord": {"lon": -116.13945, "lat": 33.640301}}, {"id": 5402159, "name": "Thermalito", "state": "CA", "country": "US", "coord": {"lon": -121.586922, "lat": 39.51128}}, {"id": 5402388, "name": "Thornton", "state": "CA", "country": "US", "coord": {"lon": -121.424667, "lat": 38.226028}}, {"id": 5402405, "name": "Thousand Oaks", "state": "CA", "country": "US", "coord": {"lon": -118.837593, "lat": 34.170559}}, {"id": 5402415, "name": "Thousand Palms", "state": "CA", "country": "US", "coord": {"lon": -116.390289, "lat": 33.820019}}, {"id": 5402535, "name": "Tiburon", "state": "CA", "country": "US", "coord": {"lon": -122.456642, "lat": 37.873539}}, {"id": 5402570, "name": "Tierra Buena", "state": "CA", "country": "US", "coord": {"lon": -121.666908, "lat": 39.148781}}, {"id": 5402740, "name": "Tipton", "state": "CA", "country": "US", "coord": {"lon": -119.312057, "lat": 36.059399}}, {"id": 5402961, "name": "Topanga", "state": "CA", "country": "US", "coord": {"lon": -118.604362, "lat": 34.089272}}, {"id": 5403000, "name": "Toro Canyon", "state": "CA", "country": "US", "coord": {"lon": -119.56707, "lat": 34.419998}}, {"id": 5403022, "name": "Torrance", "state": "CA", "country": "US", "coord": {"lon": -118.34063, "lat": 33.83585}}, {"id": 5403106, "name": "Town and Country Mobile Home Park", "state": "CA", "country": "US", "coord": {"lon": -116.974747, "lat": 32.83255}}, {"id": 5403172, "name": "Trabuco Canyon", "state": "CA", "country": "US", "coord": {"lon": -117.585297, "lat": 33.660919}}, {"id": 5403191, "name": "Tracy", "state": "CA", "country": "US", "coord": {"lon": -121.425217, "lat": 37.739651}}, {"id": 5403312, "name": "Travis Field", "state": "CA", "country": "US", "coord": {"lon": -121.932739, "lat": 38.272141}}, {"id": 5403354, "name": "Tres Pinos", "state": "CA", "country": "US", "coord": {"lon": -121.321037, "lat": 36.789959}}, {"id": 5403676, "name": "Truckee", "state": "CA", "country": "US", "coord": {"lon": -120.18325, "lat": 39.327961}}, {"id": 5403783, "name": "Tulare", "state": "CA", "country": "US", "coord": {"lon": -119.347343, "lat": 36.207729}}, {"id": 5403789, "name": "Tulare County", "state": "CA", "country": "US", "coord": {"lon": -118.800926, "lat": 36.266609}}, {"id": 5403971, "name": "Tuolumne City", "state": "CA", "country": "US", "coord": {"lon": -120.241302, "lat": 37.9627}}, {"id": 5403973, "name": "Tuolumne County", "state": "CA", "country": "US", "coord": {"lon": -119.901009, "lat": 38.066589}}, {"id": 5404024, "name": "Turlock", "state": "CA", "country": "US", "coord": {"lon": -120.846588, "lat": 37.494659}}, {"id": 5404119, "name": "Tustin", "state": "CA", "country": "US", "coord": {"lon": -117.826172, "lat": 33.74585}}, {"id": 5404122, "name": "North Tustin", "state": "CA", "country": "US", "coord": {"lon": -117.793938, "lat": 33.764462}}, {"id": 5404141, "name": "Twain Harte", "state": "CA", "country": "US", "coord": {"lon": -120.232689, "lat": 38.03965}}, {"id": 5404198, "name": "Twentynine Palms", "state": "CA", "country": "US", "coord": {"lon": -116.054169, "lat": 34.135559}}, {"id": 5404274, "name": "Twin Lakes", "state": "CA", "country": "US", "coord": {"lon": -121.998016, "lat": 36.967449}}, {"id": 5404395, "name": "Two Rock", "state": "CA", "country": "US", "coord": {"lon": -122.792213, "lat": 38.266312}}, {"id": 5404476, "name": "Ukiah", "state": "CA", "country": "US", "coord": {"lon": -123.207779, "lat": 39.150169}}, {"id": 5404554, "name": "Union City", "state": "", "country": "US", "coord": {"lon": -122.019173, "lat": 37.595829}}, {"id": 5404555, "name": "Union City", "state": "CA", "country": "US", "coord": {"lon": -122.019127, "lat": 37.595772}}, {"id": 5404794, "name": "Universal City", "state": "CA", "country": "US", "coord": {"lon": -118.353409, "lat": 34.138901}}, {"id": 5404915, "name": "Upland", "state": "CA", "country": "US", "coord": {"lon": -117.648392, "lat": 34.097511}}, {"id": 5405038, "name": "Upper Lake", "state": "CA", "country": "US", "coord": {"lon": -122.910553, "lat": 39.164612}}, {"id": 5405228, "name": "Vacaville", "state": "CA", "country": "US", "coord": {"lon": -121.98774, "lat": 38.356579}}, {"id": 5405279, "name": "Val Verde", "state": "CA", "country": "US", "coord": {"lon": -118.657593, "lat": 34.445}}, {"id": 5405326, "name": "Valinda", "state": "CA", "country": "US", "coord": {"lon": -117.943672, "lat": 34.045292}}, {"id": 5405346, "name": "Valle Vista", "state": "CA", "country": "US", "coord": {"lon": -116.893356, "lat": 33.747799}}, {"id": 5405380, "name": "Vallejo", "state": "CA", "country": "US", "coord": {"lon": -122.256638, "lat": 38.104092}}, {"id": 5405430, "name": "Valley Center", "state": "CA", "country": "US", "coord": {"lon": -117.034203, "lat": 33.218369}}, {"id": 5405529, "name": "Valley Oaks Mobile Home Park", "state": "CA", "country": "US", "coord": {"lon": -123.314728, "lat": 39.411831}}, {"id": 5405554, "name": "Valley Springs", "state": "CA", "country": "US", "coord": {"lon": -120.829102, "lat": 38.191589}}, {"id": 5405603, "name": "Valley Vista", "state": "CA", "country": "US", "coord": {"lon": -117.073082, "lat": 33.741409}}, {"id": 5405737, "name": "Vandenberg Village", "state": "CA", "country": "US", "coord": {"lon": -120.467659, "lat": 34.708321}}, {"id": 5405760, "name": "Vanris (historical)", "state": "CA", "country": "US", "coord": {"lon": -119.700417, "lat": 36.77578}}, {"id": 5405867, "name": "Venola", "state": "CA", "country": "US", "coord": {"lon": -119.054268, "lat": 35.310791}}, {"id": 5405878, "name": "Ventura", "state": "CA", "country": "US", "coord": {"lon": -119.293167, "lat": 34.278339}}, {"id": 5405889, "name": "Ventura County", "state": "CA", "country": "US", "coord": {"lon": -119.017601, "lat": 34.46666}}, {"id": 5406033, "name": "Veteran Heights", "state": "CA", "country": "US", "coord": {"lon": -122.436089, "lat": 38.57407}}, {"id": 5406222, "name": "Victorville", "state": "CA", "country": "US", "coord": {"lon": -117.291161, "lat": 34.53611}}, {"id": 5406337, "name": "Villa Park", "state": "CA", "country": "US", "coord": {"lon": -117.81311, "lat": 33.814461}}, {"id": 5406376, "name": "Village Mobile Home Park", "state": "CA", "country": "US", "coord": {"lon": -120.453217, "lat": 34.888309}}, {"id": 5406421, "name": "Vincent", "state": "CA", "country": "US", "coord": {"lon": -118.116463, "lat": 34.500549}}, {"id": 5406517, "name": "Violet (historical)", "state": "CA", "country": "US", "coord": {"lon": -121.971909, "lat": 38.384079}}, {"id": 5406567, "name": "Visalia", "state": "CA", "country": "US", "coord": {"lon": -119.292061, "lat": 36.330231}}, {"id": 5406602, "name": "Vista", "state": "CA", "country": "US", "coord": {"lon": -117.242538, "lat": 33.200039}}, {"id": 5406664, "name": "Vista Santa Rosa", "state": "CA", "country": "US", "coord": {"lon": -116.218063, "lat": 33.6278}}, {"id": 5406879, "name": "Waldon", "state": "CA", "country": "US", "coord": {"lon": -122.055519, "lat": 37.926311}}, {"id": 5406976, "name": "Walnut", "state": "CA", "country": "US", "coord": {"lon": -117.865341, "lat": 34.02029}}, {"id": 5406990, "name": "Walnut Creek", "state": "CA", "country": "US", "coord": {"lon": -122.064957, "lat": 37.906311}}, {"id": 5407004, "name": "Walnut Grove", "state": "CA", "country": "US", "coord": {"lon": -121.51162, "lat": 38.242142}}, {"id": 5407030, "name": "Walnut Park", "state": "CA", "country": "US", "coord": {"lon": -118.225067, "lat": 33.968071}}, {"id": 5407463, "name": "Waterford", "state": "CA", "country": "US", "coord": {"lon": -120.760483, "lat": 37.641319}}, {"id": 5407529, "name": "Watsonville", "state": "CA", "country": "US", "coord": {"lon": -121.756889, "lat": 36.910229}}, {"id": 5407692, "name": "Weedpatch", "state": "CA", "country": "US", "coord": {"lon": -118.9151, "lat": 35.238022}}, {"id": 5407744, "name": "Weldon", "state": "CA", "country": "US", "coord": {"lon": -118.290359, "lat": 35.665791}}, {"id": 5407841, "name": "West Athens", "state": "CA", "country": "US", "coord": {"lon": -118.303413, "lat": 33.923351}}, {"id": 5407908, "name": "West Carson", "state": "CA", "country": "US", "coord": {"lon": -118.292572, "lat": 33.821678}}, {"id": 5407927, "name": "West Rancho Dominguez", "state": "CA", "country": "US", "coord": {"lon": -118.27063, "lat": 33.893902}}, {"id": 5407933, "name": "West Covina", "state": "CA", "country": "US", "coord": {"lon": -117.93895, "lat": 34.068619}}, {"id": 5408076, "name": "West Hollywood", "state": "CA", "country": "US", "coord": {"lon": -118.36174, "lat": 34.090012}}, {"id": 5408132, "name": "West Menlo Park", "state": "CA", "country": "US", "coord": {"lon": -122.203018, "lat": 37.433552}}, {"id": 5408166, "name": "West Park", "state": "CA", "country": "US", "coord": {"lon": -119.851257, "lat": 36.710232}}, {"id": 5408191, "name": "West Puente Valley", "state": "CA", "country": "US", "coord": {"lon": -117.968399, "lat": 34.051682}}, {"id": 5408211, "name": "West Sacramento", "state": "CA", "country": "US", "coord": {"lon": -121.530228, "lat": 38.58046}}, {"id": 5408395, "name": "Westlake Village", "state": "CA", "country": "US", "coord": {"lon": -118.805649, "lat": 34.14584}}, {"id": 5408406, "name": "Westminster", "state": "CA", "country": "US", "coord": {"lon": -118.006729, "lat": 33.759178}}, {"id": 5408431, "name": "Westmont", "state": "CA", "country": "US", "coord": {"lon": -118.302299, "lat": 33.941399}}, {"id": 5408445, "name": "Westmorland", "state": "CA", "country": "US", "coord": {"lon": -115.621384, "lat": 33.03727}}, {"id": 5408522, "name": "Westwood", "state": "CA", "country": "US", "coord": {"lon": -118.430634, "lat": 34.056122}}, {"id": 5408617, "name": "Wheatland", "state": "CA", "country": "US", "coord": {"lon": -121.423012, "lat": 39.009892}}, {"id": 5409006, "name": "Whitmore Hot Springs", "state": "CA", "country": "US", "coord": {"lon": -118.812347, "lat": 37.632431}}, {"id": 5409059, "name": "Whittier", "state": "CA", "country": "US", "coord": {"lon": -118.032837, "lat": 33.979179}}, {"id": 5409260, "name": "Wildomar", "state": "CA", "country": "US", "coord": {"lon": -117.280037, "lat": 33.598911}}, {"id": 5409417, "name": "Williams", "state": "CA", "country": "US", "coord": {"lon": -122.149422, "lat": 39.15461}}, {"id": 5409500, "name": "Willits", "state": "CA", "country": "US", "coord": {"lon": -123.355568, "lat": 39.409611}}, {"id": 5409768, "name": "Willowbrook", "state": "CA", "country": "US", "coord": {"lon": -118.255074, "lat": 33.916962}}, {"id": 5409777, "name": "Willows", "state": "CA", "country": "US", "coord": {"lon": -122.193588, "lat": 39.52433}}, {"id": 5409906, "name": "Wilson Place", "state": "CA", "country": "US", "coord": {"lon": -122.402771, "lat": 39.67321}}, {"id": 5409941, "name": "Wilton", "state": "CA", "country": "US", "coord": {"lon": -121.272171, "lat": 38.411861}}, {"id": 5409959, "name": "Winchester", "state": "CA", "country": "US", "coord": {"lon": -117.084473, "lat": 33.70697}}, {"id": 5410004, "name": "Windsor", "state": "CA", "country": "US", "coord": {"lon": -122.816383, "lat": 38.547131}}, {"id": 5410125, "name": "Winters", "state": "CA", "country": "US", "coord": {"lon": -121.970802, "lat": 38.52491}}, {"id": 5410129, "name": "Winter Gardens", "state": "CA", "country": "US", "coord": {"lon": -116.933357, "lat": 32.831161}}, {"id": 5410144, "name": "Winton", "state": "CA", "country": "US", "coord": {"lon": -120.613251, "lat": 37.389381}}, {"id": 5410227, "name": "Wofford Heights", "state": "CA", "country": "US", "coord": {"lon": -118.4562, "lat": 35.706902}}, {"id": 5410338, "name": "Woodacre", "state": "CA", "country": "US", "coord": {"lon": -122.645264, "lat": 38.012699}}, {"id": 5410350, "name": "Woodbridge", "state": "CA", "country": "US", "coord": {"lon": -121.301338, "lat": 38.154079}}, {"id": 5410382, "name": "Woodcrest", "state": "CA", "country": "US", "coord": {"lon": -117.357269, "lat": 33.88224}}, {"id": 5410416, "name": "Woodlake", "state": "CA", "country": "US", "coord": {"lon": -119.098717, "lat": 36.413559}}, {"id": 5410430, "name": "Woodland", "state": "CA", "country": "US", "coord": {"lon": -121.7733, "lat": 38.67852}}, {"id": 5410535, "name": "Woodside", "state": "CA", "country": "US", "coord": {"lon": -122.25386, "lat": 37.429939}}, {"id": 5410569, "name": "Woodville", "state": "CA", "country": "US", "coord": {"lon": -119.198997, "lat": 36.093559}}, {"id": 5410682, "name": "Wrightwood", "state": "CA", "country": "US", "coord": {"lon": -117.633392, "lat": 34.360828}}, {"id": 5410874, "name": "Yokohl", "state": "CA", "country": "US", "coord": {"lon": -119.082329, "lat": 36.325508}}, {"id": 5410882, "name": "Yolo County", "state": "CA", "country": "US", "coord": {"lon": -121.884407, "lat": 38.699902}}, {"id": 5410902, "name": "Yorba Linda", "state": "CA", "country": "US", "coord": {"lon": -117.81311, "lat": 33.88863}}, {"id": 5410943, "name": "Yosemite Lakes", "state": "CA", "country": "US", "coord": {"lon": -119.772652, "lat": 37.191059}}, {"id": 5410999, "name": "Yountville", "state": "CA", "country": "US", "coord": {"lon": -122.360809, "lat": 38.401581}}, {"id": 5411015, "name": "Yuba City", "state": "CA", "country": "US", "coord": {"lon": -121.616913, "lat": 39.14045}}, {"id": 5411026, "name": "Yuba County", "state": "CA", "country": "US", "coord": {"lon": -121.40107, "lat": 39.283218}}, {"id": 5411046, "name": "Yucaipa", "state": "CA", "country": "US", "coord": {"lon": -117.043091, "lat": 34.033619}}, {"id": 5411079, "name": "Yucca Valley", "state": "CA", "country": "US", "coord": {"lon": -116.432243, "lat": 34.11417}}, {"id": 5411358, "name": "Acres Green", "state": "CO", "country": "US", "coord": {"lon": -104.896088, "lat": 39.55666}}, {"id": 5411363, "name": "Adams County", "state": "CO", "country": "US", "coord": {"lon": -104.38385, "lat": 39.86665}}, {"id": 5411479, "name": "Alamosa", "state": "CO", "country": "US", "coord": {"lon": -105.870018, "lat": 37.469452}}, {"id": 5411974, "name": "Antlers", "state": "CO", "country": "US", "coord": {"lon": -107.727837, "lat": 39.543308}}, {"id": 5412030, "name": "Applewood", "state": "CO", "country": "US", "coord": {"lon": -105.162498, "lat": 39.757778}}, {"id": 5412056, "name": "Arapahoe County", "state": "CO", "country": "US", "coord": {"lon": -104.38385, "lat": 39.649979}}, {"id": 5412199, "name": "Arvada", "state": "CO", "country": "US", "coord": {"lon": -105.087479, "lat": 39.802761}}, {"id": 5412230, "name": "Aspen", "state": "CO", "country": "US", "coord": {"lon": -106.817543, "lat": 39.191101}}, {"id": 5412347, "name": "Aurora", "state": "CO", "country": "US", "coord": {"lon": -104.831917, "lat": 39.729431}}, {"id": 5412396, "name": "Avon", "state": "CO", "country": "US", "coord": {"lon": -106.522247, "lat": 39.631371}}, {"id": 5412453, "name": "Baca County", "state": "CO", "country": "US", "coord": {"lon": -102.550468, "lat": 37.333351}}, {"id": 5412777, "name": "Barr Lake", "state": "CO", "country": "US", "coord": {"lon": -104.775253, "lat": 39.944431}}, {"id": 5412822, "name": "Basalt", "state": "CO", "country": "US", "coord": {"lon": -107.032822, "lat": 39.36887}}, {"id": 5412887, "name": "Battlement Mesa", "state": "CO", "country": "US", "coord": {"lon": -108.02507, "lat": 39.441368}}, {"id": 5412915, "name": "Baxter", "state": "CO", "country": "US", "coord": {"lon": -104.491638, "lat": 38.275841}}, {"id": 5412939, "name": "Bayfield", "state": "CO", "country": "US", "coord": {"lon": -107.598106, "lat": 37.225559}}, {"id": 5413465, "name": "Bennett", "state": "CO", "country": "US", "coord": {"lon": -104.42746, "lat": 39.758869}}, {"id": 5413481, "name": "Bent County", "state": "CO", "country": "US", "coord": {"lon": -103.067146, "lat": 37.966671}}, {"id": 5413519, "name": "Berkley", "state": "CO", "country": "US", "coord": {"lon": -105.026093, "lat": 39.804428}}, {"id": 5413571, "name": "Beta", "state": "CO", "country": "US", "coord": {"lon": -102.690468, "lat": 38.086121}}, {"id": 5413922, "name": "Bighorn", "state": "CO", "country": "US", "coord": {"lon": -106.297249, "lat": 39.63665}}, {"id": 5414069, "name": "Black Forest", "state": "CO", "country": "US", "coord": {"lon": -104.700813, "lat": 39.01305}}, {"id": 5414591, "name": "Boone", "state": "CO", "country": "US", "coord": {"lon": -104.256912, "lat": 38.248611}}, {"id": 5414872, "name": "Breckenridge", "state": "CO", "country": "US", "coord": {"lon": -106.038353, "lat": 39.481651}}, {"id": 5414941, "name": "Brighton", "state": "CO", "country": "US", "coord": {"lon": -104.820534, "lat": 39.98526}}, {"id": 5415005, "name": "Bronquist", "state": "CO", "country": "US", "coord": {"lon": -104.891647, "lat": 38.20195}}, {"id": 5415035, "name": "Broomfield", "state": "CO", "country": "US", "coord": {"lon": -105.086647, "lat": 39.92054}}, {"id": 5415040, "name": "Broomfield County", "state": "CO", "country": "US", "coord": {"lon": -105.086647, "lat": 39.92054}}, {"id": 5415306, "name": "Buena Vista", "state": "CO", "country": "US", "coord": {"lon": -106.131126, "lat": 38.84222}}, {"id": 5415502, "name": "Burlington", "state": "CO", "country": "US", "coord": {"lon": -102.269363, "lat": 39.30611}}, {"id": 5415546, "name": "Burnt Mill", "state": "CO", "country": "US", "coord": {"lon": -104.796371, "lat": 38.05167}}]