[{"id": 2265650, "name": "Muge", "state": "", "country": "PT", "coord": {"lon": -8.7146, "lat": 39.105228}}, {"id": 2265673, "name": "Mourisca de Baixo", "state": "", "country": "PT", "coord": {"lon": -8.75528, "lat": 39.950851}}, {"id": 2265680, "name": "Mour\u00e3o", "state": "", "country": "PT", "coord": {"lon": -7.34189, "lat": 38.38356}}, {"id": 2265686, "name": "Moura", "state": "", "country": "PT", "coord": {"lon": -7.44856, "lat": 38.140099}}, {"id": 2265726, "name": "Moscavide e Portela", "state": "", "country": "PT", "coord": {"lon": -9.10222, "lat": 38.779289}}, {"id": 2265788, "name": "Montijo", "state": "", "country": "PT", "coord": {"lon": -8.97388, "lat": 38.706749}}, {"id": 2265803, "name": "Montesouros", "state": "", "country": "PT", "coord": {"lon": -9.3762, "lat": 38.935692}}, {"id": 2265829, "name": "Monte Santos", "state": "", "country": "PT", "coord": {"lon": -9.38333, "lat": 38.799999}}, {"id": 2265831, "name": "Montes", "state": "", "country": "PT", "coord": {"lon": -8.94606, "lat": 39.61446}}, {"id": 2265841, "name": "Monte Redondo", "state": "", "country": "PT", "coord": {"lon": -8.83171, "lat": 39.8993}}, {"id": 2265844, "name": "Monte Real", "state": "", "country": "PT", "coord": {"lon": -8.86349, "lat": 39.8521}}, {"id": 2265868, "name": "Monte Novo", "state": "", "country": "PT", "coord": {"lon": -8.32705, "lat": 39.601841}}, {"id": 2265888, "name": "Montemor-o-Novo", "state": "", "country": "PT", "coord": {"lon": -8.21455, "lat": 38.648121}}, {"id": 2265900, "name": "Montelavar", "state": "", "country": "PT", "coord": {"lon": -9.33281, "lat": 38.860531}}, {"id": 2265914, "name": "Monte Gordo", "state": "", "country": "PT", "coord": {"lon": -7.45225, "lat": 37.181919}}, {"id": 2265927, "name": "Monte Estoril", "state": "", "country": "PT", "coord": {"lon": -9.41606, "lat": 38.702789}}, {"id": 2266117, "name": "Monte da Pedra", "state": "", "country": "PT", "coord": {"lon": -7.75064, "lat": 39.364128}}, {"id": 2266138, "name": "Monte da Igreja", "state": "", "country": "PT", "coord": {"lon": -7.98333, "lat": 38.650002}}, {"id": 2266234, "name": "Montargil", "state": "", "country": "PT", "coord": {"lon": -8.17044, "lat": 39.077709}}, {"id": 2266235, "name": "Montalvo", "state": "", "country": "PT", "coord": {"lon": -8.3, "lat": 39.48333}}, {"id": 2266249, "name": "Monsanto", "state": "", "country": "PT", "coord": {"lon": -8.7118, "lat": 39.462029}}, {"id": 2266257, "name": "Monfortinho", "state": "", "country": "PT", "coord": {"lon": -6.87693, "lat": 39.997372}}, {"id": 2266263, "name": "Monfalim", "state": "", "country": "PT", "coord": {"lon": -9.12664, "lat": 38.997501}}, {"id": 2266268, "name": "Monchique", "state": "", "country": "PT", "coord": {"lon": -8.55529, "lat": 37.317749}}, {"id": 2266272, "name": "Moncarapacho", "state": "", "country": "PT", "coord": {"lon": -7.78722, "lat": 37.088631}}, {"id": 2266298, "name": "Moita dos Ferreiros", "state": "", "country": "PT", "coord": {"lon": -9.22355, "lat": 39.248249}}, {"id": 2266319, "name": "Moita", "state": "", "country": "PT", "coord": {"lon": -8.99038, "lat": 38.65078}}, {"id": 2266335, "name": "Moinhos", "state": "", "country": "PT", "coord": {"lon": -8.84291, "lat": 39.750938}}, {"id": 2266362, "name": "Mo\u00e7arria", "state": "", "country": "PT", "coord": {"lon": -8.77574, "lat": 39.282211}}, {"id": 2266377, "name": "Miragaia", "state": "", "country": "PT", "coord": {"lon": -9.26502, "lat": 39.23624}}, {"id": 2266388, "name": "Minde", "state": "", "country": "PT", "coord": {"lon": -8.68799, "lat": 39.516312}}, {"id": 2266411, "name": "Milharado", "state": "", "country": "PT", "coord": {"lon": -9.19914, "lat": 38.947319}}, {"id": 2266415, "name": "Milagres", "state": "", "country": "PT", "coord": {"lon": -8.79351, "lat": 39.79002}}, {"id": 2266425, "name": "Mexilhoeira Grande", "state": "", "country": "PT", "coord": {"lon": -8.61487, "lat": 37.158581}}, {"id": 2266464, "name": "Mem Martins", "state": "", "country": "PT", "coord": {"lon": -9.35, "lat": 38.783329}}, {"id": 2266478, "name": "Melides", "state": "", "country": "PT", "coord": {"lon": -8.72833, "lat": 38.14706}}, {"id": 2266546, "name": "Matos do Carri\u00e7o", "state": "", "country": "PT", "coord": {"lon": -8.79884, "lat": 39.984329}}, {"id": 2266621, "name": "Massam\u00e1", "state": "", "country": "PT", "coord": {"lon": -9.28333, "lat": 38.75}}, {"id": 2266633, "name": "Marv\u00e3o", "state": "", "country": "PT", "coord": {"lon": -7.37663, "lat": 39.393768}}, {"id": 2266647, "name": "Martingan\u00e7a", "state": "", "country": "PT", "coord": {"lon": -8.95, "lat": 39.683331}}, {"id": 2266648, "name": "Martinchel", "state": "", "country": "PT", "coord": {"lon": -8.3118, "lat": 39.536221}}, {"id": 2266650, "name": "Martim Longo", "state": "", "country": "PT", "coord": {"lon": -7.76938, "lat": 37.442501}}, {"id": 2266668, "name": "Marrazes", "state": "", "country": "PT", "coord": {"lon": -8.79769, "lat": 39.76281}}, {"id": 2266690, "name": "Marmeleira", "state": "", "country": "PT", "coord": {"lon": -8.83532, "lat": 39.262829}}, {"id": 2266702, "name": "Marinhais", "state": "", "country": "PT", "coord": {"lon": -8.70236, "lat": 39.047298}}, {"id": 2266703, "name": "Marinha Grande", "state": "", "country": "PT", "coord": {"lon": -8.93228, "lat": 39.747688}}, {"id": 2266734, "name": "Margueira", "state": "", "country": "PT", "coord": {"lon": -9.14874, "lat": 38.68372}}, {"id": 2266777, "name": "Malveira", "state": "", "country": "PT", "coord": {"lon": -9.25778, "lat": 38.932129}}, {"id": 2266791, "name": "Malhou", "state": "", "country": "PT", "coord": {"lon": -8.68484, "lat": 39.425819}}, {"id": 2266865, "name": "Mafra", "state": "", "country": "PT", "coord": {"lon": -9.32756, "lat": 38.937931}}, {"id": 2266895, "name": "Machico", "state": "", "country": "PT", "coord": {"lon": -16.76667, "lat": 32.700001}}, {"id": 2266914, "name": "Maceira", "state": "", "country": "PT", "coord": {"lon": -8.89423, "lat": 39.68853}}, {"id": 2266919, "name": "Ma\u00e7\u00e3s de Dona Maria", "state": "", "country": "PT", "coord": {"lon": -8.33332, "lat": 39.878571}}, {"id": 2266938, "name": "Luz", "state": "", "country": "PT", "coord": {"lon": -7.70433, "lat": 37.092159}}, {"id": 2266961, "name": "Lourinh\u00e3", "state": "", "country": "PT", "coord": {"lon": -9.31667, "lat": 39.23333}}, {"id": 2266974, "name": "Louri\u00e7al", "state": "", "country": "PT", "coord": {"lon": -8.73736, "lat": 40.003899}}, {"id": 2266977, "name": "Loures", "state": "", "country": "PT", "coord": {"lon": -9.16845, "lat": 38.83091}}, {"id": 2266983, "name": "Loureira", "state": "", "country": "PT", "coord": {"lon": -8.68787, "lat": 39.659969}}, {"id": 2266988, "name": "Loul\u00e9", "state": "", "country": "PT", "coord": {"lon": -8.01968, "lat": 37.137718}}, {"id": 2267056, "name": "Distrito de Lisboa", "state": "", "country": "PT", "coord": {"lon": -9.13333, "lat": 39}}, {"id": 2267057, "name": "Lisbon", "state": "", "country": "PT", "coord": {"lon": -9.13333, "lat": 38.716671}}, {"id": 2267067, "name": "Linda-a-Velha", "state": "", "country": "PT", "coord": {"lon": -9.2422, "lat": 38.714458}}, {"id": 2267094, "name": "Distrito de Leiria", "state": "", "country": "PT", "coord": {"lon": -8.83333, "lat": 39.666672}}, {"id": 2267095, "name": "Leiria", "state": "", "country": "PT", "coord": {"lon": -8.80705, "lat": 39.743622}}, {"id": 2267112, "name": "Lavradio", "state": "", "country": "PT", "coord": {"lon": -9.05204, "lat": 38.668079}}, {"id": 2267126, "name": "Lardosa", "state": "", "country": "PT", "coord": {"lon": -7.44557, "lat": 39.988979}}, {"id": 2267131, "name": "Laranjeiro", "state": "", "country": "PT", "coord": {"lon": -7.7937, "lat": 37.06831}}, {"id": 2267146, "name": "Lapas", "state": "", "country": "PT", "coord": {"lon": -8.55428, "lat": 39.494541}}, {"id": 2267177, "name": "Lameiro", "state": "", "country": "PT", "coord": {"lon": -8.90515, "lat": 39.863541}}, {"id": 2267226, "name": "Lagos", "state": "", "country": "PT", "coord": {"lon": -8.67422, "lat": 37.10202}}, {"id": 2267253, "name": "Lagoa", "state": "", "country": "PT", "coord": {"lon": -7.50032, "lat": 37.18084}}, {"id": 2267254, "name": "Lagoa", "state": "", "country": "PT", "coord": {"lon": -8.45319, "lat": 37.135349}}, {"id": 2267310, "name": "Juncal", "state": "", "country": "PT", "coord": {"lon": -8.89928, "lat": 39.602428}}, {"id": 2267364, "name": "Jardim Pelado", "state": "", "country": "PT", "coord": {"lon": -17.200001, "lat": 32.73333}}, {"id": 2267387, "name": "Isenta", "state": "", "country": "PT", "coord": {"lon": -8.74983, "lat": 39.2127}}, {"id": 2267421, "name": "Igreja Nova", "state": "", "country": "PT", "coord": {"lon": -9.31854, "lat": 38.917519}}, {"id": 2267428, "name": "Idanha", "state": "", "country": "PT", "coord": {"lon": -9.27442, "lat": 38.77496}}, {"id": 2267472, "name": "Guisanderia", "state": "", "country": "PT", "coord": {"lon": -8.98333, "lat": 39.01667}}, {"id": 2267487, "name": "Guia", "state": "", "country": "PT", "coord": {"lon": -8.78378, "lat": 39.949261}}, {"id": 2267489, "name": "Guia", "state": "", "country": "PT", "coord": {"lon": -8.29962, "lat": 37.129589}}, {"id": 2267538, "name": "Gr\u00e2ndola", "state": "", "country": "PT", "coord": {"lon": -8.56675, "lat": 38.177181}}, {"id": 2267576, "name": "Gradil", "state": "", "country": "PT", "coord": {"lon": -9.28075, "lat": 38.981258}}, {"id": 2267615, "name": "Gondemaria", "state": "", "country": "PT", "coord": {"lon": -8.62098, "lat": 39.687771}}, {"id": 2267621, "name": "Gomes Aires", "state": "", "country": "PT", "coord": {"lon": -8.17488, "lat": 37.517502}}, {"id": 2267624, "name": "Goleg\u00e3", "state": "", "country": "PT", "coord": {"lon": -8.48625, "lat": 39.404739}}, {"id": 2267683, "name": "Gavia\u00f5", "state": "", "country": "PT", "coord": {"lon": -8.30447, "lat": 39.264278}}, {"id": 2267699, "name": "Garv\u00e3o", "state": "", "country": "PT", "coord": {"lon": -8.34288, "lat": 37.707432}}, {"id": 2267785, "name": "G\u00e1fete", "state": "", "country": "PT", "coord": {"lon": -7.68365, "lat": 39.410801}}, {"id": 2267792, "name": "Fuzeta", "state": "", "country": "PT", "coord": {"lon": -7.74699, "lat": 37.054291}}, {"id": 2267813, "name": "Fundada", "state": "", "country": "PT", "coord": {"lon": -8.14477, "lat": 39.720779}}, {"id": 2267827, "name": "Funchal", "state": "", "country": "PT", "coord": {"lon": -16.9, "lat": 32.633331}}, {"id": 2267880, "name": "Freiria", "state": "", "country": "PT", "coord": {"lon": -9.31983, "lat": 39.023331}}, {"id": 2267913, "name": "Fr\u00e1guas", "state": "", "country": "PT", "coord": {"lon": -8.85513, "lat": 39.377331}}, {"id": 2267937, "name": "Foz do Arelho", "state": "", "country": "PT", "coord": {"lon": -9.21374, "lat": 39.436722}}, {"id": 2267962, "name": "Fortios", "state": "", "country": "PT", "coord": {"lon": -7.50057, "lat": 39.32494}}, {"id": 2268091, "name": "Fonte de Boliqueime", "state": "", "country": "PT", "coord": {"lon": -8.1514, "lat": 37.13039}}, {"id": 2268094, "name": "Fonte da Venda", "state": "", "country": "PT", "coord": {"lon": -8.36828, "lat": 37.233471}}, {"id": 2268168, "name": "Fogueteiro", "state": "", "country": "PT", "coord": {"lon": -9.1107, "lat": 38.614079}}, {"id": 2268187, "name": "Figueiros", "state": "", "country": "PT", "coord": {"lon": -9.03835, "lat": 39.282429}}, {"id": 2268205, "name": "Figueira e Barros", "state": "", "country": "PT", "coord": {"lon": -7.7619, "lat": 39.050659}}, {"id": 2268209, "name": "Figueira de Cavaleiros", "state": "", "country": "PT", "coord": {"lon": -8.20658, "lat": 38.095169}}, {"id": 2268246, "name": "Ferrel", "state": "", "country": "PT", "coord": {"lon": -9.31541, "lat": 39.363979}}, {"id": 2268250, "name": "Ferreiras", "state": "", "country": "PT", "coord": {"lon": -8.23759, "lat": 37.129261}}, {"id": 2268252, "name": "Ferreira do Alentejo", "state": "", "country": "PT", "coord": {"lon": -8.03333, "lat": 38.049999}}, {"id": 2268312, "name": "Fazendas de Alpiar\u00e7a", "state": "", "country": "PT", "coord": {"lon": -8.56667, "lat": 39.183331}}, {"id": 2268313, "name": "Fazendas de Almeirim", "state": "", "country": "PT", "coord": {"lon": -8.56927, "lat": 39.175529}}, {"id": 2268326, "name": "F\u00e1tima", "state": "", "country": "PT", "coord": {"lon": -8.65237, "lat": 39.620708}}, {"id": 2268336, "name": "Faro do Alentejo", "state": "", "country": "PT", "coord": {"lon": -7.94173, "lat": 38.14888}}, {"id": 2268337, "name": "Distrito de Faro", "state": "", "country": "PT", "coord": {"lon": -8.16667, "lat": 37.200001}}, {"id": 2268339, "name": "Faro", "state": "", "country": "PT", "coord": {"lon": -7.93223, "lat": 37.019371}}, {"id": 2268352, "name": "Fanh\u00f5es", "state": "", "country": "PT", "coord": {"lon": -9.15283, "lat": 38.881512}}, {"id": 2268358, "name": "Fam\u00f5es", "state": "", "country": "PT", "coord": {"lon": -9.21033, "lat": 38.78804}}, {"id": 2268361, "name": "Falfosa", "state": "", "country": "PT", "coord": {"lon": -7.96357, "lat": 37.10014}}, {"id": 2268373, "name": "Falagueira", "state": "", "country": "PT", "coord": {"lon": -9.22804, "lat": 38.76392}}, {"id": 2268382, "name": "Faj\u00e3 da Ovelha", "state": "", "country": "PT", "coord": {"lon": -17.234119, "lat": 32.77457}}, {"id": 2268404, "name": "Distrito de \u00c9vora", "state": "", "country": "PT", "coord": {"lon": -7.83333, "lat": 38.583328}}, {"id": 2268406, "name": "\u00c9vora", "state": "", "country": "PT", "coord": {"lon": -7.9, "lat": 38.566669}}, {"id": 2268411, "name": "Estremoz", "state": "", "country": "PT", "coord": {"lon": -7.58585, "lat": 38.844318}}, {"id": 2268416, "name": "Estrela", "state": "", "country": "PT", "coord": {"lon": -7.38902, "lat": 38.268799}}, {"id": 2268418, "name": "Estreito de C\u00e2mara de Lobos", "state": "", "country": "PT", "coord": {"lon": -16.98333, "lat": 32.666672}}, {"id": 2268419, "name": "Estreito da Calheta", "state": "", "country": "PT", "coord": {"lon": -17.186741, "lat": 32.737041}}, {"id": 2268436, "name": "Estoril", "state": "", "country": "PT", "coord": {"lon": -9.39773, "lat": 38.705711}}, {"id": 2268437, "name": "Est\u00f4mbar", "state": "", "country": "PT", "coord": {"lon": -8.48505, "lat": 37.14629}}, {"id": 2268438, "name": "Est\u00f3i", "state": "", "country": "PT", "coord": {"lon": -7.89428, "lat": 37.098099}}, {"id": 2268477, "name": "Espite", "state": "", "country": "PT", "coord": {"lon": -8.63643, "lat": 39.764702}}, {"id": 2268540, "name": "Escalos de Cima", "state": "", "country": "PT", "coord": {"lon": -7.40383, "lat": 39.930271}}, {"id": 2268541, "name": "Escalos de Baixo", "state": "", "country": "PT", "coord": {"lon": -7.39588, "lat": 39.887272}}, {"id": 2268558, "name": "Erra", "state": "", "country": "PT", "coord": {"lon": -8.44873, "lat": 38.997311}}, {"id": 2268561, "name": "Ermidas", "state": "", "country": "PT", "coord": {"lon": -8.37968, "lat": 37.99966}}, {"id": 2268563, "name": "Ericeira", "state": "", "country": "PT", "coord": {"lon": -9.41563, "lat": 38.962749}}, {"id": 2268573, "name": "Envendos", "state": "", "country": "PT", "coord": {"lon": -7.87536, "lat": 39.568569}}, {"id": 2268575, "name": "Entroncamento", "state": "", "country": "PT", "coord": {"lon": -8.46667, "lat": 39.466671}}, {"id": 2268600, "name": "Enejas", "state": "", "country": "PT", "coord": {"lon": -8.57527, "lat": 39.249531}}, {"id": 2268615, "name": "Elvas", "state": "", "country": "PT", "coord": {"lon": -7.16282, "lat": 38.8815}}, {"id": 2268636, "name": "Eiras", "state": "", "country": "PT", "coord": {"lon": -8.36817, "lat": 39.888592}}, {"id": 2268638, "name": "Eiras", "state": "", "country": "PT", "coord": {"lon": -9.01447, "lat": 39.46698}}, {"id": 2268728, "name": "Damaia", "state": "", "country": "PT", "coord": {"lon": -9.21227, "lat": 38.751411}}, {"id": 2268746, "name": "Curral das Freiras", "state": "", "country": "PT", "coord": {"lon": -16.969931, "lat": 32.720291}}, {"id": 2268750, "name": "Curral\u00e3o da Jardoa", "state": "", "country": "PT", "coord": {"lon": -8.36667, "lat": 39.416672}}, {"id": 2268791, "name": "Cruz Quebrada", "state": "", "country": "PT", "coord": {"lon": -9.25162, "lat": 38.704811}}, {"id": 2268820, "name": "Crujo", "state": "", "country": "PT", "coord": {"lon": -8.4452, "lat": 39.567749}}, {"id": 2268835, "name": "Crato", "state": "", "country": "PT", "coord": {"lon": -7.64408, "lat": 39.286572}}, {"id": 2268844, "name": "Cov\u00f5es", "state": "", "country": "PT", "coord": {"lon": -8.65, "lat": 39.849998}}, {"id": 2268846, "name": "Cov\u00f5es", "state": "", "country": "PT", "coord": {"lon": -8.04157, "lat": 37.23299}}, {"id": 2268892, "name": "Courelas", "state": "", "country": "PT", "coord": {"lon": -8.28176, "lat": 39.737949}}, {"id": 2268902, "name": "Cou\u00e7o", "state": "", "country": "PT", "coord": {"lon": -8.28629, "lat": 38.986229}}, {"id": 2268916, "name": "Costa de Caparica", "state": "", "country": "PT", "coord": {"lon": -9.23556, "lat": 38.644581}}, {"id": 2268946, "name": "Coruche", "state": "", "country": "PT", "coord": {"lon": -8.52524, "lat": 38.959549}}, {"id": 2269006, "name": "Corte do Pinto", "state": "", "country": "PT", "coord": {"lon": -7.48047, "lat": 37.704788}}, {"id": 2269041, "name": "Corroios", "state": "", "country": "PT", "coord": {"lon": -9.14843, "lat": 38.64502}}, {"id": 2269051, "name": "Corredoura", "state": "", "country": "PT", "coord": {"lon": -7.71745, "lat": 38.76712}}, {"id": 2269114, "name": "Comporta", "state": "", "country": "PT", "coord": {"lon": -8.78608, "lat": 38.380589}}, {"id": 2269132, "name": "Colmeias", "state": "", "country": "PT", "coord": {"lon": -8.71081, "lat": 39.80077}}, {"id": 2269142, "name": "Colares", "state": "", "country": "PT", "coord": {"lon": -9.44691, "lat": 38.799221}}, {"id": 2269153, "name": "Coimbr\u00e3o", "state": "", "country": "PT", "coord": {"lon": -8.87659, "lat": 39.897179}}, {"id": 2269156, "name": "Cogominho", "state": "", "country": "PT", "coord": {"lon": -8.52454, "lat": 39.70116}}, {"id": 2269248, "name": "Ch\u00edcharo", "state": "", "country": "PT", "coord": {"lon": -8.50277, "lat": 39.518341}}, {"id": 2269257, "name": "Chavelho", "state": "", "country": "PT", "coord": {"lon": -8.29124, "lat": 39.903252}}, {"id": 2269276, "name": "Charneca", "state": "", "country": "PT", "coord": {"lon": -8.78657, "lat": 39.35611}}, {"id": 2269280, "name": "Charneca", "state": "", "country": "PT", "coord": {"lon": -9.14142, "lat": 38.788288}}, {"id": 2269282, "name": "Charneca de Caparica", "state": "", "country": "PT", "coord": {"lon": -9.19149, "lat": 38.62059}}, {"id": 2269336, "name": "Chamusca", "state": "", "country": "PT", "coord": {"lon": -8.48151, "lat": 39.35722}}, {"id": 2269384, "name": "Cerro das Taipas", "state": "", "country": "PT", "coord": {"lon": -8.28931, "lat": 37.241951}}, {"id": 2269408, "name": "Cerca Velha", "state": "", "country": "PT", "coord": {"lon": -8.19669, "lat": 37.169682}}, {"id": 2269413, "name": "Cercal", "state": "", "country": "PT", "coord": {"lon": -8.67153, "lat": 37.806011}}, {"id": 2269441, "name": "Cebolais de Cima", "state": "", "country": "PT", "coord": {"lon": -7.56754, "lat": 39.74897}}, {"id": 2269449, "name": "Caxias", "state": "", "country": "PT", "coord": {"lon": -9.27666, "lat": 38.70314}}, {"id": 2269494, "name": "Castro Verde", "state": "", "country": "PT", "coord": {"lon": -8.08581, "lat": 37.69828}}, {"id": 2269496, "name": "Castro Marim", "state": "", "country": "PT", "coord": {"lon": -7.4435, "lat": 37.22068}}, {"id": 2269508, "name": "Castelo de Vide", "state": "", "country": "PT", "coord": {"lon": -7.4568, "lat": 39.416241}}, {"id": 2269513, "name": "Distrito de Castelo Branco", "state": "", "country": "PT", "coord": {"lon": -7.5, "lat": 40}}, {"id": 2269514, "name": "Castelo Branco", "state": "", "country": "PT", "coord": {"lon": -7.49087, "lat": 39.822189}}, {"id": 2269556, "name": "Castanheira do Ribatejo", "state": "", "country": "PT", "coord": {"lon": -8.97346, "lat": 38.992981}}, {"id": 2269557, "name": "Castanheira de P\u00eara", "state": "", "country": "PT", "coord": {"lon": -8.21048, "lat": 40.007172}}, {"id": 2269580, "name": "Caselas", "state": "", "country": "PT", "coord": {"lon": -9.21248, "lat": 38.7173}}, {"id": 2269594, "name": "Cascais", "state": "", "country": "PT", "coord": {"lon": -9.42146, "lat": 38.697899}}, {"id": 2269706, "name": "Casal do Soito", "state": "", "country": "PT", "coord": {"lon": -9.03333, "lat": 39.383331}}, {"id": 2269740, "name": "Casal do Anafe de Baixo", "state": "", "country": "PT", "coord": {"lon": -8.35, "lat": 39.26667}}, {"id": 2269814, "name": "Casais dos Matos", "state": "", "country": "PT", "coord": {"lon": -8.7845, "lat": 39.731522}}, {"id": 2269819, "name": "Casais do Rio", "state": "", "country": "PT", "coord": {"lon": -9.21701, "lat": 39.367008}}, {"id": 2269825, "name": "Casais do Norte", "state": "", "country": "PT", "coord": {"lon": -9.1841, "lat": 39.41695}}, {"id": 2269846, "name": "Casais de Santa Maria de Almoster", "state": "", "country": "PT", "coord": {"lon": -8.80709, "lat": 39.230572}}, {"id": 2269848, "name": "Casais de Matos", "state": "", "country": "PT", "coord": {"lon": -8.87513, "lat": 39.62764}}, {"id": 2269906, "name": "Casa do Ninho", "state": "", "country": "PT", "coord": {"lon": -9.23333, "lat": 38.916672}}, {"id": 2269910, "name": "Casa do Formigal", "state": "", "country": "PT", "coord": {"lon": -9.36667, "lat": 39.066669}}, {"id": 2269935, "name": "Casa Branca", "state": "", "country": "PT", "coord": {"lon": -8.0105, "lat": 39.46143}}, {"id": 2269946, "name": "Carvoeiro", "state": "", "country": "PT", "coord": {"lon": -8.45381, "lat": 37.090511}}, {"id": 2270023, "name": "Cartaxo", "state": "", "country": "PT", "coord": {"lon": -8.78741, "lat": 39.160221}}, {"id": 2270070, "name": "Carregueira", "state": "", "country": "PT", "coord": {"lon": -8.41667, "lat": 39.416672}}, {"id": 2270084, "name": "Carregado", "state": "", "country": "PT", "coord": {"lon": -8.97692, "lat": 39.023621}}, {"id": 2270157, "name": "Carnaxide", "state": "", "country": "PT", "coord": {"lon": -9.24671, "lat": 38.727058}}, {"id": 2270170, "name": "Cardosas", "state": "", "country": "PT", "coord": {"lon": -9.04048, "lat": 38.976841}}, {"id": 2270173, "name": "Cardigos", "state": "", "country": "PT", "coord": {"lon": -8.02144, "lat": 39.695061}}, {"id": 2270184, "name": "Carcavelos", "state": "", "country": "PT", "coord": {"lon": -9.32215, "lat": 38.691051}}, {"id": 2270211, "name": "Caranguejeira", "state": "", "country": "PT", "coord": {"lon": -8.7074, "lat": 39.746189}}, {"id": 2270229, "name": "Caparica", "state": "", "country": "PT", "coord": {"lon": -9.2, "lat": 38.666672}}, {"id": 2270251, "name": "Cano", "state": "", "country": "PT", "coord": {"lon": -7.75896, "lat": 38.962341}}, {"id": 2270258, "name": "Cani\u00e7o", "state": "", "country": "PT", "coord": {"lon": -16.85, "lat": 32.633331}}, {"id": 2270266, "name": "Cani\u00e7al", "state": "", "country": "PT", "coord": {"lon": -16.738359, "lat": 32.738338}}, {"id": 2270276, "name": "Canha", "state": "", "country": "PT", "coord": {"lon": -8.62713, "lat": 38.767059}}, {"id": 2270290, "name": "Cane\u00e7as", "state": "", "country": "PT", "coord": {"lon": -9.22679, "lat": 38.81321}}, {"id": 2270297, "name": "Cancinos", "state": "", "country": "PT", "coord": {"lon": -7.91938, "lat": 39.917141}}, {"id": 2270336, "name": "Campo Maior", "state": "", "country": "PT", "coord": {"lon": -7.06497, "lat": 39.017738}}, {"id": 2270338, "name": "Campolide", "state": "", "country": "PT", "coord": {"lon": -9.16486, "lat": 38.729462}}, {"id": 2270346, "name": "Campinho", "state": "", "country": "PT", "coord": {"lon": -7.47004, "lat": 38.36462}}, {"id": 2270357, "name": "Campelos", "state": "", "country": "PT", "coord": {"lon": -9.23519, "lat": 39.196781}}, {"id": 2270361, "name": "Campan\u00e1rio", "state": "", "country": "PT", "coord": {"lon": -17.035761, "lat": 32.665779}}, {"id": 2270377, "name": "Camarate", "state": "", "country": "PT", "coord": {"lon": -9.12808, "lat": 38.803581}}, {"id": 2270380, "name": "C\u00e2mara de Lobos", "state": "", "country": "PT", "coord": {"lon": -16.966669, "lat": 32.633331}}, {"id": 2270385, "name": "Camacha", "state": "", "country": "PT", "coord": {"lon": -16.33333, "lat": 33.083328}}, {"id": 2270386, "name": "Camacha", "state": "", "country": "PT", "coord": {"lon": -16.84462, "lat": 32.679192}}, {"id": 2270408, "name": "Calheta", "state": "", "country": "PT", "coord": {"lon": -17.183331, "lat": 32.716671}}, {"id": 2270412, "name": "Calhandriz", "state": "", "country": "PT", "coord": {"lon": -9.06675, "lat": 38.924889}}, {"id": 2270437, "name": "Caldas da Rainha", "state": "", "country": "PT", "coord": {"lon": -9.13839, "lat": 39.403259}}, {"id": 2270486, "name": "Cacilhas", "state": "", "country": "PT", "coord": {"lon": -9.14663, "lat": 38.687729}}, {"id": 2270497, "name": "Cachoeiras", "state": "", "country": "PT", "coord": {"lon": -9.01873, "lat": 38.984909}}, {"id": 2270503, "name": "Cac\u00e9m", "state": "", "country": "PT", "coord": {"lon": -9.29793, "lat": 38.766979}}, {"id": 2270517, "name": "Cabrela", "state": "", "country": "PT", "coord": {"lon": -8.46055, "lat": 38.599289}}, {"id": 2270519, "name": "Cabreiro", "state": "", "country": "PT", "coord": {"lon": -9.4228, "lat": 38.731758}}, {"id": 2270552, "name": "Cabe\u00e7o de Vide", "state": "", "country": "PT", "coord": {"lon": -7.59015, "lat": 39.13237}}, {"id": 2270567, "name": "Cabe\u00e7as do Pinheiro", "state": "", "country": "PT", "coord": {"lon": -8.43333, "lat": 39.400002}}, {"id": 2270570, "name": "Cabe\u00e7as", "state": "", "country": "PT", "coord": {"lon": -8.83491, "lat": 39.699501}}, {"id": 2270629, "name": "Buraca", "state": "", "country": "PT", "coord": {"lon": -9.2, "lat": 38.73333}}, {"id": 2270637, "name": "Bugarrel", "state": "", "country": "PT", "coord": {"lon": -8.30568, "lat": 39.619339}}, {"id": 2270648, "name": "Budens", "state": "", "country": "PT", "coord": {"lon": -8.83101, "lat": 37.086899}}, {"id": 2270649, "name": "Bucelas", "state": "", "country": "PT", "coord": {"lon": -9.11885, "lat": 38.901932}}, {"id": 2270661, "name": "Brogueira", "state": "", "country": "PT", "coord": {"lon": -8.57241, "lat": 39.44445}}, {"id": 2270704, "name": "Braz\u00f5es", "state": "", "country": "PT", "coord": {"lon": -8.45212, "lat": 39.614311}}, {"id": 2270727, "name": "Bra\u00e7al", "state": "", "country": "PT", "coord": {"lon": -9.13722, "lat": 39.044621}}, {"id": 2270755, "name": "Borba", "state": "", "country": "PT", "coord": {"lon": -7.45465, "lat": 38.805531}}, {"id": 2270765, "name": "Bom Sucesso", "state": "", "country": "PT", "coord": {"lon": -8.16667, "lat": 39.48333}}, {"id": 2270768, "name": "Bom Jesus", "state": "", "country": "PT", "coord": {"lon": -9.13333, "lat": 39.283329}}, {"id": 2270770, "name": "Bombarral", "state": "", "country": "PT", "coord": {"lon": -9.15795, "lat": 39.267231}}, {"id": 2270774, "name": "Boliqueime", "state": "", "country": "PT", "coord": {"lon": -8.1582, "lat": 37.13718}}, {"id": 2270794, "name": "Boi\u00e7as", "state": "", "country": "PT", "coord": {"lon": -9.21667, "lat": 39.283329}}, {"id": 2270797, "name": "Boi\u00e7a de Baixo", "state": "", "country": "PT", "coord": {"lon": -9.08333, "lat": 39.216671}}, {"id": 2270813, "name": "Bobadela", "state": "", "country": "PT", "coord": {"lon": -9.09925, "lat": 38.807739}}, {"id": 2270852, "name": "Biscainho", "state": "", "country": "PT", "coord": {"lon": -8.65662, "lat": 38.938519}}, {"id": 2270927, "name": "Beringel", "state": "", "country": "PT", "coord": {"lon": -7.98427, "lat": 38.056561}}, {"id": 2270930, "name": "Bensafrim", "state": "", "country": "PT", "coord": {"lon": -8.73414, "lat": 37.157181}}, {"id": 2270935, "name": "Benedita", "state": "", "country": "PT", "coord": {"lon": -8.96996, "lat": 39.424702}}, {"id": 2270936, "name": "Bencatel", "state": "", "country": "PT", "coord": {"lon": -7.45232, "lat": 38.744881}}, {"id": 2270940, "name": "Benavente", "state": "", "country": "PT", "coord": {"lon": -8.80759, "lat": 38.979191}}, {"id": 2270942, "name": "Benafim Pequeno", "state": "", "country": "PT", "coord": {"lon": -8.13466, "lat": 37.238029}}, {"id": 2270954, "name": "Bemposta", "state": "", "country": "PT", "coord": {"lon": -8.1394, "lat": 39.3512}}, {"id": 2270968, "name": "Belo Horizonte", "state": "", "country": "PT", "coord": {"lon": -7.42363, "lat": 39.312531}}, {"id": 2270971, "name": "Belmonte", "state": "", "country": "PT", "coord": {"lon": -7.86326, "lat": 37.049622}}, {"id": 2270978, "name": "Bel\u00e9m", "state": "", "country": "PT", "coord": {"lon": -9.19289, "lat": 38.698738}}, {"id": 2270981, "name": "Belas", "state": "", "country": "PT", "coord": {"lon": -9.26078, "lat": 38.77721}}, {"id": 2270984, "name": "Distrito de Beja", "state": "", "country": "PT", "coord": {"lon": -7.83333, "lat": 37.966671}}, {"id": 2270985, "name": "Beja", "state": "", "country": "PT", "coord": {"lon": -7.86323, "lat": 38.01506}}, {"id": 2270986, "name": "Beirolas", "state": "", "country": "PT", "coord": {"lon": -9.1, "lat": 38.783329}}, {"id": 2271001, "name": "Beato Ant\u00f3nio", "state": "", "country": "PT", "coord": {"lon": -9.10335, "lat": 38.733269}}, {"id": 2271006, "name": "Batalha", "state": "", "country": "PT", "coord": {"lon": -8.82475, "lat": 39.660252}}, {"id": 2271029, "name": "Barrocas", "state": "", "country": "PT", "coord": {"lon": -8.78333, "lat": 39.316669}}, {"id": 2271051, "name": "Barril de Cima", "state": "", "country": "PT", "coord": {"lon": -9.4, "lat": 38.933331}}, {"id": 2271071, "name": "Barreiro", "state": "", "country": "PT", "coord": {"lon": -9.0724, "lat": 38.663139}}, {"id": 2271140, "name": "Barcarena", "state": "", "country": "PT", "coord": {"lon": -9.28, "lat": 38.732449}}, {"id": 2271187, "name": "Baleiz\u00e3o", "state": "", "country": "PT", "coord": {"lon": -7.72132, "lat": 38.023102}}, {"id": 2271217, "name": "Bajanca", "state": "", "country": "PT", "coord": {"lon": -8.72959, "lat": 39.515129}}, {"id": 2271233, "name": "Bairro de Dona Constan\u00e7a", "state": "", "country": "PT", "coord": {"lon": -8.77249, "lat": 39.339939}}, {"id": 2271242, "name": "Bairro", "state": "", "country": "PT", "coord": {"lon": -8.9, "lat": 39.133331}}, {"id": 2271263, "name": "Bacelo", "state": "", "country": "PT", "coord": {"lon": -8.93333, "lat": 38.566669}}, {"id": 2271275, "name": "Azinheira dos Barros", "state": "", "country": "PT", "coord": {"lon": -8.41921, "lat": 38.071491}}, {"id": 2271337, "name": "Azambuja", "state": "", "country": "PT", "coord": {"lon": -8.86822, "lat": 39.07029}}, {"id": 2271350, "name": "Aveiras de Cima", "state": "", "country": "PT", "coord": {"lon": -8.89932, "lat": 39.137959}}, {"id": 2271351, "name": "Aveiras de Baixo", "state": "", "country": "PT", "coord": {"lon": -8.86943, "lat": 39.11097}}, {"id": 2271354, "name": "Atouguia da Baleia", "state": "", "country": "PT", "coord": {"lon": -9.3263, "lat": 39.338139}}, {"id": 2271391, "name": "Atalaia", "state": "", "country": "PT", "coord": {"lon": -8.77803, "lat": 39.231129}}, {"id": 2271407, "name": "Assumar", "state": "", "country": "PT", "coord": {"lon": -7.39234, "lat": 39.140781}}, {"id": 2271425, "name": "Asseiceira", "state": "", "country": "PT", "coord": {"lon": -8.93438, "lat": 39.294239}}, {"id": 2271426, "name": "Asseiceira", "state": "", "country": "PT", "coord": {"lon": -9.30405, "lat": 39.017181}}, {"id": 2271438, "name": "Arruda dos Vinhos", "state": "", "country": "PT", "coord": {"lon": -9.07746, "lat": 38.984112}}, {"id": 2271439, "name": "Arruda dos Pis\u00f5es", "state": "", "country": "PT", "coord": {"lon": -8.84076, "lat": 39.316341}}, {"id": 2271440, "name": "Arrouquelas", "state": "", "country": "PT", "coord": {"lon": -8.89517, "lat": 39.256691}}, {"id": 2271473, "name": "Arrentela", "state": "", "country": "PT", "coord": {"lon": -9.1, "lat": 38.616669}}, {"id": 2271482, "name": "Arranjinho", "state": "", "country": "PT", "coord": {"lon": -7.35, "lat": 39.416672}}, {"id": 2271483, "name": "Arranh\u00f3", "state": "", "country": "PT", "coord": {"lon": -9.13465, "lat": 38.953781}}, {"id": 2271498, "name": "Arrabal", "state": "", "country": "PT", "coord": {"lon": -8.87684, "lat": 39.50182}}, {"id": 2271522, "name": "Arneiro das Milhari\u00e7as", "state": "", "country": "PT", "coord": {"lon": -8.70628, "lat": 39.40115}}, {"id": 2271530, "name": "Arneiro", "state": "", "country": "PT", "coord": {"lon": -8.69813, "lat": 39.336128}}, {"id": 2271539, "name": "Arnal", "state": "", "country": "PT", "coord": {"lon": -8.87917, "lat": 39.68782}}, {"id": 2271542, "name": "Arma\u00e7\u00e3o de P\u00eara", "state": "", "country": "PT", "coord": {"lon": -8.35695, "lat": 37.102558}}, {"id": 2271571, "name": "Areias", "state": "", "country": "PT", "coord": {"lon": -8.34549, "lat": 39.733471}}, {"id": 2271576, "name": "Areias", "state": "", "country": "PT", "coord": {"lon": -16.35, "lat": 33.083328}}, {"id": 2271598, "name": "Arco da Calheta", "state": "", "country": "PT", "coord": {"lon": -17.14974, "lat": 32.715019}}, {"id": 2271607, "name": "Ara\u00fajo", "state": "", "country": "PT", "coord": {"lon": -9.28333, "lat": 39.216671}}, {"id": 2271613, "name": "Aramanha", "state": "", "country": "PT", "coord": {"lon": -9.01667, "lat": 39.316669}}, {"id": 2271617, "name": "Ar\u00e1bia", "state": "", "country": "PT", "coord": {"lon": -7.96667, "lat": 37.01667}}, {"id": 2271623, "name": "Apela\u00e7\u00e3o", "state": "", "country": "PT", "coord": {"lon": -9.13225, "lat": 38.813869}}, {"id": 2271677, "name": "Amoreira", "state": "", "country": "PT", "coord": {"lon": -9.41667, "lat": 38.716671}}, {"id": 2271680, "name": "Amora", "state": "", "country": "PT", "coord": {"lon": -9.11557, "lat": 38.629608}}, {"id": 2271682, "name": "Amor", "state": "", "country": "PT", "coord": {"lon": -8.85984, "lat": 39.804039}}, {"id": 2271712, "name": "Ami\u00e3es de Baixo", "state": "", "country": "PT", "coord": {"lon": -8.73358, "lat": 39.442959}}, {"id": 2271764, "name": "Amareleja", "state": "", "country": "PT", "coord": {"lon": -7.22698, "lat": 38.209358}}, {"id": 2271772, "name": "Amadora", "state": "", "country": "PT", "coord": {"lon": -9.23083, "lat": 38.753819}}, {"id": 2271776, "name": "Alvorge", "state": "", "country": "PT", "coord": {"lon": -8.45502, "lat": 39.978779}}, {"id": 2271782, "name": "Alvor", "state": "", "country": "PT", "coord": {"lon": -8.59174, "lat": 37.12994}}, {"id": 2271797, "name": "Alverca do Ribatejo", "state": "", "country": "PT", "coord": {"lon": -9.03864, "lat": 38.898979}}, {"id": 2271802, "name": "Alvega", "state": "", "country": "PT", "coord": {"lon": -8.04579, "lat": 39.46553}}, {"id": 2271812, "name": "Alvalade", "state": "", "country": "PT", "coord": {"lon": -8.39247, "lat": 37.936798}}, {"id": 2271817, "name": "Alvados", "state": "", "country": "PT", "coord": {"lon": -8.77088, "lat": 39.548771}}, {"id": 2271825, "name": "Alto Mina", "state": "", "country": "PT", "coord": {"lon": -9.36667, "lat": 39.033329}}, {"id": 2271827, "name": "Alto do Casal", "state": "", "country": "PT", "coord": {"lon": -9.25, "lat": 38.933331}}, {"id": 2271841, "name": "Alter do Ch\u00e3o", "state": "", "country": "PT", "coord": {"lon": -7.65893, "lat": 39.197411}}, {"id": 2271860, "name": "Alqueid\u00e3o da Serra", "state": "", "country": "PT", "coord": {"lon": -8.7826, "lat": 39.615391}}, {"id": 2271869, "name": "Alqueid\u00e3o", "state": "", "country": "PT", "coord": {"lon": -8.89935, "lat": 39.419788}}, {"id": 2271872, "name": "Alpriate", "state": "", "country": "PT", "coord": {"lon": -9.09248, "lat": 38.86314}}, {"id": 2271878, "name": "Alpiar\u00e7a", "state": "", "country": "PT", "coord": {"lon": -8.58187, "lat": 39.257118}}, {"id": 2271884, "name": "Alpalh\u00e3o", "state": "", "country": "PT", "coord": {"lon": -7.85421, "lat": 39.56012}}, {"id": 2271894, "name": "Almornos", "state": "", "country": "PT", "coord": {"lon": -9.26962, "lat": 38.831699}}, {"id": 2271926, "name": "Almeirim", "state": "", "country": "PT", "coord": {"lon": -8.61643, "lat": 39.20903}}, {"id": 2271945, "name": "Almargem", "state": "", "country": "PT", "coord": {"lon": -9.27316, "lat": 38.844849}}, {"id": 2271947, "name": "Almancil", "state": "", "country": "PT", "coord": {"lon": -8.03074, "lat": 37.086861}}, {"id": 2271961, "name": "Almada", "state": "", "country": "PT", "coord": {"lon": -9.1569, "lat": 38.67902}}, {"id": 2271965, "name": "Aljustrel", "state": "", "country": "PT", "coord": {"lon": -8.16516, "lat": 37.87759}}, {"id": 2271966, "name": "Aljubarrota", "state": "", "country": "PT", "coord": {"lon": -8.92925, "lat": 39.567162}}, {"id": 2271968, "name": "Aljezur", "state": "", "country": "PT", "coord": {"lon": -8.8033, "lat": 37.319149}}, {"id": 2271970, "name": "Alhos Vedros", "state": "", "country": "PT", "coord": {"lon": -9.02368, "lat": 38.654861}}, {"id": 2271975, "name": "Alhandra", "state": "", "country": "PT", "coord": {"lon": -9.00864, "lat": 38.927319}}, {"id": 2271978, "name": "Alguber", "state": "", "country": "PT", "coord": {"lon": -9.02186, "lat": 39.277271}}, {"id": 2271980, "name": "Algoz", "state": "", "country": "PT", "coord": {"lon": -8.3036, "lat": 37.16301}}, {"id": 2271985, "name": "Alg\u00e9s", "state": "", "country": "PT", "coord": {"lon": -9.22936, "lat": 38.70245}}, {"id": 2271999, "name": "Alfund\u00e3o", "state": "", "country": "PT", "coord": {"lon": -8.06314, "lat": 38.11961}}, {"id": 2272003, "name": "Alfouvez", "state": "", "country": "PT", "coord": {"lon": -8.81431, "lat": 39.279888}}, {"id": 2272005, "name": "Alfornelos", "state": "", "country": "PT", "coord": {"lon": -9.20967, "lat": 38.764969}}, {"id": 2272010, "name": "Alferrarede", "state": "", "country": "PT", "coord": {"lon": -8.16667, "lat": 39.48333}}, {"id": 2272013, "name": "Alfeizer\u00e3o", "state": "", "country": "PT", "coord": {"lon": -9.10341, "lat": 39.49971}}, {"id": 2272036, "name": "Alenquer", "state": "", "country": "PT", "coord": {"lon": -9.00928, "lat": 39.05315}}, {"id": 2272045, "name": "Alegrete", "state": "", "country": "PT", "coord": {"lon": -7.32342, "lat": 39.23983}}, {"id": 2272067, "name": "Aldeia Galega da Merceana", "state": "", "country": "PT", "coord": {"lon": -9.11254, "lat": 39.082069}}, {"id": 2272091, "name": "Aldeia de Paio Pires", "state": "", "country": "PT", "coord": {"lon": -9.08333, "lat": 38.616669}}, {"id": 2272109, "name": "Aldeia da Mata", "state": "", "country": "PT", "coord": {"lon": -7.72965, "lat": 39.304619}}, {"id": 2272113, "name": "Aldeia Cimeira", "state": "", "country": "PT", "coord": {"lon": -7.80811, "lat": 39.783718}}, {"id": 2272135, "name": "Alcorochel", "state": "", "country": "PT", "coord": {"lon": -8.58315, "lat": 39.419319}}, {"id": 2272143, "name": "Alcoentre", "state": "", "country": "PT", "coord": {"lon": -8.95953, "lat": 39.208569}}, {"id": 2272144, "name": "Alcochete", "state": "", "country": "PT", "coord": {"lon": -8.96086, "lat": 38.755341}}, {"id": 2272147, "name": "Alcoba\u00e7a", "state": "", "country": "PT", "coord": {"lon": -8.9775, "lat": 39.552231}}, {"id": 2272183, "name": "Alcaravela", "state": "", "country": "PT", "coord": {"lon": -8.12598, "lat": 39.563019}}, {"id": 2272185, "name": "Alcantarilha", "state": "", "country": "PT", "coord": {"lon": -8.34623, "lat": 37.13044}}, {"id": 2272187, "name": "Alc\u00e2ntara", "state": "", "country": "PT", "coord": {"lon": -9.17145, "lat": 38.701019}}, {"id": 2272188, "name": "Alcanh\u00f5es", "state": "", "country": "PT", "coord": {"lon": -8.65847, "lat": 39.296028}}, {"id": 2272189, "name": "Alcanena", "state": "", "country": "PT", "coord": {"lon": -8.66892, "lat": 39.459}}, {"id": 2272190, "name": "Alcanede", "state": "", "country": "PT", "coord": {"lon": -8.82189, "lat": 39.415009}}, {"id": 2272197, "name": "Alcains", "state": "", "country": "PT", "coord": {"lon": -7.45655, "lat": 39.91642}}, {"id": 2272208, "name": "Alcafozes", "state": "", "country": "PT", "coord": {"lon": -7.11928, "lat": 39.949471}}, {"id": 2272212, "name": "Alc\u00e1cer do Sal", "state": "", "country": "PT", "coord": {"lon": -8.51444, "lat": 38.37326}}, {"id": 2272215, "name": "Alcabideche", "state": "", "country": "PT", "coord": {"lon": -9.40928, "lat": 38.733662}}, {"id": 2272216, "name": "Alburitel", "state": "", "country": "PT", "coord": {"lon": -8.5195, "lat": 39.648869}}, {"id": 2272222, "name": "Albufeira", "state": "", "country": "PT", "coord": {"lon": -8.2503, "lat": 37.088188}}, {"id": 2272242, "name": "Alandroal", "state": "", "country": "PT", "coord": {"lon": -7.40309, "lat": 38.702}}, {"id": 2272260, "name": "Alagoa", "state": "", "country": "PT", "coord": {"lon": -7.53894, "lat": 39.361252}}, {"id": 2272288, "name": "Aguiar", "state": "", "country": "PT", "coord": {"lon": -7.96693, "lat": 38.392849}}, {"id": 2272341, "name": "\u00c1gua de Pena", "state": "", "country": "PT", "coord": {"lon": -16.76667, "lat": 32.700001}}, {"id": 2272379, "name": "A dos Cunhados", "state": "", "country": "PT", "coord": {"lon": -9.2972, "lat": 39.15237}}, {"id": 2272388, "name": "A do Fa\u00e7\u00e3o", "state": "", "country": "PT", "coord": {"lon": -9.33366, "lat": 38.846039}}, {"id": 2272413, "name": "A da Beja", "state": "", "country": "PT", "coord": {"lon": -9.2283, "lat": 38.790661}}, {"id": 2272447, "name": "Abrantes", "state": "", "country": "PT", "coord": {"lon": -8.2, "lat": 39.466671}}, {"id": 2272473, "name": "Abela", "state": "", "country": "PT", "coord": {"lon": -8.5588, "lat": 38.000469}}, {"id": 2272491, "name": "Zwedru", "state": "", "country": "LR", "coord": {"lon": -8.12806, "lat": 6.06667}}, {"id": 2272790, "name": "New Yekepa", "state": "", "country": "LR", "coord": {"lon": -8.53778, "lat": 7.57944}}, {"id": 2273312, "name": "Voinjama", "state": "", "country": "LR", "coord": {"lon": -9.74778, "lat": 8.42194}}, {"id": 2273435, "name": "Tubmanburg", "state": "", "country": "LR", "coord": {"lon": -10.81722, "lat": 6.87083}}, {"id": 2273638, "name": "Fish Town", "state": "", "country": "LR", "coord": {"lon": -7.87556, "lat": 5.19639}}, {"id": 2273898, "name": "Sinoe County", "state": "", "country": "LR", "coord": {"lon": -8.66667, "lat": 5.33333}}, {"id": 2274032, "name": "Sehnwehn", "state": "", "country": "LR", "coord": {"lon": -8.28333, "lat": 6.28333}}, {"id": 2274129, "name": "Sanniquellie", "state": "", "country": "LR", "coord": {"lon": -8.70611, "lat": 7.36222}}, {"id": 2274275, "name": "Robertsport", "state": "", "country": "LR", "coord": {"lon": -11.36861, "lat": 6.75333}}, {"id": 2274288, "name": "Cestos City", "state": "", "country": "LR", "coord": {"lon": -9.58278, "lat": 5.46}}, {"id": 2274688, "name": "Nimba County", "state": "", "country": "LR", "coord": {"lon": -8.75, "lat": 6.75}}, {"id": 2274890, "name": "Montserrado County", "state": "", "country": "LR", "coord": {"lon": -10.5, "lat": 6.5}}, {"id": 2274895, "name": "Monrovia", "state": "", "country": "LR", "coord": {"lon": -10.7969, "lat": 6.30054}}, {"id": 2275099, "name": "Maryland County", "state": "", "country": "LR", "coord": {"lon": -7.75, "lat": 4.75}}, {"id": 2275344, "name": "Lofa County", "state": "", "country": "LR", "coord": {"lon": -10, "lat": 7.91667}}, {"id": 2275384, "name": "Republic of Liberia", "state": "", "country": "LR", "coord": {"lon": -9.5, "lat": 6.5}}, {"id": 2276086, "name": "Kakata", "state": "", "country": "LR", "coord": {"lon": -10.35167, "lat": 6.53}}, {"id": 2276492, "name": "Harper", "state": "", "country": "LR", "coord": {"lon": -7.71694, "lat": 4.375}}, {"id": 2276600, "name": "Greenville", "state": "", "country": "LR", "coord": {"lon": -9.03889, "lat": 5.01111}}, {"id": 2276622, "name": "Grand Gedeh County", "state": "", "country": "LR", "coord": {"lon": -8.08333, "lat": 5.91667}}, {"id": 2276630, "name": "Grand Bassa County", "state": "", "country": "LR", "coord": {"lon": -9.75, "lat": 6.25}}, {"id": 2277060, "name": "Gbarnga", "state": "", "country": "LR", "coord": {"lon": -9.47222, "lat": 6.99556}}, {"id": 2277197, "name": "Ganta", "state": "", "country": "LR", "coord": {"lon": -8.53083, "lat": 7.30222}}, {"id": 2277960, "name": "Crown Hill", "state": "", "country": "LR", "coord": {"lon": -10.8, "lat": 6.31667}}, {"id": 2278158, "name": "Buchanan", "state": "", "country": "LR", "coord": {"lon": -10.04667, "lat": 5.88083}}, {"id": 2278248, "name": "Bopolu", "state": "", "country": "LR", "coord": {"lon": -10.4875, "lat": 7.06667}}, {"id": 2278292, "name": "Bong County", "state": "", "country": "LR", "coord": {"lon": -9.66667, "lat": 7}}, {"id": 2278682, "name": "Bensonville", "state": "", "country": "LR", "coord": {"lon": -10.6125, "lat": 6.44611}}, {"id": 2278889, "name": "Barclayville", "state": "", "country": "LR", "coord": {"lon": -8.23389, "lat": 4.67972}}, {"id": 2279172, "name": "Zu\u00e9noula", "state": "", "country": "CI", "coord": {"lon": -6.04306, "lat": 7.42917}}, {"id": 2279755, "name": "Yamoussoukro", "state": "", "country": "CI", "coord": {"lon": -5.27674, "lat": 6.82055}}, {"id": 2280025, "name": "Vodi\u00e9ko", "state": "", "country": "CI", "coord": {"lon": -6.13333, "lat": 4.91667}}, {"id": 2280045, "name": "Vavoua", "state": "", "country": "CI", "coord": {"lon": -6.47778, "lat": 7.38194}}, {"id": 2280289, "name": "Toupah", "state": "", "country": "CI", "coord": {"lon": -4.57, "lat": 5.31639}}, {"id": 2280316, "name": "Toumodi", "state": "", "country": "CI", "coord": {"lon": -5.01575, "lat": 6.56128}}, {"id": 2280333, "name": "Toul\u00e9pleu Guer\u00e9", "state": "", "country": "CI", "coord": {"lon": -8.42592, "lat": 6.57395}}, {"id": 2280376, "name": "Touba", "state": "", "country": "CI", "coord": {"lon": -7.68333, "lat": 8.28333}}, {"id": 2280589, "name": "Tengr\u00e9la", "state": "", "country": "CI", "coord": {"lon": -6.40972, "lat": 10.48694}}, {"id": 2280743, "name": "Ti\u00e9bissou", "state": "", "country": "CI", "coord": {"lon": -5.22566, "lat": 7.15738}}, {"id": 2280761, "name": "Tiassal\u00e9", "state": "", "country": "CI", "coord": {"lon": -4.82833, "lat": 5.89833}}, {"id": 2280995, "name": "Tanda", "state": "", "country": "CI", "coord": {"lon": -3.17139, "lat": 7.80639}}, {"id": 2281120, "name": "Tabou", "state": "", "country": "CI", "coord": {"lon": -7.3528, "lat": 4.42295}}, {"id": 2281196, "name": "Soupleu", "state": "", "country": "CI", "coord": {"lon": -7.58322, "lat": 7.27033}}, {"id": 2281426, "name": "Sokro", "state": "", "country": "CI", "coord": {"lon": -4.61368, "lat": 6.64881}}, {"id": 2281436, "name": "Socoradjan", "state": "", "country": "CI", "coord": {"lon": -4.69693, "lat": 6.65251}}, {"id": 2281475, "name": "Soko", "state": "", "country": "CI", "coord": {"lon": -2.75, "lat": 8}}, {"id": 2281606, "name": "Sinfra", "state": "", "country": "CI", "coord": {"lon": -5.91667, "lat": 6.61667}}, {"id": 2281641, "name": "Sikensi", "state": "", "country": "CI", "coord": {"lon": -4.57028, "lat": 5.66917}}, {"id": 2281951, "name": "Sassandra", "state": "", "country": "CI", "coord": {"lon": -6.08333, "lat": 4.95}}, {"id": 2282006, "name": "San-P\u00e9dro", "state": "", "country": "CI", "coord": {"lon": -6.6363, "lat": 4.74851}}, {"id": 2282178, "name": "Sakassou", "state": "", "country": "CI", "coord": {"lon": -5.29263, "lat": 7.45462}}, {"id": 2282335, "name": "Port-Bou\u00ebt", "state": "", "country": "CI", "coord": {"lon": -3.96299, "lat": 5.25677}}, {"id": 2282827, "name": "Oum\u00e9", "state": "", "country": "CI", "coord": {"lon": -5.41759, "lat": 6.38309}}, {"id": 2282907, "name": "Ouangolodougou", "state": "", "country": "CI", "coord": {"lon": -5.15, "lat": 9.96667}}, {"id": 2282976, "name": "Oliziribou\u00e9", "state": "", "country": "CI", "coord": {"lon": -5.69694, "lat": 5.85028}}, {"id": 2283016, "name": "Odienn\u00e9", "state": "", "country": "CI", "coord": {"lon": -7.56917, "lat": 9.51}}, {"id": 2284589, "name": "Mankono", "state": "", "country": "CI", "coord": {"lon": -6.18972, "lat": 8.05861}}, {"id": 2284647, "name": "Man", "state": "", "country": "CI", "coord": {"lon": -7.55383, "lat": 7.41251}}, {"id": 2284744, "name": "Maf\u00e9r\u00e9", "state": "", "country": "CI", "coord": {"lon": -3.03006, "lat": 5.4151}}, {"id": 2285449, "name": "Lakota", "state": "", "country": "CI", "coord": {"lon": -5.68833, "lat": 5.85278}}, {"id": 2286304, "name": "Korhogo", "state": "", "country": "CI", "coord": {"lon": -5.63333, "lat": 9.45}}, {"id": 2286514, "name": "Konankankro", "state": "", "country": "CI", "coord": {"lon": -5.06679, "lat": 7.72793}}, {"id": 2287241, "name": "K\u00e9dio Babr\u00e9", "state": "", "country": "CI", "coord": {"lon": -5.94702, "lat": 6.13973}}, {"id": 2287298, "name": "Katiola", "state": "", "country": "CI", "coord": {"lon": -5.1, "lat": 8.13333}}, {"id": 2287738, "name": "Kablak\u00e9", "state": "", "country": "CI", "coord": {"lon": -7.3612, "lat": 4.4178}}, {"id": 2287778, "name": "Jacqueville", "state": "", "country": "CI", "coord": {"lon": -4.4146, "lat": 5.20515}}, {"id": 2287781, "name": "Republic of C\u00f4te d\u2019Ivoire", "state": "", "country": "CI", "coord": {"lon": -5, "lat": 8}}, {"id": 2287790, "name": "Issia", "state": "", "country": "CI", "coord": {"lon": -6.58558, "lat": 6.49224}}, {"id": 2287927, "name": "Guitry", "state": "", "country": "CI", "coord": {"lon": -5.23972, "lat": 5.52278}}, {"id": 2287958, "name": "Guiglo", "state": "", "country": "CI", "coord": {"lon": -7.49659, "lat": 6.54559}}, {"id": 2287970, "name": "Guib\u00e9roua", "state": "", "country": "CI", "coord": {"lon": -6.17272, "lat": 6.2392}}, {"id": 2288001, "name": "Guessihio", "state": "", "country": "CI", "coord": {"lon": -6.00722, "lat": 6.10722}}, {"id": 2288105, "name": "Grand-Lahou", "state": "", "country": "CI", "coord": {"lon": -5.02417, "lat": 5.13667}}, {"id": 2288115, "name": "Grand-Bassam", "state": "", "country": "CI", "coord": {"lon": -3.73884, "lat": 5.2118}}, {"id": 2288118, "name": "Affery", "state": "", "country": "CI", "coord": {"lon": -3.96028, "lat": 6.315}}, {"id": 2288628, "name": "Gb\u00e9titap\u00e9a", "state": "", "country": "CI", "coord": {"lon": -6.45138, "lat": 6.78951}}, {"id": 2288829, "name": "Gagnoa", "state": "", "country": "CI", "coord": {"lon": -5.94371, "lat": 6.12926}}, {"id": 2288873, "name": "France", "state": "", "country": "CI", "coord": {"lon": -3.7396, "lat": 5.20377}}, {"id": 2289049, "name": "Ferkess\u00e9dougou", "state": "", "country": "CI", "coord": {"lon": -5.2, "lat": 9.6}}, {"id": 2289549, "name": "Duekou\u00e9", "state": "", "country": "CI", "coord": {"lon": -7.34959, "lat": 6.74719}}, {"id": 2289887, "name": "Divo", "state": "", "country": "CI", "coord": {"lon": -5.36, "lat": 5.83972}}, {"id": 2289969, "name": "Dinb\u00e9kana", "state": "", "country": "CI", "coord": {"lon": -5.1, "lat": 8.13333}}, {"id": 2289983, "name": "Dimbokro", "state": "", "country": "CI", "coord": {"lon": -4.70477, "lat": 6.6451}}, {"id": 2290224, "name": "Diamalabo", "state": "", "country": "CI", "coord": {"lon": -5.33888, "lat": 6.92154}}, {"id": 2290412, "name": "Daoukro", "state": "", "country": "CI", "coord": {"lon": -3.9631, "lat": 7.0591}}, {"id": 2290462, "name": "Danan\u00e9", "state": "", "country": "CI", "coord": {"lon": -8.15498, "lat": 7.25957}}, {"id": 2290486, "name": "Daloa", "state": "", "country": "CI", "coord": {"lon": -6.45022, "lat": 6.87736}}, {"id": 2290582, "name": "Dabou", "state": "", "country": "CI", "coord": {"lon": -4.37685, "lat": 5.32556}}, {"id": 2290609, "name": "Dabakala", "state": "", "country": "CI", "coord": {"lon": -4.43333, "lat": 8.36667}}, {"id": 2290836, "name": "Boundiali", "state": "", "country": "CI", "coord": {"lon": -6.48694, "lat": 9.52167}}, {"id": 2290849, "name": "Bouna", "state": "", "country": "CI", "coord": {"lon": -3, "lat": 9.26667}}, {"id": 2290956, "name": "Bouak\u00e9", "state": "", "country": "CI", "coord": {"lon": -5.02177, "lat": 7.68949}}, {"id": 2290964, "name": "Bouafl\u00e9", "state": "", "country": "CI", "coord": {"lon": -5.7442, "lat": 6.99041}}, {"id": 2290965, "name": "Bouafla II", "state": "", "country": "CI", "coord": {"lon": -5.82944, "lat": 7.28139}}, {"id": 2290985, "name": "Botro", "state": "", "country": "CI", "coord": {"lon": -5.31063, "lat": 7.85249}}, {"id": 2291087, "name": "Bonoua", "state": "", "country": "CI", "coord": {"lon": -3.59502, "lat": 5.27414}}, {"id": 2291113, "name": "Bongouanou", "state": "", "country": "CI", "coord": {"lon": -4.19917, "lat": 6.64861}}, {"id": 2291136, "name": "Bondoukou", "state": "", "country": "CI", "coord": {"lon": -2.8, "lat": 8.03333}}, {"id": 2291383, "name": "Bocanda", "state": "", "country": "CI", "coord": {"lon": -4.49948, "lat": 7.06264}}, {"id": 2291526, "name": "Blabokaha", "state": "", "country": "CI", "coord": {"lon": -5.56667, "lat": 9.38333}}, {"id": 2291580, "name": "Bingerville", "state": "", "country": "CI", "coord": {"lon": -3.88687, "lat": 5.35838}}, {"id": 2291666, "name": "Biankouma", "state": "", "country": "CI", "coord": {"lon": -7.61377, "lat": 7.73909}}, {"id": 2291708, "name": "B\u00e9tti\u00e9", "state": "", "country": "CI", "coord": {"lon": -3.41444, "lat": 6.07694}}, {"id": 2291779, "name": "B\u00e9oumi", "state": "", "country": "CI", "coord": {"lon": -5.57644, "lat": 7.67356}}, {"id": 2292179, "name": "Bangolo", "state": "", "country": "CI", "coord": {"lon": -7.475, "lat": 7.00694}}, {"id": 2292531, "name": "Azagui\u00e9", "state": "", "country": "CI", "coord": {"lon": -4.08458, "lat": 5.63151}}, {"id": 2292542, "name": "Ayam\u00e9", "state": "", "country": "CI", "coord": {"lon": -3.1563, "lat": 5.60831}}, {"id": 2292755, "name": "Arrah", "state": "", "country": "CI", "coord": {"lon": -3.97222, "lat": 6.66528}}, {"id": 2292852, "name": "Anyama", "state": "", "country": "CI", "coord": {"lon": -4.05183, "lat": 5.49462}}, {"id": 2293045, "name": "Al\u00e9p\u00e9", "state": "", "country": "CI", "coord": {"lon": -3.66308, "lat": 5.5004}}, {"id": 2293107, "name": "Akoup\u00e9", "state": "", "country": "CI", "coord": {"lon": -3.90028, "lat": 6.39}}, {"id": 2293260, "name": "Agnibil\u00e9krou", "state": "", "country": "CI", "coord": {"lon": -3.20472, "lat": 7.13444}}, {"id": 2293268, "name": "Agboville", "state": "", "country": "CI", "coord": {"lon": -4.21319, "lat": 5.92801}}, {"id": 2293342, "name": "Adzop\u00e9", "state": "", "country": "CI", "coord": {"lon": -3.86194, "lat": 6.10694}}, {"id": 2293428, "name": "Adiak\u00e9", "state": "", "country": "CI", "coord": {"lon": -3.30402, "lat": 5.28634}}, {"id": 2293507, "name": "Aboisso", "state": "", "country": "CI", "coord": {"lon": -3.20711, "lat": 5.46779}}, {"id": 2293521, "name": "Abobo", "state": "", "country": "CI", "coord": {"lon": -4.01601, "lat": 5.40861}}, {"id": 2293538, "name": "Abidjan", "state": "", "country": "CI", "coord": {"lon": -4.01972, "lat": 5.30943}}, {"id": 2293549, "name": "Abengourou", "state": "", "country": "CI", "coord": {"lon": -3.49639, "lat": 6.72972}}, {"id": 2293721, "name": "Yunyo", "state": "", "country": "GH", "coord": {"lon": 0.0074, "lat": 10.47494}}, {"id": 2293801, "name": "Yendi", "state": "", "country": "GH", "coord": {"lon": -0.00991, "lat": 9.44272}}, {"id": 2294034, "name": "Winneba", "state": "", "country": "GH", "coord": {"lon": -0.62313, "lat": 5.35113}}, {"id": 2294076, "name": "Western Region", "state": "", "country": "GH", "coord": {"lon": -2.5, "lat": 5.5}}, {"id": 2294086, "name": "Wankyi", "state": "", "country": "GH", "coord": {"lon": -2.10456, "lat": 7.73916}}, {"id": 2294206, "name": "Wa", "state": "", "country": "GH", "coord": {"lon": -2.50192, "lat": 10.06069}}, {"id": 2294234, "name": "Volta Region", "state": "", "country": "GH", "coord": {"lon": 0.5, "lat": 7}}, {"id": 2294286, "name": "Upper West Region", "state": "", "country": "GH", "coord": {"lon": -2.25, "lat": 10.33333}}, {"id": 2294291, "name": "Upper East Region", "state": "", "country": "GH", "coord": {"lon": -0.75, "lat": 10.75}}, {"id": 2294305, "name": "Maudaso", "state": "", "country": "GH", "coord": {"lon": -2.16135, "lat": 6.13009}}, {"id": 2294342, "name": "Tumu", "state": "", "country": "GH", "coord": {"lon": -1.97911, "lat": 10.87645}}, {"id": 2294665, "name": "Teshi Old Town", "state": "", "country": "GH", "coord": {"lon": -0.10722, "lat": 5.58365}}, {"id": 2294700, "name": "Tema", "state": "", "country": "GH", "coord": {"lon": -0.01657, "lat": 5.66698}}, {"id": 2294727, "name": "Techiman", "state": "", "country": "GH", "coord": {"lon": -1.94137, "lat": 7.58616}}, {"id": 2294768, "name": "Tarkwa", "state": "", "country": "GH", "coord": {"lon": -1.98474, "lat": 5.30644}}, {"id": 2294877, "name": "Tamale", "state": "", "country": "GH", "coord": {"lon": -0.8393, "lat": 9.40078}}, {"id": 2294893, "name": "Tano-Kwayem", "state": "", "country": "GH", "coord": {"lon": -2.0852, "lat": 7.44159}}, {"id": 2294915, "name": "Takoradi", "state": "", "country": "GH", "coord": {"lon": -1.75536, "lat": 4.88447}}, {"id": 2294938, "name": "Tafo", "state": "", "country": "GH", "coord": {"lon": -1.61275, "lat": 6.73453}}, {"id": 2294962, "name": "Swedru", "state": "", "country": "GH", "coord": {"lon": -0.69984, "lat": 5.53711}}, {"id": 2295021, "name": "Sunyani", "state": "", "country": "GH", "coord": {"lon": -2.32676, "lat": 7.33991}}, {"id": 2295065, "name": "Suhum", "state": "", "country": "GH", "coord": {"lon": -0.45004, "lat": 6.04089}}, {"id": 2295385, "name": "Shama Junction", "state": "", "country": "GH", "coord": {"lon": -1.63011, "lat": 5.00872}}, {"id": 2295458, "name": "Sekondi-Takoradi", "state": "", "country": "GH", "coord": {"lon": -1.7137, "lat": 4.934}}, {"id": 2295517, "name": "Savelugu", "state": "", "country": "GH", "coord": {"lon": -0.8253, "lat": 9.62441}}, {"id": 2295672, "name": "Saltpond", "state": "", "country": "GH", "coord": {"lon": -1.06058, "lat": 5.20913}}, {"id": 2295684, "name": "Salaga", "state": "", "country": "GH", "coord": {"lon": -0.51875, "lat": 8.55083}}, {"id": 2295692, "name": "Sakumona", "state": "", "country": "GH", "coord": {"lon": -0.04746, "lat": 5.61304}}, {"id": 2295773, "name": "Osu Castle", "state": "", "country": "GH", "coord": {"lon": -0.2, "lat": 5.55}}, {"id": 2295840, "name": "Prestea", "state": "", "country": "GH", "coord": {"lon": -2.14284, "lat": 5.43274}}, {"id": 2296458, "name": "Kasoa", "state": "", "country": "GH", "coord": {"lon": -0.4224, "lat": 5.53302}}, {"id": 2296524, "name": "Odumase", "state": "", "country": "GH", "coord": {"lon": -2.31819, "lat": 7.37134}}, {"id": 2296564, "name": "Akim Oda", "state": "", "country": "GH", "coord": {"lon": -0.99507, "lat": 5.92313}}, {"id": 2296606, "name": "Obuase", "state": "", "country": "GH", "coord": {"lon": -1.66191, "lat": 6.20602}}, {"id": 2296969, "name": "Nungua", "state": "", "country": "GH", "coord": {"lon": -0.07713, "lat": 5.60106}}, {"id": 2297141, "name": "Nsawam", "state": "", "country": "GH", "coord": {"lon": -0.35026, "lat": 5.80893}}, {"id": 2297169, "name": "Northern Region", "state": "", "country": "GH", "coord": {"lon": -1, "lat": 9.5}}, {"id": 2297313, "name": "Nkawkaw", "state": "", "country": "GH", "coord": {"lon": -0.7662, "lat": 6.55121}}, {"id": 2297503, "name": "Nawari", "state": "", "country": "GH", "coord": {"lon": 0.26667, "lat": 10.21667}}, {"id": 2297505, "name": "Navrongo", "state": "", "country": "GH", "coord": {"lon": -1.0921, "lat": 10.89557}}, {"id": 2297810, "name": "Mumford", "state": "", "country": "GH", "coord": {"lon": -0.75897, "lat": 5.26176}}, {"id": 2297816, "name": "Muete", "state": "", "country": "GH", "coord": {"lon": 0.07775, "lat": 6.02824}}, {"id": 2297834, "name": "Mpraeso", "state": "", "country": "GH", "coord": {"lon": -0.73462, "lat": 6.5932}}, {"id": 2298264, "name": "Mampong", "state": "", "country": "GH", "coord": {"lon": -1.4001, "lat": 7.06273}}, {"id": 2298330, "name": "Medina Estates", "state": "", "country": "GH", "coord": {"lon": -0.16413, "lat": 5.68234}}, {"id": 2298469, "name": "Langa", "state": "", "country": "GH", "coord": {"lon": -0.88616, "lat": 9.57081}}, {"id": 2298528, "name": "Kwesimintsim", "state": "", "country": "GH", "coord": {"lon": -1.78761, "lat": 4.91452}}, {"id": 2298890, "name": "Kumasi", "state": "", "country": "GH", "coord": {"lon": -1.62443, "lat": 6.68848}}, {"id": 2299233, "name": "Kpandu", "state": "", "country": "GH", "coord": {"lon": 0.29306, "lat": 6.99536}}, {"id": 2299236, "name": "Kpandae", "state": "", "country": "GH", "coord": {"lon": -0.01127, "lat": 8.46885}}, {"id": 2299349, "name": "Konongo", "state": "", "country": "GH", "coord": {"lon": -1.21667, "lat": 6.61667}}, {"id": 2299522, "name": "Koforidua", "state": "", "country": "GH", "coord": {"lon": -0.25913, "lat": 6.09408}}, {"id": 2299625, "name": "Kintampo", "state": "", "country": "GH", "coord": {"lon": -1.73058, "lat": 8.05627}}, {"id": 2299636, "name": "Kibi", "state": "", "country": "GH", "coord": {"lon": -0.55376, "lat": 6.16494}}, {"id": 2299642, "name": "Kete Krachi", "state": "", "country": "GH", "coord": {"lon": -0.0498, "lat": 7.79391}}, {"id": 2299645, "name": "Keta", "state": "", "country": "GH", "coord": {"lon": 0.9879, "lat": 5.91793}}, {"id": 2299872, "name": "Kalesesi", "state": "", "country": "GH", "coord": {"lon": -1.05, "lat": 10.55}}, {"id": 2299978, "name": "Kablima", "state": "", "country": "GH", "coord": {"lon": -2.26086, "lat": 8.9561}}, {"id": 2300372, "name": "Hohoe", "state": "", "country": "GH", "coord": {"lon": 0.47362, "lat": 7.15181}}, {"id": 2300379, "name": "Ho", "state": "", "country": "GH", "coord": {"lon": 0.46667, "lat": 6.6}}, {"id": 2300660, "name": "Republic of Ghana", "state": "", "country": "GH", "coord": {"lon": -2, "lat": 8}}, {"id": 2300721, "name": "Gbawe", "state": "", "country": "GH", "coord": {"lon": -0.31035, "lat": 5.57714}}, {"id": 2300883, "name": "Foso", "state": "", "country": "GH", "coord": {"lon": -1.28657, "lat": 5.70119}}, {"id": 2301190, "name": "Elmina", "state": "", "country": "GH", "coord": {"lon": -1.34804, "lat": 5.08981}}, {"id": 2301217, "name": "Ejura", "state": "", "country": "GH", "coord": {"lon": -1.35617, "lat": 7.38558}}, {"id": 2301360, "name": "Eastern Region", "state": "", "country": "GH", "coord": {"lon": -0.5, "lat": 6.5}}, {"id": 2301400, "name": "Dunkwa", "state": "", "country": "GH", "coord": {"lon": -1.77995, "lat": 5.96562}}, {"id": 2301464, "name": "Duayaw-Nkwanta", "state": "", "country": "GH", "coord": {"lon": -2.1028, "lat": 7.17242}}, {"id": 2301639, "name": "Dome", "state": "", "country": "GH", "coord": {"lon": -0.2361, "lat": 5.65003}}, {"id": 2301669, "name": "Dodoyiri", "state": "", "country": "GH", "coord": {"lon": -2.3, "lat": 10.05}}, {"id": 2302135, "name": "Chum", "state": "", "country": "GH", "coord": {"lon": -0.16955, "lat": 6.04237}}, {"id": 2302353, "name": "Central Region", "state": "", "country": "GH", "coord": {"lon": -1, "lat": 5.5}}, {"id": 2302357, "name": "Cape Coast", "state": "", "country": "GH", "coord": {"lon": -1.2466, "lat": 5.10535}}, {"id": 2302417, "name": "Buokurom", "state": "", "country": "GH", "coord": {"lon": -1.59606, "lat": 6.72488}}, {"id": 2302547, "name": "Brong-Ahafo Region", "state": "", "country": "GH", "coord": {"lon": -1.5, "lat": 7.75}}, {"id": 2302821, "name": "Bolgatanga", "state": "", "country": "GH", "coord": {"lon": -0.85139, "lat": 10.78556}}, {"id": 2303060, "name": "Bibiani", "state": "", "country": "GH", "coord": {"lon": -2.31938, "lat": 6.46346}}, {"id": 2303125, "name": "Berekum", "state": "", "country": "GH", "coord": {"lon": -2.58404, "lat": 7.4534}}, {"id": 2303224, "name": "Bekwai", "state": "", "country": "GH", "coord": {"lon": -1.57741, "lat": 6.45335}}, {"id": 2303236, "name": "Begoro", "state": "", "country": "GH", "coord": {"lon": -0.37738, "lat": 6.38706}}, {"id": 2303258, "name": "Bechem", "state": "", "country": "GH", "coord": {"lon": -2.02498, "lat": 7.09034}}, {"id": 2303287, "name": "Bawku", "state": "", "country": "GH", "coord": {"lon": -0.24168, "lat": 11.0616}}, {"id": 2303611, "name": "Axim", "state": "", "country": "GH", "coord": {"lon": -2.24046, "lat": 4.86992}}, {"id": 2303726, "name": "Avelete", "state": "", "country": "GH", "coord": {"lon": 0.2846, "lat": 6.33311}}, {"id": 2304116, "name": "Ashanti Region", "state": "", "country": "GH", "coord": {"lon": -1.5, "lat": 6.75}}, {"id": 2304220, "name": "Asamankese", "state": "", "country": "GH", "coord": {"lon": -0.6635, "lat": 5.86006}}, {"id": 2304389, "name": "Apam", "state": "", "country": "GH", "coord": {"lon": -0.73711, "lat": 5.28483}}, {"id": 2304548, "name": "Anloga", "state": "", "country": "GH", "coord": {"lon": 0.89728, "lat": 5.79473}}, {"id": 2304928, "name": "Akwechi", "state": "", "country": "GH", "coord": {"lon": -0.58333, "lat": 5.55}}, {"id": 2304931, "name": "Akwatia", "state": "", "country": "GH", "coord": {"lon": -0.80876, "lat": 6.04024}}, {"id": 2305027, "name": "Akropong", "state": "", "country": "GH", "coord": {"lon": -0.08542, "lat": 5.97462}}, {"id": 2305164, "name": "Akim Swedru", "state": "", "country": "GH", "coord": {"lon": -1.01636, "lat": 5.8938}}, {"id": 2305537, "name": "Agogo", "state": "", "country": "GH", "coord": {"lon": -1.08193, "lat": 6.80004}}, {"id": 2305894, "name": "Adibo", "state": "", "country": "GH", "coord": {"lon": 0.01983, "lat": 9.3024}}, {"id": 2306079, "name": "Atsiaman", "state": "", "country": "GH", "coord": {"lon": -0.33333, "lat": 5.7}}, {"id": 2306104, "name": "Accra", "state": "", "country": "GH", "coord": {"lon": -0.1969, "lat": 5.55602}}, {"id": 2306119, "name": "Aburi", "state": "", "country": "GH", "coord": {"lon": -0.17754, "lat": 5.84718}}, {"id": 2306224, "name": "Aboso", "state": "", "country": "GH", "coord": {"lon": -1.94732, "lat": 5.3617}}, {"id": 2306492, "name": "Yiba", "state": "", "country": "GQ", "coord": {"lon": 9.80431, "lat": 1.88625}}, {"id": 2306722, "name": "Santiago de Baney", "state": "", "country": "GQ", "coord": {"lon": 8.9084, "lat": 3.6992}}, {"id": 2306774, "name": "San Antonio de Pal\u00e9", "state": "", "country": "GQ", "coord": {"lon": 5.6325, "lat": -1.40139}}, {"id": 2306819, "name": "R\u00edo Campo", "state": "", "country": "GQ", "coord": {"lon": 9.82212, "lat": 2.33812}}, {"id": 2306824, "name": "Rebola", "state": "", "country": "GQ", "coord": {"lon": 8.83333, "lat": 3.71667}}, {"id": 2307145, "name": "Nsok", "state": "", "country": "GQ", "coord": {"lon": 11.26603, "lat": 1.12985}}, {"id": 2307197, "name": "Nsang", "state": "", "country": "GQ", "coord": {"lon": 10.94599, "lat": 2.02475}}, {"id": 2307502, "name": "Ncue", "state": "", "country": "GQ", "coord": {"lon": 10.47066, "lat": 2.01643}}, {"id": 2307795, "name": "Mongomo", "state": "", "country": "GQ", "coord": {"lon": 11.31346, "lat": 1.62742}}, {"id": 2307970, "name": "Mikomeseng", "state": "", "country": "GQ", "coord": {"lon": 10.61322, "lat": 2.13609}}, {"id": 2308278, "name": "Mbini", "state": "", "country": "GQ", "coord": {"lon": 9.61341, "lat": 1.57402}}, {"id": 2308626, "name": "Machinda", "state": "", "country": "GQ", "coord": {"lon": 9.95133, "lat": 1.88262}}, {"id": 2308839, "name": "Ikunde", "state": "", "country": "GQ", "coord": {"lon": 9.75, "lat": 1.85}}, {"id": 2308994, "name": "Evinayong", "state": "", "country": "GQ", "coord": {"lon": 10.55124, "lat": 1.43677}}, {"id": 2309096, "name": "Republic of Equatorial Guinea", "state": "", "country": "GQ", "coord": {"lon": 10, "lat": 2}}, {"id": 2309332, "name": "Ebebiyin", "state": "", "country": "GQ", "coord": {"lon": 11.33528, "lat": 2.15106}}, {"id": 2309527, "name": "Malabo", "state": "", "country": "GQ", "coord": {"lon": 8.78333, "lat": 3.75}}, {"id": 2309528, "name": "Luba", "state": "", "country": "GQ", "coord": {"lon": 8.55465, "lat": 3.45683}}, {"id": 2309529, "name": "Ciudad de Ela Nguema", "state": "", "country": "GQ", "coord": {"lon": 8.78333, "lat": 3.75}}, {"id": 2309744, "name": "Bitica", "state": "", "country": "GQ", "coord": {"lon": 9.62316, "lat": 1.4261}}, {"id": 2309890, "name": "Bicurga", "state": "", "country": "GQ", "coord": {"lon": 10.46716, "lat": 1.58113}}, {"id": 2310046, "name": "Bata", "state": "", "country": "GQ", "coord": {"lon": 9.76582, "lat": 1.86391}}, {"id": 2310050, "name": "Basup\u00fa", "state": "", "country": "GQ", "coord": {"lon": 8.68455, "lat": 3.71682}}, {"id": 2310134, "name": "Ayene", "state": "", "country": "GQ", "coord": {"lon": 10.68994, "lat": 1.85592}}, {"id": 2310309, "name": "A\u00f1isoc", "state": "", "country": "GQ", "coord": {"lon": 10.76892, "lat": 1.8658}}, {"id": 2310533, "name": "Acurenam", "state": "", "country": "GQ", "coord": {"lon": 10.64882, "lat": 1.03225}}, {"id": 2310547, "name": "Aconibe", "state": "", "country": "GQ", "coord": {"lon": 10.93691, "lat": 1.29683}}, {"id": 2310882, "name": "Yanga", "state": "", "country": "CD", "coord": {"lon": 13.36667, "lat": -5.35}}, {"id": 2311127, "name": "Tshela", "state": "", "country": "CD", "coord": {"lon": 12.93333, "lat": -4.98333}}, {"id": 2311502, "name": "Sengo", "state": "", "country": "CD", "coord": {"lon": 18.950001, "lat": -7.13333}}, {"id": 2311968, "name": "Nioki", "state": "", "country": "CD", "coord": {"lon": 17.683331, "lat": -2.71667}}, {"id": 2312096, "name": "Ndolo", "state": "", "country": "CD", "coord": {"lon": 15.31667, "lat": -4.31667}}, {"id": 2312249, "name": "Mushie", "state": "", "country": "CD", "coord": {"lon": 16.9, "lat": -3.01667}}, {"id": 2312393, "name": "Moanda", "state": "", "country": "CD", "coord": {"lon": 12.35, "lat": -5.93333}}, {"id": 2312888, "name": "Mbanza-Ngungu", "state": "", "country": "CD", "coord": {"lon": 14.86667, "lat": -5.25}}, {"id": 2312892, "name": "Mbanza", "state": "", "country": "CD", "coord": {"lon": 14.95, "lat": -4.76667}}, {"id": 2312895, "name": "Mbandaka", "state": "", "country": "CD", "coord": {"lon": 18.26034, "lat": 0.04865}}, {"id": 2313002, "name": "Matadi", "state": "", "country": "CD", "coord": {"lon": 13.45, "lat": -5.81667}}, {"id": 2313084, "name": "Mangai", "state": "", "country": "CD", "coord": {"lon": 19.533331, "lat": -4.05}}, {"id": 2313371, "name": "Lukolela", "state": "", "country": "CD", "coord": {"lon": 17.1821, "lat": -1.06046}}, {"id": 2313762, "name": "Libenge", "state": "", "country": "CD", "coord": {"lon": 18.633329, "lat": 3.65}}, {"id": 2314129, "name": "Kiteke", "state": "", "country": "CD", "coord": {"lon": 17.049999, "lat": -4.55}}, {"id": 2314300, "name": "Kinshasa City", "state": "", "country": "CD", "coord": {"lon": 15.5, "lat": -4.5}}, {"id": 2314302, "name": "Kinshasa", "state": "", "country": "CD", "coord": {"lon": 15.32146, "lat": -4.32459}}, {"id": 2314705, "name": "Kikwit", "state": "", "country": "CD", "coord": {"lon": 18.816191, "lat": -5.04098}}, {"id": 2315026, "name": "Kasongo-Lunda", "state": "", "country": "CD", "coord": {"lon": 16.816669, "lat": -6.46667}}, {"id": 2315057, "name": "Kasangulu", "state": "", "country": "CD", "coord": {"lon": 15.17083, "lat": -4.59111}}, {"id": 2315417, "name": "Inongo", "state": "", "country": "CD", "coord": {"lon": 18.26667, "lat": -1.95}}, {"id": 2315728, "name": "Gemena", "state": "", "country": "CD", "coord": {"lon": 19.76667, "lat": 3.25}}, {"id": 2316259, "name": "Bulungu", "state": "", "country": "CD", "coord": {"lon": 18.6, "lat": -4.55}}, {"id": 2316473, "name": "Bosobolo", "state": "", "country": "CD", "coord": {"lon": 19.9, "lat": 4.18333}}, {"id": 2316748, "name": "Bolobo", "state": "", "country": "CD", "coord": {"lon": 16.23333, "lat": -2.16667}}, {"id": 2316821, "name": "Bokuda", "state": "", "country": "CD", "coord": {"lon": 19.783331, "lat": 3.21667}}, {"id": 2317277, "name": "Province du Kongo Central", "state": "", "country": "CD", "coord": {"lon": 14.5, "lat": -5.5}}, {"id": 2317285, "name": "Basankusu", "state": "", "country": "CD", "coord": {"lon": 19.80205, "lat": 1.22095}}, {"id": 2317301, "name": "Baraka", "state": "", "country": "CD", "coord": {"lon": 18.6, "lat": 4.35}}, {"id": 2317396, "name": "Bandundu Province", "state": "", "country": "CD", "coord": {"lon": 18, "lat": -4}}, {"id": 2317397, "name": "Bandundu", "state": "", "country": "CD", "coord": {"lon": 17.366671, "lat": -3.31667}}, {"id": 2317548, "name": "Zuru", "state": "", "country": "NG", "coord": {"lon": 5.22879, "lat": 11.42406}}, {"id": 2317569, "name": "Zungeru", "state": "", "country": "NG", "coord": {"lon": 6.15583, "lat": 9.81278}}, {"id": 2317765, "name": "Zaria", "state": "", "country": "NG", "coord": {"lon": 7.7227, "lat": 11.11128}}, {"id": 2317818, "name": "Zango", "state": "", "country": "NG", "coord": {"lon": 8.48765, "lat": 13.05151}}, {"id": 2317887, "name": "Zalanga", "state": "", "country": "NG", "coord": {"lon": 10.17647, "lat": 10.61432}}, {"id": 2317899, "name": "Zaki Biam", "state": "", "country": "NG", "coord": {"lon": 9.61667, "lat": 7.51667}}, {"id": 2317936, "name": "Zadawa", "state": "", "country": "NG", "coord": {"lon": 10.3672, "lat": 11.4496}}, {"id": 2317982, "name": "Yuli", "state": "", "country": "NG", "coord": {"lon": 10.27444, "lat": 9.69889}}, {"id": 2318044, "name": "Yola", "state": "", "country": "NG", "coord": {"lon": 12.48333, "lat": 9.2}}, {"id": 2318123, "name": "Yenagoa", "state": "", "country": "NG", "coord": {"lon": 6.26417, "lat": 4.92472}}, {"id": 2318166, "name": "Yelwa", "state": "", "country": "NG", "coord": {"lon": 9.63333, "lat": 8.83333}}, {"id": 2318238, "name": "Yashikira", "state": "", "country": "NG", "coord": {"lon": 3.4, "lat": 9.76667}}, {"id": 2318374, "name": "Yandev", "state": "", "country": "NG", "coord": {"lon": 9.05, "lat": 7.36667}}, {"id": 2318383, "name": "Yanda Bayo", "state": "", "country": "NG", "coord": {"lon": 10.7459, "lat": 11.5071}}, {"id": 2318399, "name": "Yamrat", "state": "", "country": "NG", "coord": {"lon": 9.82604, "lat": 10.11161}}, {"id": 2318480, "name": "Yajiwa", "state": "", "country": "NG", "coord": {"lon": 12.7236, "lat": 11.38385}}, {"id": 2318534, "name": "Wuyo", "state": "", "country": "NG", "coord": {"lon": 11.69678, "lat": 10.38522}}, {"id": 2318560, "name": "Wusasa", "state": "", "country": "NG", "coord": {"lon": 7.67925, "lat": 11.07543}}, {"id": 2318858, "name": "Wurno", "state": "", "country": "NG", "coord": {"lon": 5.42326, "lat": 13.28777}}, {"id": 2318921, "name": "Wukari", "state": "", "country": "NG", "coord": {"lon": 9.78333, "lat": 7.85}}, {"id": 2318933, "name": "Wudil", "state": "", "country": "NG", "coord": {"lon": 8.84505, "lat": 11.81067}}, {"id": 2319078, "name": "Wawa", "state": "", "country": "NG", "coord": {"lon": 4.41917, "lat": 9.90222}}, {"id": 2319080, "name": "Wauro Jabbe", "state": "", "country": "NG", "coord": {"lon": 12.41667, "lat": 9.26667}}, {"id": 2319123, "name": "Wasagu", "state": "", "country": "NG", "coord": {"lon": 5.79536, "lat": 11.3764}}, {"id": 2319133, "name": "Warri", "state": "", "country": "NG", "coord": {"lon": 5.75, "lat": 5.51667}}, {"id": 2319257, "name": "Wamba", "state": "", "country": "NG", "coord": {"lon": 8.6, "lat": 8.93333}}, {"id": 2319268, "name": "Walmayo", "state": "", "country": "NG", "coord": {"lon": 8.5441, "lat": 7.7315}}, {"id": 2319345, "name": "Wagini", "state": "", "country": "NG", "coord": {"lon": 7.19579, "lat": 12.68781}}, {"id": 2319407, "name": "Vom", "state": "", "country": "NG", "coord": {"lon": 8.78333, "lat": 9.73333}}, {"id": 2319480, "name": "Uyo", "state": "", "country": "NG", "coord": {"lon": 7.92657, "lat": 5.03333}}, {"id": 2319642, "name": "Uruobo-Okija", "state": "", "country": "NG", "coord": {"lon": 6.84312, "lat": 5.90016}}, {"id": 2319668, "name": "Uromi", "state": "", "country": "NG", "coord": {"lon": 6.33333, "lat": 6.7}}, {"id": 2320417, "name": "Umunede", "state": "", "country": "NG", "coord": {"lon": 6.31161, "lat": 6.26374}}, {"id": 2320576, "name": "Umuahia", "state": "", "country": "NG", "coord": {"lon": 7.48959, "lat": 5.52627}}, {"id": 2320746, "name": "Ukata", "state": "", "country": "NG", "coord": {"lon": 5.82494, "lat": 10.83122}}, {"id": 2320829, "name": "Ughelli", "state": "", "country": "NG", "coord": {"lon": 6.00743, "lat": 5.48986}}, {"id": 2320831, "name": "Ugep", "state": "", "country": "NG", "coord": {"lon": 8.0812, "lat": 5.8086}}, {"id": 2320909, "name": "Uga Soja", "state": "", "country": "NG", "coord": {"lon": 8.6137, "lat": 7.7124}}, {"id": 2320920, "name": "Uga", "state": "", "country": "NG", "coord": {"lon": 7.0793, "lat": 5.93576}}, {"id": 2320966, "name": "Udi", "state": "", "country": "NG", "coord": {"lon": 7.4258, "lat": 6.3144}}, {"id": 2321031, "name": "Ubiaja", "state": "", "country": "NG", "coord": {"lon": 6.38687, "lat": 6.65504}}, {"id": 2321057, "name": "Uba", "state": "", "country": "NG", "coord": {"lon": 13.22139, "lat": 10.45306}}, {"id": 2321429, "name": "Tungan Ali", "state": "", "country": "NG", "coord": {"lon": 7.22194, "lat": 9.00556}}, {"id": 2321926, "name": "Toungo", "state": "", "country": "NG", "coord": {"lon": 12.05, "lat": 8.11667}}, {"id": 2322021, "name": "Tokombere", "state": "", "country": "NG", "coord": {"lon": 13.48581, "lat": 11.22713}}, {"id": 2322263, "name": "Tegina", "state": "", "country": "NG", "coord": {"lon": 6.1906, "lat": 10.0706}}, {"id": 2322495, "name": "Tambuwal", "state": "", "country": "NG", "coord": {"lon": 4.64692, "lat": 12.40386}}, {"id": 2322529, "name": "Talata Mafara", "state": "", "country": "NG", "coord": {"lon": 6.05971, "lat": 12.57317}}, {"id": 2322552, "name": "Takum", "state": "", "country": "NG", "coord": {"lon": 9.98333, "lat": 7.26667}}, {"id": 2322592, "name": "Takai", "state": "", "country": "NG", "coord": {"lon": 9.11667, "lat": 11.58333}}, {"id": 2322722, "name": "Suya", "state": "", "country": "NG", "coord": {"lon": 3.18333, "lat": 9.46667}}, {"id": 2322794, "name": "Suleja", "state": "", "country": "NG", "coord": {"lon": 7.18083, "lat": 9.17583}}, {"id": 2322907, "name": "Sokoto State", "state": "", "country": "NG", "coord": {"lon": 5.25, "lat": 13.08333}}, {"id": 2322911, "name": "Sokoto", "state": "", "country": "NG", "coord": {"lon": 5.23902, "lat": 13.06092}}, {"id": 2322957, "name": "Soba", "state": "", "country": "NG", "coord": {"lon": 8.05749, "lat": 10.98134}}, {"id": 2323011, "name": "Siluko", "state": "", "country": "NG", "coord": {"lon": 5.1609, "lat": 6.53858}}, {"id": 2323146, "name": "Shinkafi", "state": "", "country": "NG", "coord": {"lon": 6.51046, "lat": 13.07534}}, {"id": 2323344, "name": "Shani", "state": "", "country": "NG", "coord": {"lon": 12.06198, "lat": 10.21617}}, {"id": 2323349, "name": "Shanga", "state": "", "country": "NG", "coord": {"lon": 4.57878, "lat": 11.21062}}, {"id": 2323390, "name": "Saki", "state": "", "country": "NG", "coord": {"lon": 3.38333, "lat": 8.66667}}, {"id": 2323411, "name": "Shagamu", "state": "", "country": "NG", "coord": {"lon": 3.64776, "lat": 6.84323}}, {"id": 2323418, "name": "Shaffa", "state": "", "country": "NG", "coord": {"lon": 12.33315, "lat": 10.50673}}, {"id": 2323579, "name": "Sauri", "state": "", "country": "NG", "coord": {"lon": 6.78374, "lat": 11.72655}}, {"id": 2323675, "name": "Sapele", "state": "", "country": "NG", "coord": {"lon": 5.67666, "lat": 5.89405}}, {"id": 2323858, "name": "Samamiya", "state": "", "country": "NG", "coord": {"lon": 9.63989, "lat": 11.34873}}, {"id": 2324024, "name": "Sade", "state": "", "country": "NG", "coord": {"lon": 10.6732, "lat": 11.3595}}, {"id": 2324281, "name": "Runka", "state": "", "country": "NG", "coord": {"lon": 7.30918, "lat": 12.44788}}, {"id": 2324325, "name": "Ruma", "state": "", "country": "NG", "coord": {"lon": 7.23469, "lat": 12.8626}}, {"id": 2324433, "name": "Rivers State", "state": "", "country": "NG", "coord": {"lon": 6.82766, "lat": 4.74974}}, {"id": 2324439, "name": "Riti", "state": "", "country": "NG", "coord": {"lon": 9.61667, "lat": 7.91667}}, {"id": 2324460, "name": "Ringim", "state": "", "country": "NG", "coord": {"lon": 9.16192, "lat": 12.15482}}, {"id": 2324504, "name": "Rijau", "state": "", "country": "NG", "coord": {"lon": 5.25068, "lat": 11.10298}}, {"id": 2324575, "name": "Rano", "state": "", "country": "NG", "coord": {"lon": 8.57464, "lat": 11.54912}}, {"id": 2324623, "name": "Saminaka", "state": "", "country": "NG", "coord": {"lon": 8.68279, "lat": 10.41403}}, {"id": 2324706, "name": "Rabah", "state": "", "country": "NG", "coord": {"lon": 5.50741, "lat": 13.12133}}, {"id": 2324767, "name": "Potiskum", "state": "", "country": "NG", "coord": {"lon": 11.0694, "lat": 11.7091}}, {"id": 2324774, "name": "Port Harcourt", "state": "", "country": "NG", "coord": {"lon": 7.0134, "lat": 4.77742}}, {"id": 2324828, "name": "Plateau State", "state": "", "country": "NG", "coord": {"lon": 9.75, "lat": 9.16667}}, {"id": 2324857, "name": "Pindiga", "state": "", "country": "NG", "coord": {"lon": 10.93333, "lat": 9.98333}}, {"id": 2324960, "name": "Patigi", "state": "", "country": "NG", "coord": {"lon": 5.75, "lat": 8.73333}}, {"id": 2324962, "name": "Patani", "state": "", "country": "NG", "coord": {"lon": 6.19238, "lat": 5.22724}}, {"id": 2325032, "name": "Panyam", "state": "", "country": "NG", "coord": {"lon": 9.21667, "lat": 9.41667}}, {"id": 2325060, "name": "Pankshin", "state": "", "country": "NG", "coord": {"lon": 9.45, "lat": 9.33333}}, {"id": 2325161, "name": "Ozubulu", "state": "", "country": "NG", "coord": {"lon": 6.84904, "lat": 5.95666}}, {"id": 2325190, "name": "Oyo State", "state": "", "country": "NG", "coord": {"lon": 4, "lat": 8}}, {"id": 2325200, "name": "Oyo", "state": "", "country": "NG", "coord": {"lon": 3.93333, "lat": 7.85}}, {"id": 2325249, "name": "Oyan", "state": "", "country": "NG", "coord": {"lon": 4.76667, "lat": 8.05}}, {"id": 2325307, "name": "Owode", "state": "", "country": "NG", "coord": {"lon": 3.50511, "lat": 6.94864}}, {"id": 2325314, "name": "Owo", "state": "", "country": "NG", "coord": {"lon": 5.58681, "lat": 7.1962}}, {"id": 2325330, "name": "Owerri", "state": "", "country": "NG", "coord": {"lon": 7.03041, "lat": 5.48333}}, {"id": 2325437, "name": "Otukpa", "state": "", "country": "NG", "coord": {"lon": 7.64989, "lat": 7.08921}}, {"id": 2325458, "name": "Otta", "state": "", "country": "NG", "coord": {"lon": 3.73333, "lat": 6.66667}}, {"id": 2325590, "name": "Osogbo", "state": "", "country": "NG", "coord": {"lon": 4.56667, "lat": 7.76667}}, {"id": 2325688, "name": "Oron", "state": "", "country": "NG", "coord": {"lon": 8.23434, "lat": 4.82561}}, {"id": 2325713, "name": "Orodo", "state": "", "country": "NG", "coord": {"lon": 7.03333, "lat": 5.61667}}, {"id": 2325725, "name": "Orlu", "state": "", "country": "NG", "coord": {"lon": 7.03495, "lat": 5.79464}}, {"id": 2325733, "name": "Orita Eruwa", "state": "", "country": "NG", "coord": {"lon": 3.43333, "lat": 7.55}}, {"id": 2325803, "name": "Orerokpe", "state": "", "country": "NG", "coord": {"lon": 5.88956, "lat": 5.63506}}, {"id": 2325821, "name": "Ore", "state": "", "country": "NG", "coord": {"lon": 4.87748, "lat": 6.74569}}, {"id": 2325902, "name": "Opi", "state": "", "country": "NG", "coord": {"lon": 7.4365, "lat": 6.7814}}, {"id": 2326016, "name": "Onitsha", "state": "", "country": "NG", "coord": {"lon": 6.78845, "lat": 6.14543}}, {"id": 2326168, "name": "Ondo State", "state": "", "country": "NG", "coord": {"lon": 5.08333, "lat": 7.16667}}, {"id": 2326171, "name": "Ondo", "state": "", "country": "NG", "coord": {"lon": 4.83333, "lat": 7.1}}, {"id": 2326188, "name": "Omuo-Ekiti", "state": "", "country": "NG", "coord": {"lon": 5.72227, "lat": 7.75833}}, {"id": 2326200, "name": "Omu-Aran", "state": "", "country": "NG", "coord": {"lon": 5.1, "lat": 8.13333}}, {"id": 2326221, "name": "Omoku", "state": "", "country": "NG", "coord": {"lon": 6.65321, "lat": 5.3435}}, {"id": 2326302, "name": "Olupona", "state": "", "country": "NG", "coord": {"lon": 4.18333, "lat": 7.6}}, {"id": 2326811, "name": "Okuta", "state": "", "country": "NG", "coord": {"lon": 3.18333, "lat": 9.21667}}, {"id": 2326899, "name": "Okrika", "state": "", "country": "NG", "coord": {"lon": 7.08488, "lat": 4.74159}}, {"id": 2327124, "name": "Oko", "state": "", "country": "NG", "coord": {"lon": 5.59383, "lat": 6.2995}}, {"id": 2327143, "name": "Okigwe", "state": "", "country": "NG", "coord": {"lon": 7.35989, "lat": 5.83523}}, {"id": 2327223, "name": "Oke Mesi", "state": "", "country": "NG", "coord": {"lon": 4.91667, "lat": 7.81667}}, {"id": 2327236, "name": "Okeho", "state": "", "country": "NG", "coord": {"lon": 3.35, "lat": 8.03333}}, {"id": 2327445, "name": "Ohunene", "state": "", "country": "NG", "coord": {"lon": 6.66587, "lat": 7.46614}}, {"id": 2327494, "name": "Ohafia-Ifigh", "state": "", "country": "NG", "coord": {"lon": 7.81191, "lat": 5.61455}}, {"id": 2327513, "name": "Ogwashi-Uku", "state": "", "country": "NG", "coord": {"lon": 6.52429, "lat": 6.17818}}, {"id": 2327521, "name": "Oguta", "state": "", "country": "NG", "coord": {"lon": 6.81026, "lat": 5.7089}}, {"id": 2327523, "name": "Ogurugu", "state": "", "country": "NG", "coord": {"lon": 6.95053, "lat": 6.78558}}, {"id": 2327546, "name": "Ogun State", "state": "", "country": "NG", "coord": {"lon": 3.58333, "lat": 7}}, {"id": 2327650, "name": "Ogoja", "state": "", "country": "NG", "coord": {"lon": 8.79764, "lat": 6.65471}}, {"id": 2327735, "name": "Ogbomoso", "state": "", "country": "NG", "coord": {"lon": 4.26667, "lat": 8.13333}}, {"id": 2327827, "name": "Ogaminana", "state": "", "country": "NG", "coord": {"lon": 6.22476, "lat": 7.59464}}, {"id": 2327879, "name": "Offa", "state": "", "country": "NG", "coord": {"lon": 4.71667, "lat": 8.15}}, {"id": 2328090, "name": "Ode", "state": "", "country": "NG", "coord": {"lon": 5.7117, "lat": 7.7899}}, {"id": 2328113, "name": "Ochobo", "state": "", "country": "NG", "coord": {"lon": 7.9769, "lat": 7.183}}, {"id": 2328151, "name": "Obudu", "state": "", "country": "NG", "coord": {"lon": 9.17157, "lat": 6.66737}}, {"id": 2328153, "name": "Obubra", "state": "", "country": "NG", "coord": {"lon": 8.32904, "lat": 6.07525}}, {"id": 2328185, "name": "Obonoma", "state": "", "country": "NG", "coord": {"lon": 6.79307, "lat": 4.70844}}, {"id": 2328192, "name": "Obolo-Eke (1)", "state": "", "country": "NG", "coord": {"lon": 7.63333, "lat": 6.88333}}, {"id": 2328276, "name": "Obiaruku", "state": "", "country": "NG", "coord": {"lon": 6.15257, "lat": 5.84671}}, {"id": 2328617, "name": "Numan", "state": "", "country": "NG", "coord": {"lon": 12.03333, "lat": 9.46667}}, {"id": 2328684, "name": "Nsukka", "state": "", "country": "NG", "coord": {"lon": 7.3927, "lat": 6.8561}}, {"id": 2328765, "name": "Nnewi", "state": "", "country": "NG", "coord": {"lon": 6.91478, "lat": 6.01986}}, {"id": 2328790, "name": "Nkwerre", "state": "", "country": "NG", "coord": {"lon": 7.10627, "lat": 5.75555}}, {"id": 2328811, "name": "Nkpor", "state": "", "country": "NG", "coord": {"lon": 6.84458, "lat": 6.15164}}, {"id": 2328925, "name": "Niger State", "state": "", "country": "NG", "coord": {"lon": 6, "lat": 10}}, {"id": 2328926, "name": "Federal Republic of Nigeria", "state": "", "country": "NG", "coord": {"lon": 8, "lat": 10}}, {"id": 2328952, "name": "Nguru", "state": "", "country": "NG", "coord": {"lon": 10.4526, "lat": 12.8791}}, {"id": 2328960, "name": "Ngurore", "state": "", "country": "NG", "coord": {"lon": 12.23333, "lat": 9.28333}}, {"id": 2329087, "name": "Ngala", "state": "", "country": "NG", "coord": {"lon": 14.18052, "lat": 12.33772}}, {"id": 2329114, "name": "New Shagunnu", "state": "", "country": "NG", "coord": {"lon": 4.4688, "lat": 10.33957}}, {"id": 2329451, "name": "Nasarawa", "state": "", "country": "NG", "coord": {"lon": 7.72417, "lat": 8.52944}}, {"id": 2329562, "name": "Nafada", "state": "", "country": "NG", "coord": {"lon": 11.3327, "lat": 11.0956}}, {"id": 2329639, "name": "Mutum Biyu", "state": "", "country": "NG", "coord": {"lon": 10.76667, "lat": 8.63333}}, {"id": 2329664, "name": "Musawa", "state": "", "country": "NG", "coord": {"lon": 7.6698, "lat": 12.12717}}, {"id": 2329821, "name": "Mubi", "state": "", "country": "NG", "coord": {"lon": 13.26436, "lat": 10.26761}}, {"id": 2329920, "name": "Moriki", "state": "", "country": "NG", "coord": {"lon": 6.48754, "lat": 12.87405}}, {"id": 2329946, "name": "Monguno", "state": "", "country": "NG", "coord": {"lon": 13.60792, "lat": 12.67863}}, {"id": 2329981, "name": "Mokwa", "state": "", "country": "NG", "coord": {"lon": 5.05, "lat": 9.28333}}, {"id": 2330028, "name": "Modakeke", "state": "", "country": "NG", "coord": {"lon": 4.26667, "lat": 7.38333}}, {"id": 2330082, "name": "Misau", "state": "", "country": "NG", "coord": {"lon": 10.4703, "lat": 11.3163}}, {"id": 2330087, "name": "Miringa", "state": "", "country": "NG", "coord": {"lon": 12.14626, "lat": 10.73115}}, {"id": 2330100, "name": "Minna", "state": "", "country": "NG", "coord": {"lon": 6.55694, "lat": 9.61389}}, {"id": 2330241, "name": "Imeko", "state": "", "country": "NG", "coord": {"lon": 2.85, "lat": 7.45}}, {"id": 2330543, "name": "Mayo-Belwa", "state": "", "country": "NG", "coord": {"lon": 12.05, "lat": 9.05}}, {"id": 2330589, "name": "Machina", "state": "", "country": "NG", "coord": {"lon": 10.04924, "lat": 13.13639}}, {"id": 2330664, "name": "Mashi", "state": "", "country": "NG", "coord": {"lon": 7.95293, "lat": 12.97844}}, {"id": 2330717, "name": "Maru", "state": "", "country": "NG", "coord": {"lon": 6.40569, "lat": 12.33417}}, {"id": 2330719, "name": "Marte", "state": "", "country": "NG", "coord": {"lon": 13.8246, "lat": 12.36113}}, {"id": 2330937, "name": "Mando", "state": "", "country": "NG", "coord": {"lon": 6.56667, "lat": 10.71667}}, {"id": 2331005, "name": "Malumfashi", "state": "", "country": "NG", "coord": {"lon": 7.62175, "lat": 11.78529}}, {"id": 2331037, "name": "Mallammaduri", "state": "", "country": "NG", "coord": {"lon": 9.95729, "lat": 12.565}}, {"id": 2331140, "name": "Makurdi", "state": "", "country": "NG", "coord": {"lon": 8.5121, "lat": 7.7411}}, {"id": 2331267, "name": "Maiyama", "state": "", "country": "NG", "coord": {"lon": 4.36766, "lat": 12.08411}}, {"id": 2331303, "name": "Maitama", "state": "", "country": "NG", "coord": {"lon": 7.49444, "lat": 9.10306}}, {"id": 2331447, "name": "Maiduguri", "state": "", "country": "NG", "coord": {"lon": 13.16027, "lat": 11.84644}}, {"id": 2331493, "name": "Mahuta", "state": "", "country": "NG", "coord": {"lon": 4.98436, "lat": 11.55254}}, {"id": 2331528, "name": "Magumeri", "state": "", "country": "NG", "coord": {"lon": 12.8274, "lat": 12.1131}}, {"id": 2331686, "name": "Madara", "state": "", "country": "NG", "coord": {"lon": 10.4479, "lat": 11.7798}}, {"id": 2331694, "name": "Madala", "state": "", "country": "NG", "coord": {"lon": 7.21333, "lat": 9.10444}}, {"id": 2331715, "name": "Madagali", "state": "", "country": "NG", "coord": {"lon": 13.63121, "lat": 10.89018}}, {"id": 2331939, "name": "Lokoja", "state": "", "country": "NG", "coord": {"lon": 6.743, "lat": 7.80236}}, {"id": 2332079, "name": "Lere", "state": "", "country": "NG", "coord": {"lon": 8.57262, "lat": 10.38697}}, {"id": 2332080, "name": "Lere", "state": "", "country": "NG", "coord": {"lon": 9.33833, "lat": 9.70889}}, {"id": 2332197, "name": "Lau", "state": "", "country": "NG", "coord": {"lon": 11.28333, "lat": 9.21667}}, {"id": 2332249, "name": "Lapai", "state": "", "country": "NG", "coord": {"lon": 6.56667, "lat": 9.05}}, {"id": 2332280, "name": "Langtang", "state": "", "country": "NG", "coord": {"lon": 9.78333, "lat": 9.13333}}, {"id": 2332337, "name": "Lame", "state": "", "country": "NG", "coord": {"lon": 9.23955, "lat": 10.44154}}, {"id": 2332357, "name": "Lalupon", "state": "", "country": "NG", "coord": {"lon": 4.06667, "lat": 7.46667}}, {"id": 2332453, "name": "Lagos State", "state": "", "country": "NG", "coord": {"lon": 3.75, "lat": 6.58333}}, {"id": 2332459, "name": "Lagos", "state": "", "country": "NG", "coord": {"lon": 3.39583, "lat": 6.45306}}, {"id": 2332504, "name": "Lafiagi", "state": "", "country": "NG", "coord": {"lon": 5.41667, "lat": 8.86667}}, {"id": 2332515, "name": "Lafia", "state": "", "country": "NG", "coord": {"lon": 8.51667, "lat": 8.48333}}, {"id": 2332662, "name": "Kwolla", "state": "", "country": "NG", "coord": {"lon": 9.28333, "lat": 8.93333}}, {"id": 2332733, "name": "Kwatarkwashi", "state": "", "country": "NG", "coord": {"lon": 6.82196, "lat": 12.14082}}, {"id": 2332785, "name": "Kwara State", "state": "", "country": "NG", "coord": {"lon": 5, "lat": 8.5}}, {"id": 2332865, "name": "Kwali", "state": "", "country": "NG", "coord": {"lon": 7.005, "lat": 8.86722}}, {"id": 2332871, "name": "Kwale", "state": "", "country": "NG", "coord": {"lon": 6.43741, "lat": 5.70632}}, {"id": 2333003, "name": "Kuyi", "state": "", "country": "NG", "coord": {"lon": 6.45, "lat": 9.66667}}, {"id": 2333064, "name": "Kuta", "state": "", "country": "NG", "coord": {"lon": 6.71667, "lat": 9.86667}}, {"id": 2333096, "name": "Kusheriki", "state": "", "country": "NG", "coord": {"lon": 6.44222, "lat": 10.53283}}, {"id": 2333312, "name": "Kura", "state": "", "country": "NG", "coord": {"lon": 8.43033, "lat": 11.76969}}, {"id": 2333451, "name": "Kumo", "state": "", "country": "NG", "coord": {"lon": 11.21217, "lat": 10.04469}}, {"id": 2333490, "name": "Kumagunnam", "state": "", "country": "NG", "coord": {"lon": 10.63423, "lat": 13.15514}}, {"id": 2333563, "name": "Kukawa", "state": "", "country": "NG", "coord": {"lon": 13.56058, "lat": 12.92342}}, {"id": 2333606, "name": "Kujama", "state": "", "country": "NG", "coord": {"lon": 7.63678, "lat": 10.45418}}, {"id": 2333884, "name": "Koton-Karfe", "state": "", "country": "NG", "coord": {"lon": 6.8, "lat": 8.1}}, {"id": 2334008, "name": "Kontagora", "state": "", "country": "NG", "coord": {"lon": 5.46949, "lat": 10.39989}}, {"id": 2334018, "name": "Konkwesso", "state": "", "country": "NG", "coord": {"lon": 4.09835, "lat": 10.84686}}, {"id": 2334044, "name": "Konduga", "state": "", "country": "NG", "coord": {"lon": 13.42133, "lat": 11.65583}}, {"id": 2334327, "name": "Kisi", "state": "", "country": "NG", "coord": {"lon": 3.85, "lat": 9.08333}}, {"id": 2334502, "name": "Kibiya", "state": "", "country": "NG", "coord": {"lon": 8.66227, "lat": 11.52629}}, {"id": 2334528, "name": "Ketu Adieowe", "state": "", "country": "NG", "coord": {"lon": 3.06667, "lat": 6.6}}, {"id": 2334592, "name": "Kende", "state": "", "country": "NG", "coord": {"lon": 4.2603, "lat": 11.51966}}, {"id": 2334649, "name": "Kafin Hausa", "state": "", "country": "NG", "coord": {"lon": 9.90798, "lat": 12.23753}}, {"id": 2334652, "name": "Keffi", "state": "", "country": "NG", "coord": {"lon": 7.87361, "lat": 8.84861}}, {"id": 2334674, "name": "Kazaure", "state": "", "country": "NG", "coord": {"lon": 8.41615, "lat": 12.65131}}, {"id": 2334756, "name": "Kaura Namoda", "state": "", "country": "NG", "coord": {"lon": 6.57791, "lat": 12.58979}}, {"id": 2334797, "name": "Katsina State", "state": "", "country": "NG", "coord": {"lon": 7.5, "lat": 12.25}}, {"id": 2334801, "name": "Katsina-Ala", "state": "", "country": "NG", "coord": {"lon": 9.28333, "lat": 7.16667}}, {"id": 2334802, "name": "Katsina", "state": "", "country": "NG", "coord": {"lon": 7.60063, "lat": 12.98943}}, {"id": 2334861, "name": "Katagum", "state": "", "country": "NG", "coord": {"lon": 10.3527, "lat": 12.2867}}, {"id": 2335015, "name": "Kari", "state": "", "country": "NG", "coord": {"lon": 10.561, "lat": 11.2471}}, {"id": 2335196, "name": "Kano State", "state": "", "country": "NG", "coord": {"lon": 8.5, "lat": 11.5}}, {"id": 2335204, "name": "Kano", "state": "", "country": "NG", "coord": {"lon": 8.51672, "lat": 12.00012}}, {"id": 2335219, "name": "Kankara", "state": "", "country": "NG", "coord": {"lon": 7.41267, "lat": 11.93016}}, {"id": 2335333, "name": "Kamba", "state": "", "country": "NG", "coord": {"lon": 3.65761, "lat": 11.84864}}, {"id": 2335369, "name": "Kaltungo", "state": "", "country": "NG", "coord": {"lon": 11.30889, "lat": 9.81417}}, {"id": 2335500, "name": "Kajuru", "state": "", "country": "NG", "coord": {"lon": 7.68924, "lat": 10.31921}}, {"id": 2335502, "name": "Kajul", "state": "", "country": "NG", "coord": {"lon": 7.9981, "lat": 10.03176}}, {"id": 2335568, "name": "Kangiwa", "state": "", "country": "NG", "coord": {"lon": 3.81867, "lat": 12.55208}}, {"id": 2335596, "name": "Kaiama", "state": "", "country": "NG", "coord": {"lon": 3.94806, "lat": 9.6225}}, {"id": 2335614, "name": "Kagoro", "state": "", "country": "NG", "coord": {"lon": 8.38333, "lat": 9.6}}, {"id": 2335709, "name": "Kafarati", "state": "", "country": "NG", "coord": {"lon": 11.09567, "lat": 10.38304}}, {"id": 2335713, "name": "Kafanchan", "state": "", "country": "NG", "coord": {"lon": 8.3, "lat": 9.58333}}, {"id": 2335722, "name": "Kaduna State", "state": "", "country": "NG", "coord": {"lon": 7.75, "lat": 10.33333}}, {"id": 2335727, "name": "Kaduna", "state": "", "country": "NG", "coord": {"lon": 7.43828, "lat": 10.52224}}, {"id": 2335798, "name": "Kachia", "state": "", "country": "NG", "coord": {"lon": 7.95, "lat": 9.86667}}, {"id": 2335843, "name": "Kabba", "state": "", "country": "NG", "coord": {"lon": 6.0731, "lat": 7.82873}}, {"id": 2335953, "name": "Jos", "state": "", "country": "NG", "coord": {"lon": 8.9, "lat": 9.91667}}, {"id": 2336056, "name": "Jimeta", "state": "", "country": "NG", "coord": {"lon": 12.46667, "lat": 9.28333}}, {"id": 2336092, "name": "Jikamshi", "state": "", "country": "NG", "coord": {"lon": 7.77424, "lat": 12.17328}}, {"id": 2336137, "name": "Jibia", "state": "", "country": "NG", "coord": {"lon": 7.2225, "lat": 13.09778}}, {"id": 2336237, "name": "Jega", "state": "", "country": "NG", "coord": {"lon": 4.37917, "lat": 12.2175}}, {"id": 2336251, "name": "Jebba", "state": "", "country": "NG", "coord": {"lon": 4.83333, "lat": 9.13333}}, {"id": 2336589, "name": "Jalingo", "state": "", "country": "NG", "coord": {"lon": 11.36667, "lat": 8.88333}}, {"id": 2336624, "name": "Lajere", "state": "", "country": "NG", "coord": {"lon": 11.44426, "lat": 11.97969}}, {"id": 2336648, "name": "Jagun Elesin", "state": "", "country": "NG", "coord": {"lon": 3.98333, "lat": 7.35472}}, {"id": 2336905, "name": "Iwo", "state": "", "country": "NG", "coord": {"lon": 4.18333, "lat": 7.63333}}, {"id": 2336985, "name": "Itu", "state": "", "country": "NG", "coord": {"lon": 7.98475, "lat": 5.2004}}, {"id": 2337148, "name": "Isieke", "state": "", "country": "NG", "coord": {"lon": 8.03524, "lat": 6.37831}}, {"id": 2337181, "name": "Iseyin", "state": "", "country": "NG", "coord": {"lon": 3.6, "lat": 7.96667}}, {"id": 2337207, "name": "Ise-Ekiti", "state": "", "country": "NG", "coord": {"lon": 5.4281, "lat": 7.4632}}, {"id": 2337227, "name": "Isara", "state": "", "country": "NG", "coord": {"lon": 3.68185, "lat": 6.99281}}, {"id": 2337235, "name": "Isanlu-Itedoijowa", "state": "", "country": "NG", "coord": {"lon": 5.83333, "lat": 8.26667}}, {"id": 2337352, "name": "Ipoti", "state": "", "country": "NG", "coord": {"lon": 5.07692, "lat": 7.87377}}, {"id": 2337379, "name": "Iperu", "state": "", "country": "NG", "coord": {"lon": 3.66557, "lat": 6.91002}}, {"id": 2337490, "name": "Inisa", "state": "", "country": "NG", "coord": {"lon": 4.33333, "lat": 7.85}}, {"id": 2337542, "name": "Imo State", "state": "", "country": "NG", "coord": {"lon": 7.16667, "lat": 5.5}}, {"id": 2337639, "name": "Ilorin", "state": "", "country": "NG", "coord": {"lon": 4.55, "lat": 8.5}}, {"id": 2337659, "name": "Ilobu", "state": "", "country": "NG", "coord": {"lon": 4.48333, "lat": 7.83333}}, {"id": 2337666, "name": "Illushi", "state": "", "country": "NG", "coord": {"lon": 6.63076, "lat": 6.6667}}, {"id": 2337680, "name": "Illela", "state": "", "country": "NG", "coord": {"lon": 5.29752, "lat": 13.72918}}, {"id": 2337704, "name": "Ilesa", "state": "", "country": "NG", "coord": {"lon": 4.73333, "lat": 7.61667}}, {"id": 2337759, "name": "Ilaro", "state": "", "country": "NG", "coord": {"lon": 3.0205, "lat": 6.88653}}, {"id": 2337762, "name": "Ilare", "state": "", "country": "NG", "coord": {"lon": 5.11333, "lat": 7.35067}}, {"id": 2337765, "name": "Ila Orangun", "state": "", "country": "NG", "coord": {"lon": 4.9, "lat": 8.01667}}, {"id": 2338106, "name": "Ikot Ekpene", "state": "", "country": "NG", "coord": {"lon": 7.71082, "lat": 5.17938}}, {"id": 2338242, "name": "Ikom", "state": "", "country": "NG", "coord": {"lon": 8.70632, "lat": 5.96669}}, {"id": 2338269, "name": "Ikirun", "state": "", "country": "NG", "coord": {"lon": 4.66667, "lat": 7.91667}},