[{"id": 673691, "name": "M\u0103t\u0103saru", "state": "", "country": "RO", "coord": {"lon": 25.41667, "lat": 44.716671}}, {"id": 673695, "name": "M\u0103t\u0103sari", "state": "", "country": "RO", "coord": {"lon": 23.08333, "lat": 44.849998}}, {"id": 673700, "name": "M\u0103t\u0103cina", "state": "", "country": "RO", "coord": {"lon": 26.799999, "lat": 45.883331}}, {"id": 673702, "name": "M\u0103st\u0103cani", "state": "", "country": "RO", "coord": {"lon": 28.033331, "lat": 45.783329}}, {"id": 673706, "name": "Ma\u015floc", "state": "", "country": "RO", "coord": {"lon": 21.44972, "lat": 45.998058}}, {"id": 673723, "name": "M\u0103run\u0163ei", "state": "", "country": "RO", "coord": {"lon": 24.466669, "lat": 44.200001}}, {"id": 673731, "name": "M\u0103rtini\u015f", "state": "", "country": "RO", "coord": {"lon": 25.383329, "lat": 46.23333}}, {"id": 673737, "name": "M\u0103rtine\u015fti", "state": "", "country": "RO", "coord": {"lon": 23.133329, "lat": 45.816669}}, {"id": 673771, "name": "M\u0103ri\u015felu", "state": "", "country": "RO", "coord": {"lon": 24.51667, "lat": 47.01667}}, {"id": 673773, "name": "M\u0103ri\u015fel", "state": "", "country": "RO", "coord": {"lon": 23.133329, "lat": 46.650002}}, {"id": 673783, "name": "M\u0103rgineni-Munteni", "state": "", "country": "RO", "coord": {"lon": 26.9, "lat": 46.599998}}, {"id": 673794, "name": "M\u0103rgineni", "state": "", "country": "RO", "coord": {"lon": 26.633329, "lat": 46.900002}}, {"id": 673807, "name": "Marginea", "state": "", "country": "RO", "coord": {"lon": 25.816669, "lat": 47.816669}}, {"id": 673814, "name": "Margina", "state": "", "country": "RO", "coord": {"lon": 22.26667, "lat": 45.849998}}, {"id": 673816, "name": "Marghita", "state": "", "country": "RO", "coord": {"lon": 22.33333, "lat": 47.349998}}, {"id": 673821, "name": "M\u0103rg\u0103u", "state": "", "country": "RO", "coord": {"lon": 22.966669, "lat": 46.75}}, {"id": 673829, "name": "Marga", "state": "", "country": "RO", "coord": {"lon": 22.51667, "lat": 45.5}}, {"id": 673868, "name": "Marca", "state": "", "country": "RO", "coord": {"lon": 22.566669, "lat": 47.216671}}, {"id": 673873, "name": "M\u0103ra\u015fu", "state": "", "country": "RO", "coord": {"lon": 27.966669, "lat": 44.849998}}, {"id": 673881, "name": "M\u0103r\u0103\u0219e\u0219ti", "state": "", "country": "RO", "coord": {"lon": 27.23333, "lat": 45.883331}}, {"id": 673887, "name": "Maramure\u015f", "state": "", "country": "RO", "coord": {"lon": 24, "lat": 47.666672}}, {"id": 673893, "name": "M\u0103r\u0103cineni", "state": "", "country": "RO", "coord": {"lon": 26.799999, "lat": 45.200001}}, {"id": 673894, "name": "M\u0103r\u0103cineni", "state": "", "country": "RO", "coord": {"lon": 24.883329, "lat": 44.900002}}, {"id": 673908, "name": "Manoleasa", "state": "", "country": "RO", "coord": {"lon": 27.066669, "lat": 47.98333}}, {"id": 673921, "name": "Mangalia", "state": "", "country": "RO", "coord": {"lon": 28.58333, "lat": 43.799999}}, {"id": 673931, "name": "M\u0103ne\u015fti", "state": "", "country": "RO", "coord": {"lon": 25.283331, "lat": 44.966671}}, {"id": 673932, "name": "M\u0103ne\u015fti", "state": "", "country": "RO", "coord": {"lon": 25.85, "lat": 44.866669}}, {"id": 673934, "name": "M\u0103neciu-Ungureni", "state": "", "country": "RO", "coord": {"lon": 25.98333, "lat": 45.316669}}, {"id": 673945, "name": "M\u0103n\u0103\u015ftiur", "state": "", "country": "RO", "coord": {"lon": 22.066669, "lat": 45.816669}}, {"id": 673948, "name": "Manasia", "state": "", "country": "RO", "coord": {"lon": 26.66667, "lat": 44.700001}}, {"id": 673964, "name": "M\u0103lu\u015fteni", "state": "", "country": "RO", "coord": {"lon": 27.91667, "lat": 46.183331}}, {"id": 673977, "name": "M\u0103lureni", "state": "", "country": "RO", "coord": {"lon": 24.799999, "lat": 45.099998}}, {"id": 673982, "name": "Malu Mare", "state": "", "country": "RO", "coord": {"lon": 23.866671, "lat": 44.23333}}, {"id": 673986, "name": "Malu cu Flori", "state": "", "country": "RO", "coord": {"lon": 25.200001, "lat": 45.150002}}, {"id": 674003, "name": "Malov\u0103\u0163", "state": "", "country": "RO", "coord": {"lon": 22.73111, "lat": 44.704441}}, {"id": 674006, "name": "Malna\u015f", "state": "", "country": "RO", "coord": {"lon": 25.83333, "lat": 46.01667}}, {"id": 674011, "name": "M\u0103lini", "state": "", "country": "RO", "coord": {"lon": 26.08333, "lat": 47.466671}}, {"id": 674025, "name": "M\u0103ld\u0103re\u015fti", "state": "", "country": "RO", "coord": {"lon": 24, "lat": 45.116669}}, {"id": 674030, "name": "M\u0103ld\u0103eni", "state": "", "country": "RO", "coord": {"lon": 24.933331, "lat": 44.116669}}, {"id": 674038, "name": "Malaia", "state": "", "country": "RO", "coord": {"lon": 24.033331, "lat": 45.349998}}, {"id": 674059, "name": "M\u0103ieru\u015f", "state": "", "country": "RO", "coord": {"lon": 25.533331, "lat": 45.900002}}, {"id": 674061, "name": "M\u0103ieru", "state": "", "country": "RO", "coord": {"lon": 24.75, "lat": 47.400002}}, {"id": 674066, "name": "M\u0103ic\u0103ne\u015fti", "state": "", "country": "RO", "coord": {"lon": 27.5, "lat": 45.5}}, {"id": 674078, "name": "Mahmudia", "state": "", "country": "RO", "coord": {"lon": 29.08333, "lat": 45.083328}}, {"id": 674082, "name": "Mahalaua Po\u015ftei", "state": "", "country": "RO", "coord": {"lon": 24.683331, "lat": 45.133331}}, {"id": 674105, "name": "M\u0103gureni", "state": "", "country": "RO", "coord": {"lon": 25.73333, "lat": 45.066669}}, {"id": 674115, "name": "M\u0103gurele", "state": "", "country": "RO", "coord": {"lon": 26.033331, "lat": 45.099998}}, {"id": 674117, "name": "M\u0103gurele", "state": "", "country": "RO", "coord": {"lon": 26.033331, "lat": 44.349998}}, {"id": 674124, "name": "M\u0103gura Ilvei", "state": "", "country": "RO", "coord": {"lon": 24.799999, "lat": 47.383331}}, {"id": 674146, "name": "M\u0103gura", "state": "", "country": "RO", "coord": {"lon": 26.85, "lat": 46.566669}}, {"id": 674155, "name": "M\u0103gura", "state": "", "country": "RO", "coord": {"lon": 26.58333, "lat": 45.26667}}, {"id": 674161, "name": "M\u0103gura", "state": "", "country": "RO", "coord": {"lon": 25.4, "lat": 44.033329}}, {"id": 674170, "name": "Maglavit", "state": "", "country": "RO", "coord": {"lon": 23.1, "lat": 44.033329}}, {"id": 674172, "name": "M\u0103gire\u015fti", "state": "", "country": "RO", "coord": {"lon": 26.549999, "lat": 46.51667}}, {"id": 674184, "name": "M\u0103gherani", "state": "", "country": "RO", "coord": {"lon": 24.9, "lat": 46.566669}}, {"id": 674188, "name": "M\u0103ge\u015fti", "state": "", "country": "RO", "coord": {"lon": 22.450001, "lat": 47.01667}}, {"id": 674197, "name": "M\u0103eri\u015fte", "state": "", "country": "RO", "coord": {"lon": 22.799999, "lat": 47.316669}}, {"id": 674200, "name": "M\u0103dulari", "state": "", "country": "RO", "coord": {"lon": 24, "lat": 45.033329}}, {"id": 674214, "name": "M\u0103d\u0103ra\u015f", "state": "", "country": "RO", "coord": {"lon": 21.683331, "lat": 46.833328}}, {"id": 674230, "name": "M\u0103cin", "state": "", "country": "RO", "coord": {"lon": 28.135639, "lat": 45.24371}}, {"id": 674231, "name": "M\u0103cica\u0219u", "state": "", "country": "RO", "coord": {"lon": 23.566669, "lat": 46.900002}}, {"id": 674235, "name": "M\u0103ce\u015fu de Sus", "state": "", "country": "RO", "coord": {"lon": 23.700001, "lat": 43.916672}}, {"id": 674237, "name": "M\u0103ce\u015fu de Jos", "state": "", "country": "RO", "coord": {"lon": 23.716669, "lat": 43.883331}}, {"id": 674244, "name": "Macea", "state": "", "country": "RO", "coord": {"lon": 21.299999, "lat": 46.383331}}, {"id": 674267, "name": "Lup\u015fanu", "state": "", "country": "RO", "coord": {"lon": 26.9, "lat": 44.383331}}, {"id": 674272, "name": "Lup\u015fa", "state": "", "country": "RO", "coord": {"lon": 23.200001, "lat": 46.366669}}, {"id": 674294, "name": "Lupeni", "state": "", "country": "RO", "coord": {"lon": 25.216669, "lat": 46.383331}}, {"id": 674295, "name": "Lupeni", "state": "", "country": "RO", "coord": {"lon": 23.238319, "lat": 45.360291}}, {"id": 674305, "name": "Lupac", "state": "", "country": "RO", "coord": {"lon": 21.81278, "lat": 45.279999}}, {"id": 674307, "name": "Lungule\u0163u", "state": "", "country": "RO", "coord": {"lon": 25.65, "lat": 44.616669}}, {"id": 674318, "name": "Lunge\u015fti", "state": "", "country": "RO", "coord": {"lon": 24.183331, "lat": 44.566669}}, {"id": 674323, "name": "Lungani", "state": "", "country": "RO", "coord": {"lon": 27.15, "lat": 47.183331}}, {"id": 674340, "name": "Luncoiu de Jos", "state": "", "country": "RO", "coord": {"lon": 22.76667, "lat": 46.099998}}, {"id": 674349, "name": "Luncavi\u0163a", "state": "", "country": "RO", "coord": {"lon": 28.26667, "lat": 45.283329}}, {"id": 674350, "name": "Luncavi\u0163a", "state": "", "country": "RO", "coord": {"lon": 22.26667, "lat": 45.083328}}, {"id": 674384, "name": "Lunca Mure\u015fului", "state": "", "country": "RO", "coord": {"lon": 23.9, "lat": 46.433331}}, {"id": 674402, "name": "Lunca Ilvei", "state": "", "country": "RO", "coord": {"lon": 24.98333, "lat": 47.366669}}, {"id": 674413, "name": "Lunca de Sus", "state": "", "country": "RO", "coord": {"lon": 25.966669, "lat": 46.533329}}, {"id": 674419, "name": "Lunca de Jos", "state": "", "country": "RO", "coord": {"lon": 25.98333, "lat": 46.566669}}, {"id": 674421, "name": "Lunca Corbului", "state": "", "country": "RO", "coord": {"lon": 24.75, "lat": 44.700001}}, {"id": 674426, "name": "Lunca Cernii de Jos", "state": "", "country": "RO", "coord": {"lon": 22.616671, "lat": 45.633331}}, {"id": 674430, "name": "Lunca Bradului", "state": "", "country": "RO", "coord": {"lon": 25.111401, "lat": 46.955952}}, {"id": 674439, "name": "Lunca Banului", "state": "", "country": "RO", "coord": {"lon": 28.168329, "lat": 46.595001}}, {"id": 674461, "name": "Lunca", "state": "", "country": "RO", "coord": {"lon": 26.98333, "lat": 47.616669}}, {"id": 674467, "name": "Lunca", "state": "", "country": "RO", "coord": {"lon": 24.566669, "lat": 46.849998}}, {"id": 674470, "name": "Lunca", "state": "", "country": "RO", "coord": {"lon": 22.466669, "lat": 46.51667}}, {"id": 674488, "name": "Lunca", "state": "", "country": "RO", "coord": {"lon": 24.01667, "lat": 45.150002}}, {"id": 674497, "name": "Lunca", "state": "", "country": "RO", "coord": {"lon": 24.76667, "lat": 43.833328}}, {"id": 674517, "name": "Lumina", "state": "", "country": "RO", "coord": {"lon": 28.566669, "lat": 44.283329}}, {"id": 674523, "name": "Luizi-C\u0103lug\u0103ra", "state": "", "country": "RO", "coord": {"lon": 26.83333, "lat": 46.533329}}, {"id": 674526, "name": "Luica", "state": "", "country": "RO", "coord": {"lon": 26.58333, "lat": 44.23333}}, {"id": 674530, "name": "Lugojel", "state": "", "country": "RO", "coord": {"lon": 21.966669, "lat": 45.666672}}, {"id": 674531, "name": "Lugoj", "state": "", "country": "RO", "coord": {"lon": 21.903061, "lat": 45.68861}}, {"id": 674533, "name": "Luga\u015fu de Jos", "state": "", "country": "RO", "coord": {"lon": 22.35, "lat": 47.066669}}, {"id": 674536, "name": "Lueta", "state": "", "country": "RO", "coord": {"lon": 25.48333, "lat": 46.26667}}, {"id": 674541, "name": "Ludu\u015f", "state": "", "country": "RO", "coord": {"lon": 24.1, "lat": 46.48333}}, {"id": 674550, "name": "Lude\u015fti", "state": "", "country": "RO", "coord": {"lon": 25.23333, "lat": 44.866669}}, {"id": 674556, "name": "Luciu", "state": "", "country": "RO", "coord": {"lon": 27.08333, "lat": 44.966671}}, {"id": 674560, "name": "Lucieni", "state": "", "country": "RO", "coord": {"lon": 25.433331, "lat": 44.849998}}, {"id": 674581, "name": "Lozna", "state": "", "country": "RO", "coord": {"lon": 23.466669, "lat": 47.316669}}, {"id": 674586, "name": "Lovrin", "state": "", "country": "RO", "coord": {"lon": 20.770281, "lat": 45.96806}}, {"id": 674606, "name": "Lop\u0103tari", "state": "", "country": "RO", "coord": {"lon": 26.58333, "lat": 45.48333}}, {"id": 674626, "name": "Logre\u015fti", "state": "", "country": "RO", "coord": {"lon": 23.700001, "lat": 44.900002}}, {"id": 674631, "name": "Locu Pierz\u0103rii", "state": "", "country": "RO", "coord": {"lon": 21.316669, "lat": 46.183331}}, {"id": 674636, "name": "Loamne\u015f", "state": "", "country": "RO", "coord": {"lon": 24.1, "lat": 45.933331}}, {"id": 674637, "name": "Livezi-Vale", "state": "", "country": "RO", "coord": {"lon": 26.73333, "lat": 46.416672}}, {"id": 674641, "name": "Livezile", "state": "", "country": "RO", "coord": {"lon": 24.566669, "lat": 47.183331}}, {"id": 674642, "name": "Livezile", "state": "", "country": "RO", "coord": {"lon": 23.633329, "lat": 46.349998}}, {"id": 674647, "name": "Livezile", "state": "", "country": "RO", "coord": {"lon": 22.863331, "lat": 44.512218}}, {"id": 674651, "name": "Livezi", "state": "", "country": "RO", "coord": {"lon": 23.816669, "lat": 44.849998}}, {"id": 674654, "name": "Livezeni", "state": "", "country": "RO", "coord": {"lon": 24.633329, "lat": 46.549999}}, {"id": 674673, "name": "Livada de Bihor", "state": "", "country": "RO", "coord": {"lon": 21.883329, "lat": 47}}, {"id": 674679, "name": "Livada", "state": "", "country": "RO", "coord": {"lon": 23.133329, "lat": 47.866669}}, {"id": 674685, "name": "Livada", "state": "", "country": "RO", "coord": {"lon": 21.384029, "lat": 46.222839}}, {"id": 674696, "name": "Liteni", "state": "", "country": "RO", "coord": {"lon": 26.200001, "lat": 47.566669}}, {"id": 674706, "name": "Li\u0163a", "state": "", "country": "RO", "coord": {"lon": 24.816669, "lat": 43.799999}}, {"id": 674708, "name": "Li\u0219teava", "state": "", "country": "RO", "coord": {"lon": 23.91667, "lat": 43.833328}}, {"id": 674721, "name": "Lisa", "state": "", "country": "RO", "coord": {"lon": 24.85, "lat": 45.716671}}, {"id": 674723, "name": "Lisa", "state": "", "country": "RO", "coord": {"lon": 25.133329, "lat": 43.799999}}, {"id": 674726, "name": "Lipovu", "state": "", "country": "RO", "coord": {"lon": 23.633329, "lat": 44.099998}}, {"id": 674730, "name": "Lipov\u0103\u0163", "state": "", "country": "RO", "coord": {"lon": 27.700001, "lat": 46.566669}}, {"id": 674732, "name": "Lipova", "state": "", "country": "RO", "coord": {"lon": 27.23333, "lat": 46.716671}}, {"id": 674733, "name": "Lipova", "state": "", "country": "RO", "coord": {"lon": 21.700001, "lat": 46.083328}}, {"id": 674735, "name": "Lipni\u0163a", "state": "", "country": "RO", "coord": {"lon": 27.6, "lat": 44.099998}}, {"id": 674745, "name": "Lip\u0103ne\u015fti", "state": "", "country": "RO", "coord": {"lon": 26.01667, "lat": 45.049999}}, {"id": 674782, "name": "Limanu", "state": "", "country": "RO", "coord": {"lon": 28.533331, "lat": 43.799999}}, {"id": 674796, "name": "Lie\u015fti", "state": "", "country": "RO", "coord": {"lon": 27.51667, "lat": 45.616669}}, {"id": 674799, "name": "Liebling", "state": "", "country": "RO", "coord": {"lon": 21.321671, "lat": 45.577499}}, {"id": 674804, "name": "Licurici", "state": "", "country": "RO", "coord": {"lon": 23.616671, "lat": 44.916672}}, {"id": 674823, "name": "Leu", "state": "", "country": "RO", "coord": {"lon": 24, "lat": 44.183331}}, {"id": 674826, "name": "Letea Veche", "state": "", "country": "RO", "coord": {"lon": 26.950001, "lat": 46.549999}}, {"id": 674834, "name": "Le\u0163cani", "state": "", "country": "RO", "coord": {"lon": 27.41667, "lat": 47.183331}}, {"id": 674837, "name": "Letca", "state": "", "country": "RO", "coord": {"lon": 23.450001, "lat": 47.333328}}, {"id": 674841, "name": "Le\u015fu", "state": "", "country": "RO", "coord": {"lon": 24.75, "lat": 47.316669}}, {"id": 674844, "name": "Lespezi", "state": "", "country": "RO", "coord": {"lon": 26.700001, "lat": 47.366669}}, {"id": 674864, "name": "Lere\u015fti", "state": "", "country": "RO", "coord": {"lon": 25.066669, "lat": 45.333328}}, {"id": 674880, "name": "Leordina", "state": "", "country": "RO", "coord": {"lon": 24.25, "lat": 47.783329}}, {"id": 674885, "name": "Leordeni", "state": "", "country": "RO", "coord": {"lon": 25.116671, "lat": 44.783329}}, {"id": 674889, "name": "Leorda", "state": "", "country": "RO", "coord": {"lon": 26.450001, "lat": 47.816669}}, {"id": 674895, "name": "Lenauheim", "state": "", "country": "RO", "coord": {"lon": 20.79944, "lat": 45.871941}}, {"id": 674898, "name": "Lemnia", "state": "", "country": "RO", "coord": {"lon": 26.26667, "lat": 46.049999}}, {"id": 674904, "name": "Lele\u015fti", "state": "", "country": "RO", "coord": {"lon": 23.200001, "lat": 45.099998}}, {"id": 674910, "name": "Leleasca", "state": "", "country": "RO", "coord": {"lon": 24.433331, "lat": 44.783329}}, {"id": 674916, "name": "Lehliu-Gar\u0103", "state": "", "country": "RO", "coord": {"lon": 26.85, "lat": 44.433331}}, {"id": 674918, "name": "Lehliu", "state": "", "country": "RO", "coord": {"lon": 26.816669, "lat": 44.466671}}, {"id": 674933, "name": "Lechin\u0163a", "state": "", "country": "RO", "coord": {"lon": 24.35, "lat": 47.01667}}, {"id": 674945, "name": "Lazuri de Beiu\u015f", "state": "", "country": "RO", "coord": {"lon": 22.4, "lat": 46.583328}}, {"id": 674947, "name": "Lazuri", "state": "", "country": "RO", "coord": {"lon": 22.866671, "lat": 47.849998}}, {"id": 674972, "name": "L\u0103z\u0103reni", "state": "", "country": "RO", "coord": {"lon": 22.066669, "lat": 46.866669}}, {"id": 674975, "name": "L\u0103zarea", "state": "", "country": "RO", "coord": {"lon": 25.533331, "lat": 46.75}}, {"id": 674977, "name": "Laza", "state": "", "country": "RO", "coord": {"lon": 27.58333, "lat": 46.650002}}, {"id": 675000, "name": "L\u0103stuni", "state": "", "country": "RO", "coord": {"lon": 28.700001, "lat": 45.033329}}, {"id": 675003, "name": "Laslea", "state": "", "country": "RO", "coord": {"lon": 24.65, "lat": 46.216671}}, {"id": 675017, "name": "Largu", "state": "", "country": "RO", "coord": {"lon": 27.15, "lat": 44.966671}}, {"id": 675033, "name": "L\u0103pu\u015fnicu Mare", "state": "", "country": "RO", "coord": {"lon": 21.94417, "lat": 44.913059}}, {"id": 675035, "name": "L\u0103pu\u015fnicel", "state": "", "country": "RO", "coord": {"lon": 22.22694, "lat": 44.983059}}, {"id": 675045, "name": "L\u0103pu\u015f", "state": "", "country": "RO", "coord": {"lon": 24.01667, "lat": 47.5}}, {"id": 675048, "name": "L\u0103pugiu de Jos", "state": "", "country": "RO", "coord": {"lon": 22.48333, "lat": 45.883331}}, {"id": 675063, "name": "Lancr\u0103m", "state": "", "country": "RO", "coord": {"lon": 23.549999, "lat": 45.98333}}, {"id": 675071, "name": "Lalo\u015fu", "state": "", "country": "RO", "coord": {"lon": 24.01667, "lat": 44.549999}}, {"id": 675085, "name": "L\u0103de\u015fti", "state": "", "country": "RO", "coord": {"lon": 24.049999, "lat": 44.883331}}, {"id": 675130, "name": "Jurilovca", "state": "", "country": "RO", "coord": {"lon": 28.866671, "lat": 44.76667}}, {"id": 675162, "name": "Juc-Herghelie", "state": "", "country": "RO", "coord": {"lon": 23.799999, "lat": 46.849998}}, {"id": 675168, "name": "Josenii B\u00e2rg\u0103ului", "state": "", "country": "RO", "coord": {"lon": 24.683331, "lat": 47.216671}}, {"id": 675171, "name": "Joseni", "state": "", "country": "RO", "coord": {"lon": 25.5, "lat": 46.700001}}, {"id": 675182, "name": "Jor\u0103\u015fti", "state": "", "country": "RO", "coord": {"lon": 27.866671, "lat": 45.98333}}, {"id": 675193, "name": "Joi\u0163a", "state": "", "country": "RO", "coord": {"lon": 25.853889, "lat": 44.494171}}, {"id": 675208, "name": "Jitia", "state": "", "country": "RO", "coord": {"lon": 26.716669, "lat": 45.583328}}, {"id": 675211, "name": "Jitani", "state": "", "country": "RO", "coord": {"lon": 23.41667, "lat": 45.450001}}, {"id": 675215, "name": "Jirl\u0103u", "state": "", "country": "RO", "coord": {"lon": 27.16667, "lat": 45.166672}}, {"id": 675218, "name": "Jina", "state": "", "country": "RO", "coord": {"lon": 23.683331, "lat": 45.783329}}, {"id": 675223, "name": "Jimbolia", "state": "", "country": "RO", "coord": {"lon": 20.71722, "lat": 45.791389}}, {"id": 675227, "name": "Jilavele", "state": "", "country": "RO", "coord": {"lon": 26.533331, "lat": 44.76667}}, {"id": 675231, "name": "Jilava", "state": "", "country": "RO", "coord": {"lon": 26.07806, "lat": 44.333328}}, {"id": 675235, "name": "Jijila", "state": "", "country": "RO", "coord": {"lon": 28.15, "lat": 45.299999}}, {"id": 675251, "name": "Jidvei", "state": "", "country": "RO", "coord": {"lon": 24.1, "lat": 46.216671}}, {"id": 675258, "name": "Jichi\u015fu de Jos", "state": "", "country": "RO", "coord": {"lon": 23.799999, "lat": 47.116669}}, {"id": 675261, "name": "Jibou", "state": "", "country": "RO", "coord": {"lon": 23.25, "lat": 47.26667}}, {"id": 675266, "name": "Jibert", "state": "", "country": "RO", "coord": {"lon": 25.066669, "lat": 46}}, {"id": 675267, "name": "Jiana Veche", "state": "", "country": "RO", "coord": {"lon": 22.66861, "lat": 44.390831}}, {"id": 675285, "name": "Jeg\u0103lia", "state": "", "country": "RO", "coord": {"lon": 27.633329, "lat": 44.299999}}, {"id": 675290, "name": "Jebel", "state": "", "country": "RO", "coord": {"lon": 21.21361, "lat": 45.555561}}, {"id": 675293, "name": "Jari\u015ftea", "state": "", "country": "RO", "coord": {"lon": 27.066669, "lat": 45.783329}}, {"id": 675295, "name": "Jamu Mare", "state": "", "country": "RO", "coord": {"lon": 21.416941, "lat": 45.254169}}, {"id": 675326, "name": "Izvoru de Sus", "state": "", "country": "RO", "coord": {"lon": 24.65, "lat": 44.816669}}, {"id": 675329, "name": "Izvoru Cri\u015fului", "state": "", "country": "RO", "coord": {"lon": 23.1, "lat": 46.833328}}, {"id": 675331, "name": "Izvoru B\u00e2rzii", "state": "", "country": "RO", "coord": {"lon": 22.67417, "lat": 44.706669}}, {"id": 675333, "name": "Izvoru Berheciului", "state": "", "country": "RO", "coord": {"lon": 27.216669, "lat": 46.583328}}, {"id": 675365, "name": "Izvoarele Sucevei", "state": "", "country": "RO", "coord": {"lon": 25.183331, "lat": 47.75}}, {"id": 675366, "name": "Izvoarele de Sus", "state": "", "country": "RO", "coord": {"lon": 26.91667, "lat": 46.533329}}, {"id": 675379, "name": "Izvoarele", "state": "", "country": "RO", "coord": {"lon": 23.91667, "lat": 46.183331}}, {"id": 675384, "name": "Izvoarele", "state": "", "country": "RO", "coord": {"lon": 28.533331, "lat": 45.033329}}, {"id": 675385, "name": "Izvoarele", "state": "", "country": "RO", "coord": {"lon": 25.26667, "lat": 45.033329}}, {"id": 675389, "name": "Izvoarele", "state": "", "country": "RO", "coord": {"lon": 24.51667, "lat": 44.26667}}, {"id": 675393, "name": "Izvoarele", "state": "", "country": "RO", "coord": {"lon": 25.774719, "lat": 44.03389}}, {"id": 675394, "name": "Izvoarele", "state": "", "country": "RO", "coord": {"lon": 25.383329, "lat": 43.816669}}, {"id": 675398, "name": "Izvoare", "state": "", "country": "RO", "coord": {"lon": 23.283331, "lat": 44.150002}}, {"id": 675407, "name": "Izbiceni", "state": "", "country": "RO", "coord": {"lon": 24.65, "lat": 43.833328}}, {"id": 675417, "name": "Ive\u015fti", "state": "", "country": "RO", "coord": {"lon": 27.533331, "lat": 46.183331}}, {"id": 675418, "name": "Ive\u015fti", "state": "", "country": "RO", "coord": {"lon": 27.51667, "lat": 45.683331}}, {"id": 675462, "name": "Isverna", "state": "", "country": "RO", "coord": {"lon": 22.629169, "lat": 44.979721}}, {"id": 675471, "name": "Istria", "state": "", "country": "RO", "coord": {"lon": 28.716669, "lat": 44.566669}}, {"id": 675480, "name": "Islaz", "state": "", "country": "RO", "coord": {"lon": 24.75, "lat": 43.73333}}, {"id": 675489, "name": "I\u015falni\u0163a", "state": "", "country": "RO", "coord": {"lon": 23.73333, "lat": 44.400002}}, {"id": 675495, "name": "Isaccea", "state": "", "country": "RO", "coord": {"lon": 28.466669, "lat": 45.26667}}, {"id": 675506, "name": "Irato\u015fu", "state": "", "country": "RO", "coord": {"lon": 21.200001, "lat": 46.316669}}, {"id": 675509, "name": "Ipote\u015fti", "state": "", "country": "RO", "coord": {"lon": 26.283331, "lat": 47.616669}}, {"id": 675512, "name": "Ipatele", "state": "", "country": "RO", "coord": {"lon": 27.41667, "lat": 46.916672}}, {"id": 675514, "name": "Ip", "state": "", "country": "RO", "coord": {"lon": 22.65, "lat": 47.23333}}, {"id": 675530, "name": "Ion Roat\u0103", "state": "", "country": "RO", "coord": {"lon": 26.76667, "lat": 44.666672}}, {"id": 675533, "name": "I. L. Caragiale", "state": "", "country": "RO", "coord": {"lon": 25.700001, "lat": 44.916672}}, {"id": 675547, "name": "Ione\u015fti", "state": "", "country": "RO", "coord": {"lon": 24.23333, "lat": 44.849998}}, {"id": 675550, "name": "Ione\u015fti", "state": "", "country": "RO", "coord": {"lon": 23.433331, "lat": 44.616669}}, {"id": 675556, "name": "Ion Corvin", "state": "", "country": "RO", "coord": {"lon": 27.799999, "lat": 44.116669}}, {"id": 675585, "name": "\u00centorsura Buz\u0103ului", "state": "", "country": "RO", "coord": {"lon": 26.033331, "lat": 45.683331}}, {"id": 675590, "name": "\u00censur\u0103\u0163ei", "state": "", "country": "RO", "coord": {"lon": 27.6, "lat": 44.916672}}, {"id": 675604, "name": "Ineu", "state": "", "country": "RO", "coord": {"lon": 22.116671, "lat": 47.083328}}, {"id": 675606, "name": "Ineu", "state": "", "country": "RO", "coord": {"lon": 21.85, "lat": 46.433331}}, {"id": 675612, "name": "Independen\u0163a", "state": "", "country": "RO", "coord": {"lon": 27.75, "lat": 45.48333}}, {"id": 675614, "name": "Independen\u0163a", "state": "", "country": "RO", "coord": {"lon": 27.15, "lat": 44.283329}}, {"id": 675615, "name": "Independen\u0163a", "state": "", "country": "RO", "coord": {"lon": 28.08333, "lat": 43.966671}}, {"id": 675624, "name": "Imper", "state": "", "country": "RO", "coord": {"lon": 26.1, "lat": 46.216671}}, {"id": 675629, "name": "Ilva Mic\u0103", "state": "", "country": "RO", "coord": {"lon": 24.66667, "lat": 47.316669}}, {"id": 675632, "name": "Ilva Mare", "state": "", "country": "RO", "coord": {"lon": 24.9, "lat": 47.366669}}, {"id": 675637, "name": "Ilovi\u0163a", "state": "", "country": "RO", "coord": {"lon": 22.47278, "lat": 44.75639}}, {"id": 675664, "name": "Ilieni", "state": "", "country": "RO", "coord": {"lon": 25.76667, "lat": 45.799999}}, {"id": 675670, "name": "Ilia", "state": "", "country": "RO", "coord": {"lon": 22.65, "lat": 45.933331}}, {"id": 675678, "name": "Ileanda", "state": "", "country": "RO", "coord": {"lon": 23.633329, "lat": 47.333328}}, {"id": 675683, "name": "Ileana", "state": "", "country": "RO", "coord": {"lon": 26.66667, "lat": 44.51667}}, {"id": 675703, "name": "Ighiu", "state": "", "country": "RO", "coord": {"lon": 23.51667, "lat": 46.150002}}, {"id": 675721, "name": "Ieud", "state": "", "country": "RO", "coord": {"lon": 24.23399, "lat": 47.677959}}, {"id": 675727, "name": "Iernut", "state": "", "country": "RO", "coord": {"lon": 24.25, "lat": 46.450001}}, {"id": 675732, "name": "Ierbu\u015f", "state": "", "country": "RO", "coord": {"lon": 24.700001, "lat": 46.76667}}, {"id": 675750, "name": "Ideciu de Jos", "state": "", "country": "RO", "coord": {"lon": 24.75, "lat": 46.799999}}, {"id": 675752, "name": "Icuse\u015fti", "state": "", "country": "RO", "coord": {"lon": 26.933331, "lat": 46.799999}}, {"id": 675759, "name": "Icoana", "state": "", "country": "RO", "coord": {"lon": 24.716669, "lat": 44.416672}}, {"id": 675763, "name": "Iclod", "state": "", "country": "RO", "coord": {"lon": 23.799999, "lat": 46.98333}}, {"id": 675766, "name": "Icl\u0103nzel", "state": "", "country": "RO", "coord": {"lon": 24.283331, "lat": 46.533329}}, {"id": 675783, "name": "Ib\u0103ne\u015fti", "state": "", "country": "RO", "coord": {"lon": 26.366671, "lat": 48.066669}}, {"id": 675784, "name": "Ib\u0103ne\u015fti", "state": "", "country": "RO", "coord": {"lon": 24.933331, "lat": 46.76667}}, {"id": 675809, "name": "Ia\u015fi", "state": "", "country": "RO", "coord": {"lon": 27.25, "lat": 47.25}}, {"id": 675810, "name": "Ia\u015fi", "state": "", "country": "RO", "coord": {"lon": 27.6, "lat": 47.166672}}, {"id": 675817, "name": "Iara", "state": "", "country": "RO", "coord": {"lon": 23.51667, "lat": 46.549999}}, {"id": 675832, "name": "Iancu Jianu", "state": "", "country": "RO", "coord": {"lon": 24.033331, "lat": 44.5}}, {"id": 675840, "name": "Ianca", "state": "", "country": "RO", "coord": {"lon": 27.450001, "lat": 45.133331}}, {"id": 675841, "name": "Ianca", "state": "", "country": "RO", "coord": {"lon": 24.183331, "lat": 43.783329}}, {"id": 675843, "name": "Iana", "state": "", "country": "RO", "coord": {"lon": 27.549999, "lat": 46.383331}}, {"id": 675848, "name": "Ialomi\u0163a", "state": "", "country": "RO", "coord": {"lon": 27, "lat": 44.666672}}, {"id": 675865, "name": "Iacobeni", "state": "", "country": "RO", "coord": {"lon": 25.316669, "lat": 47.433331}}, {"id": 675868, "name": "Iacobeni", "state": "", "country": "RO", "coord": {"lon": 24.716669, "lat": 46.049999}}, {"id": 675872, "name": "Iablani\u0163a", "state": "", "country": "RO", "coord": {"lon": 22.314171, "lat": 44.950279}}, {"id": 675889, "name": "Husnicioara", "state": "", "country": "RO", "coord": {"lon": 22.842501, "lat": 44.678059}}, {"id": 675892, "name": "Hu\u015fi", "state": "", "country": "RO", "coord": {"lon": 28.059441, "lat": 46.673611}}, {"id": 675896, "name": "Husas\u0103u de Tinca", "state": "", "country": "RO", "coord": {"lon": 21.91667, "lat": 46.816669}}, {"id": 675901, "name": "Huruie\u0219ti", "state": "", "country": "RO", "coord": {"lon": 27.25, "lat": 46.26667}}, {"id": 675909, "name": "Hurezani", "state": "", "country": "RO", "coord": {"lon": 23.65, "lat": 44.799999}}, {"id": 675917, "name": "Hunedoara", "state": "", "country": "RO", "coord": {"lon": 23, "lat": 45.75}}, {"id": 675918, "name": "Hunedoara", "state": "", "country": "RO", "coord": {"lon": 22.9, "lat": 45.75}}, {"id": 675929, "name": "Hulube\u015fti", "state": "", "country": "RO", "coord": {"lon": 25.23333, "lat": 44.833328}}, {"id": 675937, "name": "Huedin", "state": "", "country": "RO", "coord": {"lon": 23.049999, "lat": 46.866669}}, {"id": 675941, "name": "Hude\u015fti", "state": "", "country": "RO", "coord": {"lon": 26.5, "lat": 48.150002}}, {"id": 675968, "name": "Hotarele", "state": "", "country": "RO", "coord": {"lon": 26.370279, "lat": 44.172501}}, {"id": 675983, "name": "Horodnic de Sus", "state": "", "country": "RO", "coord": {"lon": 25.82354, "lat": 47.840118}}, {"id": 675987, "name": "Horodniceni", "state": "", "country": "RO", "coord": {"lon": 26.16667, "lat": 47.533329}}, {"id": 675993, "name": "Horoatu Crasnei", "state": "", "country": "RO", "coord": {"lon": 22.883329, "lat": 47.133331}}, {"id": 675999, "name": "Horle\u015fti", "state": "", "country": "RO", "coord": {"lon": 27.366671, "lat": 47.116669}}, {"id": 676012, "name": "Horia", "state": "", "country": "RO", "coord": {"lon": 28.450001, "lat": 45.01667}}, {"id": 676013, "name": "Horia", "state": "", "country": "RO", "coord": {"lon": 28.116671, "lat": 44.633331}}, {"id": 676016, "name": "Horge\u015fti", "state": "", "country": "RO", "coord": {"lon": 27.066669, "lat": 46.433331}}, {"id": 676026, "name": "Horezu", "state": "", "country": "RO", "coord": {"lon": 24.01667, "lat": 45.150002}}, {"id": 676050, "name": "Homorodu de Jos", "state": "", "country": "RO", "coord": {"lon": 23.08333, "lat": 47.666672}}, {"id": 676056, "name": "Homorod", "state": "", "country": "RO", "coord": {"lon": 25.26667, "lat": 46.049999}}, {"id": 676063, "name": "Homocea", "state": "", "country": "RO", "coord": {"lon": 27.23333, "lat": 46.133331}}, {"id": 676070, "name": "Holod", "state": "", "country": "RO", "coord": {"lon": 22.133329, "lat": 46.783329}}, {"id": 676078, "name": "Holboca", "state": "", "country": "RO", "coord": {"lon": 27.700001, "lat": 47.150002}}, {"id": 676087, "name": "Hoghiz", "state": "", "country": "RO", "coord": {"lon": 25.299999, "lat": 45.98333}}, {"id": 676089, "name": "Hoghilag", "state": "", "country": "RO", "coord": {"lon": 24.616671, "lat": 46.23333}}, {"id": 676094, "name": "Hodo\u015fa", "state": "", "country": "RO", "coord": {"lon": 24.816669, "lat": 46.633331}}, {"id": 676106, "name": "Hodod", "state": "", "country": "RO", "coord": {"lon": 23.033331, "lat": 47.400002}}, {"id": 676124, "name": "Hodac", "state": "", "country": "RO", "coord": {"lon": 24.91667, "lat": 46.76667}}, {"id": 676127, "name": "Hoceni", "state": "", "country": "RO", "coord": {"lon": 28.00667, "lat": 46.539169}}, {"id": 676138, "name": "Hlipiceni", "state": "", "country": "RO", "coord": {"lon": 27.15, "lat": 47.599998}}, {"id": 676155, "name": "H\u00e2rtie\u015fti", "state": "", "country": "RO", "coord": {"lon": 25.1, "lat": 45.116669}}, {"id": 676163, "name": "H\u00e2r\u015fova", "state": "", "country": "RO", "coord": {"lon": 27.933331, "lat": 44.683331}}, {"id": 676167, "name": "H\u00e2rse\u015fti", "state": "", "country": "RO", "coord": {"lon": 24.783331, "lat": 44.533329}}, {"id": 676169, "name": "H\u00e2r\u015feni", "state": "", "country": "RO", "coord": {"lon": 25.01667, "lat": 45.75}}, {"id": 676176, "name": "H\u00e2rl\u0103u", "state": "", "country": "RO", "coord": {"lon": 26.9, "lat": 47.433331}}, {"id": 676186, "name": "Hinova", "state": "", "country": "RO", "coord": {"lon": 22.776939, "lat": 44.540562}}, {"id": 676194, "name": "Hili\u015feu-Horia", "state": "", "country": "RO", "coord": {"lon": 26.25, "lat": 48.033329}}, {"id": 676203, "name": "Hidi\u015felu de Sus", "state": "", "country": "RO", "coord": {"lon": 22.049999, "lat": 46.950001}}, {"id": 676212, "name": "Hida", "state": "", "country": "RO", "coord": {"lon": 23.283331, "lat": 47.066669}}, {"id": 676237, "name": "Hereclean", "state": "", "country": "RO", "coord": {"lon": 23.01667, "lat": 47.25}}, {"id": 676241, "name": "Her\u0103str\u0103u", "state": "", "country": "RO", "coord": {"lon": 26.1, "lat": 44.48333}}, {"id": 676262, "name": "Helegiu", "state": "", "country": "RO", "coord": {"lon": 26.75, "lat": 46.349998}}, {"id": 676268, "name": "Hav\u00e2rna", "state": "", "country": "RO", "coord": {"lon": 26.65, "lat": 48.066669}}, {"id": 676277, "name": "Ha\u0163eg", "state": "", "country": "RO", "coord": {"lon": 22.950001, "lat": 45.616669}}, {"id": 676287, "name": "H\u0103\u0219ma\u0219", "state": "", "country": "RO", "coord": {"lon": 22.08333, "lat": 46.5}}, {"id": 676302, "name": "H\u0103rm\u0103neasa", "state": "", "country": "RO", "coord": {"lon": 26.866671, "lat": 47.200001}}, {"id": 676304, "name": "H\u0103rman", "state": "", "country": "RO", "coord": {"lon": 25.683331, "lat": 45.716671}}, {"id": 676307, "name": "Harghita-B\u0103i", "state": "", "country": "RO", "coord": {"lon": 25.63604, "lat": 46.38525}}, {"id": 676309, "name": "Harghita", "state": "", "country": "RO", "coord": {"lon": 25.41667, "lat": 46.583328}}, {"id": 676314, "name": "H\u0103r\u0103u", "state": "", "country": "RO", "coord": {"lon": 22.950001, "lat": 45.900002}}, {"id": 676331, "name": "Hangu", "state": "", "country": "RO", "coord": {"lon": 26.033331, "lat": 47.049999}}, {"id": 676335, "name": "H\u0103ne\u015fti", "state": "", "country": "RO", "coord": {"lon": 26.98333, "lat": 47.916672}}, {"id": 676343, "name": "Hamcearca", "state": "", "country": "RO", "coord": {"lon": 28.366671, "lat": 45.116669}}, {"id": 676351, "name": "Halmeu", "state": "", "country": "RO", "coord": {"lon": 23.01667, "lat": 47.966671}}, {"id": 676354, "name": "Halm\u0103\u015fd", "state": "", "country": "RO", "coord": {"lon": 22.616671, "lat": 47.150002}}, {"id": 676356, "name": "H\u0103lmagiu", "state": "", "country": "RO", "coord": {"lon": 22.58333, "lat": 46.26667}}, {"id": 676358, "name": "H\u0103lm\u0103gel", "state": "", "country": "RO", "coord": {"lon": 22.616671, "lat": 46.26667}}, {"id": 676368, "name": "H\u0103lchiu", "state": "", "country": "RO", "coord": {"lon": 25.549999, "lat": 45.76667}}, {"id": 676371, "name": "H\u0103l\u0103uce\u015fti", "state": "", "country": "RO", "coord": {"lon": 26.799999, "lat": 47.099998}}, {"id": 676396, "name": "H\u0103ghig", "state": "", "country": "RO", "coord": {"lon": 25.58333, "lat": 45.833328}}, {"id": 676426, "name": "Gu\u015foeni", "state": "", "country": "RO", "coord": {"lon": 24.116671, "lat": 44.73333}}, {"id": 676438, "name": "Gurghiu", "state": "", "country": "RO", "coord": {"lon": 24.85, "lat": 46.76667}}, {"id": 676447, "name": "Gurb\u0103ne\u015fti", "state": "", "country": "RO", "coord": {"lon": 26.700001, "lat": 44.383331}}, {"id": 676455, "name": "Gura Vi\u0163ioarei", "state": "", "country": "RO", "coord": {"lon": 26.033331, "lat": 45.150002}}, {"id": 676462, "name": "Gura V\u0103ii", "state": "", "country": "RO", "coord": {"lon": 26.73333, "lat": 46.333328}}, {"id": 676474, "name": "Gura Vadului", "state": "", "country": "RO", "coord": {"lon": 26.466669, "lat": 45.049999}}, {"id": 676478, "name": "Gura Teghii", "state": "", "country": "RO", "coord": {"lon": 26.41667, "lat": 45.48333}}, {"id": 676481, "name": "Gura \u015eu\u0163ii", "state": "", "country": "RO", "coord": {"lon": 25.51667, "lat": 44.75}}, {"id": 676495, "name": "Gura R\u00e2ului", "state": "", "country": "RO", "coord": {"lon": 23.98333, "lat": 45.73333}}, {"id": 676527, "name": "Gura Humorului", "state": "", "country": "RO", "coord": {"lon": 25.9, "lat": 47.549999}}, {"id": 676530, "name": "Gurahon\u0163", "state": "", "country": "RO", "coord": {"lon": 22.35, "lat": 46.26667}}, {"id": 676537, "name": "Gura Foii", "state": "", "country": "RO", "coord": {"lon": 25.283331, "lat": 44.75}}, {"id": 676557, "name": "Gura Cali\u0163ei", "state": "", "country": "RO", "coord": {"lon": 27.01667, "lat": 45.583328}}, {"id": 676588, "name": "Guge\u015fti", "state": "", "country": "RO", "coord": {"lon": 27.133329, "lat": 45.566669}}, {"id": 676596, "name": "Grunji", "state": "", "country": "RO", "coord": {"lon": 26.65, "lat": 45.5}}, {"id": 676604, "name": "Grum\u0103ze\u015fti", "state": "", "country": "RO", "coord": {"lon": 26.366671, "lat": 47.133331}}, {"id": 676617, "name": "Gruiu", "state": "", "country": "RO", "coord": {"lon": 26.23333, "lat": 44.73333}}, {"id": 676625, "name": "Gruia", "state": "", "country": "RO", "coord": {"lon": 22.70472, "lat": 44.267502}}, {"id": 676633, "name": "Groze\u015fti", "state": "", "country": "RO", "coord": {"lon": 28.05056, "lat": 46.990829}}, {"id": 676634, "name": "Groze\u015fti", "state": "", "country": "RO", "coord": {"lon": 23.316669, "lat": 44.650002}}, {"id": 676653, "name": "Gro\u015fi", "state": "", "country": "RO", "coord": {"lon": 23.616671, "lat": 47.616669}}, {"id": 676673, "name": "Gropni\u0163a", "state": "", "country": "RO", "coord": {"lon": 27.25, "lat": 47.349998}}, {"id": 676683, "name": "Grojdibodu", "state": "", "country": "RO", "coord": {"lon": 24.26667, "lat": 43.75}}, {"id": 676706, "name": "Grivi\u0163a", "state": "", "country": "RO", "coord": {"lon": 27.65, "lat": 46.150002}}, {"id": 676707, "name": "Grivi\u0163a", "state": "", "country": "RO", "coord": {"lon": 27.65, "lat": 45.716671}}, {"id": 676708, "name": "Grivi\u0163a", "state": "", "country": "RO", "coord": {"lon": 27.283331, "lat": 44.73333}}, {"id": 676713, "name": "Grin\u0163ie\u015f", "state": "", "country": "RO", "coord": {"lon": 25.866671, "lat": 47.049999}}, {"id": 676719, "name": "Grindu", "state": "", "country": "RO", "coord": {"lon": 28.216669, "lat": 45.400002}}, {"id": 676720, "name": "Grindu", "state": "", "country": "RO", "coord": {"lon": 26.91667, "lat": 44.76667}}, {"id": 676742, "name": "Grefoaicele", "state": "", "country": "RO", "coord": {"lon": 26.1, "lat": 44.433331}}, {"id": 676755, "name": "Greci", "state": "", "country": "RO", "coord": {"lon": 28.23333, "lat": 45.183331}}, {"id": 676758, "name": "Greci", "state": "", "country": "RO", "coord": {"lon": 23.116671, "lat": 44.549999}}, {"id": 676762, "name": "Grece\u015fti", "state": "", "country": "RO", "coord": {"lon": 23.283331, "lat": 44.450001}}, {"id": 676769, "name": "Grebeni\u015fu de C\u00e2mpie", "state": "", "country": "RO", "coord": {"lon": 24.299999, "lat": 46.599998}}, {"id": 676774, "name": "Greaca", "state": "", "country": "RO", "coord": {"lon": 26.339439, "lat": 44.10944}}, {"id": 676778, "name": "Greb\u0103nu", "state": "", "country": "RO", "coord": {"lon": 26.966669, "lat": 45.383331}}, {"id": 676783, "name": "Gratia", "state": "", "country": "RO", "coord": {"lon": 25.450001, "lat": 44.433331}}, {"id": 676787, "name": "Gr\u0103nice\u015fti", "state": "", "country": "RO", "coord": {"lon": 26.066669, "lat": 47.816669}}, {"id": 676791, "name": "Gr\u0103niceri", "state": "", "country": "RO", "coord": {"lon": 21.299999, "lat": 46.51667}}, {"id": 676793, "name": "Gr\u0103me\u015fti", "state": "", "country": "RO", "coord": {"lon": 26.15, "lat": 47.916672}}, {"id": 676798, "name": "Grajduri", "state": "", "country": "RO", "coord": {"lon": 27.51667, "lat": 46.966671}}, {"id": 676813, "name": "Gr\u0103di\u015ftea", "state": "", "country": "RO", "coord": {"lon": 27.383329, "lat": 45.26667}}, {"id": 676815, "name": "Gr\u0103di\u015ftea", "state": "", "country": "RO", "coord": {"lon": 23.816669, "lat": 44.866669}}, {"id": 676816, "name": "Gr\u0103di\u015ftea", "state": "", "country": "RO", "coord": {"lon": 26.283331, "lat": 44.666672}}, {"id": 676819, "name": "Gr\u0103di\u015ftea", "state": "", "country": "RO", "coord": {"lon": 27.216669, "lat": 44.23333}}, {"id": 676830, "name": "Gr\u0103dinari", "state": "", "country": "RO", "coord": {"lon": 21.59889, "lat": 45.11861}}, {"id": 676831, "name": "Gr\u0103dinari", "state": "", "country": "RO", "coord": {"lon": 24.26667, "lat": 44.566669}}, {"id": 676858, "name": "Gostinu", "state": "", "country": "RO", "coord": {"lon": 26.116671, "lat": 44}}, {"id": 676859, "name": "Go\u015ftinari-V\u0103c\u0103re\u015fti", "state": "", "country": "RO", "coord": {"lon": 26.216669, "lat": 44.183331}}, {"id": 676866, "name": "Gostav\u0103\u0163u", "state": "", "country": "RO", "coord": {"lon": 24.533331, "lat": 44.083328}}, {"id": 676888, "name": "Gornet-Cricov", "state": "", "country": "RO", "coord": {"lon": 26.26667, "lat": 45.083328}}, {"id": 676890, "name": "Gornet", "state": "", "country": "RO", "coord": {"lon": 26.066669, "lat": 45.116669}}, {"id": 676892, "name": "Gorne\u015fti", "state": "", "country": "RO", "coord": {"lon": 24.64757, "lat": 46.671291}}, {"id": 676898, "name": "Gorj", "state": "", "country": "RO", "coord": {"lon": 23.41667, "lat": 45.916672}}, {"id": 676907, "name": "Gorgota", "state": "", "country": "RO", "coord": {"lon": 26.08333, "lat": 44.783329}}, {"id": 676918, "name": "Gorb\u0103ne\u015fti", "state": "", "country": "RO", "coord": {"lon": 26.85, "lat": 47.783329}}, {"id": 676920, "name": "Gorban", "state": "", "country": "RO", "coord": {"lon": 28.07889, "lat": 46.87611}}, {"id": 676946, "name": "Gole\u015fti", "state": "", "country": "RO", "coord": {"lon": 27.133329, "lat": 45.666672}}, {"id": 676960, "name": "Gol\u0103ie\u0219ti", "state": "", "country": "RO", "coord": {"lon": 27.700001, "lat": 47.23333}}, {"id": 676969, "name": "Goicea", "state": "", "country": "RO", "coord": {"lon": 23.616671, "lat": 43.916672}}, {"id": 676972, "name": "Gohor", "state": "", "country": "RO", "coord": {"lon": 27.4, "lat": 46.066669}}, {"id": 676975, "name": "Gogo\u015fu", "state": "", "country": "RO", "coord": {"lon": 23.366671, "lat": 44.416672}}, {"id": 676976, "name": "Gogo\u015fu", "state": "", "country": "RO", "coord": {"lon": 22.59306, "lat": 44.37389}}, {"id": 676981, "name": "Gogo\u015fari", "state": "", "country": "RO", "coord": {"lon": 25.700001, "lat": 43.866669}}, {"id": 676995, "name": "Goie\u0219ti", "state": "", "country": "RO", "coord": {"lon": 23.76667, "lat": 44.48333}}, {"id": 677003, "name": "Godine\u015fti", "state": "", "country": "RO", "coord": {"lon": 22.966669, "lat": 45}}, {"id": 677005, "name": "Godeni", "state": "", "country": "RO", "coord": {"lon": 24.98333, "lat": 45.23333}}, {"id": 677019, "name": "Glogova", "state": "", "country": "RO", "coord": {"lon": 22.90667, "lat": 44.928059}}, {"id": 677043, "name": "Glodeni", "state": "", "country": "RO", "coord": {"lon": 24.6, "lat": 46.650002}}, {"id": 677045, "name": "Glodeni", "state": "", "country": "RO", "coord": {"lon": 25.466669, "lat": 45.01667}}, {"id": 677047, "name": "Glodeanu-Sili\u015ftea", "state": "", "country": "RO", "coord": {"lon": 26.799999, "lat": 44.833328}}, {"id": 677049, "name": "Glodeanu-S\u0103rat", "state": "", "country": "RO", "coord": {"lon": 26.65, "lat": 44.866669}}, {"id": 677060, "name": "Glina", "state": "", "country": "RO", "coord": {"lon": 26.25, "lat": 44.383331}}, {"id": 677072, "name": "Glimboca", "state": "", "country": "RO", "coord": {"lon": 22.316669, "lat": 45.48333}}, {"id": 677085, "name": "Gl\u0103v\u0103ne\u015fti", "state": "", "country": "RO", "coord": {"lon": 27.383329, "lat": 46.25}}, {"id": 677096, "name": "Giuv\u0103r\u0103\u015fti", "state": "", "country": "RO", "coord": {"lon": 24.700001, "lat": 43.799999}}, {"id": 677104, "name": "Giurgiu", "state": "", "country": "RO", "coord": {"lon": 25.91667, "lat": 44.166672}}, {"id": 677106, "name": "Giurgiu", "state": "", "country": "RO", "coord": {"lon": 25.966669, "lat": 43.883331}}, {"id": 677108, "name": "Giurgi\u0163a", "state": "", "country": "RO", "coord": {"lon": 23.633329, "lat": 44.01667}}, {"id": 677122, "name": "Giurgeni", "state": "", "country": "RO", "coord": {"lon": 27.883329, "lat": 44.76667}}, {"id": 677135, "name": "Giulv\u0103z", "state": "", "country": "RO", "coord": {"lon": 20.98444, "lat": 45.548889}}, {"id": 677143, "name": "Giule\u015fti", "state": "", "country": "RO", "coord": {"lon": 23.933331, "lat": 47.816669}}, {"id": 677150, "name": "Giubega", "state": "", "country": "RO", "coord": {"lon": 23.41667, "lat": 44.116669}}, {"id": 677158, "name": "Girov", "state": "", "country": "RO", "coord": {"lon": 26.51667, "lat": 46.950001}}, {"id": 677160, "name": "Giroc", "state": "", "country": "RO", "coord": {"lon": 21.23583, "lat": 45.694172}}, {"id": 677165, "name": "G\u00e2rnic", "state": "", "country": "RO", "coord": {"lon": 21.794439, "lat": 44.786388}}, {"id": 677175, "name": "G\u00e2rliciu", "state": "", "country": "RO", "coord": {"lon": 28.08333, "lat": 44.76667}}, {"id": 677180, "name": "G\u00e2rleni", "state": "", "country": "RO", "coord": {"lon": 26.799999, "lat": 46.666672}}, {"id": 677186, "name": "G\u00e2rla-Mare", "state": "", "country": "RO", "coord": {"lon": 22.775, "lat": 44.209171}}, {"id": 677192, "name": "Giri\u0219u de Cri\u0219", "state": "", "country": "RO", "coord": {"lon": 21.76108, "lat": 47.064159}}, {"id": 677201, "name": "G\u00e2rda de Sus", "state": "", "country": "RO", "coord": {"lon": 22.816669, "lat": 46.450001}}, {"id": 677205, "name": "G\u00e2rcov", "state": "", "country": "RO", "coord": {"lon": 24.633329, "lat": 43.76667}}, {"id": 677213, "name": "G\u00e2rceni", "state": "", "country": "RO", "coord": {"lon": 27.283331, "lat": 46.76667}}, {"id": 677219, "name": "G\u00e2rbovi", "state": "", "country": "RO", "coord": {"lon": 26.76667, "lat": 44.783329}}, {"id": 677234, "name": "G\u00e2rbova", "state": "", "country": "RO", "coord": {"lon": 23.73333, "lat": 45.866669}}, {"id": 677237, "name": "G\u00e2rbou", "state": "", "country": "RO", "coord": {"lon": 23.433331, "lat": 47.150002}}, {"id": 677256, "name": "G\u00e2ngiova", "state": "", "country": "RO", "coord": {"lon": 23.85, "lat": 43.900002}}, {"id": 677270, "name": "G\u00e2lg\u0103u Alma\u015fului", "state": "", "country": "RO", "coord": {"lon": 23.33333, "lat": 47.200001}}, {"id": 677283, "name": "Gil\u0103u", "state": "", "country": "RO", "coord": {"lon": 23.36174, "lat": 46.732449}}, {"id": 677286, "name": "Gighera", "state": "", "country": "RO", "coord": {"lon": 23.799999, "lat": 43.849998}}, {"id": 677288, "name": "Giera", "state": "", "country": "RO", "coord": {"lon": 20.99222, "lat": 45.407219}}, {"id": 677292, "name": "Giarmata-Vii", "state": "", "country": "RO", "coord": {"lon": 21.316669, "lat": 45.833328}}, {"id": 677294, "name": "Giarmata", "state": "", "country": "RO", "coord": {"lon": 21.310829, "lat": 45.838329}}, {"id": 677299, "name": "Ghizela", "state": "", "country": "RO", "coord": {"lon": 21.737221, "lat": 45.824169}}, {"id": 677313, "name": "Ghiroda", "state": "", "country": "RO", "coord": {"lon": 21.30028, "lat": 45.763889}}, {"id": 677331, "name": "Ghioroiu", "state": "", "country": "RO", "coord": {"lon": 23.83333, "lat": 44.700001}}, {"id": 677333, "name": "Ghioroc", "state": "", "country": "RO", "coord": {"lon": 21.58333, "lat": 46.150002}}, {"id": 677357, "name": "Ghindari", "state": "", "country": "RO", "coord": {"lon": 24.91667, "lat": 46.5}}, {"id": 677360, "name": "Ghind\u0103re\u015fti", "state": "", "country": "RO", "coord": {"lon": 28.033331, "lat": 44.650002}}, {"id": 677377, "name": "Ghime\u015f-F\u0103get", "state": "", "country": "RO", "coord": {"lon": 26.066669, "lat": 46.583328}}, {"id": 677382, "name": "Ghimbav", "state": "", "country": "RO", "coord": {"lon": 25.5, "lat": 45.666672}}, {"id": 677407, "name": "Ghidigeni", "state": "", "country": "RO", "coord": {"lon": 27.5, "lat": 46.049999}}, {"id": 677410, "name": "Ghidfal\u0103u", "state": "", "country": "RO", "coord": {"lon": 25.85, "lat": 45.900002}}, {"id": 677419, "name": "Gher\u0163a Mic\u0103", "state": "", "country": "RO", "coord": {"lon": 23.23333, "lat": 47.933331}}, {"id": 677429, "name": "Gherla", "state": "", "country": "RO", "coord": {"lon": 23.91667, "lat": 47.033329}}, {"id": 677432, "name": "Gherghi\u0163a", "state": "", "country": "RO", "coord": {"lon": 26.26667, "lat": 44.799999}}, {"id": 677435, "name": "Gherghe\u015fti", "state": "", "country": "RO", "coord": {"lon": 27.51667, "lat": 46.5}}, {"id": 677441, "name": "Ghergheasa", "state": "", "country": "RO", "coord": {"lon": 27.200001, "lat": 45.26667}}, {"id": 677443, "name": "Gherce\u0219ti", "state": "", "country": "RO", "coord": {"lon": 23.9, "lat": 44.349998}}, {"id": 677448, "name": "Gherce\u015ftii de Sus", "state": "", "country": "RO", "coord": {"lon": 23.9, "lat": 44.349998}}, {"id": 677454, "name": "Gher\u0103e\u015fti", "state": "", "country": "RO", "coord": {"lon": 26.816669, "lat": 47.01667}}, {"id": 677458, "name": "Gheorgheni", "state": "", "country": "RO", "coord": {"lon": 25.616671, "lat": 46.716671}}, {"id": 677462, "name": "Gheorghe Laz\u0103r", "state": "", "country": "RO", "coord": {"lon": 27.450001, "lat": 44.633331}}, {"id": 677463, "name": "Onesti", "state": "", "country": "RO", "coord": {"lon": 26.75, "lat": 46.25}}, {"id": 677466, "name": "Gheorghe Doja", "state": "", "country": "RO", "coord": {"lon": 24.5, "lat": 46.466671}}, {"id": 677479, "name": "Ghelin\u0163a", "state": "", "country": "RO", "coord": {"lon": 26.23333, "lat": 45.950001}}, {"id": 677481, "name": "Ghelari", "state": "", "country": "RO", "coord": {"lon": 22.783331, "lat": 45.716671}}, {"id": 677508, "name": "George Enescu", "state": "", "country": "RO", "coord": {"lon": 26.48333, "lat": 48.033329}}, {"id": 677520, "name": "Geoagiu", "state": "", "country": "RO", "coord": {"lon": 23.200001, "lat": 45.916672}}, {"id": 677532, "name": "Gemenele", "state": "", "country": "RO", "coord": {"lon": 27.616671, "lat": 45.283329}}, {"id": 677553, "name": "Geaca", "state": "", "country": "RO", "coord": {"lon": 24.1, "lat": 46.866669}}, {"id": 677557, "name": "Gavojdia", "state": "", "country": "RO", "coord": {"lon": 22.01667, "lat": 45.616669}}, {"id": 677578, "name": "G\u0103ujani", "state": "", "country": "RO", "coord": {"lon": 25.700001, "lat": 43.73333}}, {"id": 677581, "name": "G\u0103taia", "state": "", "country": "RO", "coord": {"lon": 21.43, "lat": 45.43111}}, {"id": 677583, "name": "Garoafa", "state": "", "country": "RO", "coord": {"lon": 27.200001, "lat": 45.783329}}, {"id": 677621, "name": "G\u0103ne\u015fti", "state": "", "country": "RO", "coord": {"lon": 24.35, "lat": 46.333328}}, {"id": 677625, "name": "Gana\u0219", "state": "", "country": "RO", "coord": {"lon": 22.783331, "lat": 47.533329}}, {"id": 677628, "name": "G\u0103neasa", "state": "", "country": "RO", "coord": {"lon": 26.283331, "lat": 44.48333}}, {"id": 677629, "name": "G\u0103neasa", "state": "", "country": "RO", "coord": {"lon": 24.283331, "lat": 44.416672}}, {"id": 677648, "name": "Galicea Mare", "state": "", "country": "RO", "coord": {"lon": 23.299999, "lat": 44.099998}}, {"id": 677650, "name": "Galicea", "state": "", "country": "RO", "coord": {"lon": 24.283331, "lat": 44.916672}}, {"id": 677655, "name": "G\u0103le\u015fti", "state": "", "country": "RO", "coord": {"lon": 24.75, "lat": 46.51667}}, {"id": 677667, "name": "Galda de Jos", "state": "", "country": "RO", "coord": {"lon": 23.616671, "lat": 46.183331}}, {"id": 677672, "name": "G\u0103lbina\u015fi", "state": "", "country": "RO", "coord": {"lon": 26.91667, "lat": 45.083328}}, {"id": 677676, "name": "Galbenu", "state": "", "country": "RO", "coord": {"lon": 27.16667, "lat": 45.216671}}, {"id": 677687, "name": "G\u0103l\u0103u\u0163a\u015f", "state": "", "country": "RO", "coord": {"lon": 25.433331, "lat": 46.916672}}, {"id": 677691, "name": "Gala\u0163ii Bistri\u0163ei", "state": "", "country": "RO", "coord": {"lon": 24.4, "lat": 46.98333}}, {"id": 677697, "name": "Gala\u0163i", "state": "", "country": "RO", "coord": {"lon": 28.049999, "lat": 45.450001}}, {"id": 677701, "name": "G\u0103l\u0103\u0163eni", "state": "", "country": "RO", "coord": {"lon": 25.35, "lat": 44.216671}}, {"id": 677709, "name": "G\u0103l\u0103ne\u015fti", "state": "", "country": "RO", "coord": {"lon": 25.799999, "lat": 47.916672}}, {"id": 677712, "name": "G\u0103iseni", "state": "", "country": "RO", "coord": {"lon": 25.645281, "lat": 44.514999}}, {"id": 677723, "name": "G\u0103iceana", "state": "", "country": "RO", "coord": {"lon": 27.216669, "lat": 46.333328}}, {"id": 677730, "name": "G\u0103ge\u015fti", "state": "", "country": "RO", "coord": {"lon": 27.966669, "lat": 46.333328}}, {"id": 677742, "name": "G\u0103e\u015fti", "state": "", "country": "RO", "coord": {"lon": 25.316669, "lat": 44.716671}}, {"id": 677776, "name": "Furaj", "state": "", "country": "RO", "coord": {"lon": 26.1, "lat": 44.433331}}, {"id": 677788, "name": "Fundu Moldovei", "state": "", "country": "RO", "coord": {"lon": 25.4, "lat": 47.533329}}, {"id": 677790, "name": "Fundulea", "state": "", "country": "RO", "coord": {"lon": 26.51667, "lat": 44.466671}}, {"id": 677808, "name": "Fundeni", "state": "", "country": "RO", "coord": {"lon": 27.533331, "lat": 45.533329}}, {"id": 677812, "name": "Fundeni", "state": "", "country": "RO", "coord": {"lon": 26.35, "lat": 44.383331}}, {"id": 677845, "name": "Fulga de Sus", "state": "", "country": "RO", "coord": {"lon": 26.450001, "lat": 44.900002}}, {"id": 677852, "name": "Frunzi", "state": "", "country": "RO", "coord": {"lon": 24.33333, "lat": 46.900002}}, {"id": 677870, "name": "Frumu\u015fi\u0163a", "state": "", "country": "RO", "coord": {"lon": 28.066669, "lat": 45.666672}}, {"id": 677872, "name": "Frumu\u015fica", "state": "", "country": "RO", "coord": {"lon": 26.9, "lat": 47.533329}}, {"id": 677880, "name": "Frumu\u015fani", "state": "", "country": "RO", "coord": {"lon": 26.32556, "lat": 44.296108}}, {"id": 677882, "name": "Frumosu", "state": "", "country": "RO", "coord": {"lon": 25.65, "lat": 47.616669}}, {"id": 677890, "name": "Frumoasa", "state": "", "country": "RO", "coord": {"lon": 25.85, "lat": 46.450001}}, {"id": 677891, "name": "Frumoasa", "state": "", "country": "RO", "coord": {"lon": 25.466669, "lat": 43.799999}}, {"id": 677896, "name": "Fr\u00e2nce\u015fti", "state": "", "country": "RO", "coord": {"lon": 24.1, "lat": 45}}, {"id": 677905, "name": "Frec\u0103\u0163ei", "state": "", "country": "RO", "coord": {"lon": 28.66667, "lat": 45.099998}}, {"id": 677906, "name": "Frec\u0103\u0163ei", "state": "", "country": "RO", "coord": {"lon": 28.116671, "lat": 44.900002}}, {"id": 677918, "name": "Fr\u0103te\u015fti", "state": "", "country": "RO", "coord": {"lon": 25.966669, "lat": 43.966671}}, {"id": 677921, "name": "Fr\u0103t\u0103u\u0163ii Vechi", "state": "", "country": "RO", "coord": {"lon": 25.883329, "lat": 47.900002}}, {"id": 677923, "name": "Fr\u0103t\u0103u\u0163ii Noi", "state": "", "country": "RO", "coord": {"lon": 25.84465, "lat": 47.94257}}, {"id": 677926, "name": "Frata", "state": "", "country": "RO", "coord": {"lon": 24.049999, "lat": 46.700001}}, {"id": 677954, "name": "Fr\u0103sinet", "state": "", "country": "RO", "coord": {"lon": 26.799999, "lat": 44.316669}}, {"id": 677964, "name": "Frasin", "state": "", "country": "RO", "coord": {"lon": 25.799999, "lat": 47.533329}}, {"id": 677976, "name": "Forotic", "state": "", "country": "RO", "coord": {"lon": 21.5875, "lat": 45.230282}}, {"id": 677982, "name": "For\u0103\u015fti", "state": "", "country": "RO", "coord": {"lon": 26.466669, "lat": 47.349998}}, {"id": 677986, "name": "Folte\u015fti", "state": "", "country": "RO", "coord": {"lon": 28.049999, "lat": 45.75}}, {"id": 677998, "name": "Fogla\u015f", "state": "", "country": "RO", "coord": {"lon": 22.533331, "lat": 47.25}}, {"id": 678005, "name": "Foieni", "state": "", "country": "RO", "coord": {"lon": 22.383329, "lat": 47.700001}}, {"id": 678006, "name": "Foeni", "state": "", "country": "RO", "coord": {"lon": 20.87583, "lat": 45.498611}}, {"id": 678013, "name": "Focuri", "state": "", "country": "RO", "coord": {"lon": 27.216669, "lat": 47.349998}}, {"id": 678015, "name": "Foc\u0219ani", "state": "", "country": "RO", "coord": {"lon": 27.183331, "lat": 45.700001}}, {"id": 678050, "name": "Flore\u015fti", "state": "", "country": "RO", "coord": {"lon": 23.49375, "lat": 46.745739}}, {"id": 678063, "name": "Flore\u015fti", "state": "", "country": "RO", "coord": {"lon": 25.783331, "lat": 45.049999}}, {"id": 678064, "name": "Flore\u015fti", "state": "", "country": "RO", "coord": {"lon": 22.947781, "lat": 44.763062}}, {"id": 678089, "name": "Fize\u015fu Gherlii", "state": "", "country": "RO", "coord": {"lon": 23.98333, "lat": 47.01667}}, {"id": 678098, "name": "Fitione\u015fti", "state": "", "country": "RO", "coord": {"lon": 27.049999, "lat": 45.98333}}, {"id": 678120, "name": "F\u00e2rliug", "state": "", "country": "RO", "coord": {"lon": 21.84944, "lat": 45.488331}}, {"id": 678132, "name": "F\u00e2rdea", "state": "", "country": "RO", "coord": {"lon": 22.16667, "lat": 45.73333}}, {"id": 678152, "name": "F\u00e2nt\u00e2nele", "state": "", "country": "RO", "coord": {"lon": 26.316669, "lat": 47.51667}}, {"id": 678159, "name": "F\u00e2nt\u00e2nele", "state": "", "country": "RO", "coord": {"lon": 24.75, "lat": 46.416672}}, {"id": 678162, "name": "F\u00e2nt\u00e2nele", "state": "", "country": "RO", "coord": {"lon": 21.4, "lat": 46.116669}}, {"id": 678170, "name": "F\u00e2nt\u00e2nele", "state": "", "country": "RO", "coord": {"lon": 25.866671, "lat": 44.716671}}, {"id": 678200, "name": "Finta Mare", "state": "", "country": "RO", "coord": {"lon": 25.799999, "lat": 44.799999}}, {"id": 678208, "name": "Fini\u015f", "state": "", "country": "RO", "coord": {"lon": 22.316669, "lat": 46.633331}}, {"id": 678243, "name": "Filipe\u015ftii de T\u00e2rg", "state": "", "country": "RO", "coord": {"lon": 25.783331, "lat": 44.98333}}, {"id": 678245, "name": "Filipe\u015ftii de P\u0103dure", "state": "", "country": "RO", "coord": {"lon": 25.75, "lat": 45}}, {"id": 678248, "name": "Filipe\u015fti", "state": "", "country": "RO", "coord": {"lon": 26.883329, "lat": 46.75}}, {"id": 678253, "name": "Filipeni", "state": "", "country": "RO", "coord": {"lon": 27.183331, "lat": 46.533329}}, {"id": 678261, "name": "Filia\u015fi", "state": "", "country": "RO", "coord": {"lon": 23.51667, "lat": 44.549999}}, {"id": 678275, "name": "Fildu de Jos", "state": "", "country": "RO", "coord": {"lon": 23.066669, "lat": 46.933331}}, {"id": 678290, "name": "Fieni", "state": "", "country": "RO", "coord": {"lon": 25.41667, "lat": 45.133331}}, {"id": 678303, "name": "Fete\u0219ti", "state": "", "country": "RO", "coord": {"lon": 26.33333, "lat": 47.700001}}, {"id": 678306, "name": "Fete\u015fti", "state": "", "country": "RO", "coord": {"lon": 27.83333, "lat": 44.383331}}, {"id": 678348, "name": "Felnac", "state": "", "country": "RO", "coord": {"lon": 21.15, "lat": 46.116669}}, {"id": 678352, "name": "Feliceni", "state": "", "country": "RO", "coord": {"lon": 25.26667, "lat": 46.26667}}, {"id": 678355, "name": "Feleacu", "state": "", "country": "RO", "coord": {"lon": 23.616671, "lat": 46.716671}}, {"id": 678358, "name": "Feldru", "state": "", "country": "RO", "coord": {"lon": 24.6, "lat": 47.283329}}, {"id": 678361, "name": "Feldioara", "state": "", "country": "RO", "coord": {"lon": 25.6, "lat": 45.816669}}, {"id": 678385, "name": "F\u0103ure\u015fti", "state": "", "country": "RO", "coord": {"lon": 24.01667, "lat": 44.566669}}, {"id": 678393, "name": "F\u0103urei", "state": "", "country": "RO", "coord": {"lon": 26.683331, "lat": 46.916672}}, {"id": 678395, "name": "F\u0103urei", "state": "", "country": "RO", "coord": {"lon": 27.26667, "lat": 45.083328}}, {"id": 678421, "name": "F\u0103rt\u0103\u0163e\u015fti", "state": "", "country": "RO", "coord": {"lon": 24, "lat": 44.783329}}, {"id": 678425, "name": "F\u0103rca\u0219", "state": "", "country": "RO", "coord": {"lon": 23.75, "lat": 44.599998}}, {"id": 678427, "name": "F\u0103rc\u0103\u015fe\u015fti", "state": "", "country": "RO", "coord": {"lon": 23.200001, "lat": 44.866669}}, {"id": 678430, "name": "F\u0103rca\u015fele", "state": "", "country": "RO", "coord": {"lon": 24.433331, "lat": 44.150002}}, {"id": 678432, "name": "Gr\u0103dinari", "state": "", "country": "RO", "coord": {"lon": 25.815559, "lat": 44.39222}}, {"id": 678437, "name": "F\u0103rca\u015fa", "state": "", "country": "RO", "coord": {"lon": 23.33333, "lat": 47.583328}}, {"id": 678438, "name": "F\u0103rca\u015fa", "state": "", "country": "RO", "coord": {"lon": 25.83333, "lat": 47.166672}}, {"id": 678447, "name": "F\u0103r\u0103u", "state": "", "country": "RO", "coord": {"lon": 24.01667, "lat": 46.333328}}, {"id": 678451, "name": "Faraoan\u00ed", "state": "", "country": "RO", "coord": {"lon": 26.9, "lat": 46.433331}}, {"id": 678455, "name": "F\u0103r\u0103g\u0103u", "state": "", "country": "RO", "coord": {"lon": 24.51667, "lat": 46.76667}}, {"id": 678459, "name": "F\u0103lticeni", "state": "", "country": "RO", "coord": {"lon": 26.299999, "lat": 47.450001}}, {"id": 678462, "name": "F\u0103lcoiu", "state": "", "country": "RO", "coord": {"lon": 24.366671, "lat": 44.23333}}, {"id": 678465, "name": "F\u0103lciu", "state": "", "country": "RO", "coord": {"lon": 28.140829, "lat": 46.296108}}, {"id": 678481, "name": "F\u0103ge\u0163elu", "state": "", "country": "RO", "coord": {"lon": 24.533331, "lat": 44.783329}}, {"id": 678490, "name": "F\u0103get", "state": "", "country": "RO", "coord": {"lon": 22.183331, "lat": 45.849998}}, {"id": 678499, "name": "F\u0103g\u0103ra\u0219", "state": "", "country": "RO", "coord": {"lon": 24.966669, "lat": 45.849998}}, {"id": 678513, "name": "F\u0103c\u0103eni", "state": "", "country": "RO", "coord": {"lon": 27.9, "lat": 44.566669}}, {"id": 678519, "name": "Ezeri\u015f", "state": "", "country": "RO", "coord": {"lon": 21.88583, "lat": 45.410831}}, {"id": 678529, "name": "E\u015felni\u0163a", "state": "", "country": "RO", "coord": {"lon": 22.362221, "lat": 44.699169}}, {"id": 678535, "name": "Ernei", "state": "", "country": "RO", "coord": {"lon": 24.641479, "lat": 46.605049}}, {"id": 678546, "name": "Eremitu", "state": "", "country": "RO", "coord": {"lon": 24.933331, "lat": 46.666672}}, {"id": 678552, "name": "Erbiceni", "state": "", "country": "RO", "coord": {"lon": 27.23333, "lat": 47.26667}}, {"id": 678555, "name": "Iepure\u015fti", "state": "", "country": "RO", "coord": {"lon": 25.882219, "lat": 44.25806}}, {"id": 678587, "name": "Eftimie Murgu", "state": "", "country": "RO", "coord": {"lon": 22.092779, "lat": 44.90028}}, {"id": 678588, "name": "Eforie Sud", "state": "", "country": "RO", "coord": {"lon": 28.649429, "lat": 44.022942}}, {"id": 678594, "name": "Iedera de Jos", "state": "", "country": "RO", "coord": {"lon": 25.633329, "lat": 45.033329}}, {"id": 678605, "name": "Durne\u015fti", "state": "", "country": "RO", "coord": {"lon": 27.1, "lat": 47.76667}}, {"id": 678649, "name": "Dumitre\u0219tii-Fa\u021b\u0103", "state": "", "country": "RO", "coord": {"lon": 26.91667, "lat": 45.566669}}, {"id": 678660, "name": "Dumitra", "state": "", "country": "RO", "coord": {"lon": 24.48333, "lat": 47.216671}}, {"id": 678665, "name": "Dume\u015fti", "state": "", "country": "RO", "coord": {"lon": 27.35, "lat": 47.183331}}, {"id": 678666, "name": "Dume\u015fti", "state": "", "country": "RO", "coord": {"lon": 27.283331, "lat": 46.849998}}, {"id": 678680, "name": "Dumbr\u0103vi\u0163a", "state": "", "country": "RO", "coord": {"lon": 23.65, "lat": 47.599998}}, {"id": 678688, "name": "Dumbr\u0103vi\u0163a", "state": "", "country": "RO", "coord": {"lon": 21.2425, "lat": 45.79694}}, {"id": 678689, "name": "Dumbr\u0103vi\u0163a", "state": "", "country": "RO", "coord": {"lon": 25.433331, "lat": 45.76667}}, {"id": 678693, "name": "Dumbr\u0103ve\u015fti", "state": "", "country": "RO", "coord": {"lon": 26, "lat": 45.083328}}, {"id": 678700, "name": "Dumbr\u0103veni", "state": "", "country": "RO", "coord": {"lon": 26.41667, "lat": 47.650002}}, {"id": 678704, "name": "Dumbr\u0103veni", "state": "", "country": "RO", "coord": {"lon": 24.566669, "lat": 46.23333}}, {"id": 678705, "name": "Dumbr\u0103veni", "state": "", "country": "RO", "coord": {"lon": 27.116671, "lat": 45.533329}}, {"id": 678715, "name": "Dumbrava Ro\u015fie", "state": "", "country": "RO", "coord": {"lon": 26.433331, "lat": 46.883331}}, {"id": 678719, "name": "Dumbrava de Sus", "state": "", "country": "RO", "coord": {"lon": 23.116671, "lat": 44.51667}}, {"id": 678752, "name": "Dumbrava", "state": "", "country": "RO", "coord": {"lon": 22.116671, "lat": 45.816669}}, {"id": 678755, "name": "Dumbrava", "state": "", "country": "RO", "coord": {"lon": 26.183331, "lat": 44.883331}}, {"id": 678766, "name": "Dulce\u015fti", "state": "", "country": "RO", "coord": {"lon": 26.76667, "lat": 46.966671}}, {"id": 678782, "name": "Dude\u015ftii Vechi", "state": "", "country": "RO", "coord": {"lon": 20.48333, "lat": 46.049999}}, {"id": 678786, "name": "Dude\u015fti", "state": "", "country": "RO", "coord": {"lon": 27.433331, "lat": 44.900002}}, {"id": 678792, "name": "Duda", "state": "", "country": "RO", "coord": {"lon": 28.03722, "lat": 46.752499}}, {"id": 678796, "name": "Dubova", "state": "", "country": "RO", "coord": {"lon": 22.26667, "lat": 44.616669}}, {"id": 678817, "name": "Drobeta-Turnu Severin", "state": "", "country": "RO", "coord": {"lon": 22.656111, "lat": 44.631939}}, {"id": 678821, "name": "B\u0103ile Dr\u00e2nceni", "state": "", "country": "RO", "coord": {"lon": 28.10083, "lat": 46.81361}}, {"id": 678831, "name": "Dridu", "state": "", "country": "RO", "coord": {"lon": 26.450001, "lat": 44.700001}}, {"id": 678868, "name": "Drajna de Jos", "state": "", "country": "RO", "coord": {"lon": 26.049999, "lat": 45.216671}}, {"id": 678871, "name": "Dr\u0103gu\u0163e\u015fti", "state": "", "country": "RO", "coord": {"lon": 23.23333, "lat": 44.966671}}, {"id": 678881, "name": "Dr\u0103gu\u015feni", "state": "", "country": "RO", "coord": {"lon": 26.816669, "lat": 48.01667}}, {"id": 678883, "name": "Dr\u0103gu\u015feni", "state": "", "country": "RO", "coord": {"lon": 26.48333, "lat": 47.283329}}, {"id": 678886, "name": "Dr\u0103gu\u015feni", "state": "", "country": "RO", "coord": {"lon": 27.75, "lat": 45.966671}}, {"id": 678894, "name": "Dragu", "state": "", "country": "RO", "coord": {"lon": 23.4, "lat": 47.01667}}, {"id": 678902, "name": "Dr\u0103gote\u015fti", "state": "", "country": "RO", "coord": {"lon": 23.16667, "lat": 44.799999}}, {"id": 678904, "name": "Dr\u0103gote\u015fti", "state": "", "country": "RO", "coord": {"lon": 24.1, "lat": 44.25}}, {"id": 678908, "name": "Dragosloveni", "state": "", "country": "RO", "coord": {"lon": 26.66667, "lat": 46}}, {"id": 678912, "name": "Drago\u0219 Vod\u0103", "state": "", "country": "RO", "coord": {"lon": 27.15, "lat": 44.433331}}, {"id": 678914, "name": "Dragomire\u015fti-Vale", "state": "", "country": "RO", "coord": {"lon": 25.934999, "lat": 44.474998}}, {"id": 678922, "name": "Dragomire\u015fti", "state": "", "country": "RO", "coord": {"lon": 24.291109, "lat": 47.668388}}, {"id": 678923, "name": "Dragomire\u015fti", "state": "", "country": "RO", "coord": {"lon": 26.533331, "lat": 47.01667}}, {"id": 678924, "name": "Dragomire\u015fti", "state": "", "country": "RO", "coord": {"lon": 27.35, "lat": 46.633331}}, {"id": 678926, "name": "Dragomire\u015fti", "state": "", "country": "RO", "coord": {"lon": 25.33333, "lat": 44.916672}}, {"id": 678934, "name": "Dr\u0103goe\u015fti-Snagov", "state": "", "country": "RO", "coord": {"lon": 26.533331, "lat": 44.566669}}, {"id": 678942, "name": "Dr\u0103goie\u0219ti", "state": "", "country": "RO", "coord": {"lon": 26.08333, "lat": 47.549999}}, {"id": 678947, "name": "Dr\u0103goe\u015fti", "state": "", "country": "RO", "coord": {"lon": 24.299999, "lat": 44.816669}}, {"id": 678954, "name": "Dragodana", "state": "", "country": "RO", "coord": {"lon": 25.35, "lat": 44.73333}}, {"id": 678965, "name": "Dr\u0103ghiceni", "state": "", "country": "RO", "coord": {"lon": 24.25, "lat": 44.133331}}, {"id": 678974, "name": "Dr\u0103ge\u015fti", "state": "", "country": "RO", "coord": {"lon": 22.133329, "lat": 46.883331}}, {"id": 678978, "name": "Dr\u0103g\u0103\u015fani", "state": "", "country": "RO", "coord": {"lon": 24.26667, "lat": 44.650002}}, {"id": 678979, "name": "Dr\u0103ganu-Olteni", "state": "", "country": "RO", "coord": {"lon": 24.716669, "lat": 44.933331}}, {"id": 678985, "name": "Dr\u0103g\u0103ne\u015fti-Vla\u015fca", "state": "", "country": "RO", "coord": {"lon": 25.598061, "lat": 44.101391}}, {"id": 678987, "name": "Dr\u0103g\u0103ne\u015fti-Olt", "state": "", "country": "RO", "coord": {"lon": 24.533331, "lat": 44.166672}}, {"id": 678989, "name": "Dr\u0103g\u0103ne\u015fti de Vede", "state": "", "country": "RO", "coord": {"lon": 25.049999, "lat": 44.133331}}, {"id": 678997, "name": "Dr\u0103g\u0103ne\u015fti", "state": "", "country": "RO", "coord": {"lon": 22.383329, "lat": 46.616669}}, {"id": 678999, "name": "Dr\u0103g\u0103ne\u015fti", "state": "", "country": "RO", "coord": {"lon": 27.466669, "lat": 45.783329}}, {"id": 679002, "name": "Dr\u0103g\u0103ne\u015fti", "state": "", "country": "RO", "coord": {"lon": 26.299999, "lat": 44.816669}}, {"id": 679011, "name": "Dragalina", "state": "", "country": "RO", "coord": {"lon": 27.316669, "lat": 44.433331}}, {"id": 679023, "name": "Dr\u0103c\u015fani", "state": "", "country": "RO", "coord": {"lon": 24.98333, "lat": 44.216671}}, {"id": 679034, "name": "23 August", "state": "", "country": "RO", "coord": {"lon": 28.58333, "lat": 43.916672}}, {"id": 679046, "name": "Dosu Bricii", "state": "", "country": "RO", "coord": {"lon": 23.883329, "lat": 47.299999}}, {"id": 679050, "name": "Do\u015ftat", "state": "", "country": "RO", "coord": {"lon": 23.85, "lat": 45.966671}}, {"id": 679061, "name": "Dorol\u0163", "state": "", "country": "RO", "coord": {"lon": 22.816669, "lat": 47.849998}}, {"id": 679065, "name": "Dorohoi", "state": "", "country": "RO", "coord": {"lon": 26.4, "lat": 47.950001}}, {"id": 679071, "name": "Doroban\u0163u", "state": "", "country": "RO", "coord": {"lon": 28.26667, "lat": 44.950001}}, {"id": 679074, "name": "Doroban\u0163u", "state": "", "country": "RO", "coord": {"lon": 26.950001, "lat": 44.216671}}, {"id": 679084, "name": "Dorne\u015fti", "state": "", "country": "RO", "coord": {"lon": 26.004299, "lat": 47.871738}}, {"id": 679089, "name": "Dorna C\u00e2ndrenilor", "state": "", "country": "RO", "coord": {"lon": 25.25, "lat": 47.349998}}, {"id": 679092, "name": "Ortoaia", "state": "", "country": "RO", "coord": {"lon": 25.433331, "lat": 47.349998}}, {"id": 679095, "name": "Dor M\u0103runt", "state": "", "country": "RO", "coord": {"lon": 26.91667, "lat": 44.450001}}, {"id": 679097, "name": "Dorgo\u015f", "state": "", "country": "RO", "coord": {"lon": 21.83333, "lat": 46.049999}}, {"id": 679112, "name": "Domne\u015fti-S\u00e2rbi", "state": "", "country": "RO", "coord": {"lon": 25.91667, "lat": 44.383331}}, {"id": 679118, "name": "Domne\u015fti", "state": "", "country": "RO", "coord": {"lon": 24.83333, "lat": 45.200001}}, {"id": 679119, "name": "Domne\u0219ti", "state": "", "country": "RO", "coord": {"lon": 25.91972, "lat": 44.399441}}, {"id": 679124, "name": "Doma\u015fnea", "state": "", "country": "RO", "coord": {"lon": 22.316669, "lat": 45.083328}}, {"id": 679133, "name": "Dolje\u015fti", "state": "", "country": "RO", "coord": {"lon": 26.98333, "lat": 47.033329}}, {"id": 679134, "name": "Dolj", "state": "", "country": "RO", "coord": {"lon": 23.75, "lat": 44.166672}}, {"id": 679142, "name": "Dolhe\u015fti", "state": "", "country": "RO", "coord": {"lon": 27.9, "lat": 46.866669}}, {"id": 679146, "name": "Dolhasca", "state": "", "country": "RO", "coord": {"lon": 26.6, "lat": 47.433331}}, {"id": 679156, "name": "Doice\u015fti", "state": "", "country": "RO", "coord": {"lon": 25.4, "lat": 44.98333}}, {"id": 679160, "name": "Dognecea", "state": "", "country": "RO", "coord": {"lon": 21.756941, "lat": 45.27417}}, {"id": 679167, "name": "Dofteana", "state": "", "country": "RO", "coord": {"lon": 26.51667, "lat": 46.316669}}, {"id": 679171, "name": "Doftana", "state": "", "country": "RO", "coord": {"lon": 25.799999, "lat": 45.150002}}, {"id": 679180, "name": "Doclin", "state": "", "country": "RO", "coord": {"lon": 21.653891, "lat": 45.29694}}, {"id": 679191, "name": "Dobrun", "state": "", "country": "RO", "coord": {"lon": 24.216669, "lat": 44.26667}}, {"id": 679197, "name": "Dobrov\u0103\u0163", "state": "", "country": "RO", "coord": {"lon": 27.700001, "lat": 46.950001}}, {"id": 679202, "name": "Dobrote\u015fti", "state": "", "country": "RO", "coord": {"lon": 24.883329, "lat": 44.283329}}, {"id": 679206, "name": "Dobroteasa", "state": "", "country": "RO", "coord": {"lon": 24.383329, "lat": 44.783329}}, {"id": 679213, "name": "Dobrosloveni", "state": "", "country": "RO", "coord": {"lon": 24.366671, "lat": 44.183331}}, {"id": 679217, "name": "Dobromir", "state": "", "country": "RO", "coord": {"lon": 27.783331, "lat": 44.01667}}, {"id": 679220, "name": "Dobroe\u015fti", "state": "", "country": "RO", "coord": {"lon": 26.183331, "lat": 44.450001}}, {"id": 679228, "name": "Dobrin", "state": "", "country": "RO", "coord": {"lon": 23.133329, "lat": 47.283329}}, {"id": 679242, "name": "Dobre\u0163u", "state": "", "country": "RO", "coord": {"lon": 23.950001, "lat": 44.5}}, {"id": 679248, "name": "Dobre\u015fti", "state": "", "country": "RO", "coord": {"lon": 22.299999, "lat": 46.849998}}, {"id": 679253, "name": "Dobre\u015fti", "state": "", "country": "RO", "coord": {"lon": 25.133329, "lat": 44.966671}}, {"id": 679255, "name": "Dobre\u015fti", "state": "", "country": "RO", "coord": {"lon": 23.950001, "lat": 43.966671}}, {"id": 679257, "name": "Dobreni", "state": "", "country": "RO", "coord": {"lon": 26.41667, "lat": 46.98333}}, {"id": 679258, "name": "Dobreni", "state": "", "country": "RO", "coord": {"lon": 25.116671, "lat": 44.416672}}, {"id": 679267, "name": "Dobra", "state": "", "country": "RO", "coord": {"lon": 22.566669, "lat": 45.916672}}, {"id": 679269, "name": "Dobra", "state": "", "country": "RO", "coord": {"lon": 25.716669, "lat": 44.783329}}, {"id": 679277, "name": "Dob\u00e2rl\u0103u", "state": "", "country": "RO", "coord": {"lon": 25.883329, "lat": 45.73333}}, {"id": 679279, "name": "Dob\u00e2rceni", "state": "", "country": "RO", "coord": {"lon": 27.066669, "lat": 47.816669}}, {"id": 679294, "name": "Doba", "state": "", "country": "RO", "coord": {"lon": 22.716669, "lat": 47.73333}}, {"id": 679310, "name": "Ditr\u0103u", "state": "", "country": "RO", "coord": {"lon": 25.51667, "lat": 46.816669}}, {"id": 679320, "name": "D\u00e2rvari", "state": "", "country": "RO", "coord": {"lon": 23.049999, "lat": 44.200001}}, {"id": 679324, "name": "D\u00e2rlos", "state": "", "country": "RO", "coord": {"lon": 24.4, "lat": 46.183331}}, {"id": 679328, "name": "D\u00e2rjiu", "state": "", "country": "RO", "coord": {"lon": 25.200001, "lat": 46.200001}}, {"id": 679335, "name": "Dio\u015fti", "state": "", "country": "RO", "coord": {"lon": 24.183331, "lat": 44.116669}}, {"id": 679340, "name": "Diosig", "state": "", "country": "RO", "coord": {"lon": 22, "lat": 47.299999}}, {"id": 679351, "name": "D\u00e2ngeni", "state": "", "country": "RO", "coord": {"lon": 26.966669, "lat": 47.849998}}, {"id": 679372, "name": "Hurdugi", "state": "", "country": "RO", "coord": {"lon": 28.05472, "lat": 46.507778}}, {"id": 679375, "name": "Dimieni", "state": "", "country": "RO", "coord": {"lon": 26.133329, "lat": 44.583328}}, {"id": 679385, "name": "D\u00e2mbovi\u0163a", "state": "", "country": "RO", "coord": {"lon": 25.5, "lat": 44.916672}}, {"id": 679389, "name": "D\u00e2mbovicioara", "state": "", "country": "RO", "coord": {"lon": 25.23333, "lat": 45.450001}}, {"id": 679417, "name": "Dieci", "state": "", "country": "RO", "coord": {"lon": 22.25, "lat": 46.316669}}, {"id": 679428, "name": "Dichiseni", "state": "", "country": "RO", "coord": {"lon": 27.533331, "lat": 44.23333}}, {"id": 679443, "name": "Dezna", "state": "", "country": "RO", "coord": {"lon": 22.25, "lat": 46.400002}}, {"id": 679448, "name": "Deveselu", "state": "", "country": "RO", "coord": {"lon": 24.383329, "lat": 44.066669}}, {"id": 679450, "name": "Devesel", "state": "", "country": "RO", "coord": {"lon": 22.667219, "lat": 44.468891}}, {"id": 679452, "name": "Deva", "state": "", "country": "RO", "coord": {"lon": 22.9, "lat": 45.883331}}, {"id": 679456, "name": "Deta", "state": "", "country": "RO", "coord": {"lon": 21.22444, "lat": 45.388889}}, {"id": 679461, "name": "Dese\u015fti", "state": "", "country": "RO", "coord": {"lon": 23.85, "lat": 47.76667}}, {"id": 679464, "name": "Desa", "state": "", "country": "RO", "coord": {"lon": 23.033331, "lat": 43.866669}}, {"id": 679467, "name": "Dersca", "state": "", "country": "RO", "coord": {"lon": 26.200001, "lat": 47.98333}}, {"id": 679471, "name": "Derna", "state": "", "country": "RO", "coord": {"lon": 22.299999, "lat": 47.200001}}, {"id": 679477, "name": "Denta", "state": "", "country": "RO", "coord": {"lon": 21.24917, "lat": 45.353889}}, {"id": 679478, "name": "Densu\u015f", "state": "", "country": "RO", "coord": {"lon": 22.799999, "lat": 45.583328}}, {"id": 679499, "name": "Dele\u015fti", "state": "", "country": "RO", "coord": {"lon": 27.549999, "lat": 46.700001}}, {"id": 679518, "name": "Deleni", "state": "", "country": "RO", "coord": {"lon": 26.883329, "lat": 47.466671}}, {"id": 679524, "name": "Deleni", "state": "", "country": "RO", "coord": {"lon": 27.75, "lat": 46.549999}}, {"id": 679538, "name": "Deleni", "state": "", "country": "RO", "coord": {"lon": 28.01667, "lat": 44.099998}}, {"id": 679550, "name": "Dej", "state": "", "country": "RO", "coord": {"lon": 23.866671, "lat": 47.150002}}, {"id": 679564, "name": "Deda", "state": "", "country": "RO", "coord": {"lon": 24.9, "lat": 46.933331}}, {"id": 679588, "name": "Dealu Racovei", "state": "", "country": "RO", "coord": {"lon": 22.783331, "lat": 46.133331}}, {"id": 679604, "name": "Dealu Morii", "state": "", "country": "RO", "coord": {"lon": 27.23333, "lat": 46.316669}}, {"id": 679651, "name": "Dealu D\u0103nicei", "state": "", "country": "RO", "coord": {"lon": 24.433331, "lat": 44.900002}}, {"id": 679686, "name": "Dealu", "state": "", "country": "RO", "coord": {"lon": 25.299999, "lat": 46.400002}}, {"id": 679701, "name": "Davide\u015fti", "state": "", "country": "RO", "coord": {"lon": 25.033331, "lat": 45.01667}}, {"id": 679708, "name": "Dasc\u0103lu", "state": "", "country": "RO", "coord": {"lon": 26.23333, "lat": 44.599998}}, {"id": 679714, "name": "Darova Nou\u0103", "state": "", "country": "RO", "coord": {"lon": 21.76667, "lat": 45.633331}}, {"id": 679723, "name": "D\u0103rm\u0103ne\u015fti", "state": "", "country": "RO", "coord": {"lon": 26.15, "lat": 47.73333}}, {"id": 679724, "name": "D\u0103rm\u0103ne\u015fti", "state": "", "country": "RO", "coord": {"lon": 26.48333, "lat": 46.366669}}, {"id": 679725, "name": "D\u0103rm\u0103ne\u015fti", "state": "", "country": "RO", "coord": {"lon": 24.9, "lat": 45.01667}}, {"id": 679726, "name": "D\u0103rm\u0103ne\u015fti", "state": "", "country": "RO", "coord": {"lon": 25.783331, "lat": 44.916672}}, {"id": 679732, "name": "D\u0103r\u0103\u015fti-Ilfov", "state": "", "country": "RO", "coord": {"lon": 26.01833, "lat": 44.308891}}, {"id": 679733, "name": "D\u0103r\u0103ne\u015fti", "state": "", "country": "RO", "coord": {"lon": 23.366671, "lat": 45.416672}}, {"id": 679736, "name": "Darabani", "state": "", "country": "RO", "coord": {"lon": 26.58333, "lat": 48.183331}}, {"id": 679749, "name": "D\u0103ne\u0163i", "state": "", "country": "RO", "coord": {"lon": 24.049999, "lat": 43.98333}}, {"id": 679757, "name": "D\u0103ne\u015fti", "state": "", "country": "RO", "coord": {"lon": 27.66667, "lat": 46.849998}}, {"id": 679758, "name": "D\u0103ne\u015fti", "state": "", "country": "RO", "coord": {"lon": 25.75, "lat": 46.51667}}, {"id": 679760, "name": "D\u0103ne\u015fti", "state": "", "country": "RO", "coord": {"lon": 23.33333, "lat": 44.966671}}, {"id": 679763, "name": "Dane\u015f", "state": "", "country": "RO", "coord": {"lon": 24.700001, "lat": 46.216671}}, {"id": 679765, "name": "D\u0103neasa", "state": "", "country": "RO", "coord": {"lon": 24.566669, "lat": 44.150002}}, {"id": 679769, "name": "D\u0103nciule\u015fti", "state": "", "country": "RO", "coord": {"lon": 23.75, "lat": 44.73333}}, {"id": 679779, "name": "D\u0103muc", "state": "", "country": "RO", "coord": {"lon": 25.9, "lat": 46.799999}}, {"id": 679780, "name": "D\u0103moc", "state": "", "country": "RO", "coord": {"lon": 26.866671, "lat": 46.466671}}, {"id": 679788, "name": "D\u0103miene\u015fti", "state": "", "country": "RO", "coord": {"lon": 26.98333, "lat": 46.73333}}, {"id": 679812, "name": "Daia Rom\u00e2n\u0103", "state": "", "country": "RO", "coord": {"lon": 23.66667, "lat": 46.01667}}, {"id": 679822, "name": "Daia", "state": "", "country": "RO", "coord": {"lon": 25.98333, "lat": 44}}, {"id": 679828, "name": "D\u0103e\u015fti", "state": "", "country": "RO", "coord": {"lon": 24.133329, "lat": 44.966671}}, {"id": 679830, "name": "D\u0103eni", "state": "", "country": "RO", "coord": {"lon": 28.116671, "lat": 44.833328}}, {"id": 679841, "name": "D\u0103buleni", "state": "", "country": "RO", "coord": {"lon": 24.08333, "lat": 43.799999}}, {"id": 679844, "name": "D\u0103b\u00e2ca", "state": "", "country": "RO", "coord": {"lon": 23.66667, "lat": 46.98333}}, {"id": 679858, "name": "Cuza Vod\u0103", "state": "", "country": "RO", "coord": {"lon": 27.26667, "lat": 44.26667}}, {"id": 679861, "name": "Cuz\u0103plac", "state": "", "country": "RO", "coord": {"lon": 23.200001, "lat": 46.966671}}, {"id": 679886, "name": "Cuzdrioara", "state": "", "country": "RO", "coord": {"lon": 23.91667, "lat": 47.166672}}, {"id": 679898, "name": "Curti\u015foara", "state": "", "country": "RO", "coord": {"lon": 24.33333, "lat": 44.5}}, {"id": 679901, "name": "Curtici", "state": "", "country": "RO", "coord": {"lon": 21.299999, "lat": 46.349998}}, {"id": 679902, "name": "Curte\u015fti", "state": "", "country": "RO", "coord": {"lon": 26.65, "lat": 47.716671}}, {"id": 679907, "name": "Curtea de Arge\u015f", "state": "", "country": "RO", "coord": {"lon": 24.683331, "lat": 45.133331}}, {"id": 679909, "name": "Curtea", "state": "", "country": "RO", "coord": {"lon": 22.299999, "lat": 45.816669}}, {"id": 679936, "name": "Curcani", "state": "", "country": "RO", "coord": {"lon": 26.58333, "lat": 44.200001}}, {"id": 679945, "name": "Cur\u0103\u0163ele", "state": "", "country": "RO", "coord": {"lon": 22.41667, "lat": 46.700001}}, {"id": 679951, "name": "Cup\u015feni", "state": "", "country": "RO", "coord": {"lon": 23.933331, "lat": 47.549999}}, {"id": 679959, "name": "Cungrea", "state": "", "country": "RO", "coord": {"lon": 24.383329, "lat": 44.666672}}, {"id": 679968, "name": "Cump\u0103na", "state": "", "country": "RO", "coord": {"lon": 28.566669, "lat": 44.116669}}, {"id": 679972, "name": "Culciu Mic", "state": "", "country": "RO", "coord": {"lon": 23.033331, "lat": 47.76667}}, {"id": 679979, "name": "Cujmir", "state": "", "country": "RO", "coord": {"lon": 22.92667, "lat": 44.206669}}, {"id": 679995, "name": "Cugir", "state": "", "country": "RO", "coord": {"lon": 23.366671, "lat": 45.833328}}, {"id": 680003, "name": "Cudalbi", "state": "", "country": "RO", "coord": {"lon": 27.700001, "lat": 45.783329}}, {"id": 680007, "name": "Cucuteni", "state": "", "country": "RO", "coord": {"lon": 26.933331, "lat": 47.283329}}, {"id": 680045, "name": "Cuci", "state": "", "country": "RO", "coord": {"lon": 24.15, "lat": 46.466671}}, {"id": 680050, "name": "Cucerdea", "state": "", "country": "RO", "coord": {"lon": 24.26667, "lat": 46.400002}}, {"id": 680054, "name": "Cuca", "state": "", "country": "RO", "coord": {"lon": 27.883329, "lat": 45.73333}}, {"id": 680055, "name": "Cuca", "state": "", "country": "RO", "coord": {"lon": 24.51667, "lat": 44.950001}}, {"id": 680067, "name": "Cru\u0219e\u021b", "state": "", "country": "RO", "coord": {"lon": 23.66667, "lat": 44.633331}}, {"id": 680073, "name": "Cruci\u015for", "state": "", "country": "RO", "coord": {"lon": 23.25, "lat": 47.683331}}, {"id": 680090, "name": "Crucea", "state": "", "country": "RO", "coord": {"lon": 25.616671, "lat": 47.349998}}, {"id": 680092, "name": "Crucea", "state": "", "country": "RO", "coord": {"lon": 28.23333, "lat": 44.533329}}, {"id": 680122, "name": "Crivina", "state": "", "country": "RO", "coord": {"lon": 25.98333, "lat": 45.583328}}, {"id": 680148, "name": "Cristuru Secuiesc", "state": "", "country": "RO", "coord": {"lon": 25.033331, "lat": 46.283329}}, {"id": 680156, "name": "Cristol\u0163", "state": "", "country": "RO", "coord": {"lon": 23.433331, "lat": 47.200001}}, {"id": 680158, "name": "Cri\u015ftioru de Jos", "state": "", "country": "RO", "coord": {"lon": 22.533331, "lat": 46.433331}}, {"id": 680161, "name": "Cristine\u015fti", "state": "", "country": "RO", "coord": {"lon": 26.383329, "lat": 48.099998}}, {"id": 680166, "name": "Cristian", "state": "", "country": "RO", "coord": {"lon": 24.033331, "lat": 45.783329}}, {"id": 680167, "name": "Cristian", "state": "", "country": "RO", "coord": {"lon": 25.466669, "lat": 45.616669}}, {"id": 680176, "name": "Criste\u015fti", "state": "", "country": "RO", "coord": {"lon": 26.73333, "lat": 47.633331}}, {"id": 680177, "name": "Criste\u015fti", "state": "", "country": "RO", "coord": {"lon": 26.566669, "lat": 47.26667}}, {"id": 680180, "name": "Criste\u015fti", "state": "", "country": "RO", "coord": {"lon": 24.48333, "lat": 46.5}}, {"id": 680192, "name": "Cri\u015feni", "state": "", "country": "RO", "coord": {"lon": 23.049999, "lat": 47.23333}}, {"id": 680198, "name": "Cri\u015fcior", "state": "", "country": "RO", "coord": {"lon": 22.866671, "lat": 46.116669}}, {"id": 680203, "name": "Cri\u015fan", "state": "", "country": "RO", "coord": {"lon": 29.466669, "lat": 44.966671}}, {"id": 680212, "name": "Cr\u00e2ngurile de Sus", "state": "", "country": "RO", "coord": {"lon": 25.23333, "lat": 44.76667}}, {"id": 680229, "name": "Cr\u00e2ngeni", "state": "", "country": "RO", "coord": {"lon": 24.783331, "lat": 44.033329}}, {"id": 680245, "name": "Criciova", "state": "", "country": "RO", "coord": {"lon": 22.066669, "lat": 45.633331}}, {"id": 680248, "name": "Cric\u0103u", "state": "", "country": "RO", "coord": {"lon": 23.566669, "lat": 46.183331}}, {"id": 680252, "name": "Crevenicu", "state": "", "country": "RO", "coord": {"lon": 25.58861, "lat": 44.240829}}, {"id": 680256, "name": "Crevedia Mare", "state": "", "country": "RO", "coord": {"lon": 25.625561, "lat": 44.429169}}, {"id": 680262, "name": "Crevedia", "state": "", "country": "RO", "coord": {"lon": 25.933331, "lat": 44.599998}}, {"id": 680279, "name": "Cre\u0163eni", "state": "", "country": "RO", "coord": {"lon": 24.183331, "lat": 44.683331}}, {"id": 680298, "name": "Creaca", "state": "", "country": "RO", "coord": {"lon": 23.25, "lat": 47.200001}}, {"id": 680316, "name": "Crasna", "state": "", "country": "RO", "coord": {"lon": 22.9, "lat": 47.166672}}, {"id": 680319, "name": "Crasna", "state": "", "country": "RO", "coord": {"lon": 23.5, "lat": 45.166672}}, {"id": 680329, "name": "Craiovi\u0163a", "state": "", "country": "RO", "coord": {"lon": 23.799999, "lat": 44.316669}}, {"id": 680332, "name": "Craiova", "state": "", "country": "RO", "coord": {"lon": 23.799999, "lat": 44.316669}}, {"id": 680340, "name": "Cr\u0103ie\u015fti", "state": "", "country": "RO", "coord": {"lon": 24.183331, "lat": 46.299999}}, {"id": 680342, "name": "Craidorol\u0163", "state": "", "country": "RO", "coord": {"lon": 22.700001, "lat": 47.616669}}, {"id": 680364, "name": "Cr\u0103ciune\u015fti", "state": "", "country": "RO", "coord": {"lon": 23.783331, "lat": 46.566669}}, {"id": 680368, "name": "Cr\u0103ciune\u015fti", "state": "", "country": "RO", "coord": {"lon": 24.58234, "lat": 46.479301}}, {"id": 680373, "name": "Cr\u0103ciunelu de Jos", "state": "", "country": "RO", "coord": {"lon": 23.83333, "lat": 46.183331}}, {"id": 680392, "name": "Cozme\u015fti", "state": "", "country": "RO", "coord": {"lon": 27.98333, "lat": 46.883331}}, {"id": 680404, "name": "Cozieni", "state": "", "country": "RO", "coord": {"lon": 26.48333, "lat": 45.333328}}, {"id": 680428, "name": "Covasna", "state": "", "country": "RO", "coord": {"lon": 26, "lat": 45.916672}}, {"id": 680430, "name": "Covasna", "state": "", "country": "RO", "coord": {"lon": 26.183331, "lat": 45.849998}}, {"id": 680432, "name": "Cov\u0103sin\u0163", "state": "", "country": "RO", "coord": {"lon": 21.6, "lat": 46.200001}}, {"id": 680440, "name": "Co\u0163u\u015fca", "state": "", "country": "RO", "coord": {"lon": 26.85, "lat": 48.133331}}, {"id": 680443, "name": "Cotu Negru", "state": "", "country": "RO", "coord": {"lon": 27.66667, "lat": 46.23333}}, {"id": 680453, "name": "Cotu Iazului", "state": "", "country": "RO", "coord": {"lon": 26.299999, "lat": 47.450001}}, {"id": 680481, "name": "Co\u0163ofenii din Dos", "state": "", "country": "RO", "coord": {"lon": 23.616671, "lat": 44.433331}}, {"id": 680485, "name": "Co\u0163of\u0103ne\u015fti", "state": "", "country": "RO", "coord": {"lon": 26.98333, "lat": 46.150002}}, {"id": 680491, "name": "Cotnari", "state": "", "country": "RO", "coord": {"lon": 26.98333, "lat": 47.349998}}, {"id": 680496, "name": "Cotmeana", "state": "", "country": "RO", "coord": {"lon": 24.616671, "lat": 44.966671}}, {"id": 680509, "name": "Cote\u015fti", "state": "", "country": "RO", "coord": {"lon": 27.049999, "lat": 45.650002}}, {"id": 680520, "name": "Coteana", "state": "", "country": "RO", "coord": {"lon": 24.466669, "lat": 44.299999}}, {"id": 680531, "name": "Costuleni", "state": "", "country": "RO", "coord": {"lon": 27.85, "lat": 47.033329}}, {"id": 680541, "name": "Costi\u015fa", "state": "", "country": "RO", "coord": {"lon": 26.65, "lat": 46.75}}, {"id": 680546, "name": "Costine\u015fti", "state": "", "country": "RO", "coord": {"lon": 28.633329, "lat": 43.950001}}, {"id": 680560, "name": "Coste\u015ftii din Vale", "state": "", "country": "RO", "coord": {"lon": 25.48333, "lat": 44.650002}}, {"id": 680571, "name": "Coste\u015fti", "state": "", "country": "RO", "coord": {"lon": 27.75, "lat": 46.5}}, {"id": 680576, "name": "Coste\u015fti", "state": "", "country": "RO", "coord": {"lon": 24.066669, "lat": 45.150002}}, {"id": 680577, "name": "Coste\u015fti", "state": "", "country": "RO", "coord": {"lon": 26.76667, "lat": 45.049999}}, {"id": 680581, "name": "Coste\u015fti", "state": "", "country": "RO", "coord": {"lon": 24.883329, "lat": 44.666672}}, {"id": 680591, "name": "Co\u015fteiu", "state": "", "country": "RO", "coord": {"lon": 21.849171, "lat": 45.741112}}, {"id": 680598, "name": "Costache Negri", "state": "", "country": "RO", "coord": {"lon": 27.716669, "lat": 45.700001}}, {"id": 680601, "name": "Co\u015foveni", "state": "", "country": "RO", "coord": {"lon": 23.933331, "lat": 44.25}}, {"id": 680617, "name": "Cosmina de Sus", "state": "", "country": "RO", "coord": {"lon": 25.883329, "lat": 45.166672}}, {"id": 680623, "name": "Cosme\u015fti", "state": "", "country": "RO", "coord": {"lon": 27.31115, "lat": 45.870171}}, {"id": 680624, "name": "Cosme\u015fti", "state": "", "country": "RO", "coord": {"lon": 25.383329, "lat": 44.299999}}, {"id": 680636, "name": "Cos\u00e2mbe\u015fti", "state": "", "country": "RO", "coord": {"lon": 27.43441, "lat": 44.559292}}, {"id": 680645, "name": "Co\u015fe\u015fti", "state": "", "country": "RO", "coord": {"lon": 24.866671, "lat": 45.066669}}, {"id": 680649, "name": "Co\u015fereni", "state": "", "country": "RO", "coord": {"lon": 26.566669, "lat": 44.683331}}, {"id": 680655, "name": "Co\u015feiu", "state": "", "country": "RO", "coord": {"lon": 22.98333, "lat": 47.316669}}, {"id": 680660, "name": "Co\u015fbuc", "state": "", "country": "RO", "coord": {"lon": 24.4, "lat": 47.366669}}, {"id": 680674, "name": "Corund", "state": "", "country": "RO", "coord": {"lon": 25.183331, "lat": 46.466671}}, {"id": 680690, "name": "Corois\u00e2nmartin", "state": "", "country": "RO", "coord": {"lon": 24.6, "lat": 46.400002}}, {"id": 680692, "name": "Coroie\u015fti", "state": "", "country": "RO", "coord": {"lon": 27.48333, "lat": 46.25}}, {"id": 680701, "name": "Coroieni", "state": "", "country": "RO", "coord": {"lon": 23.76667, "lat": 47.366669}}, {"id": 680708, "name": "Corod", "state": "", "country": "RO", "coord": {"lon": 27.616671, "lat": 45.900002}}, {"id": 680710, "name": "Corobe\u0163i", "state": "", "country": "RO", "coord": {"lon": 24.950001, "lat": 44.950001}}, {"id": 680720, "name": "Cornu Luncii", "state": "", "country": "RO", "coord": {"lon": 26.15, "lat": 47.466671}}, {"id": 680721, "name": "Cornu de Sus", "state": "", "country": "RO", "coord": {"lon": 25.700001, "lat": 45.166672}}, {"id": 680742, "name": "Corni", "state": "", "country": "RO", "coord": {"lon": 26.58333, "lat": 47.650002}}, {"id": 680746, "name": "Corni", "state": "", "country": "RO", "coord": {"lon": 27.76667, "lat": 45.849998}}, {"id": 680754, "name": "Cornetu", "state": "", "country": "RO", "coord": {"lon": 25.94083, "lat": 44.341671}}, {"id": 680774, "name": "Corne\u015fti", "state": "", "country": "RO", "coord": {"lon": 23.683331, "lat": 47.033329}}, {"id": 680783, "name": "Corne\u015fti", "state": "", "country": "RO", "coord": {"lon": 25.866671, "lat": 44.783329}}, {"id": 680786, "name": "Cornereva", "state": "", "country": "RO", "coord": {"lon": 22.41667, "lat": 45.066669}}, {"id": 680790, "name": "Cornea", "state": "", "country": "RO", "coord": {"lon": 22.316669, "lat": 45.033329}}, {"id": 680793, "name": "Corn\u0103\u0163elu", "state": "", "country": "RO", "coord": {"lon": 25.66667, "lat": 44.75}}, {"id": 680806, "name": "Cormaia", "state": "", "country": "RO", "coord": {"lon": 24.683331, "lat": 47.366669}}, {"id": 680815, "name": "Corl\u0103teni", "state": "", "country": "RO", "coord": {"lon": 26.549999, "lat": 47.933331}}, {"id": 680821, "name": "Corl\u0103\u0163el", "state": "", "country": "RO", "coord": {"lon": 22.93306, "lat": 44.398609}}, {"id": 680831, "name": "Cordun", "state": "", "country": "RO", "coord": {"lon": 26.866671, "lat": 46.950001}}, {"id": 680839, "name": "Cord\u0103reni", "state": "", "country": "RO", "coord": {"lon": 26.58333, "lat": 47.98333}}, {"id": 680841, "name": "Corcova", "state": "", "country": "RO", "coord": {"lon": 23.049999, "lat": 44.700001}}, {"id": 680862, "name": "Corbu", "state": "", "country": "RO", "coord": {"lon": 25.700001, "lat": 46.98333}}, {"id": 680869, "name": "Corbu", "state": "", "country": "RO", "coord": {"lon": 24.716669, "lat": 44.48333}}, {"id": 680870, "name": "Corbu", "state": "", "country": "RO", "coord": {"lon": 28.65, "lat": 44.383331}}, {"id": 680874, "name": "Corbi\u0163a", "state": "", "country": "RO", "coord": {"lon": 27.299999, "lat": 46.150002}}, {"id": 680876, "name": "Corbii Mari", "state": "", "country": "RO", "coord": {"lon": 25.5, "lat": 44.549999}}, {"id": 680880, "name": "Corbi", "state": "", "country": "RO", "coord": {"lon": 24.799999, "lat": 45.283329}}, {"id": 680888, "name": "Corbeni", "state": "", "country": "RO", "coord": {"lon": 24.65, "lat": 45.299999}}, {"id": 680890, "name": "Corbeanca", "state": "", "country": "RO", "coord": {"lon": 26.049999, "lat": 44.599998}}, {"id": 680894, "name": "Corbasca", "state": "", "country": "RO", "coord": {"lon": 27.16667, "lat": 46.283329}}, {"id": 680897, "name": "Corabia", "state": "", "country": "RO", "coord": {"lon": 24.5, "lat": 43.783329}}, {"id": 680901, "name": "Cop\u015fa Mic\u0103", "state": "", "country": "RO", "coord": {"lon": 24.25, "lat": 46.116669}}, {"id": 680907, "name": "Copalnic M\u0103n\u0103\u015ftur", "state": "", "country": "RO", "coord": {"lon": 23.683331, "lat": 47.5}}, {"id": 680911, "name": "Cop\u0103l\u0103u", "state": "", "country": "RO", "coord": {"lon": 26.83333, "lat": 47.616669}}, {"id": 680929, "name": "Cop\u0103ceni", "state": "", "country": "RO", "coord": {"lon": 23.98333, "lat": 45}}, {"id": 680934, "name": "Cop\u0103cele", "state": "", "country": "RO", "coord": {"lon": 22.1, "lat": 45.5}}, {"id": 680936, "name": "Cop\u0103cel", "state": "", "country": "RO", "coord": {"lon": 22.16667, "lat": 46.98333}}, {"id": 680955, "name": "Con\u0163e\u015fti", "state": "", "country": "RO", "coord": {"lon": 25.48333, "lat": 43.799999}}, {"id": 680961, "name": "Constantin Daicoviciu", "state": "", "country": "RO", "coord": {"lon": 22.15, "lat": 45.549999}}, {"id": 680962, "name": "Constan\u021ba", "state": "", "country": "RO", "coord": {"lon": 28.33333, "lat": 44.25}}, {"id": 680963, "name": "Constan\u0163a", "state": "", "country": "RO", "coord": {"lon": 28.65, "lat": 44.183331}}, {"id": 680965, "name": "Conop", "state": "", "country": "RO", "coord": {"lon": 21.883329, "lat": 46.099998}}, {"id": 680977, "name": "Conce\u015fti", "state": "", "country": "RO", "coord": {"lon": 26.549999, "lat": 48.166672}}, {"id": 680992, "name": "Comlo\u015fu Mare", "state": "", "country": "RO", "coord": {"lon": 20.62722, "lat": 45.89056}}, {"id": 680998, "name": "Comi\u015fani", "state": "", "country": "RO", "coord": {"lon": 25.58333, "lat": 44.883331}}, {"id": 681005, "name": "Comarnic", "state": "", "country": "RO", "coord": {"lon": 25.633329, "lat": 45.25}}, {"id": 681006, "name": "Comarna", "state": "", "country": "RO", "coord": {"lon": 27.783331, "lat": 47.049999}}, {"id": 681017, "name": "Com\u0103ne\u015fti", "state": "", "country": "RO", "coord": {"lon": 26.433331, "lat": 46.416672}}, {"id": 681025, "name": "Comand\u0103u", "state": "", "country": "RO", "coord": {"lon": 26.26667, "lat": 45.76667}}, {"id": 681029, "name": "Comana de Sus", "state": "", "country": "RO", "coord": {"lon": 25.26667, "lat": 45.900002}}, {"id": 681036, "name": "Comana", "state": "", "country": "RO", "coord": {"lon": 26.145, "lat": 44.170559}}, {"id": 681037, "name": "Comana", "state": "", "country": "RO", "coord": {"lon": 28.316669, "lat": 43.900002}}, {"id": 681047, "name": "Col\u0163i", "state": "", "country": "RO", "coord": {"lon": 26.383329, "lat": 45.383331}}, {"id": 681082, "name": "Colonia Fabricii", "state": "", "country": "RO", "coord": {"lon": 26.299999, "lat": 45.416672}}, {"id": 681096, "name": "Colone\u015fti", "state": "", "country": "RO", "coord": {"lon": 27.299999, "lat": 46.566669}}, {"id": 681097, "name": "Colone\u015fti", "state": "", "country": "RO", "coord": {"lon": 24.66667, "lat": 44.650002}}, {"id": 681112, "name": "Coliba\u015fi", "state": "", "country": "RO", "coord": {"lon": 26.194719, "lat": 44.202221}}, {"id": 681125, "name": "Colceag", "state": "", "country": "RO", "coord": {"lon": 26.35, "lat": 44.950001}}, {"id": 681140, "name": "Cojocna", "state": "", "country": "RO", "coord": {"lon": 23.83333, "lat": 46.75}}, {"id": 681151, "name": "Cojasca", "state": "", "country": "RO", "coord": {"lon": 25.85, "lat": 44.716671}}, {"id": 681160, "name": "Cogealac", "state": "", "country": "RO", "coord": {"lon": 28.566669, "lat": 44.549999}},