[{"id": 454564, "name": "Valmiera", "state": "", "country": "LV", "coord": {"lon": 25.25, "lat": 57.75}}, {"id": 454571, "name": "Valka Municipality", "state": "", "country": "LV", "coord": {"lon": 25.91667, "lat": 57.583328}}, {"id": 454572, "name": "Valka", "state": "", "country": "LV", "coord": {"lon": 26.01013, "lat": 57.7752}}, {"id": 454584, "name": "Valdem\u0101rpils", "state": "", "country": "LV", "coord": {"lon": 22.591881, "lat": 57.370682}}, {"id": 454602, "name": "Vai\u0146ode", "state": "", "country": "LV", "coord": {"lon": 21.866671, "lat": 56.433331}}, {"id": 454714, "name": "Ulbroka", "state": "", "country": "LV", "coord": {"lon": 24.289721, "lat": 56.941109}}, {"id": 454726, "name": "\u016adri\u0146i", "state": "", "country": "LV", "coord": {"lon": 25.678141, "lat": 57.616589}}, {"id": 454768, "name": "Tukums", "state": "", "country": "LV", "coord": {"lon": 23.155279, "lat": 56.966942}}, {"id": 454771, "name": "Tukuma novads", "state": "", "country": "LV", "coord": {"lon": 23, "lat": 56.916672}}, {"id": 454810, "name": "Tor\u0146akalns", "state": "", "country": "LV", "coord": {"lon": 24.09111, "lat": 56.927776}}, {"id": 454848, "name": "T\u012bre\u013ci", "state": "", "country": "LV", "coord": {"lon": 23.58902, "lat": 56.839909}}, {"id": 454968, "name": "Talsi Municipality", "state": "", "country": "LV", "coord": {"lon": 22.58333, "lat": 57.333328}}, {"id": 454970, "name": "Talsi", "state": "", "country": "LV", "coord": {"lon": 22.581369, "lat": 57.245621}}, {"id": 455102, "name": "Subate", "state": "", "country": "LV", "coord": {"lon": 25.90756, "lat": 56.006199}}, {"id": 455166, "name": "Stren\u010di", "state": "", "country": "LV", "coord": {"lon": 25.68535, "lat": 57.62574}}, {"id": 455260, "name": "Stende", "state": "", "country": "LV", "coord": {"lon": 22.533331, "lat": 57.150002}}, {"id": 455298, "name": "Staicele", "state": "", "country": "LV", "coord": {"lon": 24.75, "lat": 57.836391}}, {"id": 455372, "name": "Somerseta", "state": "", "country": "LV", "coord": {"lon": 27.01667, "lat": 56.133331}}, {"id": 455406, "name": "Smiltene", "state": "", "country": "LV", "coord": {"lon": 25.90164, "lat": 57.424438}}, {"id": 455499, "name": "Skulte", "state": "", "country": "LV", "coord": {"lon": 23.953329, "lat": 56.919441}}, {"id": 455520, "name": "Skrunda", "state": "", "country": "LV", "coord": {"lon": 22.01667, "lat": 56.683331}}, {"id": 455718, "name": "Sigulda", "state": "", "country": "LV", "coord": {"lon": 24.864719, "lat": 57.151939}}, {"id": 455727, "name": "Sidgunda", "state": "", "country": "LV", "coord": {"lon": 24.9175, "lat": 56.96167}}, {"id": 455786, "name": "Seda", "state": "", "country": "LV", "coord": {"lon": 25.75, "lat": 57.650002}}, {"id": 455812, "name": "Saulkrasti", "state": "", "country": "LV", "coord": {"lon": 24.414709, "lat": 57.262241}}, {"id": 455888, "name": "Saldus Municipality", "state": "", "country": "LV", "coord": {"lon": 22.5, "lat": 56.666672}}, {"id": 455890, "name": "Saldus", "state": "", "country": "LV", "coord": {"lon": 22.48807, "lat": 56.663631}}, {"id": 455898, "name": "Salaspils", "state": "", "country": "LV", "coord": {"lon": 24.36544, "lat": 56.860142}}, {"id": 455910, "name": "Salacgr\u012bva", "state": "", "country": "LV", "coord": {"lon": 24.358061, "lat": 57.753609}}, {"id": 455937, "name": "Sabile", "state": "", "country": "LV", "coord": {"lon": 22.572611, "lat": 57.045769}}, {"id": 456008, "name": "R\u016bjiena", "state": "", "country": "LV", "coord": {"lon": 25.331551, "lat": 57.897518}}, {"id": 456015, "name": "Rug\u0101ji", "state": "", "country": "LV", "coord": {"lon": 27.133329, "lat": 57}}, {"id": 456090, "name": "Ropa\u017ei", "state": "", "country": "LV", "coord": {"lon": 24.63361, "lat": 56.973888}}, {"id": 456107, "name": "Roja", "state": "", "country": "LV", "coord": {"lon": 22.816669, "lat": 57.5}}, {"id": 456169, "name": "R\u012bgas Rajons", "state": "", "country": "LV", "coord": {"lon": 24.333332, "lat": 57}}, {"id": 456172, "name": "Riga", "state": "", "country": "LV", "coord": {"lon": 24.1, "lat": 56.950001}}, {"id": 456173, "name": "R\u012bga", "state": "", "country": "LV", "coord": {"lon": 24.083332, "lat": 57}}, {"id": 456197, "name": "R\u0113zeknes Novads", "state": "", "country": "LV", "coord": {"lon": 27.16667, "lat": 56.5}}, {"id": 456202, "name": "R\u0113zekne", "state": "", "country": "LV", "coord": {"lon": 27.316669, "lat": 56.5}}, {"id": 456506, "name": "Priekule", "state": "", "country": "LV", "coord": {"lon": 21.58968, "lat": 56.446789}}, {"id": 456528, "name": "Prei\u013ci Municipality", "state": "", "country": "LV", "coord": {"lon": 26.66667, "lat": 56.333328}}, {"id": 456530, "name": "Prei\u013ci", "state": "", "country": "LV", "coord": {"lon": 26.72459, "lat": 56.294441}}, {"id": 456630, "name": "P\u013cavnieki", "state": "", "country": "LV", "coord": {"lon": 24.208332, "lat": 56.939167}}, {"id": 456635, "name": "P\u013cavi\u0146as", "state": "", "country": "LV", "coord": {"lon": 25.725519, "lat": 56.617802}}, {"id": 456685, "name": "Pi\u0146\u0137i", "state": "", "country": "LV", "coord": {"lon": 23.91083, "lat": 56.94194}}, {"id": 456696, "name": "Piltene", "state": "", "country": "LV", "coord": {"lon": 21.674391, "lat": 57.224258}}, {"id": 456698, "name": "Pilsrund\u0101le", "state": "", "country": "LV", "coord": {"lon": 24, "lat": 56.416672}}, {"id": 456827, "name": "P\u0101vilosta", "state": "", "country": "LV", "coord": {"lon": 21.18593, "lat": 56.887909}}, {"id": 456954, "name": "Ozolnieki", "state": "", "country": "LV", "coord": {"lon": 23.787781, "lat": 56.68639}}, {"id": 457052, "name": "Olaine", "state": "", "country": "LV", "coord": {"lon": 23.938061, "lat": 56.785278}}, {"id": 457061, "name": "Ogres novads", "state": "", "country": "LV", "coord": {"lon": 25, "lat": 56.75}}, {"id": 457065, "name": "Ogre", "state": "", "country": "LV", "coord": {"lon": 24.61401, "lat": 56.8162}}, {"id": 457138, "name": "Nida", "state": "", "country": "LV", "coord": {"lon": 21.066669, "lat": 56.099998}}, {"id": 457211, "name": "M\u016brmui\u017ea", "state": "", "country": "LV", "coord": {"lon": 25.48333, "lat": 57.48333}}, {"id": 457408, "name": "M\u0113rsrags", "state": "", "country": "LV", "coord": {"lon": 23.12455, "lat": 57.33535}}, {"id": 457533, "name": "Mazsalaca", "state": "", "country": "LV", "coord": {"lon": 25.05475, "lat": 57.863289}}, {"id": 457676, "name": "M\u0101lpils", "state": "", "country": "LV", "coord": {"lon": 24.96306, "lat": 57.011108}}, {"id": 457712, "name": "Madona Municipality", "state": "", "country": "LV", "coord": {"lon": 26.25, "lat": 56.833328}}, {"id": 457714, "name": "Madona", "state": "", "country": "LV", "coord": {"lon": 26.21698, "lat": 56.853291}}, {"id": 457742, "name": "\u013burbava", "state": "", "country": "LV", "coord": {"lon": 27.66486, "lat": 56.781792}}, {"id": 457773, "name": "Ludzas novads", "state": "", "country": "LV", "coord": {"lon": 27.75, "lat": 56.5}}, {"id": 457776, "name": "Ludza", "state": "", "country": "LV", "coord": {"lon": 27.716669, "lat": 56.549999}}, {"id": 457799, "name": "Lub\u0101na", "state": "", "country": "LV", "coord": {"lon": 26.716669, "lat": 56.900002}}, {"id": 457822, "name": "Loja", "state": "", "country": "LV", "coord": {"lon": 24.64444, "lat": 57.154442}}, {"id": 457860, "name": "L\u012bv\u0101ni", "state": "", "country": "LV", "coord": {"lon": 26.175791, "lat": 56.354309}}, {"id": 457889, "name": "Limba\u017eu novads", "state": "", "country": "LV", "coord": {"lon": 24.66667, "lat": 57.583328}}, {"id": 457890, "name": "Limba\u017ei", "state": "", "country": "LV", "coord": {"lon": 24.71941, "lat": 57.512871}}, {"id": 457912, "name": "L\u012bgatne", "state": "", "country": "LV", "coord": {"lon": 25.04059, "lat": 57.234291}}, {"id": 457951, "name": "Liep\u0101jas Rajons", "state": "", "country": "LV", "coord": {"lon": 21.41667, "lat": 56.5}}, {"id": 457954, "name": "Liep\u0101ja", "state": "", "country": "LV", "coord": {"lon": 21.01667, "lat": 56.51667}}, {"id": 457955, "name": "Liep\u0101ja", "state": "", "country": "LV", "coord": {"lon": 21.036671, "lat": 56.541939}}, {"id": 457965, "name": "Lielv\u0101rde", "state": "", "country": "LV", "coord": {"lon": 24.80743, "lat": 56.720661}}, {"id": 458065, "name": "Lie\u0123i", "state": "", "country": "LV", "coord": {"lon": 21.33399, "lat": 56.58173}}, {"id": 458151, "name": "Lejasciems", "state": "", "country": "LV", "coord": {"lon": 26.57679, "lat": 57.280251}}, {"id": 458258, "name": "Republic of Latvia", "state": "", "country": "LV", "coord": {"lon": 25, "lat": 57}}, {"id": 458459, "name": "Kuld\u012bgas novads", "state": "", "country": "LV", "coord": {"lon": 22, "lat": 56.833328}}, {"id": 458460, "name": "Kuld\u012bga", "state": "", "country": "LV", "coord": {"lon": 21.957211, "lat": 56.973991}}, {"id": 458621, "name": "Kr\u0101slavas novads", "state": "", "country": "LV", "coord": {"lon": 27.5, "lat": 56.083328}}, {"id": 458623, "name": "Kr\u0101slava", "state": "", "country": "LV", "coord": {"lon": 27.16799, "lat": 55.895142}}, {"id": 458682, "name": "Kolka", "state": "", "country": "LV", "coord": {"lon": 22.58333, "lat": 57.75}}, {"id": 458687, "name": "Koknese", "state": "", "country": "LV", "coord": {"lon": 25.433331, "lat": 56.650002}}, {"id": 458690, "name": "Kokari", "state": "", "country": "LV", "coord": {"lon": 26.735571, "lat": 56.61771}}, {"id": 458774, "name": "\u0136ivi\u013ci", "state": "", "country": "LV", "coord": {"lon": 21.183331, "lat": 56.549999}}, {"id": 458880, "name": "\u0136ekava", "state": "", "country": "LV", "coord": {"lon": 24.23, "lat": 56.826618}}, {"id": 458892, "name": "\u0136egums", "state": "", "country": "LV", "coord": {"lon": 24.72439, "lat": 56.745098}}, {"id": 458972, "name": "K\u0101rsava", "state": "", "country": "LV", "coord": {"lon": 27.68829, "lat": 56.78405}}, {"id": 459031, "name": "Kandava", "state": "", "country": "LV", "coord": {"lon": 22.77466, "lat": 57.040871}}, {"id": 459072, "name": "L\u0101c\u012b\u0161i", "state": "", "country": "LV", "coord": {"lon": 26.283331, "lat": 55.966671}}, {"id": 459102, "name": "Kalnciems", "state": "", "country": "LV", "coord": {"lon": 23.60972, "lat": 56.801109}}, {"id": 459201, "name": "J\u016brmala", "state": "", "country": "LV", "coord": {"lon": 23.77038, "lat": 56.967999}}, {"id": 459202, "name": "J\u016brmala", "state": "", "country": "LV", "coord": {"lon": 23.695311, "lat": 56.951981}}, {"id": 459220, "name": "Jumprava", "state": "", "country": "LV", "coord": {"lon": 24.972099, "lat": 56.676128}}, {"id": 459278, "name": "Jelgavas novads", "state": "", "country": "LV", "coord": {"lon": 23.75, "lat": 56.583328}}, {"id": 459279, "name": "Jelgava", "state": "", "country": "LV", "coord": {"lon": 23.71278, "lat": 56.650002}}, {"id": 459282, "name": "J\u0113kabpils Municipality", "state": "", "country": "LV", "coord": {"lon": 25.83333, "lat": 56.333328}}, {"id": 459283, "name": "J\u0113kabpils", "state": "", "country": "LV", "coord": {"lon": 25.857349, "lat": 56.499031}}, {"id": 459357, "name": "Jaunpils", "state": "", "country": "LV", "coord": {"lon": 23.013611, "lat": 56.732498}}, {"id": 459359, "name": "Jaunpiebalga", "state": "", "country": "LV", "coord": {"lon": 26.049999, "lat": 57.183331}}, {"id": 459402, "name": "Jaunjelgava", "state": "", "country": "LV", "coord": {"lon": 25.08333, "lat": 56.616669}}, {"id": 459411, "name": "Jaundubulti", "state": "", "country": "LV", "coord": {"lon": 23.75, "lat": 56.964722}}, {"id": 459419, "name": "Jaunciems", "state": "", "country": "LV", "coord": {"lon": 24.174129, "lat": 57.039101}}, {"id": 459563, "name": "In\u010dukalns", "state": "", "country": "LV", "coord": {"lon": 24.68639, "lat": 57.098061}}, {"id": 459586, "name": "Il\u016bkste", "state": "", "country": "LV", "coord": {"lon": 26.296551, "lat": 55.977539}}, {"id": 459598, "name": "Ik\u0161\u0137ile", "state": "", "country": "LV", "coord": {"lon": 24.5, "lat": 56.833328}}, {"id": 459616, "name": "Ieri\u0137i", "state": "", "country": "LV", "coord": {"lon": 25.17363, "lat": 57.20385}}, {"id": 459624, "name": "Iecava", "state": "", "country": "LV", "coord": {"lon": 24.202221, "lat": 56.59861}}, {"id": 459664, "name": "Gulbenes novads", "state": "", "country": "LV", "coord": {"lon": 26.66667, "lat": 57.166672}}, {"id": 459668, "name": "Gulbene", "state": "", "country": "LV", "coord": {"lon": 26.752911, "lat": 57.17767}}, {"id": 459692, "name": "Grobi\u0146a", "state": "", "country": "LV", "coord": {"lon": 21.16782, "lat": 56.53521}}, {"id": 459718, "name": "Gridzi\u0146kr\u016bmi\u0146i", "state": "", "country": "LV", "coord": {"lon": 25.183331, "lat": 56.616669}}, {"id": 459984, "name": "Cibla", "state": "", "country": "LV", "coord": {"lon": 27.883329, "lat": 56.549999}}, {"id": 460001, "name": "\u0112rg\u013ci", "state": "", "country": "LV", "coord": {"lon": 25.636681, "lat": 56.897518}}, {"id": 460019, "name": "Engure", "state": "", "country": "LV", "coord": {"lon": 23.225269, "lat": 57.16061}}, {"id": 460112, "name": "Dz\u0113rves", "state": "", "country": "LV", "coord": {"lon": 21.66667, "lat": 57.216671}}, {"id": 460187, "name": "Dundaga", "state": "", "country": "LV", "coord": {"lon": 22.35, "lat": 57.51667}}, {"id": 460274, "name": "Dreili\u0146i", "state": "", "country": "LV", "coord": {"lon": 24.233334, "lat": 56.950001}}, {"id": 460311, "name": "Dobeles novads", "state": "", "country": "LV", "coord": {"lon": 23.16667, "lat": 56.583328}}, {"id": 460312, "name": "Dobele", "state": "", "country": "LV", "coord": {"lon": 23.27861, "lat": 56.625}}, {"id": 460410, "name": "Daugavpils municipality", "state": "", "country": "LV", "coord": {"lon": 26.5, "lat": 55.916672}}, {"id": 460413, "name": "Daugavpils", "state": "", "country": "LV", "coord": {"lon": 26.533331, "lat": 55.883331}}, {"id": 460416, "name": "Daugavgr\u012bva", "state": "", "country": "LV", "coord": {"lon": 24.036131, "lat": 57.043152}}, {"id": 460474, "name": "Dagda", "state": "", "country": "LV", "coord": {"lon": 27.53723, "lat": 56.095119}}, {"id": 460540, "name": "Cimdenieki", "state": "", "country": "LV", "coord": {"lon": 21.116671, "lat": 56.533329}}, {"id": 460568, "name": "Cesvaine", "state": "", "country": "LV", "coord": {"lon": 26.316669, "lat": 56.966671}}, {"id": 460569, "name": "C\u0113su Novads", "state": "", "country": "LV", "coord": {"lon": 25.5, "lat": 57.25}}, {"id": 460570, "name": "C\u0113sis", "state": "", "country": "LV", "coord": {"lon": 25.274561, "lat": 57.311878}}, {"id": 460659, "name": "Carnikava", "state": "", "country": "LV", "coord": {"lon": 24.274441, "lat": 57.12944}}, {"id": 460786, "name": "Broc\u0113ni", "state": "", "country": "LV", "coord": {"lon": 22.533331, "lat": 56.700001}}, {"id": 460885, "name": "Bolderaja", "state": "", "country": "LV", "coord": {"lon": 24.05571, "lat": 57.031319}}, {"id": 461112, "name": "Bauskas Novads", "state": "", "country": "LV", "coord": {"lon": 24.33333, "lat": 56.5}}, {"id": 461114, "name": "Bauska", "state": "", "country": "LV", "coord": {"lon": 24.190559, "lat": 56.407501}}, {"id": 461160, "name": "Balvu Novads", "state": "", "country": "LV", "coord": {"lon": 27.5, "lat": 57.083328}}, {"id": 461163, "name": "Balvi", "state": "", "country": "LV", "coord": {"lon": 27.265829, "lat": 57.131302}}, {"id": 461180, "name": "Baltinava", "state": "", "country": "LV", "coord": {"lon": 27.65, "lat": 56.950001}}, {"id": 461205, "name": "Balo\u017ei", "state": "", "country": "LV", "coord": {"lon": 24.04389, "lat": 56.847778}}, {"id": 461224, "name": "Baldone", "state": "", "country": "LV", "coord": {"lon": 24.39444, "lat": 56.742779}}, {"id": 461225, "name": "V\u0101rpas", "state": "", "country": "LV", "coord": {"lon": 24.35194, "lat": 56.70694}}, {"id": 461255, "name": "Bab\u012bte", "state": "", "country": "LV", "coord": {"lon": 23.9429, "lat": 56.954479}}, {"id": 461336, "name": "Auce", "state": "", "country": "LV", "coord": {"lon": 22.90169, "lat": 56.459808}}, {"id": 461442, "name": "Ape", "state": "", "country": "LV", "coord": {"lon": 26.692909, "lat": 57.53928}}, {"id": 461525, "name": "Al\u016bksnes Novads", "state": "", "country": "LV", "coord": {"lon": 27, "lat": 57.416672}}, {"id": 461528, "name": "Al\u016bksne", "state": "", "country": "LV", "coord": {"lon": 27.049999, "lat": 57.416672}}, {"id": 461534, "name": "Alsunga", "state": "", "country": "LV", "coord": {"lon": 21.55938, "lat": 56.981941}}, {"id": 461539, "name": "Aloja", "state": "", "country": "LV", "coord": {"lon": 24.8825, "lat": 57.766941}}, {"id": 461566, "name": "Akn\u012bste", "state": "", "country": "LV", "coord": {"lon": 25.747829, "lat": 56.161518}}, {"id": 461602, "name": "Aizpute", "state": "", "country": "LV", "coord": {"lon": 21.6, "lat": 56.716671}}, {"id": 461613, "name": "Aizkraukles novads", "state": "", "country": "LV", "coord": {"lon": 25.16667, "lat": 56.5}}, {"id": 461615, "name": "Aizkraukle", "state": "", "country": "LV", "coord": {"lon": 25.255341, "lat": 56.604771}}, {"id": 461628, "name": "Aina\u017ei", "state": "", "country": "LV", "coord": {"lon": 24.35778, "lat": 57.863609}}, {"id": 461631, "name": "Aglona", "state": "", "country": "LV", "coord": {"lon": 27.01667, "lat": 56.133331}}, {"id": 461650, "name": "\u0100da\u017ei", "state": "", "country": "LV", "coord": {"lon": 24.32139, "lat": 57.075829}}, {"id": 461699, "name": "Sasovo", "state": "", "country": "RU", "coord": {"lon": 41.919861, "lat": 54.353691}}, {"id": 461704, "name": "Novozavidovskiy", "state": "", "country": "RU", "coord": {"lon": 36.433334, "lat": 56.549999}}, {"id": 461705, "name": "Krasnolesnyy", "state": "", "country": "RU", "coord": {"lon": 39.587719, "lat": 51.880718}}, {"id": 461715, "name": "Malinovo", "state": "", "country": "RU", "coord": {"lon": 38.873055, "lat": 55.748333}}, {"id": 461720, "name": "Kosterevo", "state": "", "country": "RU", "coord": {"lon": 39.61438, "lat": 55.929901}}, {"id": 461727, "name": "Olenevka", "state": "", "country": "UA", "coord": {"lon": 32.533329, "lat": 45.383331}}, {"id": 461742, "name": "Zyuzino", "state": "", "country": "RU", "coord": {"lon": 38.123333, "lat": 55.679443}}, {"id": 461756, "name": "Zyukayka", "state": "", "country": "RU", "coord": {"lon": 54.700279, "lat": 58.202499}}, {"id": 461779, "name": "Zykovo", "state": "", "country": "RU", "coord": {"lon": 42.383331, "lat": 55.983334}}, {"id": 461781, "name": "Zykovo", "state": "", "country": "RU", "coord": {"lon": 45.08633, "lat": 54.068531}}, {"id": 461794, "name": "Zykeyevo", "state": "", "country": "RU", "coord": {"lon": 37.595833, "lat": 55.256943}}, {"id": 461835, "name": "Zyablikovo", "state": "", "country": "RU", "coord": {"lon": 37.747501, "lat": 55.621387}}, {"id": 461862, "name": "Zvorkovo", "state": "", "country": "RU", "coord": {"lon": 39.25, "lat": 55.599998}}, {"id": 461867, "name": "Zvonkaya", "state": "", "country": "RU", "coord": {"lon": 40.166672, "lat": 58.183331}}, {"id": 461873, "name": "Zvezdnyy", "state": "", "country": "RU", "coord": {"lon": 46.659191, "lat": 45.270081}}, {"id": 461910, "name": "Zverevo", "state": "", "country": "RU", "coord": {"lon": 40.122822, "lat": 48.02108}}, {"id": 461916, "name": "Zvenigovo", "state": "", "country": "RU", "coord": {"lon": 48.018055, "lat": 55.974167}}, {"id": 461920, "name": "Zvenigorod", "state": "", "country": "RU", "coord": {"lon": 36.8475, "lat": 55.733334}}, {"id": 461964, "name": "Zuyevka", "state": "", "country": "RU", "coord": {"lon": 51.133549, "lat": 58.405029}}, {"id": 462007, "name": "Zubtsovo", "state": "", "country": "RU", "coord": {"lon": 37.51556, "lat": 52.535278}}, {"id": 462008, "name": "Zubtsov", "state": "", "country": "RU", "coord": {"lon": 34.589352, "lat": 56.175339}}, {"id": 462022, "name": "Zubovo", "state": "", "country": "RU", "coord": {"lon": 36.972752, "lat": 60.317951}}, {"id": 462035, "name": "Zubovo", "state": "", "country": "RU", "coord": {"lon": 38.305, "lat": 54.768612}}, {"id": 462050, "name": "Zubova Polyana", "state": "", "country": "RU", "coord": {"lon": 42.8372, "lat": 54.077099}}, {"id": 462052, "name": "Zubovo", "state": "", "country": "RU", "coord": {"lon": 41.829723, "lat": 58.169998}}, {"id": 462095, "name": "Zubachevo", "state": "", "country": "RU", "coord": {"lon": 38.183334, "lat": 56.333332}}, {"id": 462134, "name": "Zorino", "state": "", "country": "RU", "coord": {"lon": 44.766666, "lat": 58.333332}}, {"id": 462169, "name": "Zolotukhino", "state": "", "country": "RU", "coord": {"lon": 36.37722, "lat": 52.084171}}, {"id": 462192, "name": "Zolotovo", "state": "", "country": "RU", "coord": {"lon": 38.496941, "lat": 55.428059}}, {"id": 462197, "name": "Zolotnikovskaya Pustyn\u2019", "state": "", "country": "RU", "coord": {"lon": 40.616669, "lat": 56.700001}}, {"id": 462203, "name": "Zolotkovo", "state": "", "country": "RU", "coord": {"lon": 41.105301, "lat": 55.528099}}, {"id": 462208, "name": "Zalapino", "state": "", "country": "RU", "coord": {"lon": 46.548058, "lat": 52.707779}}, {"id": 462240, "name": "Zol\u2019noye", "state": "", "country": "RU", "coord": {"lon": 49.797798, "lat": 53.442101}}, {"id": 462256, "name": "Zakomel\u2019ye", "state": "", "country": "RU", "coord": {"lon": 40.150002, "lat": 56.566666}}, {"id": 462305, "name": "Znamenskoye", "state": "", "country": "RU", "coord": {"lon": 35.690552, "lat": 53.27869}}, {"id": 462313, "name": "Znamenskoye", "state": "", "country": "RU", "coord": {"lon": 45.12867, "lat": 43.678982}}, {"id": 462320, "name": "Znamenka", "state": "", "country": "RU", "coord": {"lon": 29.947947, "lat": 59.872868}}, {"id": 462322, "name": "Znamensk", "state": "", "country": "RU", "coord": {"lon": 21.20804, "lat": 54.609482}}, {"id": 462323, "name": "Znamenki", "state": "", "country": "RU", "coord": {"lon": 39.200001, "lat": 55.516666}}, {"id": 462330, "name": "Znamenka", "state": "", "country": "RU", "coord": {"lon": 44.839169, "lat": 58.381943}}, {"id": 462352, "name": "Znamenka", "state": "", "country": "RU", "coord": {"lon": 35.981392, "lat": 52.896671}}, {"id": 462357, "name": "Znamenka", "state": "", "country": "RU", "coord": {"lon": 41.43108, "lat": 52.416698}}, {"id": 462377, "name": "Zmiy\u00ebvka", "state": "", "country": "RU", "coord": {"lon": 36.37389, "lat": 52.66972}}, {"id": 462383, "name": "Zmeyskaya", "state": "", "country": "RU", "coord": {"lon": 44.15733, "lat": 43.33617}}, {"id": 462413, "name": "Zlynka", "state": "", "country": "RU", "coord": {"lon": 31.737801, "lat": 52.426701}}, {"id": 462444, "name": "Zlatoust", "state": "", "country": "RU", "coord": {"lon": 59.650829, "lat": 55.171108}}, {"id": 462467, "name": "Zirgan", "state": "", "country": "RU", "coord": {"lon": 55.918499, "lat": 53.222198}}, {"id": 462522, "name": "Zimovniki", "state": "", "country": "RU", "coord": {"lon": 42.463333, "lat": 47.148335}}, {"id": 462528, "name": "Zimogor\u2019ye", "state": "", "country": "RU", "coord": {"lon": 37.883331, "lat": 56.099998}}, {"id": 462626, "name": "Zilair", "state": "", "country": "RU", "coord": {"lon": 57.439201, "lat": 52.2332}}, {"id": 462642, "name": "Zibrovo", "state": "", "country": "RU", "coord": {"lon": 37.69643, "lat": 54.85062}}, {"id": 462668, "name": "Zhuravskaya", "state": "", "country": "RU", "coord": {"lon": 39.558334, "lat": 45.580002}}, {"id": 462755, "name": "Zhukovskiy", "state": "", "country": "RU", "coord": {"lon": 38.120277, "lat": 55.59528}}, {"id": 462790, "name": "Zhukovo", "state": "", "country": "RU", "coord": {"lon": 41.700001, "lat": 55.099998}}, {"id": 462792, "name": "Zhukovo", "state": "", "country": "RU", "coord": {"lon": 36.744019, "lat": 55.03178}}, {"id": 462814, "name": "Zhukovo", "state": "", "country": "RU", "coord": {"lon": 40.966667, "lat": 56.933334}}, {"id": 462815, "name": "Zhukovka", "state": "", "country": "RU", "coord": {"lon": 37.51667, "lat": 56.48333}}, {"id": 462822, "name": "Zhukovka", "state": "", "country": "RU", "coord": {"lon": 33.727982, "lat": 53.533951}}, {"id": 462864, "name": "Zhornovka", "state": "", "country": "RU", "coord": {"lon": 31.633333, "lat": 54.633331}}, {"id": 462870, "name": "Zholobova-Sloboda", "state": "", "country": "RU", "coord": {"lon": 40.433334, "lat": 54.483334}}, {"id": 462878, "name": "Zhokhovo", "state": "", "country": "RU", "coord": {"lon": 37.378334, "lat": 55.270279}}, {"id": 462914, "name": "Zhizdra", "state": "", "country": "RU", "coord": {"lon": 34.73951, "lat": 53.74596}}, {"id": 462942, "name": "Zhitnitskaya", "state": "", "country": "RU", "coord": {"lon": 35.566666, "lat": 62.433334}}, {"id": 462964, "name": "Zhiryatino", "state": "", "country": "RU", "coord": {"lon": 33.730598, "lat": 53.222801}}, {"id": 462970, "name": "Zhirovo", "state": "", "country": "RU", "coord": {"lon": 38.540558, "lat": 55.601944}}, {"id": 462976, "name": "Zhiroshkino", "state": "", "country": "RU", "coord": {"lon": 38.041111, "lat": 55.370277}}, {"id": 462983, "name": "Zhirkovskiy", "state": "", "country": "RU", "coord": {"lon": 42.918056, "lat": 48.645832}}, {"id": 462984, "name": "Zhirnovsk", "state": "", "country": "RU", "coord": {"lon": 44.773472, "lat": 50.984482}}, {"id": 462988, "name": "Zhirnov", "state": "", "country": "RU", "coord": {"lon": 41.12608, "lat": 48.170891}}, {"id": 463001, "name": "Zhilploshchadka", "state": "", "country": "RU", "coord": {"lon": 39.950001, "lat": 48.333328}}, {"id": 463035, "name": "Zhilino", "state": "", "country": "RU", "coord": {"lon": 37.25, "lat": 56.066666}}, {"id": 463037, "name": "Zhilino", "state": "", "country": "RU", "coord": {"lon": 38.505554, "lat": 55.909443}}, {"id": 463038, "name": "Zhilino", "state": "", "country": "RU", "coord": {"lon": 37.940277, "lat": 55.634445}}, {"id": 463043, "name": "Zhilina", "state": "", "country": "RU", "coord": {"lon": 36.083332, "lat": 52.983334}}, {"id": 463050, "name": "Zhil\u00ebvo", "state": "", "country": "RU", "coord": {"lon": 38.011059, "lat": 55.01408}}, {"id": 463051, "name": "Zhil\u00ebvo", "state": "", "country": "RU", "coord": {"lon": 38.021942, "lat": 54.982777}}, {"id": 463053, "name": "Zhiletovo", "state": "", "country": "RU", "coord": {"lon": 36.022251, "lat": 54.692162}}, {"id": 463082, "name": "Zhigulevsk", "state": "", "country": "RU", "coord": {"lon": 49.495281, "lat": 53.399719}}, {"id": 463134, "name": "Zhestyl\u00ebvo", "state": "", "country": "RU", "coord": {"lon": 37.650002, "lat": 56.400002}}, {"id": 463144, "name": "Zheshart", "state": "", "country": "RU", "coord": {"lon": 49.573349, "lat": 62.073139}}, {"id": 463145, "name": "Zhernovka", "state": "", "country": "RU", "coord": {"lon": 30.466667, "lat": 59.950001}}, {"id": 463217, "name": "Zherdevka", "state": "", "country": "RU", "coord": {"lon": 41.46056, "lat": 51.84861}}, {"id": 463229, "name": "Zhemtala", "state": "", "country": "RU", "coord": {"lon": 43.655861, "lat": 43.284081}}, {"id": 463252, "name": "Zhelyabino", "state": "", "country": "RU", "coord": {"lon": 37.184166, "lat": 55.868057}}, {"id": 463254, "name": "Zhelud\u2019yevo", "state": "", "country": "RU", "coord": {"lon": 39.116669, "lat": 55.966667}}, {"id": 463340, "name": "Zheleznovodsk", "state": "", "country": "RU", "coord": {"lon": 43.019718, "lat": 44.139439}}, {"id": 463343, "name": "Zheleznogorsk", "state": "", "country": "RU", "coord": {"lon": 35.371101, "lat": 52.331001}}, {"id": 463355, "name": "Zheleznodorozhnyy", "state": "", "country": "RU", "coord": {"lon": 38.004166, "lat": 55.750278}}, {"id": 463356, "name": "Zheleznodorozhnyy", "state": "", "country": "RU", "coord": {"lon": 21.3057, "lat": 54.363258}}, {"id": 463370, "name": "Zheleznitsa", "state": "", "country": "RU", "coord": {"lon": 36.379169, "lat": 53.198891}}, {"id": 463446, "name": "Zhdankovskiy", "state": "", "country": "RU", "coord": {"lon": 38.179508, "lat": 53.753208}}, {"id": 463465, "name": "Zhavoronki", "state": "", "country": "RU", "coord": {"lon": 37.104168, "lat": 55.649723}}, {"id": 463516, "name": "Zharkovskiy", "state": "", "country": "RU", "coord": {"lon": 32.269699, "lat": 55.848999}}, {"id": 463533, "name": "Zharikhino", "state": "", "country": "RU", "coord": {"lon": 44.733334, "lat": 58.316666}}, {"id": 463544, "name": "Zhankhoteko", "state": "", "country": "RU", "coord": {"lon": 43.21056, "lat": 43.564171}}, {"id": 463560, "name": "Zhako", "state": "", "country": "RU", "coord": {"lon": 41.73724, "lat": 43.95525}}, {"id": 463568, "name": "Zhadovka", "state": "", "country": "RU", "coord": {"lon": 46.949848, "lat": 53.574638}}, {"id": 463575, "name": "Zhadinskoye", "state": "", "country": "RU", "coord": {"lon": 40.183334, "lat": 56.549999}}, {"id": 463597, "name": "Zhabka", "state": "", "country": "RU", "coord": {"lon": 39.466667, "lat": 55.283333}}, {"id": 463622, "name": "Zevalovo", "state": "", "country": "RU", "coord": {"lon": 38.43, "lat": 55.167778}}, {"id": 463637, "name": "Zernograd", "state": "", "country": "RU", "coord": {"lon": 40.308338, "lat": 46.845181}}, {"id": 463655, "name": "Zenzeli", "state": "", "country": "RU", "coord": {"lon": 47.04739, "lat": 45.924068}}, {"id": 463666, "name": "Zen\u2019kino", "state": "", "country": "RU", "coord": {"lon": 36.771942, "lat": 55.94389}}, {"id": 463685, "name": "Zevnevo", "state": "", "country": "RU", "coord": {"lon": 38.951942, "lat": 55.427223}}, {"id": 463690, "name": "Zemlyansk", "state": "", "country": "RU", "coord": {"lon": 38.733398, "lat": 51.904099}}, {"id": 463702, "name": "Zemlerob", "state": "", "country": "RU", "coord": {"lon": 40.650002, "lat": 54.5}}, {"id": 463710, "name": "Zemetchino", "state": "", "country": "RU", "coord": {"lon": 42.616322, "lat": 53.497299}}, {"id": 463726, "name": "Zel\u00ebnyy Lug", "state": "", "country": "RU", "coord": {"lon": 44.466671, "lat": 53.26667}}, {"id": 463739, "name": "Zel\u00ebnyy Gorod", "state": "", "country": "RU", "coord": {"lon": 37.866669, "lat": 56.049999}}, {"id": 463782, "name": "Zelentsino", "state": "", "country": "RU", "coord": {"lon": 36.083332, "lat": 56.383331}}, {"id": 463790, "name": "Zelentsino", "state": "", "country": "RU", "coord": {"lon": 38.75, "lat": 56.283333}}, {"id": 463801, "name": "Zel\u00ebnaya Sloboda", "state": "", "country": "RU", "coord": {"lon": 37.997501, "lat": 55.526943}}, {"id": 463824, "name": "Zelenokumsk", "state": "", "country": "RU", "coord": {"lon": 43.880562, "lat": 44.40694}}, {"id": 463826, "name": "Zelenogradskiy", "state": "", "country": "RU", "coord": {"lon": 37.916668, "lat": 56.099998}}, {"id": 463828, "name": "Zelenogradsk", "state": "", "country": "RU", "coord": {"lon": 20.476681, "lat": 54.958931}}, {"id": 463829, "name": "Zelenograd", "state": "", "country": "RU", "coord": {"lon": 37.181389, "lat": 55.982498}}, {"id": 463830, "name": "Zelenogorsk", "state": "", "country": "RU", "coord": {"lon": 29.70183, "lat": 60.19968}}, {"id": 463834, "name": "Zelenodolsky District", "state": "", "country": "RU", "coord": {"lon": 48.75, "lat": 55.916672}}, {"id": 463835, "name": "Zelenodolsk", "state": "", "country": "RU", "coord": {"lon": 48.517841, "lat": 55.843761}}, {"id": 463838, "name": "Zelenoborskiy", "state": "", "country": "RU", "coord": {"lon": 32.362221, "lat": 66.845001}}, {"id": 463854, "name": "Zelenino", "state": "", "country": "RU", "coord": {"lon": 37.133331, "lat": 56.266666}}, {"id": 463880, "name": "Zelenets", "state": "", "country": "RU", "coord": {"lon": 50.74892, "lat": 61.88485}}, {"id": 463885, "name": "Zelenchukskaya", "state": "", "country": "RU", "coord": {"lon": 41.589401, "lat": 43.85804}}, {"id": 463889, "name": "Zelenchuk", "state": "", "country": "RU", "coord": {"lon": 40.71611, "lat": 45.245277}}, {"id": 463912, "name": "Zel\u00ebnaya Polyana", "state": "", "country": "RU", "coord": {"lon": 39.833332, "lat": 56.466667}}, {"id": 463913, "name": "Zel\u00ebnaya Polyana", "state": "", "country": "RU", "coord": {"lon": 36.63554, "lat": 50.635799}}, {"id": 463951, "name": "Zdekhovo", "state": "", "country": "RU", "coord": {"lon": 38.166668, "lat": 56}}, {"id": 463966, "name": "Zayukovo", "state": "", "country": "RU", "coord": {"lon": 43.333889, "lat": 43.616112}}, {"id": 464018, "name": "Zaymishche", "state": "", "country": "RU", "coord": {"lon": 32.233398, "lat": 52.726398}}, {"id": 464090, "name": "Zavorovo", "state": "", "country": "RU", "coord": {"lon": 38.223888, "lat": 55.34111}}, {"id": 464094, "name": "Zavoronezhskoye", "state": "", "country": "RU", "coord": {"lon": 40.552601, "lat": 52.8801}}, {"id": 464101, "name": "Zavolzh\u2019ye", "state": "", "country": "RU", "coord": {"lon": 43.393612, "lat": 56.642776}}, {"id": 464109, "name": "Zavolzhskiy", "state": "", "country": "RU", "coord": {"lon": 50.299999, "lat": 51.533333}}, {"id": 464110, "name": "Zavolzhskiy", "state": "", "country": "RU", "coord": {"lon": 45.433331, "lat": 50.01667}}, {"id": 464112, "name": "Zavolzhsk", "state": "", "country": "RU", "coord": {"lon": 42.137791, "lat": 57.4823}}, {"id": 464130, "name": "Masalovka", "state": "", "country": "RU", "coord": {"lon": 40.270557, "lat": 48.405277}}, {"id": 464159, "name": "Zavidovo", "state": "", "country": "RU", "coord": {"lon": 36.533329, "lat": 56.533329}}, {"id": 464176, "name": "Zavety Il\u2019icha", "state": "", "country": "RU", "coord": {"lon": 37.849998, "lat": 56.049999}}, {"id": 464179, "name": "Zavetnoye", "state": "", "country": "RU", "coord": {"lon": 43.890282, "lat": 47.119438}}, {"id": 464180, "name": "Zavetnoye", "state": "", "country": "RU", "coord": {"lon": 41.599499, "lat": 44.749199}}, {"id": 464192, "name": "Zavety Il\u2019icha", "state": "", "country": "RU", "coord": {"lon": 46.425278, "lat": 51.352501}}, {"id": 464217, "name": "Zavalino", "state": "", "country": "RU", "coord": {"lon": 39.450001, "lat": 56.200001}}, {"id": 464219, "name": "Zaval", "state": "", "country": "RU", "coord": {"lon": 31.100639, "lat": 58.362068}}, {"id": 464260, "name": "Zaterechnyy", "state": "", "country": "RU", "coord": {"lon": 45.209721, "lat": 44.79306}}, {"id": 464290, "name": "Zasosna", "state": "", "country": "RU", "coord": {"lon": 38.3965, "lat": 50.630699}}, {"id": 464343, "name": "Zasechnoye", "state": "", "country": "RU", "coord": {"lon": 45.076389, "lat": 53.109165}}, {"id": 464468, "name": "Zarubino", "state": "", "country": "RU", "coord": {"lon": 33.475559, "lat": 58.735001}}, {"id": 464473, "name": "Zarubino", "state": "", "country": "RU", "coord": {"lon": 43.883331, "lat": 56.466667}}, {"id": 464503, "name": "Zarel\u2019ye", "state": "", "country": "RU", "coord": {"lon": 38.066666, "lat": 55.349998}}, {"id": 464506, "name": "Zarech\u2019ye Krasnoye", "state": "", "country": "RU", "coord": {"lon": 44.983334, "lat": 58.383331}}, {"id": 464527, "name": "Zarech\u2019ye", "state": "", "country": "RU", "coord": {"lon": 39.950001, "lat": 59.283329}}, {"id": 464557, "name": "Zarech\u2019ye", "state": "", "country": "RU", "coord": {"lon": 43.716667, "lat": 57.833332}}, {"id": 464616, "name": "Zarechnyy", "state": "", "country": "RU", "coord": {"lon": 42.284309, "lat": 57.469311}}, {"id": 464621, "name": "Zarechnyy", "state": "", "country": "RU", "coord": {"lon": 39.594372, "lat": 53.730598}}, {"id": 464625, "name": "Zarechnyy", "state": "", "country": "RU", "coord": {"lon": 45.192268, "lat": 53.20356}}, {"id": 464676, "name": "Zarechenskiy", "state": "", "country": "RU", "coord": {"lon": 38.216671, "lat": 54.083328}}, {"id": 464687, "name": "Zaraysk", "state": "", "country": "RU", "coord": {"lon": 38.88361, "lat": 54.765278}}, {"id": 464700, "name": "Zaputnaya", "state": "", "country": "RU", "coord": {"lon": 39.299999, "lat": 55.583332}}, {"id": 464708, "name": "Zaprudnya", "state": "", "country": "RU", "coord": {"lon": 37.433331, "lat": 56.566669}}, {"id": 464717, "name": "Zaprudino", "state": "", "country": "RU", "coord": {"lon": 38.928333, "lat": 55.643612}}, {"id": 464730, "name": "Zaporozhskaya", "state": "", "country": "RU", "coord": {"lon": 36.866669, "lat": 45.378887}}, {"id": 464737, "name": "Zaponor\u2019ye", "state": "", "country": "RU", "coord": {"lon": 38.861942, "lat": 55.639999}}, {"id": 464790, "name": "Zapolyarnyy", "state": "", "country": "RU", "coord": {"lon": 30.813551, "lat": 69.415413}}, {"id": 464806, "name": "Zapol\u2019naya", "state": "", "country": "RU", "coord": {"lon": 43.049168, "lat": 60.034168}}, {"id": 464829, "name": "Zaplavnoye", "state": "", "country": "RU", "coord": {"lon": 45.0229, "lat": 48.7048}}, {"id": 464891, "name": "Zapadnaya Dvina", "state": "", "country": "RU", "coord": {"lon": 32.074539, "lat": 56.25901}}, {"id": 464943, "name": "Zaoz\u00ebr\u2019ye", "state": "", "country": "RU", "coord": {"lon": 42.299999, "lat": 55.950001}}, {"id": 464946, "name": "Zaoz\u00ebr\u2019ye", "state": "", "country": "RU", "coord": {"lon": 38.028889, "lat": 55.56778}}, {"id": 464958, "name": "Zaovrazh\u2019ye", "state": "", "country": "RU", "coord": {"lon": 37.116669, "lat": 56.283333}}, {"id": 464993, "name": "Zaokskiy", "state": "", "country": "RU", "coord": {"lon": 37.40889, "lat": 54.73056}}, {"id": 465011, "name": "Zanino", "state": "", "country": "RU", "coord": {"lon": 37.528786, "lat": 54.535709}}, {"id": 465014, "name": "Zanevka", "state": "", "country": "RU", "coord": {"lon": 30.516666, "lat": 59.941387}}, {"id": 465019, "name": "Zandak", "state": "", "country": "RU", "coord": {"lon": 46.456669, "lat": 43.05722}}, {"id": 465027, "name": "Zamyatino", "state": "", "country": "RU", "coord": {"lon": 36.816666, "lat": 56.200001}}, {"id": 465051, "name": "Zamosty", "state": "", "country": "RU", "coord": {"lon": 37.349998, "lat": 45.299999}}, {"id": 465057, "name": "Zamoskvorech\u2019ye", "state": "", "country": "RU", "coord": {"lon": 37.633331, "lat": 55.733334}}, {"id": 465174, "name": "Zalukokoazhe", "state": "", "country": "RU", "coord": {"lon": 43.215561, "lat": 43.903889}}, {"id": 465261, "name": "Vales\u2019ye", "state": "", "country": "RU", "coord": {"lon": 44.466667, "lat": 53.266666}}, {"id": 465273, "name": "Zalesnyy", "state": "", "country": "RU", "coord": {"lon": 48.900002, "lat": 55.866669}}, {"id": 465274, "name": "Zalesnyy", "state": "", "country": "RU", "coord": {"lon": 37.516666, "lat": 54}}, {"id": 465279, "name": "Zalesnaya", "state": "", "country": "RU", "coord": {"lon": 42.349998, "lat": 58.366669}}, {"id": 465286, "name": "Zalesnaya", "state": "", "country": "RU", "coord": {"lon": 44.049999, "lat": 56.366669}}, {"id": 465291, "name": "Zalegoshch\u2019", "state": "", "country": "RU", "coord": {"lon": 36.88694, "lat": 52.900829}}, {"id": 465337, "name": "Zaklyaz\u2019minskiy", "state": "", "country": "RU", "coord": {"lon": 40.416668, "lat": 56.416668}}, {"id": 465355, "name": "Zakhvatovo", "state": "", "country": "RU", "coord": {"lon": 43.906944, "lat": 57.219723}}, {"id": 465433, "name": "Zakharovo", "state": "", "country": "RU", "coord": {"lon": 37.025555, "lat": 55.801666}}, {"id": 465436, "name": "Zakharovo", "state": "", "country": "RU", "coord": {"lon": 38.308613, "lat": 55.656113}}, {"id": 465437, "name": "Zakharovo", "state": "", "country": "RU", "coord": {"lon": 36.962502, "lat": 55.649445}}, {"id": 465446, "name": "Zakharovo", "state": "", "country": "RU", "coord": {"lon": 39.279202, "lat": 54.366001}}, {"id": 465463, "name": "Zakharova", "state": "", "country": "RU", "coord": {"lon": 54.638351, "lat": 59.250751}}, {"id": 465476, "name": "Zakharkovo", "state": "", "country": "RU", "coord": {"lon": 37.450001, "lat": 55.849998}}, {"id": 465477, "name": "Zakharkovo", "state": "", "country": "RU", "coord": {"lon": 37.318333, "lat": 55.777222}}, {"id": 465490, "name": "Zakhar\u2019ino", "state": "", "country": "RU", "coord": {"lon": 42.299999, "lat": 59.049999}}, {"id": 465501, "name": "Zakhar\u2019ino", "state": "", "country": "RU", "coord": {"lon": 37.083332, "lat": 56.299999}}, {"id": 465532, "name": "Zakan-Yurt", "state": "", "country": "RU", "coord": {"lon": 45.420559, "lat": 43.25972}}, {"id": 465543, "name": "Zainsk", "state": "", "country": "RU", "coord": {"lon": 52.06942, "lat": 55.3195}}, {"id": 465572, "name": "Zagryazhskaya", "state": "", "country": "RU", "coord": {"lon": 39.033333, "lat": 55.633331}}, {"id": 465622, "name": "Zagor\u2019ye", "state": "", "country": "RU", "coord": {"lon": 36.616669, "lat": 56.650002}}, {"id": 465625, "name": "Zagor\u2019ye", "state": "", "country": "RU", "coord": {"lon": 37, "lat": 56.233334}}, {"id": 465632, "name": "Zagoryanskiy", "state": "", "country": "RU", "coord": {"lon": 37.958061, "lat": 55.932499}}, {"id": 465646, "name": "Zagornyy", "state": "", "country": "RU", "coord": {"lon": 37.549999, "lat": 51.283329}}, {"id": 465720, "name": "Zadorino", "state": "", "country": "RU", "coord": {"lon": 36.983334, "lat": 56.066666}}, {"id": 465725, "name": "Zadonskiy", "state": "", "country": "RU", "coord": {"lon": 39.658329, "lat": 46.92944}}, {"id": 465726, "name": "Zadonsk", "state": "", "country": "RU", "coord": {"lon": 38.926102, "lat": 52.3904}}, {"id": 465754, "name": "Zadneye Pole", "state": "", "country": "RU", "coord": {"lon": 39.066666, "lat": 55.900002}}, {"id": 465783, "name": "Zachat\u2019ye", "state": "", "country": "RU", "coord": {"lon": 37.451942, "lat": 55.134724}}, {"id": 465795, "name": "Zabugorovka", "state": "", "country": "RU", "coord": {"lon": 52.799999, "lat": 54.516666}}, {"id": 465824, "name": "Zabor\u2019ye", "state": "", "country": "RU", "coord": {"lon": 37.796398, "lat": 55.389462}}, {"id": 465825, "name": "Zabor\u2019ye", "state": "", "country": "RU", "coord": {"lon": 37.785278, "lat": 55.384167}}, {"id": 465831, "name": "Zabor\u2019ye", "state": "", "country": "RU", "coord": {"lon": 39.870556, "lat": 54.81139}}, {"id": 465923, "name": "Zabolot\u2019ye", "state": "", "country": "RU", "coord": {"lon": 39.066666, "lat": 55.383331}}, {"id": 465934, "name": "Zabolotovka", "state": "", "country": "RU", "coord": {"lon": 39.314701, "lat": 50.273682}}, {"id": 465984, "name": "Zabelino", "state": "", "country": "RU", "coord": {"lon": 41.155277, "lat": 54.991112}}, {"id": 466013, "name": "Yuzhnyy-Kospashskiy", "state": "", "country": "RU", "coord": {"lon": 57.75478, "lat": 58.969479}}, {"id": 466060, "name": "Yuzhno-Sukhokumsk", "state": "", "country": "RU", "coord": {"lon": 45.6436, "lat": 44.658112}}, {"id": 466084, "name": "Yuzha", "state": "", "country": "RU", "coord": {"lon": 42.012222, "lat": 56.583057}}, {"id": 466099, "name": "Yuva", "state": "", "country": "RU", "coord": {"lon": 57.9478, "lat": 56.436829}}, {"id": 466106, "name": "Yutsa", "state": "", "country": "RU", "coord": {"lon": 42.971111, "lat": 43.943062}}, {"id": 466135, "name": "Yusta", "state": "", "country": "RU", "coord": {"lon": 46.301601, "lat": 47.121101}}, {"id": 466200, "name": "Yuryuzan\u2019", "state": "", "country": "RU", "coord": {"lon": 58.42194, "lat": 54.863331}}, {"id": 466215, "name": "Yur\u2019yev-Pol\u2019skiy", "state": "", "country": "RU", "coord": {"lon": 39.683334, "lat": 56.5}}, {"id": 466230, "name": "Yur\u2019yevo", "state": "", "country": "RU", "coord": {"lon": 37.049999, "lat": 55.78611}}, {"id": 466232, "name": "Yur\u2019yevo", "state": "", "country": "RU", "coord": {"lon": 39.166668, "lat": 55.299999}}, {"id": 466258, "name": "Yur\u2019yevets", "state": "", "country": "RU", "coord": {"lon": 43.104099, "lat": 57.320068}}, {"id": 466272, "name": "Yury", "state": "", "country": "RU", "coord": {"lon": 32.130901, "lat": 54.360901}}, {"id": 466285, "name": "Yurtseva", "state": "", "country": "RU", "coord": {"lon": 38.683334, "lat": 56.283333}}, {"id": 466301, "name": "Yurovskiy", "state": "", "country": "RU", "coord": {"lon": 44.783333, "lat": 58.333332}}, {"id": 466303, "name": "Yurovo", "state": "", "country": "RU", "coord": {"lon": 43.829166, "lat": 57.506111}}, {"id": 466314, "name": "Yurovka", "state": "", "country": "RU", "coord": {"lon": 37.418819, "lat": 45.1147}}, {"id": 466341, "name": "Yurlovo", "state": "", "country": "RU", "coord": {"lon": 37.616669, "lat": 55.883331}}, {"id": 466349, "name": "Yurla", "state": "", "country": "RU", "coord": {"lon": 54.322338, "lat": 59.32589}}, {"id": 466423, "name": "Yurino", "state": "", "country": "RU", "coord": {"lon": 46.303921, "lat": 56.29417}}, {"id": 466448, "name": "Yurasovo", "state": "", "country": "RU", "coord": {"lon": 38.453056, "lat": 55.446945}}, {"id": 466470, "name": "Yupiter", "state": "", "country": "RU", "coord": {"lon": 39.831112, "lat": 46.221668}}, {"id": 466538, "name": "Yumaguzino", "state": "", "country": "RU", "coord": {"lon": 56.393291, "lat": 52.904121}}, {"id": 466637, "name": "Yuksary", "state": "", "country": "RU", "coord": {"lon": 47.0275, "lat": 56.315556}}, {"id": 466658, "name": "Yukhnov", "state": "", "country": "RU", "coord": {"lon": 35.229721, "lat": 54.744438}}, {"id": 466674, "name": "Yukamenskoye", "state": "", "country": "RU", "coord": {"lon": 52.24157, "lat": 57.886539}}, {"id": 466699, "name": "Yugo-Kamskiy", "state": "", "country": "RU", "coord": {"lon": 55.589439, "lat": 57.70528}}, {"id": 466710, "name": "Yuganets", "state": "", "country": "RU", "coord": {"lon": 43.23069, "lat": 56.250801}}, {"id": 466724, "name": "Yug", "state": "", "country": "RU", "coord": {"lon": 56.172001, "lat": 57.729301}}, {"id": 466740, "name": "Yudino", "state": "", "country": "RU", "coord": {"lon": 46.351391, "lat": 60.778057}}, {"id": 466748, "name": "Yudino", "state": "", "country": "RU", "coord": {"lon": 37.188889, "lat": 55.659721}}, {"id": 466798, "name": "Yubileynyy", "state": "", "country": "RU", "coord": {"lon": 57.777821, "lat": 58.781021}}, {"id": 466806, "name": "Yoshkar-Ola", "state": "", "country": "RU", "coord": {"lon": 47.890781, "lat": 56.638771}}, {"id": 466885, "name": "Yeysk", "state": "", "country": "RU", "coord": {"lon": 38.279167, "lat": 46.698891}}, {"id": 466989, "name": "Yessentukskaya", "state": "", "country": "RU", "coord": {"lon": 42.881302, "lat": 44.032799}}, {"id": 466990, "name": "Yessentuki", "state": "", "country": "RU", "coord": {"lon": 42.860561, "lat": 44.044441}}, {"id": 467023, "name": "Yesipovo", "state": "", "country": "RU", "coord": {"lon": 37.099998, "lat": 56.099998}}, {"id": 467029, "name": "Bol\u2019shoye Yesiplevo", "state": "", "country": "RU", "coord": {"lon": 46.462776, "lat": 60.900833}}, {"id": 467030, "name": "Yesiplevo", "state": "", "country": "RU", "coord": {"lon": 46.366669, "lat": 60.733334}}, {"id": 467037, "name": "Yesino", "state": "", "country": "RU", "coord": {"lon": 38.344723, "lat": 55.710278}}, {"id": 467084, "name": "Yertsevo", "state": "", "country": "RU", "coord": {"lon": 40.085999, "lat": 60.7966}}, {"id": 467103, "name": "Yershovo", "state": "", "country": "RU", "coord": {"lon": 46.849998, "lat": 56.400002}}, {"id": 467104, "name": "Yershovo", "state": "", "country": "RU", "coord": {"lon": 36.858055, "lat": 55.771111}}, {"id": 467120, "name": "Yershov", "state": "", "country": "RU", "coord": {"lon": 48.2766, "lat": 51.351299}}, {"id": 467134, "name": "Yershichi", "state": "", "country": "RU", "coord": {"lon": 32.754169, "lat": 53.672501}}, {"id": 467155, "name": "Yeropkino-Bol\u2019shak", "state": "", "country": "RU", "coord": {"lon": 36.302502, "lat": 52.751671}}, {"id": 467175, "name": "Yernitskiy Ostrov", "state": "", "country": "RU", "coord": {"lon": 35.166668, "lat": 61.983334}}, {"id": 467218, "name": "Yermolitsa", "state": "", "country": "RU", "coord": {"lon": 42.783333, "lat": 59.400002}}, {"id": 467235, "name": "Yermolino", "state": "", "country": "RU", "coord": {"lon": 37.5, "lat": 56.133331}}, {"id": 467238, "name": "Yermolino", "state": "", "country": "RU", "coord": {"lon": 36.595131, "lat": 55.194889}}, {"id": 467246, "name": "Yermolayevo", "state": "", "country": "RU", "coord": {"lon": 55.799999, "lat": 52.716671}}, {"id": 467252, "name": "Yermish\u2019", "state": "", "country": "RU", "coord": {"lon": 42.271111, "lat": 54.76778}}, {"id": 467260, "name": "Yermekeyevo", "state": "", "country": "RU", "coord": {"lon": 53.671249, "lat": 54.076141}}, {"id": 467315, "name": "Yerino", "state": "", "country": "RU", "coord": {"lon": 38.900002, "lat": 54.233334}}, {"id": 467323, "name": "Yerikovskiy", "state": "", "country": "RU", "coord": {"lon": 42.736111, "lat": 47.411667}}, {"id": 467330, "name": "Bol\u2019shoy Yermuchash", "state": "", "country": "RU", "coord": {"lon": 47.070278, "lat": 56.355831}}, {"id": 467375, "name": "Yer\u00ebmino", "state": "", "country": "RU", "coord": {"lon": 38.5, "lat": 56.116669}}, {"id": 467376, "name": "Yer\u00ebmino", "state": "", "country": "RU", "coord": {"lon": 37.540279, "lat": 56.008888}}, {"id": 467380, "name": "Yer\u00ebmino", "state": "", "country": "RU", "coord": {"lon": 49.666668, "lat": 51.766666}}, {"id": 467406, "name": "Yeremeyevo", "state": "", "country": "RU", "coord": {"lon": 37.023888, "lat": 55.94278}}, {"id": 467464, "name": "Yepifan\u2019", "state": "", "country": "RU", "coord": {"lon": 38.551811, "lat": 53.82526}}, {"id": 467479, "name": "Yenotayevka", "state": "", "country": "RU", "coord": {"lon": 47.028141, "lat": 47.24559}}, {"id": 467525, "name": "Yemva", "state": "", "country": "RU", "coord": {"lon": 50.85939, "lat": 62.589989}}, {"id": 467527, "name": "Yemtsa", "state": "", "country": "RU", "coord": {"lon": 40.332851, "lat": 63.073372}}, {"id": 467539, "name": "Yemetsk", "state": "", "country": "RU", "coord": {"lon": 41.794102, "lat": 63.472099}}, {"id": 467542, "name": "Yemeshevo", "state": "", "country": "RU", "coord": {"lon": 46.349167, "lat": 56.228058}}, {"id": 467565, "name": "Yemel\u2019yanovo", "state": "", "country": "RU", "coord": {"lon": 38.921112, "lat": 55.753613}}, {"id": 467629, "name": "Yelyaty", "state": "", "country": "RU", "coord": {"lon": 50.799999, "lat": 61.666672}}, {"id": 467711, "name": "Yelovo", "state": "", "country": "RU", "coord": {"lon": 54.9207, "lat": 57.05381}}, {"id": 467716, "name": "Yelovka", "state": "", "country": "RU", "coord": {"lon": 42.283333, "lat": 58.216667}}, {"id": 467727, "name": "Yelovaya Gora", "state": "", "country": "RU", "coord": {"lon": 32.366669, "lat": 64.183334}}, {"id": 467749, "name": "Yel\u2019nya", "state": "", "country": "RU", "coord": {"lon": 38.337776, "lat": 55.843887}}, {"id": 467753, "name": "Yel\u2019nya", "state": "", "country": "RU", "coord": {"lon": 33.183731, "lat": 54.57864}}, {"id": 467787, "name": "Y\u00eblkino", "state": "", "country": "RU", "coord": {"lon": 59.829109, "lat": 58.694}}, {"id": 467819, "name": "Yelkhovka", "state": "", "country": "RU", "coord": {"lon": 50.283192, "lat": 53.86668}}, {"id": 467850, "name": "Yelizavetinskoye", "state": "", "country": "RU", "coord": {"lon": 43.349442, "lat": 45.007221}}, {"id": 467854, "name": "Yelizavetinskaya", "state": "", "country": "RU", "coord": {"lon": 38.795799, "lat": 45.04446}}, {"id": 467856, "name": "Yelizavetino", "state": "", "country": "RU", "coord": {"lon": 29.79376, "lat": 59.49157}}, {"id": 467896, "name": "Yelizarovo", "state": "", "country": "RU", "coord": {"lon": 36.766666, "lat": 56.166668}}, {"id": 467934, "name": "Yelino", "state": "", "country": "RU", "coord": {"lon": 36.766666, "lat": 56.25}}, {"id": 467951, "name": "Yelgazino", "state": "", "country": "RU", "coord": {"lon": 37.866669, "lat": 55.416668}}, {"id": 467978, "name": "Yelets", "state": "", "country": "RU", "coord": {"lon": 38.50169, "lat": 52.623661}}, {"id": 468011, "name": "Yel\u2019digino", "state": "", "country": "RU", "coord": {"lon": 37.816666, "lat": 56.116669}}, {"id": 468030, "name": "Yelat\u2019ma", "state": "", "country": "RU", "coord": {"lon": 41.750832, "lat": 54.967499}}, {"id": 468042, "name": "Yelan\u2019-Kolenovskiy", "state": "", "country": "RU", "coord": {"lon": 41.151001, "lat": 51.1632}}, {"id": 468044, "name": "Yelan\u2019-Koleno", "state": "", "country": "RU", "coord": {"lon": 41.230598, "lat": 51.152302}}, {"id": 468063, "name": "Yelan\u2019", "state": "", "country": "RU", "coord": {"lon": 43.737808, "lat": 50.949001}}, {"id": 468082, "name": "Yelabuga", "state": "", "country": "RU", "coord": {"lon": 52.06493, "lat": 55.761269}}, {"id": 468091, "name": "Yekusha", "state": "", "country": "RU", "coord": {"lon": 52.966671, "lat": 67.666672}}, {"id": 468102, "name": "Yekimtsevo", "state": "", "country": "RU", "coord": {"lon": 42.333332, "lat": 59}}, {"id": 468116, "name": "Yekimovichi", "state": "", "country": "RU", "coord": {"lon": 33.296478, "lat": 54.11285}}, {"id": 468119, "name": "Yekimikha", "state": "", "country": "RU", "coord": {"lon": 42.433334, "lat": 59.883331}}, {"id": 468127, "name": "Yekaterinovka", "state": "", "country": "RU", "coord": {"lon": 37.383331, "lat": 55.766666}}, {"id": 468180, "name": "Yekaterinovka", "state": "", "country": "RU", "coord": {"lon": 44.34515, "lat": 52.050831}}, {"id": 468197, "name": "Yekaterinoslavskiy", "state": "", "country": "RU", "coord": {"lon": 40.168331, "lat": 45.342777}}, {"id": 468250, "name": "Yegor\u2019yevsk", "state": "", "country": "RU", "coord": {"lon": 39.041111, "lat": 55.378334}}, {"id": 468307, "name": "Yegorlykskaya", "state": "", "country": "RU", "coord": {"lon": 40.656212, "lat": 46.565639}}, {"id": 468345, "name": "Yeganovo", "state": "", "country": "RU", "coord": {"lon": 38.02972, "lat": 55.535}}, {"id": 468364, "name": "Yefremovskaya", "state": "", "country": "RU", "coord": {"lon": 38.984165, "lat": 55.422779}}, {"id": 468390, "name": "Yefremov", "state": "", "country": "RU", "coord": {"lon": 38.099239, "lat": 53.14806}}, {"id": 468397, "name": "Yefino", "state": "", "country": "RU", "coord": {"lon": 43.671665, "lat": 57.746113}}, {"id": 468401, "name": "Yefim\u2019yevo", "state": "", "country": "RU", "coord": {"lon": 36.099998, "lat": 56.150002}}, {"id": 468418, "name": "Yefimovo", "state": "", "country": "RU", "coord": {"lon": 44.75, "lat": 58.299999}}, {"id": 468424, "name": "Yefimovka", "state": "", "country": "RU", "coord": {"lon": 37.228889, "lat": 55.231945}}, {"id": 468454, "name": "Yednevo", "state": "", "country": "RU", "coord": {"lon": 36.233334, "lat": 56.099998}}, {"id": 468479, "name": "Yazykovo", "state": "", "country": "RU", "coord": {"lon": 37.349998, "lat": 56.23333}}, {"id": 468483, "name": "Yazykovo", "state": "", "country": "RU", "coord": {"lon": 56.135319, "lat": 55.219879}}, {"id": 468486, "name": "Yazykovo", "state": "", "country": "RU", "coord": {"lon": 47.389099, "lat": 54.292198}}, {"id": 468560, "name": "Yayva", "state": "", "country": "RU", "coord": {"lon": 57.26408, "lat": 59.33033}}, {"id": 468587, "name": "Yavas", "state": "", "country": "RU", "coord": {"lon": 42.849098, "lat": 54.415901}}, {"id": 468632, "name": "Yastrebki", "state": "", "country": "RU", "coord": {"lon": 36.764721, "lat": 55.671944}}, {"id": 468657, "name": "Yasnyy", "state": "", "country": "RU", "coord": {"lon": 59.874199, "lat": 51.033298}}, {"id": 468671, "name": "Yasnogorsk", "state": "", "country": "RU", "coord": {"lon": 37.697498, "lat": 54.480278}}, {"id": 468682, "name": "Yasnaya Polyana", "state": "", "country": "RU", "coord": {"lon": 42.216667, "lat": 59.666668}}, {"id": 468691, "name": "Yasnaya Polyana", "state": "", "country": "RU", "coord": {"lon": 37.527779, "lat": 54.071388}}, {"id": 468747, "name": "Yashkul\u2019", "state": "", "country": "RU", "coord": {"lon": 45.343498, "lat": 46.171101}}, {"id": 468776, "name": "Yashalta", "state": "", "country": "RU", "coord": {"lon": 42.276199, "lat": 46.3395}}, {"id": 468782, "name": "Yasenskaya", "state": "", "country": "RU", "coord": {"lon": 38.269001, "lat": 46.3592}}, {"id": 468799, "name": "Yasennaya", "state": "", "country": "RU", "coord": {"lon": 31.966667, "lat": 54.766666}}, {"id": 468859, "name": "Yartsevo", "state": "", "country": "RU", "coord": {"lon": 43.833332, "lat": 57.900002}}, {"id": 468866, "name": "Yartsevo", "state": "", "country": "RU", "coord": {"lon": 32.696388, "lat": 55.066669}}, {"id": 468867, "name": "Yartsevo", "state": "", "country": "RU", "coord": {"lon": 32.666672, "lat": 55.066669}}, {"id": 468898, "name": "Yaroslavskaya Oblast\u2019", "state": "", "country": "RU", "coord": {"lon": 39.5, "lat": 58}}, {"id": 468899, "name": "Yaroslavskaya", "state": "", "country": "RU", "coord": {"lon": 40.464169, "lat": 44.610561}}, {"id": 468902, "name": "Yaroslavl", "state": "", "country": "RU", "coord": {"lon": 39.873676, "lat": 57.629871}}, {"id": 468927, "name": "Yaropolets", "state": "", "country": "RU", "coord": {"lon": 35.833172, "lat": 56.133331}}, {"id": 468983, "name": "Yarensk", "state": "", "country": "RU", "coord": {"lon": 49.091621, "lat": 62.167549}}, {"id": 468991, "name": "Yarega", "state": "", "country": "RU", "coord": {"lon": 53.5765, "lat": 63.435429}}, {"id": 469005, "name": "Yaransk", "state": "", "country": "RU", "coord": {"lon": 47.886108, "lat": 57.30331}}, {"id": 469017, "name": "Yar", "state": "", "country": "RU", "coord": {"lon": 52.102581, "lat": 58.248981}}, {"id": 469049, "name": "Yantikovo", "state": "", "country": "RU", "coord": {"lon": 47.910358, "lat": 55.821579}}, {"id": 469050, "name": "Yantikovo", "state": "", "country": "RU", "coord": {"lon": 47.77927, "lat": 55.52103}}, {"id": 469081, "name": "Yanis\u2019yarvi", "state": "", "country": "RU", "coord": {"lon": 30.950001, "lat": 61.883331}}, {"id": 469083, "name": "Yanishpole", "state": "", "country": "RU", "coord": {"lon": 34.27562, "lat": 62.11467}}, {"id": 469087, "name": "Yanino-2", "state": "", "country": "RU", "coord": {"lon": 30.615339, "lat": 59.935501}}, {"id": 469151, "name": "Yandyki", "state": "", "country": "RU", "coord": {"lon": 47.125771, "lat": 45.769131}}, {"id": 469178, "name": "Yanaul", "state": "", "country": "RU", "coord": {"lon": 54.930859, "lat": 56.2719}}, {"id": 469181, "name": "Yanaul", "state": "", "country": "RU", "coord": {"lon": 53.683331, "lat": 55.75}}, {"id": 469186, "name": "Novaya Maka", "state": "", "country": "RU", "coord": {"lon": 48.361488, "lat": 41.771729}}, {"id": 469252, "name": "Yamnovo", "state": "", "country": "RU", "coord": {"lon": 44.552776, "lat": 56.248333}}, {"id": 469274, "name": "Yamkino", "state": "", "country": "RU", "coord": {"lon": 29.30879, "lat": 57.904831}}, {"id": 469275, "name": "Yamkino", "state": "", "country": "RU", "coord": {"lon": 38.403889, "lat": 55.928055}}, {"id": 469341, "name": "Yam", "state": "", "country": "RU", "coord": {"lon": 37.749168, "lat": 55.484444}}, {"id": 469372, "name": "Yalkhoy-Mokhk", "state": "", "country": "RU", "coord": {"lon": 46.190449, "lat": 43.105282}}, {"id": 469396, "name": "Yal\u2019chiki", "state": "", "country": "RU", "coord": {"lon": 48.0014, "lat": 55.163151}}, {"id": 469460, "name": "Kzyl-Aul", "state": "", "country": "RU", "coord": {"lon": 42.539722, "lat": 48.553333}}, {"id": 469473, "name": "Yakshur", "state": "", "country": "RU", "coord": {"lon": 53.435879, "lat": 56.887699}}, {"id": 469512, "name": "Yaksatovo", "state": "", "country": "RU", "coord": {"lon": 48.015141, "lat": 46.24342}}, {"id": 469533, "name": "Yakovlevskoye", "state": "", "country": "RU", "coord": {"lon": 37.950558, "lat": 55.441944}}, {"id": 469542, "name": "Yakovlevskaya", "state": "", "country": "RU", "coord": {"lon": 38.786388, "lat": 55.574165}}, {"id": 469544, "name": "Yakovlevo", "state": "", "country": "RU", "coord": {"lon": 29.488001, "lat": 60.29409}}, {"id": 469550, "name": "Yakovlevo", "state": "", "country": "RU", "coord": {"lon": 40.866669, "lat": 56.799999}}, {"id": 469577, "name": "Yakovlevo", "state": "", "country": "RU", "coord": {"lon": 36.447842, "lat": 50.860329}}, {"id": 469602, "name": "Yakovka", "state": "", "country": "RU", "coord": {"lon": 35.846939, "lat": 52.8325}}, {"id": 469633, "name": "Yakimovo", "state": "", "country": "RU", "coord": {"lon": 43.643333, "lat": 57.849167}}, {"id": 469635, "name": "Yakimovo", "state": "", "country": "RU", "coord": {"lon": 38.366669, "lat": 56.016666}}, {"id": 469646, "name": "Yakimanskaya Sloboda", "state": "", "country": "RU", "coord": {"lon": 42.049999, "lat": 55.583332}}, {"id": 469655, "name": "Yakhroma", "state": "", "country": "RU", "coord": {"lon": 37.48333, "lat": 56.299999}}, {"id": 469671, "name": "Yakhino", "state": "", "country": "RU", "coord": {"lon": 31.89249, "lat": 56.460629}}, {"id": 469678, "name": "Yaitskiy", "state": "", "country": "RU", "coord": {"lon": 50.183331, "lat": 53.099998}}, {"id": 469753, "name": "Yagodnaya", "state": "", "country": "RU", "coord": {"lon": 49.049999, "lat": 55.816666}}, {"id": 469809, "name": "Yadrin", "state": "", "country": "RU", "coord": {"lon": 46.206219, "lat": 55.940521}}, {"id": 469844, "name": "Yablonovskiy", "state": "", "country": "RU", "coord": {"lon": 38.943241, "lat": 44.98901}}, {"id": 469856, "name": "Yablonovka", "state": "", "country": "RU", "coord": {"lon": 30.454445, "lat": 59.93222}}, {"id": 469864, "name": "Yablono-Bukin", "state": "", "country": "RU", "coord": {"lon": 50.033333, "lat": 51.666668}}, {"id": 469900, "name": "Yabedino", "state": "", "country": "RU", "coord": {"lon": 36.790489, "lat": 55.90477}}, {"id": 469933, "name": "Vyyezdnoye", "state": "", "country": "RU", "coord": {"lon": 43.786381, "lat": 55.381538}}, {"id": 469960, "name": "Vytegra", "state": "", "country": "RU", "coord": {"lon": 36.448109, "lat": 61.006359}}, {"id": 469991, "name": "Vysotskoye", "state": "", "country": "RU", "coord": {"lon": 42.906391, "lat": 45.025002}}, {"id": 469995, "name": "Vysotsk", "state": "", "country": "RU", "coord": {"lon": 28.57048, "lat": 60.628792}}, {"id": 470012, "name": "Vysokovo", "state": "", "country": "RU", "coord": {"lon": 44.02306, "lat": 56.310001}}, {"id": 470042, "name": "Vysokovo", "state": "", "country": "RU", "coord": {"lon": 37.180557, "lat": 55.103611}}, {"id": 470083, "name": "Vysokovsk", "state": "", "country": "RU", "coord": {"lon": 36.549999, "lat": 56.316669}}, {"id": 470118, "name": "Vysokovo", "state": "", "country": "RU", "coord": {"lon": 43.895279, "lat": 57.38028}}, {"id": 470128, "name": "Vysokovo", "state": "", "country": "RU", "coord": {"lon": 42.400002, "lat": 56.766666}}, {"id": 470135, "name": "Vysokovo", "state": "", "country": "RU", "coord": {"lon": 36.200001, "lat": 56.383331}}, {"id": 470142, "name": "Vysokovo", "state": "", "country": "RU", "coord": {"lon": 36.930557, "lat": 55.906944}}, {"id": 470144, "name": "Vysokovo", "state": "", "country": "RU", "coord": {"lon": 38.466946, "lat": 55.801945}}, {"id": 470148, "name": "Vysokovo", "state": "", "country": "RU", "coord": {"lon": 41.933334, "lat": 55.349998}}, {"id": 470151, "name": "Vysokova", "state": "", "country": "RU", "coord": {"lon": 42.166668, "lat": 58.116669}}, {"id": 470212, "name": "Vysokaya Gora", "state": "", "country": "RU", "coord": {"lon": 49.30167, "lat": 55.912781}}, {"id": 470218, "name": "Vysokaya", "state": "", "country": "RU", "coord": {"lon": 43.866943, "lat": 60.189999}}, {"id": 470252, "name": "Vyshniy Voloch\u00ebk", "state": "", "country": "RU", "coord": {"lon": 34.564529, "lat": 57.591251}}, {"id": 470268, "name": "Vyshneye Dolgoye", "state": "", "country": "RU", "coord": {"lon": 37.405182, "lat": 52.063019}}, {"id": 470274, "name": "Vyshkov", "state": "", "country": "RU", "coord": {"lon": 31.6873, "lat": 52.476398}}, {"id": 470299, "name": "Vyshegorod", "state": "", "country": "RU", "coord": {"lon": 36.181389, "lat": 55.238056}}, {"id": 470304, "name": "Vysha", "state": "", "country": "RU", "coord": {"lon": 42.377659, "lat": 53.847679}}, {"id": 470338, "name": "Vyselki", "state": "", "country": "RU", "coord": {"lon": 39.659721, "lat": 45.579445}}, {"id": 470346, "name": "Vyrypayevka", "state": "", "country": "RU", "coord": {"lon": 47.033333, "lat": 54.116669}}, {"id": 470368, "name": "Vyritsa", "state": "", "country": "RU", "coord": {"lon": 30.348061, "lat": 59.40778}}, {"id": 470390, "name": "Vypolzovo", "state": "", "country": "RU", "coord": {"lon": 33.698608, "lat": 57.876671}}, {"id": 470400, "name": "Vypolzovo", "state": "", "country": "RU", "coord": {"lon": 40.182499, "lat": 54.526112}}, {"id": 470437, "name": "Vyl\u2019gort", "state": "", "country": "RU", "coord": {"lon": 50.757301, "lat": 61.622829}}, {"id": 470444, "name": "Vyksa", "state": "", "country": "RU", "coord": {"lon": 42.174438, "lat": 55.317501}}, {"id": 470451, "name": "Vykhino-Zhulebino", "state": "", "country": "RU", "coord": {"lon": 37.821945, "lat": 55.701389}}, {"id": 470473, "name": "Vygonichi", "state": "", "country": "RU", "coord": {"lon": 34.06728, "lat": 53.098549}}, {"id": 470494, "name": "Vydumki", "state": "", "country": "RU", "coord": {"lon": 37.318699, "lat": 54.726643}}, {"id": 470499, "name": "Vydropuzhsk", "state": "", "country": "RU", "coord": {"lon": 34.842869, "lat": 57.3647}}, {"id": 470530, "name": "Vychegodskiy", "state": "", "country": "RU", "coord": {"lon": 46.898418, "lat": 61.247021}}, {"id": 470546, "name": "Vyborg", "state": "", "country": "RU", "coord": {"lon": 28.752831, "lat": 60.70763}}, {"id": 470549, "name": "Vybor", "state": "", "country": "RU", "coord": {"lon": 29.1663, "lat": 57.227161}}, {"id": 470566, "name": "Vyazovskoye", "state": "", "country": "RU", "coord": {"lon": 41.086666, "lat": 57.180832}}, {"id": 470653, "name": "Vyazovaya", "state": "", "country": "RU", "coord": {"lon": 58.35611, "lat": 54.904999}}, {"id": 470666, "name": "Vyazniki", "state": "", "country": "RU", "coord": {"lon": 42.166672, "lat": 56.25}}, {"id": 470676, "name": "Vyaz\u2019ma", "state": "", "country": "RU", "coord": {"lon": 34.295078, "lat": 55.210388}}, {"id": 470734, "name": "Vyatskiye Polyany", "state": "", "country": "RU", "coord": {"lon": 51.065571, "lat": 56.226021}}, {"id": 470743, "name": "Vyatkino", "state": "", "country": "RU", "coord": {"lon": 37.361668, "lat": 55.264721}}, {"id": 470762, "name": "Vyartsilya", "state": "", "country": "RU", "coord": {"lon": 30.692961, "lat": 62.176449}}, {"id": 470782, "name": "Vyalovskaya", "state": "", "country": "RU", "coord": {"lon": 43.650002, "lat": 56.599998}}, {"id": 470783, "name": "Vyal\u2019kovo", "state": "", "country": "RU", "coord": {"lon": 37.837223, "lat": 55.473888}}, {"id": 470817, "name": "Vvedenskoye", "state": "", "country": "RU", "coord": {"lon": 35.636551, "lat": 56.375381}}, {"id": 470819, "name": "Vvedenskoye", "state": "", "country": "RU", "coord": {"lon": 36.894444, "lat": 55.695278}}, {"id": 470820, "name": "Vvedenskoye", "state": "", "country": "RU", "coord": {"lon": 38.013332, "lat": 55.285557}}, {"id": 470845, "name": "Vurnary", "state": "", "country": "RU", "coord": {"lon": 46.96479, "lat": 55.49044}}, {"id": 470905, "name": "Vuktyl", "state": "", "country": "RU", "coord": {"lon": 57.309441, "lat": 63.85667}}, {"id": 471101, "name": "Vsevolozhsk", "state": "", "country": "RU", "coord": {"lon": 30.637159, "lat": 60.020432}}, {"id": 471141, "name": "Vozy", "state": "", "country": "RU", "coord": {"lon": 36.279999, "lat": 52.184719}}, {"id": 471153, "name": "Belyy", "state": "", "country": "RU", "coord": {"lon": 37.259998, "lat": 45.169998}}, {"id": 471160, "name": "Voznesen\u2019ye", "state": "", "country": "RU", "coord": {"lon": 35.47813, "lat": 61.010601}}, {"id": 471172, "name": "Voznesenskoye", "state": "", "country": "RU", "coord": {"lon": 42.756939, "lat": 54.889999}}, {"id": 471188, "name": "Voznesenskaya", "state": "", "country": "RU", "coord": {"lon": 41.031799, "lat": 44.5527}}, {"id": 471189, "name": "Voznesenskaya", "state": "", "country": "RU", "coord": {"lon": 44.745831, "lat": 43.541672}}, {"id": 471245, "name": "Vozhega", "state": "", "country": "RU", "coord": {"lon": 40.22134, "lat": 60.472462}}, {"id": 471271, "name": "Vozdvizhenskoye", "state": "", "country": "RU", "coord": {"lon": 36.283333, "lat": 56.383331}}, {"id": 471291, "name": "Vozdvizhenka", "state": "", "country": "RU", "coord": {"lon": 56.428612, "lat": 51.754719}}, {"id": 471308, "name": "Voyvozh", "state": "", "country": "RU", "coord": {"lon": 54.963459, "lat": 62.891979}}, {"id": 471312, "name": "Voyutino", "state": "", "country": "RU", "coord": {"lon": 41.833332, "lat": 55.25}}, {"id": 471323, "name": "Voyskovitsy", "state": "", "country": "RU", "coord": {"lon": 29.963961, "lat": 59.528671}}, {"id": 471329, "name": "Voynyukovo", "state": "", "country": "RU", "coord": {"lon": 39.455276, "lat": 54.702778}}, {"id": 471418, "name": "Votrya", "state": "", "country": "RU", "coord": {"lon": 37.533329, "lat": 56.566669}}, {"id": 471430, "name": "Votkinsk", "state": "", "country": "RU", "coord": {"lon": 53.987171, "lat": 57.048649}}, {"id": 471457, "name": "Vostryakovo", "state": "", "country": "RU", "coord": {"lon": 37.811111, "lat": 55.400555}}, {"id": 471461, "name": "Vostroye", "state": "", "country": "RU", "coord": {"lon": 44.922779, "lat": 60.539444}}, {"id": 471499, "name": "Vostochnyy", "state": "", "country": "RU", "coord": {"lon": 52.245129, "lat": 58.788109}}, {"id": 471501, "name": "Vostochnyy", "state": "", "country": "RU", "coord": {"lon": 37.866669, "lat": 55.816666}}, {"id": 471512, "name": "Vostochnyy", "state": "", "country": "RU", "coord": {"lon": 42.666672, "lat": 50.51667}}, {"id": 471573, "name": "Voskresen\u2019ye", "state": "", "country": "RU", "coord": {"lon": 31.483334, "lat": 54.566666}}, {"id": 471607, "name": "Voskresenskoye", "state": "", "country": "RU", "coord": {"lon": 45.431671, "lat": 56.838058}}, {"id": 471616, "name": "Voskresenskoye", "state": "", "country": "RU", "coord": {"lon": 39.099998, "lat": 55.966667}}, {"id": 471617, "name": "Voskresenskoye", "state": "", "country": "RU", "coord": {"lon": 38.302776, "lat": 55.924442}}, {"id": 471620, "name": "Voskresenskoye", "state": "", "country": "RU", "coord": {"lon": 38.05389, "lat": 55.425556}}, {"id": 471633, "name": "Voskresenskoye", "state": "", "country": "RU", "coord": {"lon": 56.146641, "lat": 53.12336}}, {"id": 471639, "name": "Voskresenskoye", "state": "", "country": "RU", "coord": {"lon": 46.935081, "lat": 51.82478}}, {"id": 471656, "name": "Voskresensk", "state": "", "country": "RU", "coord": {"lon": 38.663612, "lat": 55.3125}}, {"id": 471659, "name": "Voskresenovka", "state": "", "country": "RU", "coord": {"lon": 40.799999, "lat": 54.533333}}, {"id": 471667, "name": "Voskresenki", "state": "", "country": "RU", "coord": {"lon": 37.433334, "lat": 55.966667}}, {"id": 471748, "name": "Vorya-Bogorodskoye", "state": "", "country": "RU", "coord": {"lon": 38.166668, "lat": 56.049999}}, {"id": 471760, "name": "Vorsma", "state": "", "country": "RU", "coord": {"lon": 43.271671, "lat": 55.985561}}, {"id": 471786, "name": "Vorovo", "state": "", "country": "RU", "coord": {"lon": 39.583332, "lat": 55.333332}}, {"id": 471799, "name": "Vorotynets", "state": "", "country": "RU", "coord": {"lon": 45.8633, "lat": 56.06028}}, {"id": 471812, "name": "Vorotishna", "state": "", "country": "RU", "coord": {"lon": 42.456944, "lat": 59.540833}}, {"id": 471820, "name": "Voroshn\u00ebvo", "state": "", "country": "RU", "coord": {"lon": 36.01722, "lat": 51.652779}}, {"id": 471855, "name": "Voron\u2019y\u00eb", "state": "", "country": "RU", "coord": {"lon": 42.004166, "lat": 58.00222}}, {"id": 471877, "name": "Vorontsovskaya", "state": "", "country": "RU", "coord": {"lon": 38.737671, "lat": 45.221321}}, {"id": 471880, "name": "Vorontsovo", "state": "", "country": "RU", "coord": {"lon": 37.531113, "lat": 55.671665}}, {"id": 471887, "name": "Vorontsovo", "state": "", "country": "RU", "coord": {"lon": 37.233334, "lat": 57.016666}}, {"id": 471889, "name": "Vorontsovo", "state": "", "country": "RU", "coord": {"lon": 38.049999, "lat": 56.333332}}, {"id": 471909, "name": "Vorontsovka", "state": "", "country": "RU", "coord": {"lon": 40.3549, "lat": 50.613201}}, {"id": 471911, "name": "Vorontsovka", "state": "", "country": "RU", "coord": {"lon": 39.912777, "lat": 43.615276}}, {"id": 471938, "name": "Voronovo", "state": "", "country": "RU", "coord": {"lon": 37.700001, "lat": 56.366669}}, {"id": 471939, "name": "Voronovo", "state": "", "country": "RU", "coord": {"lon": 38.580276, "lat": 55.598888}}, {"id": 471971, "name": "Voronki", "state": "", "country": "RU", "coord": {"lon": 37.270557, "lat": 55.794998}}, {"id": 471980, "name": "Voroniy Ostrov", "state": "", "country": "RU", "coord": {"lon": 35.5, "lat": 62.183334}}, {"id": 472026, "name": "Voronikha", "state": "", "country": "RU", "coord": {"lon": 41.427776, "lat": 56.522499}}, {"id": 472039, "name": "Voronezhskaya Oblast\u2019", "state": "", "country": "RU", "coord": {"lon": 40.5, "lat": 51}}, {"id": 472041, "name": "Voronezhskaya", "state": "", "country": "RU", "coord": {"lon": 39.566666, "lat": 45.210556}}, {"id": 472045, "name": "Voronezh", "state": "", "country": "RU", "coord": {"lon": 39.169998, "lat": 51.666389}}, {"id": 472046, "name": "Voronety", "state": "", "country": "RU", "coord": {"lon": 35.299999, "lat": 54.075832}}, {"id": 472061, "name": "Vorokhobino", "state": "", "country": "RU", "coord": {"lon": 37.966667, "lat": 56.316666}}, {"id": 472079, "name": "Vorob\u2019yovo", "state": "", "country": "RU", "coord": {"lon": 37.533333, "lat": 55.716667}}, {"id": 472088, "name": "Vorob\u2019y\u00ebvo", "state": "", "country": "RU", "coord": {"lon": 36.966667, "lat": 56.299999}}, {"id": 472113, "name": "Vorob\u2019y\u00ebvka", "state": "", "country": "RU", "coord": {"lon": 40.926998, "lat": 50.641701}}, {"id": 472152, "name": "Vorlygino", "state": "", "country": "RU", "coord": {"lon": 42.700001, "lat": 59.983334}}, {"id": 472200, "name": "Von\u2019giozero", "state": "", "country": "RU", "coord": {"lon": 33.066666, "lat": 64.616669}}, {"id": 472210, "name": "Vondokur\u2019ye", "state": "", "country": "RU", "coord": {"lon": 46.599998, "lat": 61.233334}}, {"id": 472214, "name": "Vonda", "state": "", "country": "RU", "coord": {"lon": 53.866669, "lat": 67.083328}}, {"id": 472229, "name": "Volzhskiy", "state": "", "country": "RU", "coord": {"lon": 50.133331, "lat": 53.433331}}, {"id": 472231, "name": "Volzhskiy", "state": "", "country": "RU", "coord": {"lon": 44.779732, "lat": 48.785831}}, {"id": 472234, "name": "Volzhsk", "state": "", "country": "RU", "coord": {"lon": 48.359402, "lat": 55.866379}}, {"id": 472271, "name": "Volya", "state": "", "country": "RU", "coord": {"lon": 39.540401, "lat": 51.765099}}, {"id": 472278, "name": "Vol\u2019sk", "state": "", "country": "RU", "coord": {"lon": 47.383331, "lat": 52.033329}}, {"id": 472306, "name": "Volovo", "state": "", "country": "RU", "coord": {"lon": 37.885399, "lat": 52.026588}}, {"id": 472308, "name": "Volovnikovo", "state": "", "country": "RU", "coord": {"lon": 36.366669, "lat": 56.433334}}, {"id": 472328, "name": "Volot", "state": "", "country": "RU", "coord": {"lon": 30.702499, "lat": 57.92778}}, {"id": 472357, "name": "Volosovo", "state": "", "country": "RU", "coord": {"lon": 29.48333, "lat": 59.433331}}, {"id": 472363, "name": "Volosovo", "state": "", "country": "RU", "coord": {"lon": 37.43861, "lat": 55.070278}}, {"id": 472387, "name": "Voloshka", "state": "", "country": "RU", "coord": {"lon": 40.085831, "lat": 61.33139}}, {"id": 472391, "name": "Voloshino", "state": "", "country": "RU", "coord": {"lon": 39.934849, "lat": 48.92218}}, {"id": 472425, "name": "Senozhat\u2019", "state": "", "country": "RU", "coord": {"lon": 36.25296, "lat": 52.997929}}, {"id": 472428, "name": "Volokonovka", "state": "", "country": "RU", "coord": {"lon": 37.8563, "lat": 50.4827}}, {"id": 472430, "name": "Volokolamskiy Rayon", "state": "", "country": "RU", "coord": {"lon": 35.992481, "lat": 56.08886}}, {"id": 472431, "name": "Volokolamets", "state": "", "country": "RU", "coord": {"lon": 35.93911, "lat": 56.019463}}, {"id": 472433, "name": "Volokolamsk", "state": "", "country": "RU", "coord": {"lon": 35.96944, "lat": 56.033611}}, {"id": 472452, "name": "Vologodsko-Yamskaya Sloboda", "state": "", "country": "RU", "coord": {"lon": 30.316668, "lat": 59.866669}}, {"id": 472454, "name": "Vologodskaya Oblast\u2019", "state": "", "country": "RU", "coord": {"lon": 42, "lat": 60}}, {"id": 472459, "name": "Vologda", "state": "", "country": "RU", "coord": {"lon": 39.888599, "lat": 59.2187}}, {"id": 472464, "name": "Volodinskiy", "state": "", "country": "RU", "coord": {"lon": 43.216667, "lat": 48.700001}}, {"id": 472471, "name": "Volodino", "state": "", "country": "RU", "coord": {"lon": 39.349998, "lat": 56.150002}}, {"id": 472490, "name": "Volodarskiy", "state": "", "country": "RU", "coord": {"lon": 48.540932, "lat": 46.40134}}, {"id": 472494, "name": "Volodarsk", "state": "", "country": "RU", "coord": {"lon": 43.186111, "lat": 56.226109}}, {"id": 472556, "name": "Vol\u2019nost\u2019", "state": "", "country": "RU", "coord": {"lon": 41.582779, "lat": 44.773335}}, {"id": 472625, "name": "Volkovo", "state": "", "country": "RU", "coord": {"lon": 30.364445, "lat": 59.898056}}, {"id": 472650, "name": "Volkovo", "state": "", "country": "RU", "coord": {"lon": 35.737892, "lat": 56.315014}}, {"id": 472663, "name": "Volkovo", "state": "", "country": "RU", "coord": {"lon": 37.394272, "lat": 54.855629}}, {"id": 472684, "name": "Volkovichi", "state": "", "country": "RU", "coord": {"lon": 37.299915, "lat": 54.802986}}, {"id": 472714, "name": "Volkhovskiy", "state": "", "country": "RU", "coord": {"lon": 31.31641, "lat": 58.580002}}, {"id": 472722, "name": "Volkhov", "state": "", "country": "RU", "coord": {"lon": 32.338188, "lat": 59.9258}}, {"id": 472732, "name": "Nagornyy", "state": "", "country": "RU", "coord": {"lon": 37.616669, "lat": 55.650002}}, {"id": 472743, "name": "Volgusha", "state": "", "country": "RU", "coord": {"lon": 37.349998, "lat": 56.233334}}, {"id": 472750, "name": "Volgorechensk", "state": "", "country": "RU", "coord": {"lon": 41.155529, "lat": 57.439308}}, {"id": 472751, "name": "Volgo-Kaspiyskiy", "state": "", "country": "RU", "coord": {"lon": 47.91869, "lat": 46.20306}}, {"id": 472755, "name": "Volgogradskaya Oblast\u2019", "state": "", "country": "RU", "coord": {"lon": 44, "lat": 49}}, {"id": 472757, "name": "Volgograd", "state": "", "country": "RU", "coord": {"lon": 44.501839, "lat": 48.719391}}, {"id": 472761, "name": "Volgodonsk", "state": "", "country": "RU", "coord": {"lon": 42.15139, "lat": 47.513611}}, {"id": 472777, "name": "Volga", "state": "", "country": "RU", "coord": {"lon": 38.387852, "lat": 57.951569}}, {"id": 472794, "name": "Voldynskoye", "state": "", "country": "RU", "coord": {"lon": 37.483334, "lat": 56.333332}}, {"id": 472795, "name": "Voldyn\u2019", "state": "", "country": "RU", "coord": {"lon": 37.316666, "lat": 56.733334}}, {"id": 472863, "name": "Vokzal\u2019nyye Vyselki", "state": "", "country": "RU", "coord": {"lon": 36.900002, "lat": 52.900002}}, {"id": 472871, "name": "Voknavolok", "state": "", "country": "RU", "coord": {"lon": 30.549999, "lat": 64.949997}}, {"id": 472878, "name": "Vokhtoga", "state": "", "country": "RU", "coord": {"lon": 41.046108, "lat": 58.81472}}, {"id": 472880, "name": "Vokhrinka", "state": "", "country": "RU", "coord": {"lon": 38.291389, "lat": 55.408054}}, {"id": 472887, "name": "Vokhma", "state": "", "country": "RU", "coord": {"lon": 46.758591, "lat": 58.930302}}, {"id": 472900, "name": "Voinova Gora", "state": "", "country": "RU", "coord": {"lon": 39.049999, "lat": 55.833332}}, {"id": 472942, "name": "Vodstroy", "state": "", "country": "RU", "coord": {"lon": 44.55793, "lat": 48.841648}}, {"id": 472961, "name": "Yutsa", "state": "", "country": "RU", "coord": {"lon": 43.012779, "lat": 43.95639}}, {"id": 472976, "name": "Vodnyy", "state": "", "country": "RU", "coord": {"lon": 53.40947, "lat": 63.504639}}, {"id": 472982, "name": "Vodniki", "state": "", "country": "RU", "coord": {"lon": 37.5, "lat": 55.966667}}, {"id": 473020, "name": "Vnukovo", "state": "", "country": "RU", "coord": {"lon": 37.265835, "lat": 55.644722}}, {"id": 473021, "name": "Vnukovo", "state": "", "country": "RU", "coord": {"lon": 37.219166, "lat": 55.615002}}, {"id": 473022, "name": "Vnukovo", "state": "", "country": "RU", "coord": {"lon": 38.919167, "lat": 55.462502}}, {"id": 473051, "name": "Vlas\u2019yevo", "state": "", "country": "RU", "coord": {"lon": 37.379444, "lat": 55.460278}}, {"id": 473083, "name": "Vlasovo", "state": "", "country": "RU", "coord": {"lon": 35.910252, "lat": 56.229389}}, {"id": 473085, "name": "Vlasovo", "state": "", "country": "RU", "coord": {"lon": 38.561668, "lat": 55.702778}}, {"id": 473087, "name": "Vlasovo", "state": "", "country": "RU", "coord": {"lon": 38.158333, "lat": 55.670555}}, {"id": 473119, "name": "Vlaski", "state": "", "country": "RU", "coord": {"lon": 33.495281, "lat": 58.75444}}, {"id": 473142, "name": "Vladychino Novoye", "state": "", "country": "RU", "coord": {"lon": 37.833332, "lat": 55.75}}, {"id": 473157, "name": "Vladimirskiy Pos\u00eblok", "state": "", "country": "RU", "coord": {"lon": 37.780834, "lat": 55.761944}}, {"id": 473166, "name": "Vladimirskaya", "state": "", "country": "RU", "coord": {"lon": 40.793301, "lat": 44.545502}}, {"id": 473223, "name": "Vladimirovka", "state": "", "country": "RU", "coord": {"lon": 48.616669, "lat": 52.066666}}, {"id": 473236, "name": "Vladimirovka", "state": "", "country": "RU", "coord": {"lon": 37.676945, "lat": 44.788612}}, {"id": 473247, "name": "Vladimir", "state": "", "country": "RU", "coord": {"lon": 40.39658, "lat": 56.136551}}, {"id": 473249, "name": "Vladikavkaz", "state": "", "country": "RU", "coord": {"lon": 44.667782, "lat": 43.036671}}, {"id": 473263, "name": "Vizinga", "state": "", "country": "RU", "coord": {"lon": 50.103111, "lat": 61.074928}}, {"id": 473265, "name": "Vizim\u201dyary", "state": "", "country": "RU", "coord": {"lon": 46.941944, "lat": 56.43861}}, {"id": 473295, "name": "Vityazevo", "state": "", "country": "RU", "coord": {"lon": 37.271942, "lat": 44.993057}}, {"id": 473325, "name": "Viten\u00ebvo", "state": "", "country": "RU", "coord": {"lon": 37.683334, "lat": 56.049999}}, {"id": 473349, "name": "Vistino", "state": "", "country": "RU", "coord": {"lon": 28.481569, "lat": 59.780289}}, {"id": 473353, "name": "Vislyy Bor", "state": "", "country": "RU", "coord": {"lon": 41.81139, "lat": 53.665558}}, {"id": 473378, "name": "Visim", "state": "", "country": "RU", "coord": {"lon": 59.5014, "lat": 57.6488}}, {"id": 473382, "name": "Vishnyakovskiye Dachi", "state": "", "country": "RU", "coord": {"lon": 38.134441, "lat": 55.761391}}, {"id": 473387, "name": "Vishnyakovo", "state": "", "country": "RU", "coord": {"lon": 37.997501, "lat": 55.412224}}, {"id": 473442, "name": "Vishn\u00ebvka", "state": "", "country": "RU", "coord": {"lon": 39.1875, "lat": 44.0075}}, {"id": 473522, "name": "Vinsady", "state": "", "country": "RU", "coord": {"lon": 42.965279, "lat": 44.08083}}, {"id": 473535, "name": "Vinogradovo", "state": "", "country": "RU", "coord": {"lon": 37.549999, "lat": 56.933331}}, {"id": 473537, "name": "Vinogradovo", "state": "", "country": "RU", "coord": {"lon": 38.545555, "lat": 55.423332}}, {"id": 473546, "name": "Vinogradnyy", "state": "", "country": "RU", "coord": {"lon": 37.31889, "lat": 45.051666}}, {"id": 473562, "name": "Vinnovka", "state": "", "country": "RU", "coord": {"lon": 48.349998, "lat": 54.266666}}, {"id": 473563, "name": "Vinnovka", "state": "", "country": "RU", "coord": {"lon": 49.688, "lat": 53.191101}}, {"id": 473611, "name": "Vilya", "state": "", "country": "RU", "coord": {"lon": 42.208889, "lat": 55.24556}}, {"id": 473627, "name": "Vilovatovo", "state": "", "country": "RU", "coord": {"lon": 46.601341, "lat": 56.172401}}, {"id": 473661, "name": "Vilga", "state": "", "country": "RU", "coord": {"lon": 34.083019, "lat": 61.818722}}, {"id": 473712, "name": "Vikkolovo", "state": "", "country": "RU", "coord": {"lon": 30.016666, "lat": 59.849998}}, {"id": 473749, "name": "Viglino", "state": "", "country": "RU", "coord": {"lon": 35.333332, "lat": 58.25}}, {"id": 473762, "name": "Vidyayevo", "state": "", "country": "RU", "coord": {"lon": 33.01667, "lat": 68.883331}}, {"id": 473778, "name": "Vidnoye", "state": "", "country": "RU", "coord": {"lon": 37.70966, "lat": 55.552391}}, {"id": 473788, "name": "Vichuga", "state": "", "country": "RU", "coord": {"lon": 41.930119, "lat": 57.212761}}, {"id": 473856, "name": "Veydelevka", "state": "", "country": "RU", "coord": {"lon": 38.4492, "lat": 50.1521}}, {"id": 473903, "name": "Vetluzhskiy", "state": "", "country": "RU", "coord": {"lon": 45.46542, "lat": 58.39016}}, {"id": 473904, "name": "Vetluzhskiy", "state": "", "country": "RU", "coord": {"lon": 45.122719, "lat": 57.17355}}, {"id": 473910, "name": "Vetluga", "state": "", "country": "RU", "coord": {"lon": 45.781021, "lat": 57.85574}}, {"id": 473936, "name": "Vetchi", "state": "", "country": "RU", "coord": {"lon": 39, "lat": 55.950001}}, {"id": 473943, "name": "Ves\u2019yegonsk", "state": "", "country": "RU", "coord": {"lon": 37.260399, "lat": 58.663979}}, {"id": 473972, "name": "Veshnyaki", "state": "", "country": "RU", "coord": {"lon": 37.822224, "lat": 55.718887}}, {"id": 473994, "name": "Veshkayma", "state": "", "country": "RU", "coord": {"lon": 47.133331, "lat": 54.049999}}, {"id": 473998, "name": "Veshenskaya", "state": "", "country": "RU", "coord": {"lon": 41.733398, "lat": 49.630329}}, {"id": 474004, "name": "Veshchevo", "state": "", "country": "RU", "coord": {"lon": 29.18305, "lat": 60.731071}}, {"id": 474013, "name": "Veselyy Poselok", "state": "", "country": "RU", "coord": {"lon": 30.476389, "lat": 59.906666}}, {"id": 474054, "name": "Ves\u00eblyy", "state": "", "country": "RU", "coord": {"lon": 39.991669, "lat": 47.4575}}, {"id": 474056, "name": "Ves\u00eblyy", "state": "", "country": "RU", "coord": {"lon": 39.305328, "lat": 47.331619}}, {"id": 474059, "name": "Ves\u00eblyy", "state": "", "country": "RU", "coord": {"lon": 40.742199, "lat": 47.09338}}, {"id": 474144, "name": "Ves\u00eblaya Lopan\u2019", "state": "", "country": "RU", "coord": {"lon": 36.389568, "lat": 50.494019}}, {"id": 474163, "name": "Verzilovo", "state": "", "country": "RU", "coord": {"lon": 38.088055, "lat": 55.023609}}, {"id": 474203, "name": "V\u00ebrtnoye", "state": "", "country": "RU", "coord": {"lon": 35.190834, "lat": 53.949165}}, {"id": 474207, "name": "Vertlino", "state": "", "country": "RU", "coord": {"lon": 36.966667, "lat": 56.233334}}, {"id": 474209, "name": "Vertkovo", "state": "", "country": "RU", "coord": {"lon": 38.043888, "lat": 55.288891}}, {"id": 474244, "name": "Vershilovo", "state": "", "country": "RU", "coord": {"lon": 43.154446, "lat": 56.631111}}, {"id": 474290, "name": "Verkhozim", "state": "", "country": "RU", "coord": {"lon": 45.41803, "lat": 52.712212}}, {"id": 474292, "name": "Verkhoz\u00ebr\u2019ye", "state": "", "country": "RU", "coord": {"lon": 41.966667, "lat": 55.400002}}, {"id": 474321, "name": "Verkhov\u2019ye", "state": "", "country": "RU", "coord": {"lon": 36.180363, "lat": 54.679375}}, {"id": 474324, "name": "Verkhov\u2019ye", "state": "", "country": "RU", "coord": {"lon": 37.2425, "lat": 52.811939}}, {"id": 474346, "name": "Verkhovino", "state": "", "country": "RU", "coord": {"lon": 45.700001, "lat": 60.566666}}, {"id": 474354, "name": "Verkhovazh\u2019ye", "state": "", "country": "RU", "coord": {"lon": 42.04652, "lat": 60.747169}}, {"id": 474370, "name": "Verkhoshizhem\u2019ye", "state": "", "country": "RU", "coord": {"lon": 49.10384, "lat": 58.010971}}, {"id": 474462, "name": "Verkhnyaya Tura", "state": "", "country": "RU", "coord": {"lon": 59.817501, "lat": 58.35944}}, {"id": 474468, "name": "Verkhnyaya Toz\u2019ma", "state": "", "country": "RU", "coord": {"lon": 45.216667, "lat": 60.583332}}, {"id": 474470, "name": "Verkhnyaya Toyma", "state": "", "country": "RU", "coord": {"lon": 44.99852, "lat": 62.234871}}, {"id": 474473, "name": "Verkhnyaya Tishanka", "state": "", "country": "RU", "coord": {"lon": 40.53278, "lat": 51.323891}}, {"id": 474603, "name": "Verkhnyaya Maksakovka", "state": "", "country": "RU", "coord": {"lon": 50.9674, "lat": 61.63504}}, {"id": 474643, "name": "Verkhnyaya Kozlan\u2019", "state": "", "country": "RU", "coord": {"lon": 41.75, "lat": 55}}, {"id": 474663, "name": "Kishcha", "state": "", "country": "RU", "coord": {"lon": 47.581169, "lat": 42.176769}}, {"id": 474669, "name": "Verkhnyaya Khava", "state": "", "country": "RU", "coord": {"lon": 39.941341, "lat": 51.84045}}, {"id": 474743, "name": "Verkhnyaya Balkariya", "state": "", "country": "RU", "coord": {"lon": 43.457321, "lat": 43.12785}}, {"id": 474751, "name": "Verkhnyaya Akhtuba", "state": "", "country": "RU", "coord": {"lon": 44.790001, "lat": 48.771667}}, {"id": 474795, "name": "Verkhniy Uslon", "state": "", "country": "RU", "coord": {"lon": 48.9823, "lat": 55.7701}}, {"id": 474821, "name": "Verkhniy Tagil", "state": "", "country": "RU", "coord": {"lon": 59.955601, "lat": 57.373299}}, {"id": 474897, "name": "Verkhniy Nurlat", "state": "", "country": "RU", "coord": {"lon": 50.866669, "lat": 54.416668}}, {"id": 474902, "name": "Lakkha N\u00ebvre", "state": "", "country": "RU", "coord": {"lon": 45.245419, "lat": 43.610329}}, {"id": 474916, "name": "Verkhniy Mamon", "state": "", "country": "RU", "coord": {"lon": 40.383202, "lat": 50.163502}}, {"id": 474926, "name": "Verkhniy Lomov", "state": "", "country": "RU", "coord": {"lon": 43.551109, "lat": 53.467781}}, {"id": 474931, "name": "Verkhniy Landekh", "state": "", "country": "RU", "coord": {"lon": 42.599442, "lat": 56.83889}}, {"id": 474940, "name": "Verkhniy Kurkuzhin", "state": "", "country": "RU", "coord": {"lon": 43.274719, "lat": 43.69556}}, {"id": 475003, "name": "Verkhniy Fiagdon", "state": "", "country": "RU", "coord": {"lon": 44.305279, "lat": 42.833328}}, {"id": 475023, "name": "Verkhniye Tuby", "state": "", "country": "RU", "coord": {"lon": 39.702499, "lat": 44.093601}}, {"id": 475030, "name": "Verkhniye Tatyshly", "state": "", "country": "RU", "coord": {"lon": 55.857498, "lat": 56.291168}}, {"id": 475041, "name": "Verkhniye Sergi", "state": "", "country": "RU", "coord": {"lon": 59.555561, "lat": 56.646938}}, {"id": 475060, "name": "Verkhniye Osel\u2019ki", "state": "", "country": "RU", "coord": {"lon": 30.449381, "lat": 60.249481}}, {"id": 475092, "name": "Verkhniye Kotly", "state": "", "country": "RU", "coord": {"lon": 37.61639, "lat": 55.676666}}, {"id": 475100, "name": "Verkhniye Kigi", "state": "", "country": "RU", "coord": {"lon": 58.604439, "lat": 55.408329}}, {"id": 475131, "name": "Verkhniye Gorki", "state": "", "country": "RU", "coord": {"lon": 36.2687, "lat": 54.787052}}, {"id": 475157, "name": "Verkhniye Achaluki", "state": "", "country": "RU", "coord": {"lon": 44.697498, "lat": 43.346939}}, {"id": 475196, "name": "Verkhniy Baskunchak", "state": "", "country": "RU", "coord": {"lon": 46.721699, "lat": 48.225639}}, {"id": 475206, "name": "Verkhniy Avzyan", "state": "", "country": "RU", "coord": {"lon": 57.53722, "lat": 53.528889}}, {"id": 475218, "name": "Verkhniy Aktash", "state": "", "country": "RU", "coord": {"lon": 52.166668, "lat": 54.966667}}, {"id": 475242, "name": "Verkhneye Zarech\u2019ye", "state": "", "country": "RU", "coord": {"lon": 43.716671, "lat": 57.833328}}, {"id": 475255, "name": "Verkhneye Velino", "state": "", "country": "RU", "coord": {"lon": 38.20639, "lat": 55.442223}}, {"id": 475259, "name": "Verkhneye Valuyevo", "state": "", "country": "RU", "coord": {"lon": 37.353058, "lat": 55.577221}}, {"id": 475272, "name": "Verkhneye Starovo", "state": "", "country": "RU", "coord": {"lon": 44.116669, "lat": 58.083332}}, {"id": 475279, "name": "Verkhneye Shchekotikhino", "state": "", "country": "RU", "coord": {"lon": 36.133331, "lat": 53}}, {"id": 475281, "name": "Verkhneye Shakhlovo", "state": "", "country": "RU", "coord": {"lon": 37.258331, "lat": 55.027222}}, {"id": 475349, "name": "Verkhneye Koyrovo", "state": "", "country": "RU", "coord": {"lon": 30.26667, "lat": 59.783329}}, {"id": 475369, "name": "Verkhneye Kazanishche", "state": "", "country": "RU", "coord": {"lon": 47.137798, "lat": 42.73547}}, {"id": 475405, "name": "Verkhneye Brusovoye", "state": "", "country": "RU", "coord": {"lon": 36.316669, "lat": 52.23333}}, {"id": 475424, "name": "Verkhneye Akcherino", "state": "", "country": "RU", "coord": {"lon": 46.299999, "lat": 56.216667}}, {"id": 475438, "name": "Verkhneyarkeyevo", "state": "", "country": "RU", "coord": {"lon": 54.314548, "lat": 55.450459}}, {"id": 475455, "name": "Verkhne-Vasil\u2019yevskoye", "state": "", "country": "RU", "coord": {"lon": 36.566666, "lat": 56.033333}}, {"id": 475463, "name": "Verkhneural\u2019sk", "state": "", "country": "RU", "coord": {"lon": 59.21056, "lat": 53.876942}}, {"id": 475469, "name": "Verkhnetulomskiy", "state": "", "country": "RU", "coord": {"lon": 31.796209, "lat": 68.607269}}, {"id": 475508, "name": "Verkhne-Romashkovo", "state": "", "country": "RU", "coord": {"lon": 37.349998, "lat": 55.733334}}, {"id": 475519, "name": "Verkhniy Pikhovkin", "state": "", "country": "RU", "coord": {"lon": 40.344444, "lat": 48.556667}}, {"id": 475599, "name": "Verkhnegoveynyy", "state": "", "country": "RU", "coord": {"lon": 40.272221, "lat": 48.215832}}, {"id": 475614, "name": "Verkhnedneprovskiy", "state": "", "country": "RU", "coord": {"lon": 33.34573, "lat": 54.981312}}, {"id": 475617, "name": "Verkhne-Derevyannoye", "state": "", "country": "RU", "coord": {"lon": 34.616669, "lat": 61.616669}}, {"id": 475619, "name": "Verkhnechusovskiye Gorodki", "state": "", "country": "RU", "coord": {"lon": 57.108601, "lat": 58.167099}}, {"id": 475642, "name": "Verkhnebakanskiy", "state": "", "country": "RU", "coord": {"lon": 37.66412, "lat": 44.842789}}, {"id": 475653, "name": "Verkhneye Anisimovo", "state": "", "country": "RU", "coord": {"lon": 45.588055, "lat": 60.593613}}, {"id": 475654, "name": "Anikin", "state": "", "country": "RU", "coord": {"lon": 39.984901, "lat": 48.165199}}, {"id": 475689, "name": "Verizino", "state": "", "country": "RU", "coord": {"lon": 40.433334, "lat": 56.150002}}, {"id": 475699, "name": "Vereya", "state": "", "country": "RU", "coord": {"lon": 39.09766, "lat": 55.773731}}, {"id": 475700, "name": "Vereya", "state": "", "country": "RU", "coord": {"lon": 38.039169, "lat": 55.614719}}, {"id": 475701, "name": "Vereya", "state": "", "country": "RU", "coord": {"lon": 36.17194, "lat": 55.344719}}, {"id": 475777, "name": "Vereshchagino", "state": "", "country": "RU", "coord": {"lon": 54.655701, "lat": 58.078941}}, {"id": 475778, "name": "Vereshchagino", "state": "", "country": "RU", "coord": {"lon": 54.863522, "lat": 57.829311}}, {"id": 475779, "name": "Vereshchagino", "state": "", "country": "RU", "coord": {"lon": 42.716667, "lat": 56.583332}}, {"id": 475782, "name": "Vereshchagino", "state": "", "country": "RU", "coord": {"lon": 41.086388, "lat": 56.371666}}, {"id": 475819, "name": "Verbovskiy", "state": "", "country": "RU", "coord": {"lon": 41.97028, "lat": 55.532223}}, {"id": 475837, "name": "Verbino", "state": "", "country": "RU", "coord": {"lon": 42.733334, "lat": 56.633331}}, {"id": 475840, "name": "Verbilovo", "state": "", "country": "RU", "coord": {"lon": 31.799999, "lat": 54.683334}}, {"id": 475845, "name": "Verbilki", "state": "", "country": "RU", "coord": {"lon": 37.599998, "lat": 56.533333}}, {"id": 475868, "name": "Ventsy", "state": "", "country": "RU", "coord": {"lon": 40.835831, "lat": 45.376389}}, {"id": 475881, "name": "Ven\u00ebv", "state": "", "country": "RU", "coord": {"lon": 38.268429, "lat": 54.355331}}, {"id": 475921, "name": "Vel\u2019yaminovo", "state": "", "country": "RU", "coord": {"lon": 36.920834, "lat": 55.876389}}, {"id": 475923, "name": "Vel\u2019yaminovo", "state": "", "country": "RU", "coord": {"lon": 37.869446, "lat": 55.196667}}, {"id": 475927, "name": "Vel'yaminovka", "state": "", "country": "RU", "coord": {"lon": 39.099998, "lat": 44.099998}}, {"id": 475936, "name": "Vel\u2019t", "state": "", "country": "RU", "coord": {"lon": 49.967281, "lat": 68.047867}}, {"id": 475938, "name": "Vel\u2019sk", "state": "", "country": "RU", "coord": {"lon": 42.098301, "lat": 61.070061}}, {"id": 475941, "name": "Vels", "state": "", "country": "RU", "coord": {"lon": 58.780579, "lat": 60.735722}}, {"id": 475955, "name": "Velizh", "state": "", "country": "RU", "coord": {"lon": 31.19673, "lat": 55.60564}}, {"id": 475965, "name": "Velino", "state": "", "country": "RU", "coord": {"lon": 39.383331, "lat": 55.583332}}, {"id": 476020, "name": "Velikovskoye", "state": "", "country": "RU", "coord": {"lon": 45.362221, "lat": 56.116943}}, {"id": 476028, "name": "Velikovechnoye", "state": "", "country": "RU", "coord": {"lon": 39.75499, "lat": 44.934021}}, {"id": 476046, "name": "Velikooktyabr\u2019skiy", "state": "", "country": "RU", "coord": {"lon": 33.815948, "lat": 57.433338}}, {"id": 476055, "name": "Velikodvorskiy", "state": "", "country": "RU", "coord": {"lon": 40.667801, "lat": 55.249962}}, {"id": 476062, "name": "Velikiy Ustyug", "state": "", "country": "RU", "coord": {"lon": 46.310555, "lat": 60.764442}}, {"id": 476077, "name": "Velikiye Luki", "state": "", "country": "RU", "coord": {"lon": 30.54517, "lat": 56.34}}, {"id": 476106, "name": "Velikent", "state": "", "country": "RU", "coord": {"lon": 48.06284, "lat": 42.18626}}, {"id": 476141, "name": "Velikanov", "state": "", "country": "RU", "coord": {"lon": 41.965031, "lat": 47.8209}}, {"id": 476173, "name": "Velednikovo", "state": "", "country": "RU", "coord": {"lon": 37.118057, "lat": 55.798332}}, {"id": 476207, "name": "Vegota", "state": "", "country": "RU", "coord": {"lon": 32.016666, "lat": 60.016666}}, {"id": 476228, "name": "Vedishchevo", "state": "", "country": "RU", "coord": {"lon": 37.664722, "lat": 55.168331}}, {"id": 476231, "name": "Vedernikov", "state": "", "country": "RU", "coord": {"lon": 41.145889, "lat": 47.581089}}, {"id": 476252, "name": "Vedeno", "state": "", "country": "RU", "coord": {"lon": 46.095001, "lat": 42.97028}}, {"id": 476257, "name": "Vechnoye", "state": "", "country": "RU", "coord": {"lon": 39.739445, "lat": 44.938332}}, {"id": 476297, "name": "Vazhiny", "state": "", "country": "RU", "coord": {"lon": 34.022221, "lat": 60.964439}}, {"id": 476343, "name": "Vavozh", "state": "", "country": "RU", "coord": {"lon": 51.930981, "lat": 56.775131}}, {"id": 476344, "name": "Vavilovo", "state": "", "country": "RU", "coord": {"lon": 55.849998, "lat": 54.816666}}, {"id": 476350, "name": "Vavibet", "state": "", "country": "RU", "coord": {"lon": 34.916668, "lat": 67.933334}}, {"id": 476359, "name": "Vaulovo", "state": "", "country": "RU", "coord": {"lon": 39.283333, "lat": 56.133331}}, {"id": 476368, "name": "Vatutino", "state": "", "country": "RU", "coord": {"lon": 37.686668, "lat": 55.879723}}, {"id": 476372, "name": "Vatutinki", "state": "", "country": "RU", "coord": {"lon": 37.3325, "lat": 55.498333}}, {"id": 476417, "name": "Vasyurinskaya", "state": "", "country": "RU", "coord": {"lon": 39.423981, "lat": 45.118092}}, {"id": 476428, "name": "Vasyukovo", "state": "", "country": "RU", "coord": {"lon": 38.033333, "lat": 56.116669}}, {"id": 476538, "name": "Vasil\u2019yevskoye", "state": "", "country": "RU", "coord": {"lon": 38.086109, "lat": 55.123333}}, {"id": 476540, "name": "Vasil\u2019yevskoye", "state": "", "country": "RU", "coord": {"lon": 37.422489, "lat": 55.002087}}, {"id": 476548, "name": "Vasil\u2019yevskiy Mokh", "state": "", "country": "RU", "coord": {"lon": 35.918968, "lat": 57.013161}}, {"id": 476567, "name": "Vasil\u2019yevskiy", "state": "", "country": "RU", "coord": {"lon": 42.451668, "lat": 47.168331}}, {"id": 476595, "name": "Vasil\u2019yevo", "state": "", "country": "RU", "coord": {"lon": 38.183334, "lat": 55.733334}}, {"id": 476612, "name": "Vasil\u2019yevo", "state": "", "country": "RU", "coord": {"lon": 37.966667, "lat": 56.200001}}, {"id": 476630, "name": "Vasil\u2019yevka", "state": "", "country": "RU", "coord": {"lon": 36.933331, "lat": 52.883331}}, {"id": 476732, "name": "Vasil\u2019sursk", "state": "", "country": "RU", "coord": {"lon": 46.007221, "lat": 56.127499}}, {"id": 476798, "name": "Vasil\u00ebvo", "state": "", "country": "RU", "coord": {"lon": 39.200001, "lat": 55.383331}}, {"id": 476958, "name": "Varshavka", "state": "", "country": "RU", "coord": {"lon": 56.110661, "lat": 54.379452}}, {"id": 476982, "name": "Varnavino", "state": "", "country": "RU", "coord": {"lon": 45.09164, "lat": 57.403511}}, {"id": 477004, "name": "Varlamovo", "state": "", "country": "RU", "coord": {"lon": 48.4226, "lat": 53.189701}}, {"id": 477012, "name": "Varnitsy", "state": "", "country": "RU", "coord": {"lon": 42.745556, "lat": 59.9925}}, {"id": 477034, "name": "Varenovka", "state": "", "country": "RU", "coord": {"lon": 39.022221, "lat": 47.283051}},