[{"id": 5002367, "name": "Montague", "state": "MI", "country": "US", "coord": {"lon": -86.35701, "lat": 43.416679}}, {"id": 5002390, "name": "Montcalm County", "state": "MI", "country": "US", "coord": {"lon": -85.116692, "lat": 43.333359}}, {"id": 5002394, "name": "Montmorency County", "state": "MI", "country": "US", "coord": {"lon": -84.133339, "lat": 45.03334}}, {"id": 5002411, "name": "Montrose", "state": "MI", "country": "US", "coord": {"lon": -83.892738, "lat": 43.176689}}, {"id": 5002495, "name": "Morenci", "state": "MI", "country": "US", "coord": {"lon": -84.218002, "lat": 41.71949}}, {"id": 5002656, "name": "Mount Clemens", "state": "MI", "country": "US", "coord": {"lon": -82.877983, "lat": 42.59726}}, {"id": 5002699, "name": "Mount Morris", "state": "MI", "country": "US", "coord": {"lon": -83.694962, "lat": 43.118641}}, {"id": 5002714, "name": "Mount Pleasant", "state": "MI", "country": "US", "coord": {"lon": -84.767509, "lat": 43.597809}}, {"id": 5003065, "name": "Munising", "state": "MI", "country": "US", "coord": {"lon": -86.647942, "lat": 46.41106}}, {"id": 5003132, "name": "Muskegon", "state": "MI", "country": "US", "coord": {"lon": -86.24839, "lat": 43.23418}}, {"id": 5003136, "name": "Muskegon County", "state": "MI", "country": "US", "coord": {"lon": -86.133392, "lat": 43.300018}}, {"id": 5003140, "name": "Muskegon Heights", "state": "MI", "country": "US", "coord": {"lon": -86.238953, "lat": 43.20113}}, {"id": 5003224, "name": "Napoleon", "state": "MI", "country": "US", "coord": {"lon": -84.246063, "lat": 42.160591}}, {"id": 5003243, "name": "Nashville", "state": "MI", "country": "US", "coord": {"lon": -85.093048, "lat": 42.60281}}, {"id": 5003289, "name": "Neeley", "state": "MI", "country": "US", "coord": {"lon": -85.554459, "lat": 42.500038}}, {"id": 5003294, "name": "Negaunee", "state": "MI", "country": "US", "coord": {"lon": -87.611801, "lat": 46.4991}}, {"id": 5003369, "name": "New Baltimore", "state": "MI", "country": "US", "coord": {"lon": -82.736862, "lat": 42.681141}}, {"id": 5003374, "name": "New Buffalo", "state": "MI", "country": "US", "coord": {"lon": -86.743919, "lat": 41.79393}}, {"id": 5003383, "name": "New Haven", "state": "MI", "country": "US", "coord": {"lon": -82.801308, "lat": 42.729481}}, {"id": 5003384, "name": "New Haven", "state": "MI", "country": "US", "coord": {"lon": -84.153313, "lat": 43.093639}}, {"id": 5003424, "name": "Newaygo", "state": "MI", "country": "US", "coord": {"lon": -85.800049, "lat": 43.419739}}, {"id": 5003435, "name": "Newberry", "state": "MI", "country": "US", "coord": {"lon": -85.50956, "lat": 46.355}}, {"id": 5003457, "name": "Newland", "state": "MI", "country": "US", "coord": {"lon": -86.243423, "lat": 44.301392}}, {"id": 5003514, "name": "Niles", "state": "MI", "country": "US", "coord": {"lon": -86.254181, "lat": 41.829769}}, {"id": 5003617, "name": "North Branch", "state": "MI", "country": "US", "coord": {"lon": -83.196609, "lat": 43.229469}}, {"id": 5003790, "name": "North Lakeport", "state": "MI", "country": "US", "coord": {"lon": -82.496872, "lat": 43.137249}}, {"id": 5003811, "name": "North Muskegon", "state": "MI", "country": "US", "coord": {"lon": -86.267563, "lat": 43.25613}}, {"id": 5003952, "name": "Northview", "state": "MI", "country": "US", "coord": {"lon": -85.600594, "lat": 43.045582}}, {"id": 5003956, "name": "Northville", "state": "MI", "country": "US", "coord": {"lon": -83.483269, "lat": 42.431149}}, {"id": 5004005, "name": "Norton Shores", "state": "MI", "country": "US", "coord": {"lon": -86.263947, "lat": 43.1689}}, {"id": 5004016, "name": "Norway", "state": "MI", "country": "US", "coord": {"lon": -87.90374, "lat": 45.7869}}, {"id": 5004062, "name": "Novi", "state": "MI", "country": "US", "coord": {"lon": -83.475487, "lat": 42.480591}}, {"id": 5004188, "name": "Oak Park", "state": "MI", "country": "US", "coord": {"lon": -83.182709, "lat": 42.45948}}, {"id": 5004196, "name": "Oak Ridge", "state": "MI", "country": "US", "coord": {"lon": -84.21003, "lat": 46.288631}}, {"id": 5004223, "name": "Oakland County", "state": "MI", "country": "US", "coord": {"lon": -83.39994, "lat": 42.666698}}, {"id": 5004359, "name": "Okemos", "state": "MI", "country": "US", "coord": {"lon": -84.427467, "lat": 42.72226}}, {"id": 5004454, "name": "Olivet", "state": "MI", "country": "US", "coord": {"lon": -84.924149, "lat": 42.441429}}, {"id": 5004520, "name": "Ontonagon", "state": "MI", "country": "US", "coord": {"lon": -89.314034, "lat": 46.871052}}, {"id": 5004521, "name": "Ontonagon County", "state": "MI", "country": "US", "coord": {"lon": -89.333481, "lat": 46.666611}}, {"id": 5004551, "name": "Orchard Lake", "state": "MI", "country": "US", "coord": {"lon": -83.359383, "lat": 42.583092}}, {"id": 5004593, "name": "Ortonville", "state": "MI", "country": "US", "coord": {"lon": -83.443001, "lat": 42.852249}}, {"id": 5004611, "name": "Osceola County", "state": "MI", "country": "US", "coord": {"lon": -85.333382, "lat": 43.983349}}, {"id": 5004658, "name": "Otsego", "state": "MI", "country": "US", "coord": {"lon": -85.696411, "lat": 42.46059}}, {"id": 5004659, "name": "Otsego County", "state": "MI", "country": "US", "coord": {"lon": -84.566689, "lat": 45.033352}}, {"id": 5004681, "name": "Ottawa County", "state": "MI", "country": "US", "coord": {"lon": -86.000603, "lat": 42.95002}}, {"id": 5004776, "name": "Ovid", "state": "MI", "country": "US", "coord": {"lon": -84.371643, "lat": 43.005859}}, {"id": 5004792, "name": "Owosso", "state": "MI", "country": "US", "coord": {"lon": -84.176643, "lat": 42.997799}}, {"id": 5004817, "name": "Oxford", "state": "MI", "country": "US", "coord": {"lon": -83.264664, "lat": 42.824749}}, {"id": 5004961, "name": "Parchment", "state": "MI", "country": "US", "coord": {"lon": -85.569733, "lat": 42.328098}}, {"id": 5005092, "name": "Patterson Gardens", "state": "MI", "country": "US", "coord": {"lon": -83.430489, "lat": 41.918381}}, {"id": 5005126, "name": "Paw Paw", "state": "MI", "country": "US", "coord": {"lon": -85.891121, "lat": 42.217819}}, {"id": 5005128, "name": "Paw Paw Lake", "state": "MI", "country": "US", "coord": {"lon": -86.271973, "lat": 42.212261}}, {"id": 5005136, "name": "Payment", "state": "MI", "country": "US", "coord": {"lon": -84.140297, "lat": 46.5303}}, {"id": 5005178, "name": "Pearl Beach", "state": "MI", "country": "US", "coord": {"lon": -82.597687, "lat": 42.626701}}, {"id": 5005247, "name": "Pellston", "state": "MI", "country": "US", "coord": {"lon": -84.783943, "lat": 45.552792}}, {"id": 5005401, "name": "Perry", "state": "MI", "country": "US", "coord": {"lon": -84.219414, "lat": 42.82642}}, {"id": 5005450, "name": "Petersburg", "state": "MI", "country": "US", "coord": {"lon": -83.714943, "lat": 41.901161}}, {"id": 5005484, "name": "Petoskey", "state": "MI", "country": "US", "coord": {"lon": -84.95533, "lat": 45.373341}}, {"id": 5005642, "name": "Pigeon", "state": "MI", "country": "US", "coord": {"lon": -83.269958, "lat": 43.830021}}, {"id": 5005703, "name": "Pinckney", "state": "MI", "country": "US", "coord": {"lon": -83.946342, "lat": 42.456699}}, {"id": 5005706, "name": "Pinconning", "state": "MI", "country": "US", "coord": {"lon": -83.964989, "lat": 43.85363}}, {"id": 5005954, "name": "Plainwell", "state": "MI", "country": "US", "coord": {"lon": -85.648903, "lat": 42.440041}}, {"id": 5006011, "name": "Pleasant Ridge", "state": "MI", "country": "US", "coord": {"lon": -83.142151, "lat": 42.471149}}, {"id": 5006059, "name": "Plymouth", "state": "MI", "country": "US", "coord": {"lon": -83.470207, "lat": 42.371429}}, {"id": 5006166, "name": "Pontiac", "state": "MI", "country": "US", "coord": {"lon": -83.291054, "lat": 42.63892}}, {"id": 5006232, "name": "Port Hope", "state": "MI", "country": "US", "coord": {"lon": -82.712708, "lat": 43.940842}}, {"id": 5006233, "name": "Port Huron", "state": "MI", "country": "US", "coord": {"lon": -82.424911, "lat": 42.97086}}, {"id": 5006250, "name": "Portage", "state": "MI", "country": "US", "coord": {"lon": -85.580002, "lat": 42.201149}}, {"id": 5006314, "name": "Portland", "state": "MI", "country": "US", "coord": {"lon": -84.903053, "lat": 42.869202}}, {"id": 5006376, "name": "Potterville", "state": "MI", "country": "US", "coord": {"lon": -84.738869, "lat": 42.6292}}, {"id": 5006566, "name": "Prudenville", "state": "MI", "country": "US", "coord": {"lon": -84.65197, "lat": 44.298351}}, {"id": 5006647, "name": "Quincy", "state": "MI", "country": "US", "coord": {"lon": -84.88385, "lat": 41.94421}}, {"id": 5006658, "name": "Quinnesec", "state": "MI", "country": "US", "coord": {"lon": -87.988457, "lat": 45.806351}}, {"id": 5006735, "name": "Ramona Park", "state": "MI", "country": "US", "coord": {"lon": -85.541107, "lat": 42.18977}}, {"id": 5006776, "name": "Rapid City", "state": "MI", "country": "US", "coord": {"lon": -85.282562, "lat": 44.83445}}, {"id": 5006818, "name": "Ravenna", "state": "MI", "country": "US", "coord": {"lon": -85.936989, "lat": 43.189468}}, {"id": 5006848, "name": "Reading", "state": "MI", "country": "US", "coord": {"lon": -84.748009, "lat": 41.839489}}, {"id": 5006917, "name": "Redford", "state": "MI", "country": "US", "coord": {"lon": -83.2966, "lat": 42.383369}}, {"id": 5006946, "name": "Reed City", "state": "MI", "country": "US", "coord": {"lon": -85.510048, "lat": 43.875019}}, {"id": 5006969, "name": "Reese", "state": "MI", "country": "US", "coord": {"lon": -83.69635, "lat": 43.450581}}, {"id": 5007141, "name": "Richmond", "state": "MI", "country": "US", "coord": {"lon": -82.75576, "lat": 42.8092}}, {"id": 5007247, "name": "River Rouge", "state": "MI", "country": "US", "coord": {"lon": -83.134369, "lat": 42.273369}}, {"id": 5007323, "name": "Riverview", "state": "MI", "country": "US", "coord": {"lon": -83.179367, "lat": 42.17421}}, {"id": 5007331, "name": "Rives Junction", "state": "MI", "country": "US", "coord": {"lon": -84.461632, "lat": 42.385872}}, {"id": 5007400, "name": "Rochester", "state": "MI", "country": "US", "coord": {"lon": -83.13382, "lat": 42.680592}}, {"id": 5007402, "name": "Rochester Hills", "state": "MI", "country": "US", "coord": {"lon": -83.149933, "lat": 42.658371}}, {"id": 5007426, "name": "Rock Harbor Lodge", "state": "MI", "country": "US", "coord": {"lon": -88.483681, "lat": 48.14571}}, {"id": 5007436, "name": "Rockford", "state": "MI", "country": "US", "coord": {"lon": -85.560028, "lat": 43.120029}}, {"id": 5007451, "name": "Rockwood", "state": "MI", "country": "US", "coord": {"lon": -83.246597, "lat": 42.070881}}, {"id": 5007477, "name": "Rogers City", "state": "MI", "country": "US", "coord": {"lon": -83.818329, "lat": 45.421398}}, {"id": 5007525, "name": "Romeo", "state": "MI", "country": "US", "coord": {"lon": -83.012993, "lat": 42.802811}}, {"id": 5007531, "name": "Romulus", "state": "MI", "country": "US", "coord": {"lon": -83.396599, "lat": 42.22226}}, {"id": 5007548, "name": "Roosevelt Park", "state": "MI", "country": "US", "coord": {"lon": -86.272278, "lat": 43.1964}}, {"id": 5007585, "name": "Roscommon", "state": "MI", "country": "US", "coord": {"lon": -84.591972, "lat": 44.498348}}, {"id": 5007587, "name": "Roscommon County", "state": "MI", "country": "US", "coord": {"lon": -84.600021, "lat": 44.333351}}, {"id": 5007655, "name": "Roseville", "state": "MI", "country": "US", "coord": {"lon": -82.937141, "lat": 42.497261}}, {"id": 5007804, "name": "Royal Oak", "state": "MI", "country": "US", "coord": {"lon": -83.144653, "lat": 42.489479}}, {"id": 5007885, "name": "Rust", "state": "MI", "country": "US", "coord": {"lon": -83.948608, "lat": 44.986679}}, {"id": 5007989, "name": "Saginaw", "state": "MI", "country": "US", "coord": {"lon": -83.950813, "lat": 43.419472}}, {"id": 5007996, "name": "Saginaw County", "state": "MI", "country": "US", "coord": {"lon": -84.03331, "lat": 43.333359}}, {"id": 5008102, "name": "Saint Charles", "state": "MI", "country": "US", "coord": {"lon": -84.140533, "lat": 43.29697}}, {"id": 5008112, "name": "Saint Clair County", "state": "MI", "country": "US", "coord": {"lon": -82.666588, "lat": 42.833359}}, {"id": 5008207, "name": "Saint Helen", "state": "MI", "country": "US", "coord": {"lon": -84.410294, "lat": 44.363628}}, {"id": 5008224, "name": "Saint Ignace", "state": "MI", "country": "US", "coord": {"lon": -84.727829, "lat": 45.868622}}, {"id": 5008278, "name": "Saint Johns", "state": "MI", "country": "US", "coord": {"lon": -84.559151, "lat": 43.001141}}, {"id": 5008327, "name": "Saint Joseph", "state": "MI", "country": "US", "coord": {"lon": -86.480019, "lat": 42.10976}}, {"id": 5008347, "name": "Saint Joseph County", "state": "MI", "country": "US", "coord": {"lon": -85.500542, "lat": 41.75061}}, {"id": 5008414, "name": "Saint Louis", "state": "MI", "country": "US", "coord": {"lon": -84.606667, "lat": 43.40836}}, {"id": 5008768, "name": "Saline", "state": "MI", "country": "US", "coord": {"lon": -83.781609, "lat": 42.16671}}, {"id": 5008861, "name": "Sand Lake", "state": "MI", "country": "US", "coord": {"lon": -83.6847, "lat": 44.31918}}, {"id": 5008920, "name": "Sandusky", "state": "MI", "country": "US", "coord": {"lon": -82.829659, "lat": 43.4203}}, {"id": 5008950, "name": "Sanilac County", "state": "MI", "country": "US", "coord": {"lon": -82.849937, "lat": 43.43335}}, {"id": 5008971, "name": "Saranac", "state": "MI", "country": "US", "coord": {"lon": -85.213074, "lat": 42.929482}}, {"id": 5009004, "name": "Sault Ste. Marie", "state": "MI", "country": "US", "coord": {"lon": -84.345322, "lat": 46.4953}}, {"id": 5009185, "name": "Schoolcraft", "state": "MI", "country": "US", "coord": {"lon": -85.637779, "lat": 42.114208}}, {"id": 5009187, "name": "Schoolcraft County", "state": "MI", "country": "US", "coord": {"lon": -86.20015, "lat": 46.21664}}, {"id": 5009277, "name": "Scottville", "state": "MI", "country": "US", "coord": {"lon": -86.280083, "lat": 43.954731}}, {"id": 5009317, "name": "Sebewaing", "state": "MI", "country": "US", "coord": {"lon": -83.451073, "lat": 43.732239}}, {"id": 5009509, "name": "Shallows", "state": "MI", "country": "US", "coord": {"lon": -84.444206, "lat": 46.474739}}, {"id": 5009586, "name": "Shelby", "state": "MI", "country": "US", "coord": {"lon": -83.032982, "lat": 42.670872}}, {"id": 5009587, "name": "Shelby", "state": "MI", "country": "US", "coord": {"lon": -86.36396, "lat": 43.60862}}, {"id": 5009625, "name": "Shepherd", "state": "MI", "country": "US", "coord": {"lon": -84.694733, "lat": 43.524471}}, {"id": 5009706, "name": "Shiawassee County", "state": "MI", "country": "US", "coord": {"lon": -84.149971, "lat": 42.950031}}, {"id": 5009717, "name": "Shields", "state": "MI", "country": "US", "coord": {"lon": -84.056374, "lat": 43.415298}}, {"id": 5010077, "name": "Skidway Lake", "state": "MI", "country": "US", "coord": {"lon": -84.035271, "lat": 44.18335}}, {"id": 5010512, "name": "South Gull Lake", "state": "MI", "country": "US", "coord": {"lon": -85.396667, "lat": 42.387539}}, {"id": 5010517, "name": "South Haven", "state": "MI", "country": "US", "coord": {"lon": -86.273643, "lat": 42.403091}}, {"id": 5010548, "name": "South Lyon", "state": "MI", "country": "US", "coord": {"lon": -83.651611, "lat": 42.46059}}, {"id": 5010569, "name": "South Monroe", "state": "MI", "country": "US", "coord": {"lon": -83.417709, "lat": 41.895882}}, {"id": 5010595, "name": "South Rockwood", "state": "MI", "country": "US", "coord": {"lon": -83.26104, "lat": 42.063931}}, {"id": 5010636, "name": "Southfield", "state": "MI", "country": "US", "coord": {"lon": -83.22187, "lat": 42.47337}}, {"id": 5010646, "name": "Southgate", "state": "MI", "country": "US", "coord": {"lon": -83.19381, "lat": 42.213928}}, {"id": 5010690, "name": "Sparta", "state": "MI", "country": "US", "coord": {"lon": -85.710037, "lat": 43.160858}}, {"id": 5010780, "name": "Spring Arbor", "state": "MI", "country": "US", "coord": {"lon": -84.552742, "lat": 42.20504}}, {"id": 5010856, "name": "Spring Lake", "state": "MI", "country": "US", "coord": {"lon": -86.196999, "lat": 43.076962}}, {"id": 5010917, "name": "Springfield", "state": "MI", "country": "US", "coord": {"lon": -85.239159, "lat": 42.326431}}, {"id": 5010977, "name": "Saint Clair", "state": "MI", "country": "US", "coord": {"lon": -82.486023, "lat": 42.820869}}, {"id": 5010978, "name": "Saint Clair Shores", "state": "MI", "country": "US", "coord": {"lon": -82.888809, "lat": 42.496979}}, {"id": 5011005, "name": "Stambaugh, Iron River", "state": "MI", "country": "US", "coord": {"lon": -88.627083, "lat": 46.08107}}, {"id": 5011020, "name": "Standish", "state": "MI", "country": "US", "coord": {"lon": -83.958878, "lat": 43.983082}}, {"id": 5011042, "name": "Stanton", "state": "MI", "country": "US", "coord": {"lon": -85.081413, "lat": 43.29253}}, {"id": 5011148, "name": "Sterling Heights", "state": "MI", "country": "US", "coord": {"lon": -83.030197, "lat": 42.580311}}, {"id": 5011157, "name": "Steuben", "state": "MI", "country": "US", "coord": {"lon": -86.456818, "lat": 46.18829}}, {"id": 5011183, "name": "Stevensville", "state": "MI", "country": "US", "coord": {"lon": -86.51947, "lat": 42.014488}}, {"id": 5011227, "name": "Stockbridge", "state": "MI", "country": "US", "coord": {"lon": -84.180511, "lat": 42.451149}}, {"id": 5011316, "name": "Stony Point", "state": "MI", "country": "US", "coord": {"lon": -85.426682, "lat": 42.496979}}, {"id": 5011323, "name": "Stony Point", "state": "MI", "country": "US", "coord": {"lon": -83.264931, "lat": 41.941429}}, {"id": 5011428, "name": "Sturgis", "state": "MI", "country": "US", "coord": {"lon": -85.419151, "lat": 41.799221}}, {"id": 5011521, "name": "Sulphur Springs", "state": "MI", "country": "US", "coord": {"lon": -86.235031, "lat": 42.416142}}, {"id": 5011701, "name": "Swartz Creek", "state": "MI", "country": "US", "coord": {"lon": -83.830513, "lat": 42.957249}}, {"id": 5011761, "name": "Sylvan Lake", "state": "MI", "country": "US", "coord": {"lon": -83.328552, "lat": 42.61142}}, {"id": 5011900, "name": "Tawas City", "state": "MI", "country": "US", "coord": {"lon": -83.514702, "lat": 44.269459}}, {"id": 5011908, "name": "Taylor", "state": "MI", "country": "US", "coord": {"lon": -83.269653, "lat": 42.240871}}, {"id": 5011973, "name": "Tecumseh", "state": "MI", "country": "US", "coord": {"lon": -83.944939, "lat": 42.003929}}, {"id": 5011989, "name": "Temperance", "state": "MI", "country": "US", "coord": {"lon": -83.568817, "lat": 41.779209}}, {"id": 5012103, "name": "Thompson", "state": "MI", "country": "US", "coord": {"lon": -86.330421, "lat": 45.904968}}, {"id": 5012194, "name": "Three Rivers", "state": "MI", "country": "US", "coord": {"lon": -85.632492, "lat": 41.943939}}, {"id": 5012197, "name": "Three Oaks", "state": "MI", "country": "US", "coord": {"lon": -86.61058, "lat": 41.798649}}, {"id": 5012495, "name": "Traverse City", "state": "MI", "country": "US", "coord": {"lon": -85.620628, "lat": 44.763062}}, {"id": 5012521, "name": "Trenton", "state": "MI", "country": "US", "coord": {"lon": -83.178261, "lat": 42.139488}}, {"id": 5012635, "name": "Trowbridge Park", "state": "MI", "country": "US", "coord": {"lon": -87.437363, "lat": 46.556599}}, {"id": 5012639, "name": "Troy", "state": "MI", "country": "US", "coord": {"lon": -83.149933, "lat": 42.605591}}, {"id": 5012748, "name": "Tuscola County", "state": "MI", "country": "US", "coord": {"lon": -83.449951, "lat": 43.46669}}, {"id": 5012800, "name": "Twin Lake", "state": "MI", "country": "US", "coord": {"lon": -86.16478, "lat": 43.362789}}, {"id": 5012928, "name": "Union City", "state": "MI", "country": "US", "coord": {"lon": -85.136093, "lat": 42.066711}}, {"id": 5013061, "name": "Utica", "state": "MI", "country": "US", "coord": {"lon": -83.033539, "lat": 42.626141}}, {"id": 5013104, "name": "Van Buren County", "state": "MI", "country": "US", "coord": {"lon": -86.033348, "lat": 42.250591}}, {"id": 5013156, "name": "Vandercook Lake", "state": "MI", "country": "US", "coord": {"lon": -84.391068, "lat": 42.193371}}, {"id": 5013174, "name": "Vassar", "state": "MI", "country": "US", "coord": {"lon": -83.58329, "lat": 43.371971}}, {"id": 5013252, "name": "Vicksburg", "state": "MI", "country": "US", "coord": {"lon": -85.532784, "lat": 42.120049}}, {"id": 5013285, "name": "Lake Isabella", "state": "MI", "country": "US", "coord": {"lon": -84.997253, "lat": 43.643639}}, {"id": 5013849, "name": "Wacousta", "state": "MI", "country": "US", "coord": {"lon": -84.700821, "lat": 42.827808}}, {"id": 5013894, "name": "Wakefield", "state": "MI", "country": "US", "coord": {"lon": -89.939888, "lat": 46.475231}}, {"id": 5013924, "name": "Walker", "state": "MI", "country": "US", "coord": {"lon": -85.768089, "lat": 43.001411}}, {"id": 5013961, "name": "Walled Lake", "state": "MI", "country": "US", "coord": {"lon": -83.481049, "lat": 42.537811}}, {"id": 5014051, "name": "Warren", "state": "MI", "country": "US", "coord": {"lon": -83.027702, "lat": 42.477539}}, {"id": 5014120, "name": "Washtenaw County", "state": "MI", "country": "US", "coord": {"lon": -83.849937, "lat": 42.250591}}, {"id": 5014130, "name": "Waterford", "state": "MI", "country": "US", "coord": {"lon": -83.402718, "lat": 42.702251}}, {"id": 5014165, "name": "Watervliet", "state": "MI", "country": "US", "coord": {"lon": -86.260582, "lat": 42.18671}}, {"id": 5014208, "name": "Waverly", "state": "MI", "country": "US", "coord": {"lon": -84.620819, "lat": 42.739201}}, {"id": 5014219, "name": "Wayland", "state": "MI", "country": "US", "coord": {"lon": -85.644737, "lat": 42.67392}}, {"id": 5014224, "name": "Wayne", "state": "MI", "country": "US", "coord": {"lon": -83.386322, "lat": 42.281429}}, {"id": 5014227, "name": "Wayne County", "state": "MI", "country": "US", "coord": {"lon": -83.283257, "lat": 42.250591}}, {"id": 5014278, "name": "Webberville", "state": "MI", "country": "US", "coord": {"lon": -84.174133, "lat": 42.666981}}, {"id": 5014413, "name": "West Branch", "state": "MI", "country": "US", "coord": {"lon": -84.238609, "lat": 44.276409}}, {"id": 5014567, "name": "West Ishpeming", "state": "MI", "country": "US", "coord": {"lon": -87.700974, "lat": 46.483551}}, {"id": 5014645, "name": "West Monroe", "state": "MI", "country": "US", "coord": {"lon": -83.431602, "lat": 41.913929}}, {"id": 5014681, "name": "Westland", "state": "MI", "country": "US", "coord": {"lon": -83.400208, "lat": 42.3242}}, {"id": 5014706, "name": "Westwood", "state": "MI", "country": "US", "coord": {"lon": -85.633621, "lat": 42.302818}}, {"id": 5014729, "name": "Wexford County", "state": "MI", "country": "US", "coord": {"lon": -85.566727, "lat": 44.33334}}, {"id": 5014811, "name": "White Cloud", "state": "MI", "country": "US", "coord": {"lon": -85.772003, "lat": 43.550301}}, {"id": 5014852, "name": "White Pigeon", "state": "MI", "country": "US", "coord": {"lon": -85.643318, "lat": 41.798111}}, {"id": 5014854, "name": "White Pine", "state": "MI", "country": "US", "coord": {"lon": -89.584038, "lat": 46.753841}}, {"id": 5014913, "name": "Whitehall", "state": "MI", "country": "US", "coord": {"lon": -86.348679, "lat": 43.410011}}, {"id": 5014946, "name": "Whitmore Lake", "state": "MI", "country": "US", "coord": {"lon": -83.743828, "lat": 42.43948}}, {"id": 5015133, "name": "Williamston", "state": "MI", "country": "US", "coord": {"lon": -84.28302, "lat": 42.688919}}, {"id": 5015351, "name": "Wixom", "state": "MI", "country": "US", "coord": {"lon": -83.536331, "lat": 42.524761}}, {"id": 5015397, "name": "Wolf Lake", "state": "MI", "country": "US", "coord": {"lon": -86.109779, "lat": 43.254742}}, {"id": 5015416, "name": "Wolverine Lake", "state": "MI", "country": "US", "coord": {"lon": -83.473831, "lat": 42.556702}}, {"id": 5015456, "name": "Woodhaven", "state": "MI", "country": "US", "coord": {"lon": -83.2416, "lat": 42.138931}}, {"id": 5015464, "name": "Woodland Beach", "state": "MI", "country": "US", "coord": {"lon": -83.313263, "lat": 41.940048}}, {"id": 5015517, "name": "Woods Corners", "state": "MI", "country": "US", "coord": {"lon": -85.075012, "lat": 43.076141}}, {"id": 5015599, "name": "Wyandotte", "state": "MI", "country": "US", "coord": {"lon": -83.149918, "lat": 42.214211}}, {"id": 5015618, "name": "Wyoming", "state": "MI", "country": "US", "coord": {"lon": -85.705307, "lat": 42.913361}}, {"id": 5015627, "name": "Yale", "state": "MI", "country": "US", "coord": {"lon": -82.798264, "lat": 43.130032}}, {"id": 5015688, "name": "Ypsilanti", "state": "MI", "country": "US", "coord": {"lon": -83.612991, "lat": 42.24115}}, {"id": 5015701, "name": "Zeeland", "state": "MI", "country": "US", "coord": {"lon": -86.018646, "lat": 42.812519}}, {"id": 5015723, "name": "Zilwaukee", "state": "MI", "country": "US", "coord": {"lon": -83.920532, "lat": 43.47641}}, {"id": 5015844, "name": "Ada", "state": "MN", "country": "US", "coord": {"lon": -96.51535, "lat": 47.29969}}, {"id": 5015882, "name": "Adrian", "state": "MN", "country": "US", "coord": {"lon": -95.9328, "lat": 43.634972}}, {"id": 5015924, "name": "Afton", "state": "MN", "country": "US", "coord": {"lon": -92.783539, "lat": 44.902748}}, {"id": 5015978, "name": "Aitkin", "state": "MN", "country": "US", "coord": {"lon": -93.710251, "lat": 46.533009}}, {"id": 5015979, "name": "Aitkin County", "state": "MN", "country": "US", "coord": {"lon": -93.416901, "lat": 46.599949}}, {"id": 5016002, "name": "Albany", "state": "MN", "country": "US", "coord": {"lon": -94.57, "lat": 45.629959}}, {"id": 5016024, "name": "Albert Lea", "state": "MN", "country": "US", "coord": {"lon": -93.368271, "lat": 43.64801}}, {"id": 5016042, "name": "Alberta", "state": "MN", "country": "US", "coord": {"lon": -96.047546, "lat": 45.573299}}, {"id": 5016051, "name": "Albertville", "state": "MN", "country": "US", "coord": {"lon": -93.654411, "lat": 45.23774}}, {"id": 5016060, "name": "Albion Center", "state": "MN", "country": "US", "coord": {"lon": -94.073593, "lat": 45.17691}}, {"id": 5016108, "name": "Alexandria", "state": "MN", "country": "US", "coord": {"lon": -95.377541, "lat": 45.885239}}, {"id": 5016374, "name": "Andover", "state": "MN", "country": "US", "coord": {"lon": -93.291344, "lat": 45.233299}}, {"id": 5016450, "name": "Anoka", "state": "MN", "country": "US", "coord": {"lon": -93.387177, "lat": 45.197739}}, {"id": 5016452, "name": "Anoka County", "state": "MN", "country": "US", "coord": {"lon": -93.250778, "lat": 45.250519}}, {"id": 5016490, "name": "Annandale", "state": "MN", "country": "US", "coord": {"lon": -94.124428, "lat": 45.262741}}, {"id": 5016494, "name": "Apple Valley", "state": "MN", "country": "US", "coord": {"lon": -93.21772, "lat": 44.731911}}, {"id": 5016496, "name": "Appleton", "state": "MN", "country": "US", "coord": {"lon": -96.019768, "lat": 45.196911}}, {"id": 5016539, "name": "Arco", "state": "MN", "country": "US", "coord": {"lon": -96.183647, "lat": 44.383579}}, {"id": 5016553, "name": "Arden Hills", "state": "MN", "country": "US", "coord": {"lon": -93.156609, "lat": 45.05024}}, {"id": 5016580, "name": "Arlington", "state": "MN", "country": "US", "coord": {"lon": -94.080528, "lat": 44.608299}}, {"id": 5016617, "name": "Arnold", "state": "MN", "country": "US", "coord": {"lon": -92.090469, "lat": 46.880219}}, {"id": 5016681, "name": "Ash Creek", "state": "MN", "country": "US", "coord": {"lon": -96.194199, "lat": 43.5383}}, {"id": 5016813, "name": "Atwater", "state": "MN", "country": "US", "coord": {"lon": -94.778061, "lat": 45.138851}}, {"id": 5016877, "name": "Aurora", "state": "MN", "country": "US", "coord": {"lon": -92.237122, "lat": 47.52993}}, {"id": 5016884, "name": "Austin", "state": "MN", "country": "US", "coord": {"lon": -92.97464, "lat": 43.66663}}, {"id": 5016917, "name": "Avon", "state": "MN", "country": "US", "coord": {"lon": -94.451668, "lat": 45.609131}}, {"id": 5016937, "name": "Babbitt", "state": "MN", "country": "US", "coord": {"lon": -91.944603, "lat": 47.70853}}, {"id": 5016990, "name": "Bagley", "state": "MN", "country": "US", "coord": {"lon": -95.398354, "lat": 47.521622}}, {"id": 5017121, "name": "Bancroft", "state": "MN", "country": "US", "coord": {"lon": -93.355209, "lat": 43.701618}}, {"id": 5017185, "name": "Barnesville", "state": "MN", "country": "US", "coord": {"lon": -96.419792, "lat": 46.65218}}, {"id": 5017218, "name": "Barry", "state": "MN", "country": "US", "coord": {"lon": -96.559227, "lat": 45.558022}}, {"id": 5017260, "name": "Bass Brook", "state": "MN", "country": "US", "coord": {"lon": -93.646606, "lat": 47.238281}}, {"id": 5017385, "name": "Baudette", "state": "MN", "country": "US", "coord": {"lon": -94.59993, "lat": 48.712471}}, {"id": 5017396, "name": "Baxter", "state": "MN", "country": "US", "coord": {"lon": -94.286667, "lat": 46.3433}}, {"id": 5017416, "name": "Bayport", "state": "MN", "country": "US", "coord": {"lon": -92.781036, "lat": 45.021358}}, {"id": 5017596, "name": "Beaver Crossing", "state": "MN", "country": "US", "coord": {"lon": -91.524887, "lat": 47.242149}}, {"id": 5017660, "name": "Becker", "state": "MN", "country": "US", "coord": {"lon": -93.876923, "lat": 45.393299}}, {"id": 5017670, "name": "Becker County", "state": "MN", "country": "US", "coord": {"lon": -95.683647, "lat": 46.949959}}, {"id": 5017761, "name": "Belle Plaine", "state": "MN", "country": "US", "coord": {"lon": -93.76857, "lat": 44.622742}}, {"id": 5017805, "name": "Beltrami County", "state": "MN", "country": "US", "coord": {"lon": -94.900269, "lat": 47.916618}}, {"id": 5017822, "name": "Bemidji", "state": "MN", "country": "US", "coord": {"lon": -94.88028, "lat": 47.47356}}, {"id": 5017880, "name": "Benson", "state": "", "country": "US", "coord": {"lon": -95.600029, "lat": 45.31496}}, {"id": 5017916, "name": "Benton County", "state": "MN", "country": "US", "coord": {"lon": -93.983589, "lat": 45.69997}}, {"id": 5018004, "name": "Bertha", "state": "MN", "country": "US", "coord": {"lon": -95.062798, "lat": 46.266628}}, {"id": 5018226, "name": "Big Bear Landing", "state": "MN", "country": "US", "coord": {"lon": -95.476967, "lat": 47.33662}}, {"id": 5018285, "name": "Big Lake", "state": "MN", "country": "US", "coord": {"lon": -93.746078, "lat": 45.332458}}, {"id": 5018364, "name": "Big Stone County", "state": "MN", "country": "US", "coord": {"lon": -96.45034, "lat": 45.39996}}, {"id": 5018431, "name": "Bingham Lake", "state": "MN", "country": "US", "coord": {"lon": -95.046379, "lat": 43.90662}}, {"id": 5018508, "name": "Birchwood", "state": "MN", "country": "US", "coord": {"lon": -92.976051, "lat": 45.061081}}, {"id": 5018516, "name": "Bird Island", "state": "MN", "country": "US", "coord": {"lon": -94.895554, "lat": 44.76746}}, {"id": 5018651, "name": "Blaine", "state": "MN", "country": "US", "coord": {"lon": -93.234947, "lat": 45.160801}}, {"id": 5018703, "name": "Blomford", "state": "MN", "country": "US", "coord": {"lon": -93.142448, "lat": 45.50024}}, {"id": 5018727, "name": "Blooming Prairie", "state": "MN", "country": "US", "coord": {"lon": -93.051033, "lat": 43.866631}}, {"id": 5018739, "name": "Bloomington", "state": "MN", "country": "US", "coord": {"lon": -93.298279, "lat": 44.840801}}, {"id": 5018751, "name": "Blue Earth", "state": "MN", "country": "US", "coord": {"lon": -94.10218, "lat": 43.637459}}, {"id": 5018756, "name": "Blue Earth County", "state": "MN", "country": "US", "coord": {"lon": -94.066902, "lat": 44.033298}}, {"id": 5018910, "name": "Boise De Sioux Mobile Estates", "state": "MN", "country": "US", "coord": {"lon": -96.589439, "lat": 46.25444}}, {"id": 5019105, "name": "Braham", "state": "MN", "country": "US", "coord": {"lon": -93.170776, "lat": 45.72274}}, {"id": 5019116, "name": "Brainerd", "state": "MN", "country": "US", "coord": {"lon": -94.200829, "lat": 46.358021}}, {"id": 5019124, "name": "Branch", "state": "MN", "country": "US", "coord": {"lon": -92.961884, "lat": 45.485241}}, {"id": 5019168, "name": "Breckenridge", "state": "MN", "country": "US", "coord": {"lon": -96.588127, "lat": 46.263569}}, {"id": 5019188, "name": "Breezy Point", "state": "MN", "country": "US", "coord": {"lon": -94.216942, "lat": 46.616631}}, {"id": 5019330, "name": "Brooklyn Center", "state": "MN", "country": "US", "coord": {"lon": -93.332733, "lat": 45.07608}}, {"id": 5019335, "name": "Brooklyn Park", "state": "MN", "country": "US", "coord": {"lon": -93.356339, "lat": 45.094131}}, {"id": 5019385, "name": "Brown County", "state": "MN", "country": "US", "coord": {"lon": -94.683594, "lat": 44.233292}}, {"id": 5019445, "name": "Brownsdale", "state": "MN", "country": "US", "coord": {"lon": -92.869347, "lat": 43.740238}}, {"id": 5019460, "name": "Brownton", "state": "MN", "country": "US", "coord": {"lon": -94.350258, "lat": 44.731911}}, {"id": 5019588, "name": "Buffalo", "state": "MN", "country": "US", "coord": {"lon": -93.874687, "lat": 45.171909}}, {"id": 5019767, "name": "Burnsville", "state": "MN", "country": "US", "coord": {"lon": -93.277718, "lat": 44.767738}}, {"id": 5019874, "name": "Buyck", "state": "MN", "country": "US", "coord": {"lon": -92.523491, "lat": 48.121849}}, {"id": 5019890, "name": "Byron", "state": "MN", "country": "US", "coord": {"lon": -92.645462, "lat": 44.032742}}, {"id": 5019915, "name": "Cable", "state": "MN", "country": "US", "coord": {"lon": -94.07415, "lat": 45.511631}}, {"id": 5019936, "name": "Caledonia", "state": "MN", "country": "US", "coord": {"lon": -91.496811, "lat": 43.634689}}, {"id": 5020068, "name": "Cambridge", "state": "MN", "country": "US", "coord": {"lon": -93.224388, "lat": 45.572739}}, {"id": 5020238, "name": "Canby", "state": "MN", "country": "US", "coord": {"lon": -96.276428, "lat": 44.708851}}, {"id": 5020281, "name": "Cannon Falls", "state": "MN", "country": "US", "coord": {"lon": -92.905479, "lat": 44.506908}}, {"id": 5020428, "name": "Carlton", "state": "MN", "country": "US", "coord": {"lon": -92.424911, "lat": 46.66383}}, {"id": 5020496, "name": "Carver", "state": "MN", "country": "US", "coord": {"lon": -93.625793, "lat": 44.763569}}, {"id": 5020499, "name": "Carver County", "state": "MN", "country": "US", "coord": {"lon": -93.783569, "lat": 44.799961}}, {"id": 5020568, "name": "Castle Danger", "state": "MN", "country": "US", "coord": {"lon": -91.503227, "lat": 47.120762}}, {"id": 5020733, "name": "Center City", "state": "MN", "country": "US", "coord": {"lon": -92.816597, "lat": 45.393848}}, {"id": 5020751, "name": "Centerville", "state": "MN", "country": "US", "coord": {"lon": -93.055779, "lat": 45.163021}}, {"id": 5020859, "name": "Champlin", "state": "MN", "country": "US", "coord": {"lon": -93.397453, "lat": 45.18885}}, {"id": 5020881, "name": "Chanhassen", "state": "MN", "country": "US", "coord": {"lon": -93.530792, "lat": 44.86219}}, {"id": 5020938, "name": "Chaska", "state": "MN", "country": "US", "coord": {"lon": -93.60218, "lat": 44.78941}}, {"id": 5020946, "name": "Chatfield", "state": "MN", "country": "US", "coord": {"lon": -92.189049, "lat": 43.84552}}, {"id": 5020988, "name": "Chester", "state": "MN", "country": "US", "coord": {"lon": -92.345169, "lat": 44.006908}}, {"id": 5020993, "name": "Cherry Grove", "state": "MN", "country": "US", "coord": {"lon": -92.28878, "lat": 43.58746}}, {"id": 5021038, "name": "Chippewa County", "state": "MN", "country": "US", "coord": {"lon": -95.583641, "lat": 45.033291}}, {"id": 5021063, "name": "Chisago City", "state": "MN", "country": "US", "coord": {"lon": -92.889938, "lat": 45.373581}}, {"id": 5021070, "name": "Chisago County", "state": "MN", "country": "US", "coord": {"lon": -92.900223, "lat": 45.500519}}, {"id": 5021088, "name": "Chisholm", "state": "MN", "country": "US", "coord": {"lon": -92.883797, "lat": 47.489101}}, {"id": 5021323, "name": "Circle Pines", "state": "MN", "country": "US", "coord": {"lon": -93.151611, "lat": 45.148579}}, {"id": 5021351, "name": "Clara City", "state": "MN", "country": "US", "coord": {"lon": -95.366402, "lat": 44.95496}}, {"id": 5021444, "name": "Clay County", "state": "MN", "country": "US", "coord": {"lon": -96.483681, "lat": 46.883289}}, {"id": 5021527, "name": "Clearwater", "state": "MN", "country": "US", "coord": {"lon": -94.048866, "lat": 45.419411}}, {"id": 5021535, "name": "Clearwater County", "state": "MN", "country": "US", "coord": {"lon": -95.366959, "lat": 47.56662}}, {"id": 5021606, "name": "Clinton", "state": "MN", "country": "US", "coord": {"lon": -96.43367, "lat": 45.460239}}, {"id": 5021610, "name": "Clinton Falls", "state": "MN", "country": "US", "coord": {"lon": -93.24688, "lat": 44.138851}}, {"id": 5021632, "name": "Cloquet", "state": "MN", "country": "US", "coord": {"lon": -92.459358, "lat": 46.721611}}, {"id": 5021676, "name": "Cloverleaf Mobile Home Community", "state": "MN", "country": "US", "coord": {"lon": -94.138893, "lat": 45.57222}}, {"id": 5021678, "name": "Cloverton", "state": "MN", "country": "US", "coord": {"lon": -92.319641, "lat": 46.167999}}, {"id": 5021723, "name": "Cohasset", "state": "MN", "country": "US", "coord": {"lon": -93.620216, "lat": 47.263561}}, {"id": 5021726, "name": "Cokato", "state": "MN", "country": "US", "coord": {"lon": -94.18998, "lat": 45.075802}}, {"id": 5021769, "name": "Coleraine", "state": "MN", "country": "US", "coord": {"lon": -93.427711, "lat": 47.28883}}, {"id": 5021784, "name": "Collegeville", "state": "MN", "country": "US", "coord": {"lon": -94.363052, "lat": 45.59441}}, {"id": 5021788, "name": "Cold Spring", "state": "MN", "country": "US", "coord": {"lon": -94.428879, "lat": 45.455799}}, {"id": 5021807, "name": "Cologne", "state": "MN", "country": "US", "coord": {"lon": -93.781349, "lat": 44.771629}}, {"id": 5021828, "name": "Columbia Heights", "state": "MN", "country": "US", "coord": {"lon": -93.263, "lat": 45.040798}}, {"id": 5021977, "name": "Cook County", "state": "MN", "country": "US", "coord": {"lon": -90.55011, "lat": 47.916561}}, {"id": 5022025, "name": "Coon Rapids", "state": "MN", "country": "US", "coord": {"lon": -93.287727, "lat": 45.119968}}, {"id": 5022050, "name": "Corcoran", "state": "MN", "country": "US", "coord": {"lon": -93.547462, "lat": 45.095242}}, {"id": 5022134, "name": "Cottage Grove", "state": "MN", "country": "US", "coord": {"lon": -92.943817, "lat": 44.82774}}, {"id": 5022148, "name": "Cottonwood", "state": "MN", "country": "US", "coord": {"lon": -95.674187, "lat": 44.608849}}, {"id": 5022154, "name": "Cottonwood County", "state": "MN", "country": "US", "coord": {"lon": -95.200272, "lat": 44.000511}}, {"id": 5023465, "name": "Crookston", "state": "MN", "country": "US", "coord": {"lon": -96.608124, "lat": 47.774139}}, {"id": 5023472, "name": "Crosby", "state": "MN", "country": "US", "coord": {"lon": -93.957764, "lat": 46.482182}}, {"id": 5023482, "name": "Cross Lake", "state": "MN", "country": "US", "coord": {"lon": -94.113869, "lat": 46.659409}}, {"id": 5023545, "name": "Crow Wing County", "state": "MN", "country": "US", "coord": {"lon": -94.083603, "lat": 46.466629}}, {"id": 5023571, "name": "Crystal", "state": "MN", "country": "US", "coord": {"lon": -93.360229, "lat": 45.032742}}, {"id": 5023661, "name": "Cushing", "state": "MN", "country": "US", "coord": {"lon": -94.576958, "lat": 46.13969}}, {"id": 5023752, "name": "Dakota County", "state": "MN", "country": "US", "coord": {"lon": -93.066879, "lat": 44.66663}}, {"id": 5023890, "name": "Dassel", "state": "MN", "country": "US", "coord": {"lon": -94.306931, "lat": 45.081631}}, {"id": 5023932, "name": "Dawson", "state": "MN", "country": "US", "coord": {"lon": -96.054482, "lat": 44.932739}}, {"id": 5023970, "name": "Dayton", "state": "MN", "country": "US", "coord": {"lon": -93.514961, "lat": 45.243851}}, {"id": 5024044, "name": "Deephaven", "state": "MN", "country": "US", "coord": {"lon": -93.522461, "lat": 44.929691}}, {"id": 5024138, "name": "Delano", "state": "MN", "country": "US", "coord": {"lon": -93.789131, "lat": 45.041908}}, {"id": 5024181, "name": "Dellwood", "state": "MN", "country": "US", "coord": {"lon": -92.972443, "lat": 45.08997}}, {"id": 5024237, "name": "Detroit Lakes", "state": "MN", "country": "US", "coord": {"lon": -95.845329, "lat": 46.817181}}, {"id": 5024324, "name": "Dilworth", "state": "MN", "country": "US", "coord": {"lon": -96.703407, "lat": 46.876629}}, {"id": 5024423, "name": "Dodge Center", "state": "MN", "country": "US", "coord": {"lon": -92.854637, "lat": 44.028019}}, {"id": 5024544, "name": "Douglas County", "state": "MN", "country": "US", "coord": {"lon": -95.450317, "lat": 45.933289}}, {"id": 5024719, "name": "Duluth", "state": "MN", "country": "US", "coord": {"lon": -92.106583, "lat": 46.783272}}, {"id": 5024756, "name": "Dundas", "state": "MN", "country": "US", "coord": {"lon": -93.201881, "lat": 44.429409}}, {"id": 5024825, "name": "Eagan", "state": "MN", "country": "US", "coord": {"lon": -93.166893, "lat": 44.804131}}, {"id": 5024846, "name": "Eagle Lake", "state": "MN", "country": "US", "coord": {"lon": -93.88134, "lat": 44.16497}}, {"id": 5024937, "name": "East Bethel", "state": "MN", "country": "US", "coord": {"lon": -93.202454, "lat": 45.319408}}, {"id": 5024967, "name": "East Chain", "state": "MN", "country": "US", "coord": {"lon": -94.36525, "lat": 43.558842}}, {"id": 5024996, "name": "East Grand Forks", "state": "MN", "country": "US", "coord": {"lon": -97.024521, "lat": 47.929981}}, {"id": 5025001, "name": "East Gull Lake", "state": "MN", "country": "US", "coord": {"lon": -94.355843, "lat": 46.40802}}, {"id": 5025219, "name": "Eden Prairie", "state": "MN", "country": "US", "coord": {"lon": -93.470787, "lat": 44.854691}}, {"id": 5025225, "name": "Eden Valley", "state": "MN", "country": "US", "coord": {"lon": -94.546112, "lat": 45.326069}}, {"id": 5025249, "name": "Edgerton", "state": "MN", "country": "US", "coord": {"lon": -96.128639, "lat": 43.872471}}, {"id": 5025264, "name": "Edina", "state": "MN", "country": "US", "coord": {"lon": -93.349953, "lat": 44.88969}}, {"id": 5025381, "name": "Elbow Lake", "state": "MN", "country": "US", "coord": {"lon": -95.976723, "lat": 45.994129}}, {"id": 5025420, "name": "Elgin", "state": "MN", "country": "US", "coord": {"lon": -92.251556, "lat": 44.130241}}, {"id": 5025471, "name": "Elk River", "state": "MN", "country": "US", "coord": {"lon": -93.567177, "lat": 45.303848}}, {"id": 5025627, "name": "Ely", "state": "MN", "country": "US", "coord": {"lon": -91.867088, "lat": 47.90324}}, {"id": 5025861, "name": "Esko", "state": "MN", "country": "US", "coord": {"lon": -92.363251, "lat": 46.70578}}, {"id": 5025971, "name": "Eveleth", "state": "MN", "country": "US", "coord": {"lon": -92.539909, "lat": 47.462429}}, {"id": 5026042, "name": "Excelsior", "state": "MN", "country": "US", "coord": {"lon": -93.566353, "lat": 44.903301}}, {"id": 5026059, "name": "Eyota", "state": "MN", "country": "US", "coord": {"lon": -92.2285, "lat": 43.9883}}, {"id": 5026094, "name": "Fairfax", "state": "MN", "country": "US", "coord": {"lon": -94.720818, "lat": 44.529129}}, {"id": 5026114, "name": "Fairmont", "state": "MN", "country": "US", "coord": {"lon": -94.461082, "lat": 43.65218}}, {"id": 5026119, "name": "Fairmont Estates", "state": "MN", "country": "US", "coord": {"lon": -94.443298, "lat": 43.668011}}, {"id": 5026251, "name": "Falcon Heights", "state": "MN", "country": "US", "coord": {"lon": -93.166328, "lat": 44.991631}}, {"id": 5026291, "name": "Faribault", "state": "MN", "country": "US", "coord": {"lon": -93.268829, "lat": 44.29496}}, {"id": 5026317, "name": "Farming", "state": "MN", "country": "US", "coord": {"lon": -94.598061, "lat": 45.51524}}, {"id": 5026321, "name": "Farmington", "state": "MN", "country": "US", "coord": {"lon": -93.143547, "lat": 44.64024}}, {"id": 5026416, "name": "Fergus Falls", "state": "MN", "country": "US", "coord": {"lon": -96.07756, "lat": 46.28302}}, {"id": 5026478, "name": "Fillmore County", "state": "MN", "country": "US", "coord": {"lon": -92.100159, "lat": 43.66663}}, {"id": 5026983, "name": "Florian", "state": "MN", "country": "US", "coord": {"lon": -96.628113, "lat": 48.4422}}, {"id": 5027025, "name": "Foley", "state": "MN", "country": "US", "coord": {"lon": -93.909698, "lat": 45.664688}}, {"id": 5027095, "name": "Forest City", "state": "MN", "country": "US", "coord": {"lon": -94.466377, "lat": 45.206348}}, {"id": 5027117, "name": "Forest Lake", "state": "MN", "country": "US", "coord": {"lon": -92.985222, "lat": 45.278858}}, {"id": 5027191, "name": "Fosston", "state": "MN", "country": "US", "coord": {"lon": -95.751419, "lat": 47.576351}}, {"id": 5027366, "name": "Frazee", "state": "MN", "country": "US", "coord": {"lon": -95.700882, "lat": 46.728008}}, {"id": 5027399, "name": "Freeborn County", "state": "MN", "country": "US", "coord": {"lon": -93.350212, "lat": 43.666618}}, {"id": 5027450, "name": "French", "state": "MN", "country": "US", "coord": {"lon": -96.201729, "lat": 46.288021}}, {"id": 5027482, "name": "Fridley", "state": "MN", "country": "US", "coord": {"lon": -93.263283, "lat": 45.086079}}, {"id": 5027555, "name": "Fulda", "state": "MN", "country": "US", "coord": {"lon": -95.600288, "lat": 43.870522}}, {"id": 5027737, "name": "Gates Corner", "state": "MN", "country": "US", "coord": {"lon": -95.319138, "lat": 48.452751}}, {"id": 5027765, "name": "Gaylord", "state": "MN", "country": "US", "coord": {"lon": -94.220528, "lat": 44.55302}}, {"id": 5027943, "name": "Gilbert", "state": "MN", "country": "US", "coord": {"lon": -92.464912, "lat": 47.488819}}, {"id": 5028042, "name": "Glencoe", "state": "MN", "country": "US", "coord": {"lon": -94.151642, "lat": 44.769131}}, {"id": 5028087, "name": "Glenwood", "state": "MN", "country": "US", "coord": {"lon": -95.389763, "lat": 45.650242}}, {"id": 5028126, "name": "Glyndon", "state": "MN", "country": "US", "coord": {"lon": -96.578957, "lat": 46.87524}}, {"id": 5028163, "name": "Golden Valley", "state": "MN", "country": "US", "coord": {"lon": -93.349121, "lat": 45.009689}}, {"id": 5028230, "name": "Goodhue", "state": "MN", "country": "US", "coord": {"lon": -92.623802, "lat": 44.40052}}, {"id": 5028232, "name": "Goodhue County", "state": "MN", "country": "US", "coord": {"lon": -92.716858, "lat": 44.41663}}, {"id": 5028259, "name": "Goodview", "state": "MN", "country": "US", "coord": {"lon": -91.695709, "lat": 44.062462}}, {"id": 5028500, "name": "Grand Marais", "state": "MN", "country": "US", "coord": {"lon": -90.334267, "lat": 47.75045}}, {"id": 5028509, "name": "Grand Meadow", "state": "MN", "country": "US", "coord": {"lon": -92.572121, "lat": 43.705799}}, {"id": 5028537, "name": "Grand Rapids", "state": "MN", "country": "US", "coord": {"lon": -93.530212, "lat": 47.237171}}, {"id": 5028572, "name": "Granite Falls", "state": "MN", "country": "US", "coord": {"lon": -95.545578, "lat": 44.809959}}, {"id": 5028612, "name": "Grant", "state": "MN", "country": "US", "coord": {"lon": -92.910492, "lat": 45.084412}}, {"id": 5028795, "name": "Greenfield", "state": "MN", "country": "US", "coord": {"lon": -93.691353, "lat": 45.103298}}, {"id": 5029154, "name": "Hallock", "state": "MN", "country": "US", "coord": {"lon": -96.946449, "lat": 48.774429}}, {"id": 5029181, "name": "Ham Lake", "state": "MN", "country": "US", "coord": {"lon": -93.249947, "lat": 45.25024}}, {"id": 5029276, "name": "Hanover", "state": "MN", "country": "US", "coord": {"lon": -93.666351, "lat": 45.1558}}, {"id": 5029374, "name": "Harmony", "state": "MN", "country": "US", "coord": {"lon": -92.010162, "lat": 43.555241}}, {"id": 5029405, "name": "Harris", "state": "MN", "country": "US", "coord": {"lon": -92.974663, "lat": 45.586349}}, {"id": 5029500, "name": "Hastings", "state": "MN", "country": "US", "coord": {"lon": -92.852432, "lat": 44.743301}}, {"id": 5029570, "name": "Hawley", "state": "MN", "country": "US", "coord": {"lon": -96.316727, "lat": 46.880791}}, {"id": 5029658, "name": "Hayfield", "state": "MN", "country": "US", "coord": {"lon": -92.847687, "lat": 43.890518}}, {"id": 5029756, "name": "Hector", "state": "MN", "country": "US", "coord": {"lon": -94.715553, "lat": 44.743851}}, {"id": 5029877, "name": "Hennepin County", "state": "MN", "country": "US", "coord": {"lon": -93.450233, "lat": 45.016628}}, {"id": 5029952, "name": "Hermantown", "state": "MN", "country": "US", "coord": {"lon": -92.238251, "lat": 46.806889}}, {"id": 5030005, "name": "Hibbing", "state": "MN", "country": "US", "coord": {"lon": -92.937691, "lat": 47.427151}}, {"id": 5030242, "name": "Hinckley", "state": "MN", "country": "US", "coord": {"lon": -92.944366, "lat": 46.011341}}, {"id": 5030670, "name": "Hopkins", "state": "MN", "country": "US", "coord": {"lon": -93.46273, "lat": 44.924961}}, {"id": 5030832, "name": "Howard Lake", "state": "MN", "country": "US", "coord": {"lon": -94.073311, "lat": 45.060799}}, {"id": 5030856, "name": "Hoyt Lakes", "state": "MN", "country": "US", "coord": {"lon": -92.138512, "lat": 47.51965}}, {"id": 5030862, "name": "Hubbard County", "state": "MN", "country": "US", "coord": {"lon": -94.900291, "lat": 47.09996}}, {"id": 5030884, "name": "Hugo", "state": "MN", "country": "US", "coord": {"lon": -92.993271, "lat": 45.159969}}, {"id": 5030977, "name": "Hutchinson", "state": "MN", "country": "US", "coord": {"lon": -94.369713, "lat": 44.887741}}, {"id": 5031190, "name": "Independence", "state": "MN", "country": "US", "coord": {"lon": -93.707458, "lat": 45.025242}}, {"id": 5031404, "name": "International Falls", "state": "MN", "country": "US", "coord": {"lon": -93.41098, "lat": 48.601051}}, {"id": 5031412, "name": "Inver Grove Heights", "state": "MN", "country": "US", "coord": {"lon": -93.042717, "lat": 44.848019}}, {"id": 5031489, "name": "Isanti", "state": "MN", "country": "US", "coord": {"lon": -93.247726, "lat": 45.490238}}, {"id": 5031493, "name": "Isanti County", "state": "MN", "country": "US", "coord": {"lon": -93.300232, "lat": 45.549961}}, {"id": 5031616, "name": "Itasca County", "state": "MN", "country": "US", "coord": {"lon": -93.583527, "lat": 47.5005}}, {"id": 5031626, "name": "Ivanhoe", "state": "MN", "country": "US", "coord": {"lon": -96.247261, "lat": 44.463299}}, {"id": 5031678, "name": "Jackson", "state": "MN", "country": "US", "coord": {"lon": -94.988602, "lat": 43.620789}}, {"id": 5031682, "name": "Jackson County", "state": "MN", "country": "US", "coord": {"lon": -94.87471, "lat": 43.625511}}, {"id": 5031749, "name": "Janesville", "state": "MN", "country": "US", "coord": {"lon": -93.708, "lat": 44.116081}}, {"id": 5032106, "name": "Jordan", "state": "MN", "country": "US", "coord": {"lon": -93.6269, "lat": 44.666908}}, {"id": 5032145, "name": "Judge", "state": "MN", "country": "US", "coord": {"lon": -92.476013, "lat": 43.899132}}, {"id": 5032867, "name": "Kandiyohi County", "state": "MN", "country": "US", "coord": {"lon": -95.000839, "lat": 45.133301}}, {"id": 5032920, "name": "Kasson", "state": "MN", "country": "US", "coord": {"lon": -92.75074, "lat": 44.029961}}, {"id": 5032963, "name": "Keewatin", "state": "MN", "country": "US", "coord": {"lon": -93.072418, "lat": 47.399658}}, {"id": 5033090, "name": "Kenyon", "state": "MN", "country": "US", "coord": {"lon": -92.985481, "lat": 44.27219}}, {"id": 5033135, "name": "Kerrick", "state": "MN", "country": "US", "coord": {"lon": -92.585747, "lat": 46.338829}}, {"id": 5033353, "name": "Kittson County", "state": "MN", "country": "US", "coord": {"lon": -96.783661, "lat": 48.766651}}, {"id": 5033413, "name": "Knollwood Park", "state": "MN", "country": "US", "coord": {"lon": -93.961899, "lat": 44.197189}}, {"id": 5033463, "name": "Koochiching County", "state": "MN", "country": "US", "coord": {"lon": -93.783508, "lat": 48.233292}}, {"id": 5033580, "name": "La Crescent", "state": "MN", "country": "US", "coord": {"lon": -91.304031, "lat": 43.828018}}, {"id": 5033727, "name": "Lake City", "state": "MN", "country": "US", "coord": {"lon": -92.266838, "lat": 44.449409}}, {"id": 5033738, "name": "Lake County", "state": "MN", "country": "US", "coord": {"lon": -91.416817, "lat": 47.63324}}, {"id": 5033740, "name": "Lake Crystal", "state": "MN", "country": "US", "coord": {"lon": -94.218849, "lat": 44.105801}}, {"id": 5033762, "name": "Lake Elmo", "state": "MN", "country": "US", "coord": {"lon": -92.879379, "lat": 44.9958}}, {"id": 5033783, "name": "Zimmerman", "state": "MN", "country": "US", "coord": {"lon": -93.589958, "lat": 45.443298}}, {"id": 5033910, "name": "Lake Saint Croix Beach", "state": "MN", "country": "US", "coord": {"lon": -92.766869, "lat": 44.920799}}, {"id": 5033911, "name": "Lake Sarah", "state": "MN", "country": "US", "coord": {"lon": -93.690239, "lat": 45.071911}}, {"id": 5033918, "name": "Lake Shore", "state": "MN", "country": "US", "coord": {"lon": -94.360558, "lat": 46.485519}}, {"id": 5033921, "name": "Lake Shore Terrace Mobile Home Park", "state": "MN", "country": "US", "coord": {"lon": -92.839172, "lat": 45.40889}}, {"id": 5033962, "name": "Lakefield", "state": "MN", "country": "US", "coord": {"lon": -95.171661, "lat": 43.67746}}, {"id": 5033970, "name": "Lakeland", "state": "MN", "country": "US", "coord": {"lon": -92.765762, "lat": 44.95636}}, {"id": 5034059, "name": "Lakeville", "state": "MN", "country": "US", "coord": {"lon": -93.242722, "lat": 44.649689}}, {"id": 5034222, "name": "Lastrup", "state": "MN", "country": "US", "coord": {"lon": -94.063316, "lat": 46.03941}}, {"id": 5034239, "name": "Lauderdale", "state": "MN", "country": "US", "coord": {"lon": -93.20578, "lat": 44.998581}}, {"id": 5034270, "name": "Lawndale", "state": "MN", "country": "US", "coord": {"lon": -96.360336, "lat": 46.5569}}, {"id": 5034299, "name": "Le Center", "state": "MN", "country": "US", "coord": {"lon": -93.730232, "lat": 44.389408}}, {"id": 5034325, "name": "Le Sueur", "state": "MN", "country": "US", "coord": {"lon": -93.915237, "lat": 44.461349}}, {"id": 5034432, "name": "Legionville", "state": "MN", "country": "US", "coord": {"lon": -94.19944, "lat": 46.447189}}, {"id": 5034516, "name": "Lester Prairie", "state": "MN", "country": "US", "coord": {"lon": -94.041641, "lat": 44.88385}}, {"id": 5034545, "name": "Lewiston", "state": "MN", "country": "US", "coord": {"lon": -91.869324, "lat": 43.984409}}, {"id": 5034562, "name": "Lexington", "state": "MN", "country": "US", "coord": {"lon": -93.163277, "lat": 45.142471}}, {"id": 5034652, "name": "Lincoln County", "state": "MN", "country": "US", "coord": {"lon": -96.266991, "lat": 44.41663}}, {"id": 5034746, "name": "Lindstrom", "state": "MN", "country": "US", "coord": {"lon": -92.847992, "lat": 45.389408}}, {"id": 5034767, "name": "Lino Lakes", "state": "MN", "country": "US", "coord": {"lon": -93.088829, "lat": 45.16024}}, {"id": 5034813, "name": "Litchfield", "state": "MN", "country": "US", "coord": {"lon": -94.528053, "lat": 45.127178}}, {"id": 5034905, "name": "Little Canada", "state": "MN", "country": "US", "coord": {"lon": -93.087723, "lat": 45.026909}}, {"id": 5034970, "name": "Little Falls", "state": "MN", "country": "US", "coord": {"lon": -94.362503, "lat": 45.976349}}, {"id": 5035199, "name": "Little Rock", "state": "MN", "country": "US", "coord": {"lon": -95.11055, "lat": 47.868011}}, {"id": 5035522, "name": "Long Lake", "state": "MN", "country": "US", "coord": {"lon": -93.571617, "lat": 44.986629}}, {"id": 5035635, "name": "Long Prairie", "state": "MN", "country": "US", "coord": {"lon": -94.865578, "lat": 45.974689}}, {"id": 5035676, "name": "Longworth", "state": "MN", "country": "US", "coord": {"lon": -95.36496, "lat": 48.982491}}, {"id": 5035679, "name": "Lonsdale", "state": "MN", "country": "US", "coord": {"lon": -93.428558, "lat": 44.48024}}, {"id": 5036062, "name": "Luverne", "state": "MN", "country": "US", "coord": {"lon": -96.212807, "lat": 43.65414}}, {"id": 5036131, "name": "Lyon County", "state": "MN", "country": "US", "coord": {"lon": -95.850304, "lat": 44.41663}}, {"id": 5036191, "name": "Madelia", "state": "MN", "country": "US", "coord": {"lon": -94.418297, "lat": 44.050789}}, {"id": 5036210, "name": "Madison", "state": "MN", "country": "US", "coord": {"lon": -96.195877, "lat": 45.009682}}, {"id": 5036223, "name": "Madison Lake", "state": "MN", "country": "US", "coord": {"lon": -93.815514, "lat": 44.204411}}, {"id": 5036278, "name": "Mahnomen", "state": "MN", "country": "US", "coord": {"lon": -95.968651, "lat": 47.315239}}, {"id": 5036295, "name": "Mahtomedi", "state": "MN", "country": "US", "coord": {"lon": -92.951599, "lat": 45.069691}}, {"id": 5036359, "name": "Malmo", "state": "MN", "country": "US", "coord": {"lon": -93.519409, "lat": 46.333839}}, {"id": 5036420, "name": "Mankato", "state": "MN", "country": "US", "coord": {"lon": -93.999397, "lat": 44.163582}}, {"id": 5036461, "name": "Mantorville", "state": "MN", "country": "US", "coord": {"lon": -92.755753, "lat": 44.06913}}, {"id": 5036493, "name": "Maple Grove", "state": "MN", "country": "US", "coord": {"lon": -93.455788, "lat": 45.07246}}, {"id": 5036534, "name": "Maple Lake", "state": "MN", "country": "US", "coord": {"lon": -94.001923, "lat": 45.22913}}, {"id": 5036557, "name": "Maple Plain", "state": "MN", "country": "US", "coord": {"lon": -93.655792, "lat": 45.007191}}, {"id": 5036571, "name": "Mapleton", "state": "MN", "country": "US", "coord": {"lon": -93.956062, "lat": 43.928848}}, {"id": 5036588, "name": "Maplewood", "state": "MN", "country": "US", "coord": {"lon": -92.995216, "lat": 44.953018}}, {"id": 5036727, "name": "Marshall", "state": "MN", "country": "US", "coord": {"lon": -95.788353, "lat": 44.446899}}, {"id": 5036734, "name": "Marshall County", "state": "MN", "country": "US", "coord": {"lon": -96.366982, "lat": 48.349972}}, {"id": 5036797, "name": "Martin County", "state": "MN", "country": "US", "coord": {"lon": -94.550247, "lat": 43.666618}}, {"id": 5036896, "name": "Mayer", "state": "MN", "country": "US", "coord": {"lon": -93.887749, "lat": 44.88496}}, {"id": 5037056, "name": "McKinley", "state": "MN", "country": "US", "coord": {"lon": -92.411011, "lat": 47.512699}}, {"id": 5037083, "name": "McLeod County", "state": "MN", "country": "US", "coord": {"lon": -94.250809, "lat": 44.833302}}, {"id": 5037164, "name": "Medford", "state": "MN", "country": "US", "coord": {"lon": -93.246323, "lat": 44.174129}}, {"id": 5037186, "name": "Medina", "state": "MN", "country": "US", "coord": {"lon": -93.582458, "lat": 45.03524}}, {"id": 5037200, "name": "Meeker County", "state": "MN", "country": "US", "coord": {"lon": -94.516937, "lat": 45.133301}}, {"id": 5037241, "name": "Melrose", "state": "MN", "country": "US", "coord": {"lon": -94.807518, "lat": 45.67469}}, {"id": 5037275, "name": "Menahga", "state": "MN", "country": "US", "coord": {"lon": -95.098083, "lat": 46.753849}}, {"id": 5037278, "name": "Mendota", "state": "MN", "country": "US", "coord": {"lon": -93.164391, "lat": 44.887192}}, {"id": 5037280, "name": "Mendota Heights", "state": "MN", "country": "US", "coord": {"lon": -93.138268, "lat": 44.883579}}, {"id": 5037298, "name": "Meriden", "state": "MN", "country": "US", "coord": {"lon": -93.386879, "lat": 44.074131}}, {"id": 5037456, "name": "Milaca", "state": "MN", "country": "US", "coord": {"lon": -93.654411, "lat": 45.755798}}, {"id": 5037461, "name": "Milan", "state": "MN", "country": "US", "coord": {"lon": -95.913368, "lat": 45.10857}}, {"id": 5037589, "name": "Milroy", "state": "MN", "country": "US", "coord": {"lon": -95.553337, "lat": 44.417728}}, {"id": 5037649, "name": "Minneapolis", "state": "MN", "country": "US", "coord": {"lon": -93.26384, "lat": 44.979969}}, {"id": 5037680, "name": "Minneota", "state": "MN", "country": "US", "coord": {"lon": -95.985588, "lat": 44.558849}}, {"id": 5037779, "name": "Minnesota", "state": "MN", "country": "US", "coord": {"lon": -94.250549, "lat": 46.25024}}, {"id": 5037784, "name": "Minnetonka", "state": "MN", "country": "US", "coord": {"lon": -93.503288, "lat": 44.9133}}, {"id": 5037790, "name": "Minnetonka Mills", "state": "MN", "country": "US", "coord": {"lon": -93.441902, "lat": 44.941071}}, {"id": 5037793, "name": "Minnetrista", "state": "MN", "country": "US", "coord": {"lon": -93.717743, "lat": 44.938301}}, {"id": 5037855, "name": "Mission", "state": "MN", "country": "US", "coord": {"lon": -94.051102, "lat": 46.58802}}, {"id": 5037935, "name": "Mobile Park Estates", "state": "MN", "country": "US", "coord": {"lon": -95.375557, "lat": 45.861111}}, {"id": 5038018, "name": "Montevideo", "state": "MN", "country": "US", "coord": {"lon": -95.72364, "lat": 44.942459}}, {"id": 5038035, "name": "Montgomery", "state": "MN", "country": "US", "coord": {"lon": -93.581337, "lat": 44.43885}}, {"id": 5038045, "name": "Monticello", "state": "MN", "country": "US", "coord": {"lon": -93.794144, "lat": 45.305519}}, {"id": 5038062, "name": "Montrose", "state": "MN", "country": "US", "coord": {"lon": -93.911079, "lat": 45.06496}}, {"id": 5038108, "name": "Moorhead", "state": "MN", "country": "US", "coord": {"lon": -96.767578, "lat": 46.873852}}, {"id": 5038132, "name": "Moose Lake", "state": "MN", "country": "US", "coord": {"lon": -92.761871, "lat": 46.454109}}, {"id": 5038195, "name": "Mora", "state": "MN", "country": "US", "coord": {"lon": -93.293839, "lat": 45.8769}}, {"id": 5038252, "name": "Morris", "state": "MN", "country": "US", "coord": {"lon": -95.91394, "lat": 45.586071}}, {"id": 5038318, "name": "Morrison County", "state": "MN", "country": "US", "coord": {"lon": -94.300278, "lat": 46.016628}}, {"id": 5038348, "name": "Mound", "state": "MN", "country": "US", "coord": {"lon": -93.666069, "lat": 44.93663}}, {"id": 5038373, "name": "Mounds View", "state": "MN", "country": "US", "coord": {"lon": -93.208557, "lat": 45.104969}}, {"id": 5038433, "name": "Mountain Iron", "state": "MN", "country": "US", "coord": {"lon": -92.62352, "lat": 47.532429}}, {"id": 5038438, "name": "Mountain Lake", "state": "MN", "country": "US", "coord": {"lon": -94.92971, "lat": 43.93885}}, {"id": 5038458, "name": "Mower County", "state": "MN", "country": "US", "coord": {"lon": -92.766853, "lat": 43.66663}}, {"id": 5039016, "name": "Nerstrand", "state": "MN", "country": "US", "coord": {"lon": -93.067993, "lat": 44.341911}}, {"id": 5039080, "name": "New Brighton", "state": "MN", "country": "US", "coord": {"lon": -93.201889, "lat": 45.065521}}, {"id": 5039094, "name": "New Hope", "state": "MN", "country": "US", "coord": {"lon": -93.38662, "lat": 45.038021}}, {"id": 5039111, "name": "New London", "state": "MN", "country": "US", "coord": {"lon": -94.944183, "lat": 45.301079}}, {"id": 5039133, "name": "New Prague", "state": "MN", "country": "US", "coord": {"lon": -93.576073, "lat": 44.543301}}, {"id": 5039144, "name": "New Richland", "state": "MN", "country": "US", "coord": {"lon": -93.493828, "lat": 43.893848}}, {"id": 5039173, "name": "New Ulm", "state": "MN", "country": "US", "coord": {"lon": -94.460533, "lat": 44.312462}}, {"id": 5039192, "name": "New York Mills", "state": "MN", "country": "US", "coord": {"lon": -95.376152, "lat": 46.518021}}, {"id": 5039211, "name": "Newport", "state": "MN", "country": "US", "coord": {"lon": -93.000488, "lat": 44.86636}}, {"id": 5039244, "name": "Nicollet", "state": "MN", "country": "US", "coord": {"lon": -94.187462, "lat": 44.276081}}, {"id": 5039323, "name": "Nobles County", "state": "MN", "country": "US", "coord": {"lon": -95.76696, "lat": 43.66663}}, {"id": 5039332, "name": "Nisswa", "state": "MN", "country": "US", "coord": {"lon": -94.288612, "lat": 46.520519}}, {"id": 5039421, "name": "North Branch", "state": "MN", "country": "US", "coord": {"lon": -92.980217, "lat": 45.511349}}, {"id": 5039537, "name": "North Mankato", "state": "MN", "country": "US", "coord": {"lon": -94.033852, "lat": 44.173302}}, {"id": 5039554, "name": "North Oaks", "state": "MN", "country": "US", "coord": {"lon": -93.079109, "lat": 45.102741}}, {"id": 5039576, "name": "North Redwood", "state": "MN", "country": "US", "coord": {"lon": -95.094437, "lat": 44.56329}}, {"id": 5039587, "name": "North Saint Paul", "state": "MN", "country": "US", "coord": {"lon": -92.991882, "lat": 45.01247}}, {"id": 5039675, "name": "Northfield", "state": "MN", "country": "US", "coord": {"lon": -93.161598, "lat": 44.458302}}, {"id": 5039796, "name": "Norwood (historical)", "state": "MN", "country": "US", "coord": {"lon": -93.927467, "lat": 44.768021}}, {"id": 5039798, "name": "Norwood Young America", "state": "MN", "country": "US", "coord": {"lon": -93.921631, "lat": 44.773571}}, {"id": 5039807, "name": "Noyes", "state": "MN", "country": "US", "coord": {"lon": -97.204514, "lat": 48.99749}}, {"id": 5039857, "name": "Oak Grove", "state": "MN", "country": "US", "coord": {"lon": -93.326897, "lat": 45.340801}}, {"id": 5039949, "name": "Oak Park Heights", "state": "MN", "country": "US", "coord": {"lon": -92.792976, "lat": 45.031361}}, {"id": 5039978, "name": "Oakdale", "state": "MN", "country": "US", "coord": {"lon": -92.964943, "lat": 44.96302}}, {"id": 5040007, "name": "Oakport", "state": "MN", "country": "US", "coord": {"lon": -96.778969, "lat": 46.931911}}, {"id": 5040195, "name": "Olivia", "state": "MN", "country": "US", "coord": {"lon": -94.989723, "lat": 44.776348}}, {"id": 5040211, "name": "Olmsted County", "state": "MN", "country": "US", "coord": {"lon": -92.45018, "lat": 44.000519}}, {"id": 5040332, "name": "Orono", "state": "MN", "country": "US", "coord": {"lon": -93.604401, "lat": 44.971352}}, {"id": 5040339, "name": "Oronoco", "state": "MN", "country": "US", "coord": {"lon": -92.534912, "lat": 44.16608}}, {"id": 5040365, "name": "Ortonville", "state": "MN", "country": "US", "coord": {"lon": -96.444778, "lat": 45.304691}}, {"id": 5040389, "name": "Osakis", "state": "MN", "country": "US", "coord": {"lon": -95.152252, "lat": 45.866909}}, {"id": 5040439, "name": "Osseo", "state": "MN", "country": "US", "coord": {"lon": -93.402451, "lat": 45.119411}}, {"id": 5040477, "name": "Otsego", "state": "MN", "country": "US", "coord": {"lon": -93.591347, "lat": 45.274132}}, {"id": 5040515, "name": "Otter Tail County", "state": "MN", "country": "US", "coord": {"lon": -95.700317, "lat": 46.39996}}, {"id": 5040647, "name": "Owatonna", "state": "MN", "country": "US", "coord": {"lon": -93.226044, "lat": 44.083851}}, {"id": 5040822, "name": "Park Rapids", "state": "MN", "country": "US", "coord": {"lon": -95.058632, "lat": 46.92218}}, {"id": 5040846, "name": "Parkers Prairie", "state": "MN", "country": "US", "coord": {"lon": -95.328918, "lat": 46.153019}}, {"id": 5040863, "name": "Parkville", "state": "MN", "country": "US", "coord": {"lon": -92.579071, "lat": 47.53104}}, {"id": 5040864, "name": "Parkwood Estates", "state": "MN", "country": "US", "coord": {"lon": -95.084717, "lat": 45.130001}}, {"id": 5040936, "name": "Paynesville", "state": "MN", "country": "US", "coord": {"lon": -94.711952, "lat": 45.38052}}, {"id": 5041072, "name": "Pelican Rapids", "state": "MN", "country": "US", "coord": {"lon": -96.083107, "lat": 46.570789}}, {"id": 5041121, "name": "Pennington County", "state": "MN", "country": "US", "coord": {"lon": -96.033638, "lat": 48.066631}}, {"id": 5041146, "name": "Pequot Lakes", "state": "MN", "country": "US", "coord": {"lon": -94.309441, "lat": 46.60302}}, {"id": 5041188, "name": "Perham", "state": "MN", "country": "US", "coord": {"lon": -95.57254, "lat": 46.594398}}, {"id": 5041405, "name": "Pierz", "state": "MN", "country": "US", "coord": {"lon": -94.104713, "lat": 45.981628}}, {"id": 5041525, "name": "Pine City", "state": "MN", "country": "US", "coord": {"lon": -92.968536, "lat": 45.826069}}, {"id": 5041542, "name": "Pine County", "state": "MN", "country": "US", "coord": {"lon": -92.250748, "lat": 46.083279}}, {"id": 5041581, "name": "Pine Island", "state": "MN", "country": "US", "coord": {"lon": -92.646301, "lat": 44.201351}}, {"id": 5041752, "name": "Pipestone", "state": "MN", "country": "US", "coord": {"lon": -96.317528, "lat": 44.00053}}, {"id": 5041791, "name": "Plainview", "state": "MN", "country": "US", "coord": {"lon": -92.171562, "lat": 44.16497}}, {"id": 5041926, "name": "Plymouth", "state": "MN", "country": "US", "coord": {"lon": -93.455513, "lat": 45.010521}}, {"id": 5041970, "name": "Polk County", "state": "MN", "country": "US", "coord": {"lon": -96.583679, "lat": 47.75053}}, {"id": 5042330, "name": "Preston", "state": "MN", "country": "US", "coord": {"lon": -92.083221, "lat": 43.670238}}, {"id": 5042360, "name": "Princeton", "state": "MN", "country": "US", "coord": {"lon": -93.581627, "lat": 45.569962}}, {"id": 5042373, "name": "Prior Lake", "state": "MN", "country": "US", "coord": {"lon": -93.422729, "lat": 44.713299}}, {"id": 5042412, "name": "Proctor", "state": "MN", "country": "US", "coord": {"lon": -92.225471, "lat": 46.747162}}, {"id": 5042561, "name": "Ramsey", "state": "MN", "country": "US", "coord": {"lon": -93.449997, "lat": 45.261101}}, {"id": 5042563, "name": "Ramsey County", "state": "MN", "country": "US", "coord": {"lon": -93.083549, "lat": 45.033298}}, {"id": 5042726, "name": "Red Lake", "state": "MN", "country": "US", "coord": {"lon": -95.016937, "lat": 47.87635}}, {"id": 5042731, "name": "Red Lake Falls", "state": "MN", "country": "US", "coord": {"lon": -96.274208, "lat": 47.882191}}, {"id": 5042773, "name": "Red Wing", "state": "MN", "country": "US", "coord": {"lon": -92.533798, "lat": 44.562469}}, {"id": 5042790, "name": "Redby", "state": "MN", "country": "US", "coord": {"lon": -94.913048, "lat": 47.878571}}, {"id": 5042832, "name": "Redwood Falls", "state": "MN", "country": "US", "coord": {"lon": -95.116943, "lat": 44.539398}}, {"id": 5042847, "name": "Redwood County", "state": "MN", "country": "US", "coord": {"lon": -95.233612, "lat": 44.416618}}, {"id": 5042924, "name": "Renville", "state": "MN", "country": "US", "coord": {"lon": -95.21167, "lat": 44.789131}}, {"id": 5042998, "name": "Rice", "state": "MN", "country": "US", "coord": {"lon": -94.220268, "lat": 45.751911}}, {"id": 5043007, "name": "Rice County", "state": "MN", "country": "US", "coord": {"lon": -93.333549, "lat": 44.34996}}, {"id": 5043181, "name": "Richards", "state": "MN", "country": "US", "coord": {"lon": -95.91227, "lat": 46.836071}}, {"id": 5043193, "name": "Richfield", "state": "MN", "country": "US", "coord": {"lon": -93.282997, "lat": 44.883301}}, {"id": 5043204, "name": "Richmond", "state": "MN", "country": "US", "coord": {"lon": -94.518333, "lat": 45.454128}}, {"id": 5043439, "name": "Robbinsdale", "state": "MN", "country": "US", "coord": {"lon": -93.338562, "lat": 45.032188}}, {"id": 5043473, "name": "Rochester", "state": "MN", "country": "US", "coord": {"lon": -92.469902, "lat": 44.021629}}, {"id": 5043502, "name": "Rock County", "state": "MN", "country": "US", "coord": {"lon": -96.100304, "lat": 43.66663}}, {"id": 5043510, "name": "Rock Creek", "state": "MN", "country": "US", "coord": {"lon": -92.962433, "lat": 45.757462}}, {"id": 5043556, "name": "Rockford", "state": "MN", "country": "US", "coord": {"lon": -93.734413, "lat": 45.088299}}, {"id": 5043571, "name": "Rockville", "state": "MN", "country": "US", "coord": {"lon": -94.340828, "lat": 45.471909}}, {"id": 5043608, "name": "Rogers", "state": "MN", "country": "US", "coord": {"lon": -93.553009, "lat": 45.18885}}, {"id": 5043752, "name": "Roseau", "state": "MN", "country": "US", "coord": {"lon": -95.762772, "lat": 48.846088}}, {"id": 5043753, "name": "Roseau County", "state": "MN", "country": "US", "coord": {"lon": -95.80027, "lat": 48.78331}}, {"id": 5043779, "name": "Rosemount", "state": "MN", "country": "US", "coord": {"lon": -93.125771, "lat": 44.73941}}, {"id": 5043799, "name": "Roseville", "state": "MN", "country": "US", "coord": {"lon": -93.156609, "lat": 45.006081}}, {"id": 5043891, "name": "Round Lake", "state": "MN", "country": "US", "coord": {"lon": -95.468338, "lat": 43.54052}}, {"id": 5043944, "name": "Rowland", "state": "MN", "country": "US", "coord": {"lon": -93.425507, "lat": 44.860241}}, {"id": 5043955, "name": "Royalton", "state": "MN", "country": "US", "coord": {"lon": -94.29361, "lat": 45.829971}}, {"id": 5044005, "name": "Rush City", "state": "MN", "country": "US", "coord": {"lon": -92.965492, "lat": 45.685509}}, {"id": 5044055, "name": "Rushford", "state": "MN", "country": "US", "coord": {"lon": -91.75293, "lat": 43.8083}}, {"id": 5044290, "name": "Saint Anthony", "state": "MN", "country": "US", "coord": {"lon": -93.218002, "lat": 45.020519}}, {"id": 5044315, "name": "Saint Augusta", "state": "MN", "country": "US", "coord": {"lon": -94.154152, "lat": 45.47858}}, {"id": 5044347, "name": "Saint Bonifacius", "state": "MN", "country": "US", "coord": {"lon": -93.747459, "lat": 44.905521}}, {"id": 5044374, "name": "Saint Charles", "state": "MN", "country": "US", "coord": {"lon": -92.064331, "lat": 43.96941}}, {"id": 5044407, "name": "Saint Cloud", "state": "MN", "country": "US", "coord": {"lon": -94.162491, "lat": 45.560799}}, {"id": 5044485, "name": "Saint Francis", "state": "MN", "country": "US", "coord": {"lon": -93.359398, "lat": 45.386909}}, {"id": 5044563, "name": "Saint James", "state": "MN", "country": "US", "coord": {"lon": -94.626923, "lat": 43.98246}}, {"id": 5044896, "name": "Saint Joseph", "state": "MN", "country": "US", "coord": {"lon": -94.318329, "lat": 45.56496}}, {"id": 5045020, "name": "Saint Louis County", "state": "MN", "country": "US", "coord": {"lon": -92.50074, "lat": 47.58326}}, {"id": 5045021, "name": "Saint Louis Park", "state": "MN", "country": "US", "coord": {"lon": -93.348007, "lat": 44.948299}}, {"id": 5045258, "name": "Saint Michael", "state": "MN", "country": "US", "coord": {"lon": -93.664963, "lat": 45.209961}}, {"id": 5045360, "name": "Saint Paul", "state": "MN", "country": "US", "coord": {"lon": -93.093269, "lat": 44.944408}}, {"id": 5045403, "name": "Saint Paul Park", "state": "MN", "country": "US", "coord": {"lon": -92.991318, "lat": 44.84219}}, {"id": 5045517, "name": "Saint Peter", "state": "MN", "country": "US", "coord": {"lon": -93.958008, "lat": 44.323582}}, {"id": 5045908, "name": "Sandstone", "state": "MN", "country": "US", "coord": {"lon": -92.867416, "lat": 46.131062}}, {"id": 5046001, "name": "Sartell", "state": "MN", "country": "US", "coord": {"lon": -94.20694, "lat": 45.621632}}, {"id": 5046026, "name": "Sauk Centre", "state": "MN", "country": "US", "coord": {"lon": -94.952522, "lat": 45.737461}}, {"id": 5046038, "name": "Sauk Rapids", "state": "MN", "country": "US", "coord": {"lon": -94.1661, "lat": 45.591911}}, {"id": 5046063, "name": "Savage", "state": "MN", "country": "US", "coord": {"lon": -93.336342, "lat": 44.779129}}, {"id": 5046098, "name": "Scandia", "state": "MN", "country": "US", "coord": {"lon": -92.805771, "lat": 45.253578}}, {"id": 5046749, "name": "Scott County", "state": "MN", "country": "US", "coord": {"lon": -93.500793, "lat": 44.633301}}, {"id": 5046984, "name": "Shafer", "state": "MN", "country": "US", "coord": {"lon": -92.747711, "lat": 45.386909}}, {"id": 5046997, "name": "Shakopee", "state": "MN", "country": "US", "coord": {"lon": -93.526901, "lat": 44.798019}}, {"id": 5047109, "name": "Sherburn", "state": "MN", "country": "US", "coord": {"lon": -94.726921, "lat": 43.65218}}, {"id": 5047121, "name": "Sherburne County", "state": "MN", "country": "US", "coord": {"lon": -93.766922, "lat": 45.44997}}, {"id": 5047234, "name": "Shoreview", "state": "MN", "country": "US", "coord": {"lon": -93.147171, "lat": 45.079128}}, {"id": 5047236, "name": "Shorewood", "state": "MN", "country": "US", "coord": {"lon": -93.589119, "lat": 44.900799}}, {"id": 5047260, "name": "Sibley County", "state": "MN", "country": "US", "coord": {"lon": -94.200249, "lat": 44.566631}}, {"id": 5047308, "name": "Silver Bay", "state": "MN", "country": "US", "coord": {"lon": -91.257393, "lat": 47.294361}}, {"id": 5047587, "name": "Slayton", "state": "MN", "country": "US", "coord": {"lon": -95.755852, "lat": 43.98774}}, {"id": 5047603, "name": "Sleepy Eye", "state": "MN", "country": "US", "coord": {"lon": -94.724152, "lat": 44.29718}}, {"id": 5047793, "name": "Solana", "state": "MN", "country": "US", "coord": {"lon": -93.153267, "lat": 46.317719}}, {"id": 5048033, "name": "South Saint Paul", "state": "MN", "country": "US", "coord": {"lon": -93.034943, "lat": 44.892738}}, {"id": 5048161, "name": "Spicer", "state": "MN", "country": "US", "coord": {"lon": -94.94001, "lat": 45.233021}}, {"id": 5048296, "name": "Spring Grove", "state": "MN", "country": "US", "coord": {"lon": -91.635979, "lat": 43.561081}}, {"id": 5048361, "name": "Spring Lake Park", "state": "MN", "country": "US", "coord": {"lon": -93.237999, "lat": 45.107738}}, {"id": 5048371, "name": "Spring Park", "state": "MN", "country": "US", "coord": {"lon": -93.632179, "lat": 44.935242}}, {"id": 5048378, "name": "Spring Valley", "state": "MN", "country": "US", "coord": {"lon": -92.389061, "lat": 43.686909}}, {"id": 5048394, "name": "Springfield", "state": "MN", "country": "US", "coord": {"lon": -94.975822, "lat": 44.23885}}, {"id": 5048493, "name": "Saint Augusta", "state": "MN", "country": "US", "coord": {"lon": -94.198036, "lat": 45.458302}}, {"id": 5048496, "name": "Stacy", "state": "MN", "country": "US", "coord": {"lon": -92.987442, "lat": 45.398022}}, {"id": 5048538, "name": "Stanley", "state": "MN", "country": "US", "coord": {"lon": -93.152718, "lat": 45.550522}}, {"id": 5048549, "name": "Stanton", "state": "MN", "country": "US", "coord": {"lon": -93.022987, "lat": 44.471909}}, {"id": 5048555, "name": "Staples", "state": "MN", "country": "US", "coord": {"lon": -94.792236, "lat": 46.355518}}, {"id": 5048587, "name": "Starbuck", "state": "MN", "country": "US", "coord": {"lon": -95.531151, "lat": 45.614399}}, {"id": 5048685, "name": "Stearns County", "state": "MN", "country": "US", "coord": {"lon": -94.550278, "lat": 45.549961}}, {"id": 5048696, "name": "Steele County", "state": "MN", "country": "US", "coord": {"lon": -93.133537, "lat": 44.033298}}, {"id": 5048759, "name": "Stevens County", "state": "MN", "country": "US", "coord": {"lon": -96.000893, "lat": 45.566631}}, {"id": 5048796, "name": "Stewartville", "state": "MN", "country": "US", "coord": {"lon": -92.48851, "lat": 43.855518}}, {"id": 5048814, "name": "Stillwater", "state": "MN", "country": "US", "coord": {"lon": -92.806038, "lat": 45.056358}}, {"id": 5049156, "name": "Sultan", "state": "MN", "country": "US", "coord": {"lon": -97.177841, "lat": 48.990822}}, {"id": 5049191, "name": "Sunburg", "state": "MN", "country": "US", "coord": {"lon": -95.238358, "lat": 45.34774}}, {"id": 5049229, "name": "Sungold Heights Mobile Home Park", "state": "MN", "country": "US", "coord": {"lon": -95.57473, "lat": 43.63385}}, {"id": 5049534, "name": "Swift County", "state": "MN", "country": "US", "coord": {"lon": -95.666977, "lat": 45.266628}}, {"id": 5049737, "name": "Taunton", "state": "MN", "country": "US", "coord": {"lon": -96.065872, "lat": 44.593571}}, {"id": 5049970, "name": "Thief River Falls", "state": "MN", "country": "US", "coord": {"lon": -96.181152, "lat": 48.119141}}, {"id": 5050162, "name": "Todd County", "state": "MN", "country": "US", "coord": {"lon": -94.883629, "lat": 46.066631}}, {"id": 5050174, "name": "Tofte", "state": "MN", "country": "US", "coord": {"lon": -90.836258, "lat": 47.573792}}, {"id": 5050214, "name": "Tonka Bay", "state": "MN", "country": "US", "coord": {"lon": -93.59301, "lat": 44.908569}}, {"id": 5050290, "name": "Tracy", "state": "MN", "country": "US", "coord": {"lon": -95.619179, "lat": 44.233292}}, {"id": 5050322, "name": "Traulich Estates", "state": "MN", "country": "US", "coord": {"lon": -94.486107, "lat": 44.33889}}, {"id": 5050603, "name": "Truman", "state": "MN", "country": "US", "coord": {"lon": -94.437187, "lat": 43.827728}}, {"id": 5050817, "name": "Two Harbors", "state": "MN", "country": "US", "coord": {"lon": -91.670731, "lat": 47.022709}}, {"id": 5050847, "name": "Tyler", "state": "MN", "country": "US", "coord": {"lon": -96.134758, "lat": 44.278301}}, {"id": 5051197, "name": "Vadnais Heights", "state": "MN", "country": "US", "coord": {"lon": -93.07383, "lat": 45.057468}}, {"id": 5051387, "name": "Victoria", "state": "MN", "country": "US", "coord": {"lon": -93.661629, "lat": 44.85857}}, {"id": 5051443, "name": "Vineland", "state": "MN", "country": "US", "coord": {"lon": -93.757469, "lat": 46.16357}}, {"id": 5051458, "name": "Viola", "state": "MN", "country": "US", "coord": {"lon": -92.268219, "lat": 44.063301}}, {"id": 5051468, "name": "Virginia", "state": "MN", "country": "US", "coord": {"lon": -92.536568, "lat": 47.523258}}, {"id": 5051594, "name": "Wabasha", "state": "MN", "country": "US", "coord": {"lon": -92.032944, "lat": 44.383862}}, {"id": 5051601, "name": "Wabasha County", "state": "MN", "country": "US", "coord": {"lon": -92.216843, "lat": 44.283298}}, {"id": 5051640, "name": "Waconia", "state": "MN", "country": "US", "coord": {"lon": -93.786911, "lat": 44.8508}}, {"id": 5051659, "name": "Wadena", "state": "MN", "country": "US", "coord": {"lon": -95.136139, "lat": 46.442459}}, {"id": 5051694, "name": "Waite Park", "state": "MN", "country": "US", "coord": {"lon": -94.224159, "lat": 45.55719}}, {"id": 5051735, "name": "Walker", "state": "MN", "country": "US", "coord": {"lon": -94.587219, "lat": 47.101349}}, {"id": 5051806, "name": "Wanamingo", "state": "MN", "country": "US", "coord": {"lon": -92.790466, "lat": 44.304409}}, {"id": 5051875, "name": "Warren", "state": "MN", "country": "US", "coord": {"lon": -96.772842, "lat": 48.19664}}, {"id": 5051893, "name": "Warroad", "state": "MN", "country": "US", "coord": {"lon": -95.3144, "lat": 48.90527}}, {"id": 5051902, "name": "Waseca", "state": "MN", "country": "US", "coord": {"lon": -93.507439, "lat": 44.07774}}, {"id": 5051936, "name": "Washington County", "state": "MN", "country": "US", "coord": {"lon": -92.916878, "lat": 45.033298}}, {"id": 5052016, "name": "Watertown", "state": "MN", "country": "US", "coord": {"lon": -93.847191, "lat": 44.96357}}, {"id": 5052019, "name": "Waterville", "state": "MN", "country": "US", "coord": {"lon": -93.568001, "lat": 44.218849}}, {"id": 5052104, "name": "Waverly", "state": "MN", "country": "US", "coord": {"lon": -93.966362, "lat": 45.066631}}, {"id": 5052132, "name": "Wayzata", "state": "MN", "country": "US", "coord": {"lon": -93.506622, "lat": 44.974129}}, {"id": 5052165, "name": "Webster", "state": "MN", "country": "US", "coord": {"lon": -93.352722, "lat": 44.52969}}, {"id": 5052239, "name": "Wells", "state": "MN", "country": "US", "coord": {"lon": -93.728844, "lat": 43.746071}}, {"id": 5052361, "name": "West Coon Rapids", "state": "MN", "country": "US", "coord": {"lon": -93.34967, "lat": 45.159691}}, {"id": 5052467, "name": "West Saint Paul", "state": "MN", "country": "US", "coord": {"lon": -93.101608, "lat": 44.91608}}, {"id": 5052600, "name": "Wheaton", "state": "MN", "country": "US", "coord": {"lon": -96.499229, "lat": 45.804409}}, {"id": 5052658, "name": "White Bear Lake", "state": "MN", "country": "US", "coord": {"lon": -93.009941, "lat": 45.08469}}, {"id": 5052862, "name": "Wilkin County", "state": "MN", "country": "US", "coord": {"lon": -96.46701, "lat": 46.250519}}, {"id": 5052916, "name": "Willmar", "state": "MN", "country": "US", "coord": {"lon": -95.043343, "lat": 45.12191}}, {"id": 5053016, "name": "Wilpen", "state": "MN", "country": "US", "coord": {"lon": -92.827957, "lat": 47.440491}}, {"id": 5053084, "name": "Windom", "state": "MN", "country": "US", "coord": {"lon": -95.116943, "lat": 43.866348}}, {"id": 5053135, "name": "Winnebago", "state": "MN", "country": "US", "coord": {"lon": -94.165787, "lat": 43.767731}}, {"id": 5053156, "name": "Winona", "state": "MN", "country": "US", "coord": {"lon": -91.63932, "lat": 44.049961}}, {"id": 5053164, "name": "Winona County", "state": "MN", "country": "US", "coord": {"lon": -91.766823, "lat": 43.966629}}, {"id": 5053185, "name": "Winsted", "state": "MN", "country": "US", "coord": {"lon": -94.04747, "lat": 44.963848}}, {"id": 5053204, "name": "Winthrop", "state": "MN", "country": "US", "coord": {"lon": -94.366371, "lat": 44.543018}}, {"id": 5053358, "name": "Woodbury", "state": "MN", "country": "US", "coord": {"lon": -92.959381, "lat": 44.923859}}, {"id": 5053460, "name": "Worthington", "state": "MN", "country": "US", "coord": {"lon": -95.596397, "lat": 43.619961}}, {"id": 5053485, "name": "Wright County", "state": "MN", "country": "US", "coord": {"lon": -93.950249, "lat": 45.1833}}, {"id": 5053526, "name": "Wyoming", "state": "MN", "country": "US", "coord": {"lon": -92.997162, "lat": 45.336361}}, {"id": 5053593, "name": "Young America (historical)", "state": "MN", "country": "US", "coord": {"lon": -93.913582, "lat": 44.782742}}, {"id": 5053645, "name": "Zimmerman Terrace", "state": "MN", "country": "US", "coord": {"lon": -93.583611, "lat": 45.448608}}, {"id": 5053812, "name": "Zumbrota", "state": "MN", "country": "US", "coord": {"lon": -92.669083, "lat": 44.294128}}, {"id": 5053853, "name": "Adair County", "state": "MO", "country": "US", "coord": {"lon": -92.600189, "lat": 40.200031}}, {"id": 5053875, "name": "Albany", "state": "MO", "country": "US", "coord": {"lon": -94.33107, "lat": 40.248611}}, {"id": 5053940, "name": "Atchison County", "state": "MO", "country": "US", "coord": {"lon": -95.400261, "lat": 40.433331}}, {"id": 5054079, "name": "Bethany", "state": "MO", "country": "US", "coord": {"lon": -94.02829, "lat": 40.26833}}, {"id": 5054390, "name": "Canton", "state": "MO", "country": "US", "coord": {"lon": -91.62516, "lat": 40.125038}}, {"id": 5055046, "name": "Fortescue", "state": "MO", "country": "US", "coord": {"lon": -95.318314, "lat": 40.052219}}, {"id": 5055199, "name": "Grant City", "state": "MO", "country": "US", "coord": {"lon": -94.411072, "lat": 40.487492}}, {"id": 5055521, "name": "Holt County", "state": "MO", "country": "US", "coord": {"lon": -95.216919, "lat": 40.099998}}, {"id": 5055742, "name": "Kahoka", "state": "MO", "country": "US", "coord": {"lon": -91.719612, "lat": 40.420319}}, {"id": 5055773, "name": "King City", "state": "MO", "country": "US", "coord": {"lon": -94.524117, "lat": 40.05138}}, {"id": 5055787, "name": "Kirksville", "state": "MO", "country": "US", "coord": {"lon": -92.583252, "lat": 40.194752}}, {"id": 5055816, "name": "La Plata", "state": "MO", "country": "US", "coord": {"lon": -92.491577, "lat": 40.023369}}, {"id": 5055851, "name": "Lancaster", "state": "MO", "country": "US", "coord": {"lon": -92.527969, "lat": 40.520859}}, {"id": 5056033, "name": "London", "state": "MO", "country": "US", "coord": {"lon": -95.234978, "lat": 40.445}}, {"id": 5056172, "name": "Maryville", "state": "MO", "country": "US", "coord": {"lon": -94.872467, "lat": 40.3461}}, {"id": 5056241, "name": "Memphis", "state": "MO", "country": "US", "coord": {"lon": -92.171288, "lat": 40.457809}}, {"id": 5056253, "name": "Mercer County", "state": "MO", "country": "US", "coord": {"lon": -93.566887, "lat": 40.433338}}, {"id": 5056280, "name": "Milan", "state": "MO", "country": "US", "coord": {"lon": -93.125214, "lat": 40.20224}}, {"id": 5056287, "name": "Millard", "state": "MO", "country": "US", "coord": {"lon": -92.546021, "lat": 40.107262}}, {"id": 5056350, "name": "Monticello", "state": "MO", "country": "US", "coord": {"lon": -91.712112, "lat": 40.118382}}, {"id": 5056381, "name": "Mound City", "state": "MO", "country": "US", "coord": {"lon": -95.231644, "lat": 40.131111}}, {"id": 5056943, "name": "Princeton", "state": "MO", "country": "US", "coord": {"lon": -93.580498, "lat": 40.400841}}, {"id": 5056965, "name": "Queen City", "state": "MO", "country": "US", "coord": {"lon": -92.567688, "lat": 40.409199}}, {"id": 5057058, "name": "Rock Port", "state": "MO", "country": "US", "coord": {"lon": -95.51693, "lat": 40.41111}}, {"id": 5057186, "name": "Schuyler County", "state": "MO", "country": "US", "coord": {"lon": -92.533524, "lat": 40.466702}}, {"id": 5057401, "name": "Stanberry", "state": "MO", "country": "US", "coord": {"lon": -94.538292, "lat": 40.21777}}, {"id": 5057486, "name": "Tarkio", "state": "MO", "country": "US", "coord": {"lon": -95.377762, "lat": 40.440281}}, {"id": 5057511, "name": "Terre Haute", "state": "MO", "country": "US", "coord": {"lon": -93.2341, "lat": 40.439461}}, {"id": 5057562, "name": "Trenton", "state": "MO", "country": "US", "coord": {"lon": -93.616608, "lat": 40.078899}}, {"id": 5057655, "name": "Unionville", "state": "MO", "country": "US", "coord": {"lon": -93.003258, "lat": 40.476959}}, {"id": 5058135, "name": "Ashley", "state": "ND", "country": "US", "coord": {"lon": -99.371498, "lat": 46.034142}}, {"id": 5058233, "name": "Belcourt", "state": "ND", "country": "US", "coord": {"lon": -99.744873, "lat": 48.839169}}, {"id": 5058534, "name": "Cando", "state": "ND", "country": "US", "coord": {"lon": -99.209862, "lat": 48.486671}}, {"id": 5058552, "name": "Carrington", "state": "ND", "country": "US", "coord": {"lon": -99.126221, "lat": 47.449718}}, {"id": 5058559, "name": "Cass County", "state": "ND", "country": "US", "coord": {"lon": -97.225372, "lat": 46.941639}}, {"id": 5058560, "name": "Casselton", "state": "ND", "country": "US", "coord": {"lon": -97.211197, "lat": 46.900532}}, {"id": 5058568, "name": "Cavalier", "state": "ND", "country": "US", "coord": {"lon": -97.622307, "lat": 48.79388}}, {"id": 5058630, "name": "Churchs Ferry", "state": "ND", "country": "US", "coord": {"lon": -99.190132, "lat": 48.269169}}, {"id": 5058701, "name": "Cooperstown", "state": "ND", "country": "US", "coord": {"lon": -98.123978, "lat": 47.444439}}, {"id": 5058868, "name": "Devils Lake", "state": "ND", "country": "US", "coord": {"lon": -98.86512, "lat": 48.112782}}, {"id": 5058910, "name": "Doyon", "state": "ND", "country": "US", "coord": {"lon": -98.536774, "lat": 48.05278}}, {"id": 5059052, "name": "Ellendale", "state": "ND", "country": "US", "coord": {"lon": -98.527046, "lat": 46.00275}}, {"id": 5059143, "name": "Fairdale", "state": "ND", "country": "US", "coord": {"lon": -98.231216, "lat": 48.490829}}, {"id": 5059163, "name": "Fargo", "state": "ND", "country": "US", "coord": {"lon": -96.789803, "lat": 46.87719}}, {"id": 5059181, "name": "Fessenden", "state": "ND", "country": "US", "coord": {"lon": -99.629288, "lat": 47.64917}}, {"id": 5059192, "name": "Finley", "state": "ND", "country": "US", "coord": {"lon": -97.83593, "lat": 47.51416}}, {"id": 5059237, "name": "Forman", "state": "ND", "country": "US", "coord": {"lon": -97.63649, "lat": 46.107738}}, {"id": 5059248, "name": "Fort Totten", "state": "ND", "country": "US", "coord": {"lon": -98.992897, "lat": 47.98}}, {"id": 5059419, "name": "Grafton", "state": "ND", "country": "US", "coord": {"lon": -97.410629, "lat": 48.412209}}, {"id": 5059429, "name": "Grand Forks", "state": "ND", "country": "US", "coord": {"lon": -97.032852, "lat": 47.925259}}, {"id": 5059430, "name": "Grand Forks County", "state": "ND", "country": "US", "coord": {"lon": -97.433701, "lat": 47.94165}}, {"id": 5059489, "name": "Griggs County", "state": "ND", "country": "US", "coord": {"lon": -98.219818, "lat": 47.433331}}, {"id": 5059576, "name": "Harvey", "state": "ND", "country": "US", "coord": {"lon": -99.935402, "lat": 47.769718}}, {"id": 5059602, "name": "Heaton", "state": "ND", "country": "US", "coord": {"lon": -99.547897, "lat": 47.478329}}, {"id": 5059660, "name": "Hillsboro", "state": "ND", "country": "US", "coord": {"lon": -97.062027, "lat": 47.40387}}, {"id": 5059721, "name": "Hoople", "state": "ND", "country": "US", "coord": {"lon": -97.634811, "lat": 48.53471}}, {"id": 5059734, "name": "Horace", "state": "ND", "country": "US", "coord": {"lon": -96.903702, "lat": 46.758862}}, {"id": 5059771, "name": "Huron City (historical)", "state": "ND", "country": "US", "coord": {"lon": -97.233673, "lat": 48.997211}}, {"id": 5059836, "name": "Jamestown", "state": "ND", "country": "US", "coord": {"lon": -98.708443, "lat": 46.910542}}, {"id": 5059925, "name": "Karnak", "state": "ND", "country": "US", "coord": {"lon": -98.064262, "lat": 47.280819}}, {"id": 5060055, "name": "Lakota", "state": "ND", "country": "US", "coord": {"lon": -98.336212, "lat": 48.042782}}, {"id": 5060071, "name": "Langdon", "state": "ND", "country": "US", "coord": {"lon": -98.368172, "lat": 48.759998}}, {"id": 5060080, "name": "Larimore", "state": "ND", "country": "US", "coord": {"lon": -97.626747, "lat": 47.906658}}, {"id": 5060162, "name": "Lisbon", "state": "ND", "country": "US", "coord": {"lon": -97.681213, "lat": 46.441631}}, {"id": 5060332, "name": "Mayville", "state": "ND", "country": "US", "coord": {"lon": -97.324539, "lat": 47.498039}}, {"id": 5060572, "name": "Napoleon", "state": "ND", "country": "US", "coord": {"lon": -99.771217, "lat": 46.508308}}, {"id": 5060591, "name": "Minnewaukan", "state": "ND", "country": "US", "coord": {"lon": -99.252357, "lat": 48.071388}}, {"id": 5060614, "name": "New Rockford", "state": "ND", "country": "US", "coord": {"lon": -99.137901, "lat": 47.68}}, {"id": 5060756, "name": "Oakes", "state": "ND", "country": "US", "coord": {"lon": -98.090378, "lat": 46.13858}}, {"id": 5060829, "name": "Ottention (historical)", "state": "ND", "country": "US", "coord": {"lon": -97.560913, "lat": 48.995819}}, {"id": 5060860, "name": "Park River", "state": "ND", "country": "US", "coord": {"lon": -97.741203, "lat": 48.398602}}, {"id": 5060890, "name": "Pembina County", "state": "ND", "country": "US", "coord": {"lon": -97.517029, "lat": 48.766659}}, {"id": 5061001, "name": "Poland", "state": "ND", "country": "US", "coord": {"lon": -97.218407, "lat": 48.197762}}, {"id": 5061036, "name": "Preston", "state": "ND", "country": "US", "coord": {"lon": -97.218697, "lat": 47.312199}}, {"id": 5061063, "name": "Ramsey County", "state": "ND", "country": "US", "coord": {"lon": -98.733727, "lat": 48.233341}}, {"id": 5061067, "name": "Ransom City (historical)", "state": "ND", "country": "US", "coord": {"lon": -97.385368, "lat": 46.095242}}, {"id": 5061114, "name": "Richland County", "state": "ND", "country": "US", "coord": {"lon": -96.91703, "lat": 46.288849}}, {"id": 5061159, "name": "Rolla", "state": "ND", "country": "US", "coord": {"lon": -99.61792, "lat": 48.85778}}, {"id": 5061221, "name": "Rugby", "state": "ND", "country": "US", "coord": {"lon": -99.996246, "lat": 48.368889}}, {"id": 5061439, "name": "Sargent County", "state": "ND", "country": "US", "coord": {"lon": -97.625366, "lat": 46.09996}}, {"id": 5061876, "name": "Shell Valley", "state": "ND", "country": "US", "coord": {"lon": -99.864861, "lat": 48.798061}}, {"id": 5062036, "name": "Steele", "state": "ND", "country": "US", "coord": {"lon": -99.915939, "lat": 46.85471}}, {"id": 5062050, "name": "Stiles", "state": "ND", "country": "US", "coord": {"lon": -97.052589, "lat": 46.075241}}, {"id": 5062096, "name": "Stutsman County", "state": "ND", "country": "US", "coord": {"lon": -98.933609, "lat": 46.958328}}, {"id": 5062211, "name": "Traill County", "state": "ND", "country": "US", "coord": {"lon": -97.16703, "lat": 47.444431}}, {"id": 5062292, "name": "Valley City", "state": "ND", "country": "US", "coord": {"lon": -98.003151, "lat": 46.923309}}, {"id": 5062355, "name": "Wahpeton", "state": "ND", "country": "US", "coord": {"lon": -96.605911, "lat": 46.26524}}, {"id": 5062384, "name": "Walsh County", "state": "ND", "country": "US", "coord": {"lon": -97.692032, "lat": 48.366661}}, {"id": 5062441, "name": "Wells County", "state": "ND", "country": "US", "coord": {"lon": -99.650398, "lat": 47.597221}}, {"id": 5062458, "name": "West Fargo", "state": "ND", "country": "US", "coord": {"lon": -96.90036, "lat": 46.874969}}, {"id": 5062552, "name": "Wishek", "state": "ND", "country": "US", "coord": {"lon": -99.55706, "lat": 46.25692}}, {"id": 5062699, "name": "Adams County", "state": "NE", "country": "US", "coord": {"lon": -98.5009, "lat": 40.533352}}, {"id": 5062769, "name": "Ainsworth", "state": "NE", "country": "US", "coord": {"lon": -99.862617, "lat": 42.549999}}, {"id": 5062806, "name": "Albion", "state": "NE", "country": "US", "coord": {"lon": -98.00367, "lat": 41.690842}}, {"id": 5062898, "name": "Alma", "state": "NE", "country": "US", "coord": {"lon": -99.362038, "lat": 40.097511}}, {"id": 5063097, "name": "Arapahoe", "state": "NE", "country": "US", "coord": {"lon": -99.900398, "lat": 40.304169}}, {"id": 5063172, "name": "Arlington", "state": "NE", "country": "US", "coord": {"lon": -96.351128, "lat": 41.452499}}, {"id": 5063229, "name": "Ashland", "state": "NE", "country": "US", "coord": {"lon": -96.368347, "lat": 41.039162}}, {"id": 5063286, "name": "Atkinson", "state": "NE", "country": "US", "coord": {"lon": -98.978149, "lat": 42.531391}}, {"id": 5063318, "name": "Auburn", "state": "NE", "country": "US", "coord": {"lon": -95.83889, "lat": 40.39278}}, {"id": 5063342, "name": "Aurora", "state": "NE", "country": "US", "coord": {"lon": -98.004219, "lat": 40.867229}}, {"id": 5063518, "name": "Bartlett", "state": "NE", "country": "US", "coord": {"lon": -98.552299, "lat": 41.885288}}, {"id": 5063540, "name": "Bassett", "state": "NE", "country": "US", "coord": {"lon": -99.537888, "lat": 42.585831}}, {"id": 5063564, "name": "Battle Creek", "state": "NE", "country": "US", "coord": {"lon": -97.598389, "lat": 41.999451}}, {"id": 5063646, "name": "Beatrice", "state": "NE", "country": "US", "coord": {"lon": -96.746971, "lat": 40.268059}}, {"id": 5063678, "name": "Beaver City", "state": "NE", "country": "US", "coord": {"lon": -99.829559, "lat": 40.137508}}, {"id": 5063781, "name": "Belgrade", "state": "NE", "country": "US", "coord": {"lon": -98.06839, "lat": 41.473068}}, {"id": 5063805, "name": "Bellevue", "state": "NE", "country": "US", "coord": {"lon": -95.890839, "lat": 41.136669}}, {"id": 5063890, "name": "Bennington", "state": "NE", "country": "US", "coord": {"lon": -96.157799, "lat": 41.364719}}, {"id": 5064236, "name": "Blair", "state": "NE", "country": "US", "coord": {"lon": -96.125023, "lat": 41.544441}}, {"id": 5064284, "name": "Bloomfield", "state": "NE", "country": "US", "coord": {"lon": -97.645622, "lat": 42.598888}}, {"id": 5064432, "name": "Boone County", "state": "NE", "country": "US", "coord": {"lon": -98.083672, "lat": 41.700008}}, {"id": 5064587, "name": "Brewster", "state": "NE", "country": "US", "coord": {"lon": -99.864853, "lat": 41.938889}}, {"id": 5064638, "name": "Broken Bow", "state": "NE", "country": "US", "coord": {"lon": -99.639282, "lat": 41.401951}}, {"id": 5064663, "name": "Brown County", "state": "NE", "country": "US", "coord": {"lon": -99.950401, "lat": 42.433331}}, {"id": 5064823, "name": "Buda", "state": "NE", "country": "US", "coord": {"lon": -98.993973, "lat": 40.71418}}, {"id": 5064837, "name": "Buffalo County", "state": "NE", "country": "US", "coord": {"lon": -99.083702, "lat": 40.85001}}, {"id": 5064937, "name": "Burwell", "state": "NE", "country": "US", "coord": {"lon": -99.133148, "lat": 41.78167}}, {"id": 5064972, "name": "Butte", "state": "NE", "country": "US", "coord": {"lon": -98.849258, "lat": 42.911388}}, {"id": 5065242, "name": "Carriage House Estates", "state": "NE", "country": "US", "coord": {"lon": -97.332817, "lat": 41.441681}}, {"id": 5065392, "name": "Center", "state": "NE", "country": "US", "coord": {"lon": -97.876732, "lat": 42.609451}}, {"id": 5065429, "name": "Central City", "state": "NE", "country": "US", "coord": {"lon": -98.001717, "lat": 41.115849}}, {"id": 5065495, "name": "Chalco", "state": "NE", "country": "US", "coord": {"lon": -96.150299, "lat": 41.183891}}, {"id": 5065817, "name": "Clay Center", "state": "NE", "country": "US", "coord": {"lon": -98.055328, "lat": 40.521679}}, {"id": 5065828, "name": "Clay County", "state": "NE", "country": "US", "coord": {"lon": -98.050331, "lat": 40.53334}}, {"id": 5066001, "name": "Columbus", "state": "NE", "country": "US", "coord": {"lon": -97.368378, "lat": 41.429729}}, {"id": 5066227, "name": "Cotesfield", "state": "NE", "country": "US", "coord": {"lon": -98.632584, "lat": 41.357231}}, {"id": 5066355, "name": "Cozad", "state": "NE", "country": "US", "coord": {"lon": -99.987343, "lat": 40.85973}}, {"id": 5066394, "name": "Creighton", "state": "NE", "country": "US", "coord": {"lon": -97.906181, "lat": 42.466671}}, {"id": 5066435, "name": "Crete", "state": "NE", "country": "US", "coord": {"lon": -96.961418, "lat": 40.627781}}, {"id": 5066637, "name": "Dakota City", "state": "NE", "country": "US", "coord": {"lon": -96.418358, "lat": 42.41555}}, {"id": 5066700, "name": "David City", "state": "NE", "country": "US", "coord": {"lon": -97.130043, "lat": 41.252789}}, {"id": 5066750, "name": "Dawson County", "state": "NE", "country": "US", "coord": {"lon": -99.817062, "lat": 40.866669}}, {"id": 5066953, "name": "Devils Gap", "state": "NE", "country": "US", "coord": {"lon": -99.87207, "lat": 40.579449}}, {"id": 5067039, "name": "Dodge County", "state": "NE", "country": "US", "coord": {"lon": -96.633636, "lat": 41.566669}}, {"id": 5067074, "name": "Donald Price Mobile Home Park", "state": "NE", "country": "US", "coord": {"lon": -99.74984, "lat": 40.773621}}, {"id": 5067114, "name": "Douglas County", "state": "NE", "country": "US", "coord": {"lon": -96.166969, "lat": 41.299999}}, {"id": 5067285, "name": "Eagle", "state": "NE", "country": "US", "coord": {"lon": -96.43029, "lat": 40.816669}}, {"id": 5067545, "name": "Elkhorn", "state": "NE", "country": "US", "coord": {"lon": -96.234467, "lat": 41.286388}}, {"id": 5067646, "name": "Elwood", "state": "NE", "country": "US", "coord": {"lon": -99.860947, "lat": 40.590279}}, {"id": 5067896, "name": "Fairbury", "state": "NE", "country": "US", "coord": {"lon": -97.180588, "lat": 40.137218}}, {"id": 5068052, "name": "Falls City", "state": "NE", "country": "US", "coord": {"lon": -95.601929, "lat": 40.060841}}, {"id": 5068640, "name": "Franklin", "state": "NE", "country": "US", "coord": {"lon": -98.952583, "lat": 40.096119}}, {"id": 5068725, "name": "Fremont", "state": "NE", "country": "US", "coord": {"lon": -96.498077, "lat": 41.433331}}, {"id": 5068780, "name": "Friend", "state": "NE", "country": "US", "coord": {"lon": -97.286163, "lat": 40.653622}}, {"id": 5068818, "name": "Fullerton", "state": "NE", "country": "US", "coord": {"lon": -97.969231, "lat": 41.36335}}, {"id": 5068853, "name": "Gage County", "state": "NE", "country": "US", "coord": {"lon": -96.68364, "lat": 40.26667}}, {"id": 5068953, "name": "Geneva", "state": "NE", "country": "US", "coord": {"lon": -97.595879, "lat": 40.526951}}, {"id": 5068966, "name": "Genoa", "state": "NE", "country": "US", "coord": {"lon": -97.730614, "lat": 41.44862}}, {"id": 5069015, "name": "Gibbon", "state": "NE", "country": "US", "coord": {"lon": -98.844803, "lat": 40.748348}}, {"id": 5069211, "name": "Gosper County", "state": "NE", "country": "US", "coord": {"lon": -99.833733, "lat": 40.53334}}, {"id": 5069297, "name": "Grand Island", "state": "NE", "country": "US", "coord": {"lon": -98.34201, "lat": 40.925011}}, {"id": 5069395, "name": "Greeley", "state": "NE", "country": "US", "coord": {"lon": -98.531181, "lat": 41.548618}}, {"id": 5069397, "name": "Greeley County", "state": "NE", "country": "US", "coord": {"lon": -98.533691, "lat": 41.566681}}, {"id": 5069480, "name": "Gretna", "state": "NE", "country": "US", "coord": {"lon": -96.239738, "lat": 41.140831}}, {"id": 5069587, "name": "Hall County", "state": "NE", "country": "US", "coord": {"lon": -98.5009, "lat": 40.86668}}, {"id": 5069753, "name": "Hartington", "state": "NE", "country": "US", "coord": {"lon": -97.264503, "lat": 42.622501}}, {"id": 5069773, "name": "Harvard", "state": "NE", "country": "US", "coord": {"lon": -98.097267, "lat": 40.6189}}, {"id": 5069802, "name": "Hastings", "state": "NE", "country": "US", "coord": {"lon": -98.38839, "lat": 40.586121}}, {"id": 5069928, "name": "Hebron", "state": "NE", "country": "US", "coord": {"lon": -97.585876, "lat": 40.166389}}, {"id": 5070048, "name": "Hickman", "state": "NE", "country": "US", "coord": {"lon": -96.629181, "lat": 40.619999}}, {"id": 5070216, "name": "Holdrege", "state": "NE", "country": "US", "coord": {"lon": -99.36982, "lat": 40.440289}}, {"id": 5070270, "name": "Holt County", "state": "NE", "country": "US", "coord": {"lon": -98.767036, "lat": 42.450001}}, {"id": 5070443, "name": "Howard County", "state": "NE", "country": "US", "coord": {"lon": -98.517021, "lat": 41.216679}}, {"id": 5070476, "name": "Hoyle North 77 Mobile Homes", "state": "NE", "country": "US", "coord": {"lon": -96.7453, "lat": 40.307781}}, {"id": 5070770, "name": "Ingleside", "state": "NE", "country": "US", "coord": {"lon": -98.444229, "lat": 40.580009}}, {"id": 5071348, "name": "Kearney", "state": "NE", "country": "US", "coord": {"lon": -99.081482, "lat": 40.699459}}, {"id": 5071537, "name": "Kipples Trailer Court", "state": "NE", "country": "US", "coord": {"lon": -98.647591, "lat": 42.457779}}, {"id": 5071665, "name": "La Vista", "state": "NE", "country": "US", "coord": {"lon": -96.031128, "lat": 41.183891}}, {"id": 5071741, "name": "Lancaster County", "state": "NE", "country": "US", "coord": {"lon": -96.683632, "lat": 40.783329}}, {"id": 5071934, "name": "Lexington", "state": "NE", "country": "US", "coord": {"lon": -99.741501, "lat": 40.780842}}, {"id": 5072006, "name": "Lincoln", "state": "NE", "country": "US", "coord": {"lon": -96.666962, "lat": 40.799999}}, {"id": 5072333, "name": "Loretto", "state": "NE", "country": "US", "coord": {"lon": -98.08062, "lat": 41.764729}}, {"id": 5072362, "name": "Louisville", "state": "NE", "country": "US", "coord": {"lon": -96.162239, "lat": 40.99778}}, {"id": 5072374, "name": "Loup City", "state": "NE", "country": "US", "coord": {"lon": -98.966751, "lat": 41.275558}}, {"id": 5072528, "name": "Macy", "state": "NE", "country": "US", "coord": {"lon": -96.356422, "lat": 42.113049}}, {"id": 5072532, "name": "Madison", "state": "NE", "country": "US", "coord": {"lon": -97.455048, "lat": 41.828339}}, {"id": 5072535, "name": "Madison County", "state": "NE", "country": "US", "coord": {"lon": -97.600327, "lat": 41.916672}}, {"id": 5072973, "name": "Merrick County", "state": "NE", "country": "US", "coord": {"lon": -98.083672, "lat": 41.150009}}, {"id": 5073125, "name": "Milford", "state": "NE", "country": "US", "coord": {"lon": -97.050591, "lat": 40.774448}}, {"id": 5073225, "name": "Minden", "state": "NE", "country": "US", "coord": {"lon": -98.947861, "lat": 40.498631}}, {"id": 5073611, "name": "Nance County", "state": "NE", "country": "US", "coord": {"lon": -98.000893, "lat": 41.400009}}, {"id": 5073661, "name": "Nebraska City", "state": "NE", "country": "US", "coord": {"lon": -95.859169, "lat": 40.67667}}, {"id": 5073708, "name": "Nebraska", "state": "NE", "country": "US", "coord": {"lon": -99.750671, "lat": 41.500278}}, {"id": 5073735, "name": "Neligh", "state": "NE", "country": "US", "coord": {"lon": -98.029793, "lat": 42.12862}}, {"id": 5073754, "name": "Nelson", "state": "NE", "country": "US", "coord": {"lon": -98.067818, "lat": 40.201679}}, {"id": 5073965, "name": "Norfolk", "state": "NE", "country": "US", "coord": {"lon": -97.417, "lat": 42.028339}}, {"id": 5074013, "name": "North Bend", "state": "NE", "country": "US", "coord": {"lon": -96.779747, "lat": 41.461948}}, {"id": 5074259, "name": "O'Neill", "state": "NE", "country": "US", "coord": {"lon": -98.647591, "lat": 42.457779}}, {"id": 5074329, "name": "Oakland", "state": "NE", "country": "US", "coord": {"lon": -96.466972, "lat": 41.835831}}, {"id": 5074472, "name": "Omaha", "state": "NE", "country": "US", "coord": {"lon": -95.93779, "lat": 41.25861}}, {"id": 5074567, "name": "Ord", "state": "NE", "country": "US", "coord": {"lon": -98.926201, "lat": 41.60334}}, {"id": 5074610, "name": "Osceola", "state": "NE", "country": "US", "coord": {"lon": -97.547546, "lat": 41.179741}}, {"id": 5074642, "name": "Otoe County", "state": "NE", "country": "US", "coord": {"lon": -96.133621, "lat": 40.633331}}, {"id": 5074769, "name": "Palmer", "state": "NE", "country": "US", "coord": {"lon": -98.257294, "lat": 41.22224}}, {"id": 5074792, "name": "Papillion", "state": "NE", "country": "US", "coord": {"lon": -96.042236, "lat": 41.154442}}, {"id": 5074824, "name": "Paradise Park", "state": "NE", "country": "US", "coord": {"lon": -95.89473, "lat": 41.122219}}, {"id": 5074889, "name": "Pawnee City", "state": "NE", "country": "US", "coord": {"lon": -96.154449, "lat": 40.10833}}, {"id": 5074895, "name": "Pawnee County", "state": "NE", "country": "US", "coord": {"lon": -96.23362, "lat": 40.133331}}, {"id": 5074969, "name": "Pender", "state": "NE", "country": "US", "coord": {"lon": -96.70726, "lat": 42.114159}}, {"id": 5075148, "name": "Pierce", "state": "NE", "country": "US", "coord": {"lon": -97.526718, "lat": 42.199169}}, {"id": 5075239, "name": "Pioneer Estates", "state": "NE", "country": "US", "coord": {"lon": -98.345337, "lat": 40.950008}}, {"id": 5075277, "name": "Plainview", "state": "NE", "country": "US", "coord": {"lon": -97.792007, "lat": 42.349731}}, {"id": 5075315, "name": "Platte County", "state": "NE", "country": "US", "coord": {"lon": -97.483658, "lat": 41.550011}}, {"id": 5075348, "name": "Plattsmouth", "state": "NE", "country": "US", "coord": {"lon": -95.882233, "lat": 41.011391}}, {"id": 5075615, "name": "Ponca", "state": "NE", "country": "US", "coord": {"lon": -96.705589, "lat": 42.5625}}, {"id": 5075972, "name": "Ralston", "state": "NE", "country": "US", "coord": {"lon": -96.042519, "lat": 41.20528}}, {"id": 5076020, "name": "Ravenna", "state": "NE", "country": "US", "coord": {"lon": -98.912582, "lat": 41.026119}}, {"id": 5076060, "name": "Red Cloud", "state": "NE", "country": "US", "coord": {"lon": -98.519501, "lat": 40.088902}}, {"id": 5076535, "name": "Rosemont", "state": "NE", "country": "US", "coord": {"lon": -98.36422, "lat": 40.286961}}, {"id": 5077237, "name": "Saint Paul", "state": "NE", "country": "US", "coord": {"lon": -98.458122, "lat": 41.214729}}, {"id": 5077643, "name": "Sandridge", "state": "NE", "country": "US", "coord": {"lon": -99.94957, "lat": 42.556389}}, {"id": 5077695, "name": "Sarpy County", "state": "NE", "country": "US", "coord": {"lon": -96.133629, "lat": 41.099998}}, {"id": 5078641, "name": "Schuyler", "state": "NE", "country": "US", "coord": {"lon": -97.059479, "lat": 41.447231}}, {"id": 5078792, "name": "Seward", "state": "NE", "country": "US", "coord": {"lon": -97.098923, "lat": 40.906952}}, {"id": 5078878, "name": "Shelton", "state": "NE", "country": "US", "coord": {"lon": -98.730911, "lat": 40.779179}}, {"id": 5079250, "name": "South Sioux City", "state": "NE", "country": "US", "coord": {"lon": -96.413643, "lat": 42.473881}}, {"id": 5079488, "name": "Springfield", "state": "NE", "country": "US", "coord": {"lon": -96.13446, "lat": 41.08194}}, {"id": 5079541, "name": "Stanton", "state": "NE", "country": "US", "coord": {"lon": -97.22393, "lat": 41.950279}}, {"id": 5079617, "name": "Springview", "state": "NE", "country": "US", "coord": {"lon": -99.749008, "lat": 42.82444}}, {"id": 5079732, "name": "Stromsburg", "state": "NE", "country": "US", "coord": {"lon": -97.598938, "lat": 41.114182}}, {"id": 5079887, "name": "Superior", "state": "NE", "country": "US", "coord": {"lon": -98.070038, "lat": 40.020851}}, {"id": 5079910, "name": "Sutton", "state": "NE", "country": "US", "coord": {"lon": -97.859207, "lat": 40.605572}}, {"id": 5079991, "name": "Syracuse", "state": "NE", "country": "US", "coord": {"lon": -96.186401, "lat": 40.657219}}, {"id": 5080066, "name": "Taylor", "state": "NE", "country": "US", "coord": {"lon": -99.378723, "lat": 41.770279}}, {"id": 5080098, "name": "Tecumseh", "state": "NE", "country": "US", "coord": {"lon": -96.196121, "lat": 40.366669}}, {"id": 5080113, "name": "Tekamah", "state": "NE", "country": "US", "coord": {"lon": -96.22113, "lat": 41.77832}}, {"id": 5080995, "name": "Valley", "state": "NE", "country": "US", "coord": {"lon": -96.346138, "lat": 41.312778}}, {"id": 5081111, "name": "Verona", "state": "NE", "country": "US", "coord": {"lon": -97.966164, "lat": 40.553619}}, {"id": 5081245, "name": "Wahoo", "state": "NE", "country": "US", "coord": {"lon": -96.6203, "lat": 41.211391}}, {"id": 5081262, "name": "Wakefield", "state": "NE", "country": "US", "coord": {"lon": -96.865044, "lat": 42.269169}}, {"id": 5081365, "name": "Warnerville", "state": "NE", "country": "US", "coord": {"lon": -97.446159, "lat": 41.960011}}, {"id": 5081438, "name": "Waverly", "state": "NE", "country": "US", "coord": {"lon": -96.528343, "lat": 40.9175}}, {"id": 5081451, "name": "Waymanns Trailer Court", "state": "NE", "country": "US", "coord": {"lon": -98.647591, "lat": 42.457779}}, {"id": 5081454, "name": "Wayne", "state": "NE", "country": "US", "coord": {"lon": -97.017822, "lat": 42.23056}}, {"id": 5081496, "name": "Webster County", "state": "NE", "country": "US", "coord": {"lon": -98.500893, "lat": 40.166679}}, {"id": 5081518, "name": "Weeping Water", "state": "NE", "country": "US", "coord": {"lon": -96.140572, "lat": 40.869999}}, {"id": 5081637, "name": "West Lincoln", "state": "NE", "country": "US", "coord": {"lon": -96.731133, "lat": 40.83778}}, {"id": 5081666, "name": "West Point", "state": "NE", "country": "US", "coord": {"lon": -96.708641, "lat": 41.841671}}, {"id": 5081848, "name": "Wilber", "state": "NE", "country": "US", "coord": {"lon": -96.960579, "lat": 40.481392}}, {"id": 5082088, "name": "Winfield (historical)", "state": "NE", "country": "US", "coord": {"lon": -99.67762, "lat": 42.673611}}, {"id": 5082140, "name": "Wisner", "state": "NE", "country": "US", "coord": {"lon": -96.914207, "lat": 41.987221}}, {"id": 5082201, "name": "Wood River", "state": "NE", "country": "US", "coord": {"lon": -98.600067, "lat": 40.820572}}, {"id": 5082292, "name": "Wymore", "state": "NE", "country": "US", "coord": {"lon": -96.662521, "lat": 40.122219}}, {"id": 5082331, "name": "York", "state": "NE", "country": "US", "coord": {"lon": -97.592003, "lat": 40.868069}}, {"id": 5082363, "name": "Yutan", "state": "NE", "country": "US", "coord": {"lon": -96.397247, "lat": 41.244999}}, {"id": 5082554, "name": "Albany", "state": "NH", "country": "US", "coord": {"lon": -71.167572, "lat": 43.957851}}, {"id": 5082573, "name": "Alexandria", "state": "NH", "country": "US", "coord": {"lon": -71.792862, "lat": 43.611462}}, {"id": 5082590, "name": "Allenstown Elementary School", "state": "NH", "country": "US", "coord": {"lon": -71.405617, "lat": 43.15786}}, {"id": 5082595, "name": "Alstead", "state": "NH", "country": "US", "coord": {"lon": -72.360641, "lat": 43.148972}}, {"id": 5082671, "name": "Andover", "state": "NH", "country": "US", "coord": {"lon": -71.82341, "lat": 43.437019}}, {"id": 5082698, "name": "Antrim", "state": "NH", "country": "US", "coord": {"lon": -71.938972, "lat": 43.03091}}, {"id": 5082756, "name": "Ashland", "state": "NH", "country": "US", "coord": {"lon": -71.63063, "lat": 43.695351}}, {"id": 5082790, "name": "Atkinson", "state": "NH", "country": "US", "coord": {"lon": -71.147003, "lat": 42.838421}}, {"id": 5082811, "name": "Auburn", "state": "NH", "country": "US", "coord": {"lon": -71.348396, "lat": 43.004532}}, {"id": 5083007, "name": "Barnstead", "state": "NH", "country": "US", "coord": {"lon": -71.292839, "lat": 43.333969}}, {"id": 5083023, "name": "Barrington", "state": "NH", "country": "US", "coord": {"lon": -71.047012, "lat": 43.222858}}, {"id": 5083221, "name": "Bedford", "state": "NH", "country": "US", "coord": {"lon": -71.5159, "lat": 42.946468}}, {"id": 5083273, "name": "Belknap County", "state": "NH", "country": "US", "coord": {"lon": -71.432854, "lat": 43.516739}}, {"id": 5083288, "name": "Belmont", "state": "NH", "country": "US", "coord": {"lon": -71.477852, "lat": 43.445358}}, {"id": 5083330, "name": "Berlin", "state": "NH", "country": "US", "coord": {"lon": -71.185081, "lat": 44.46867}}, {"id": 5083498, "name": "Black Mountain Cabin", "state": "NH", "country": "US", "coord": {"lon": -71.171738, "lat": 44.197571}}, {"id": 5083654, "name": "Boscawen", "state": "NH", "country": "US", "coord": {"lon": -71.620911, "lat": 43.315079}}, {"id": 5083673, "name": "Bow Bog", "state": "NH", "country": "US", "coord": {"lon": -71.511459, "lat": 43.12064}}, {"id": 5083780, "name": "Brentwood", "state": "NH", "country": "US", "coord": {"lon": -71.072838, "lat": 42.978699}}, {"id": 5083803, "name": "Bridgewater", "state": "NH", "country": "US", "coord": {"lon": -71.736473, "lat": 43.638409}}, {"id": 5083812, "name": "Bristol", "state": "NH", "country": "US", "coord": {"lon": -71.736748, "lat": 43.59119}}, {"id": 5083836, "name": "Brookline", "state": "NH", "country": "US", "coord": {"lon": -71.658127, "lat": 42.73481}}, {"id": 5084165, "name": "Candia", "state": "NH", "country": "US", "coord": {"lon": -71.276733, "lat": 43.077862}}, {"id": 5084190, "name": "Canterbury", "state": "NH", "country": "US", "coord": {"lon": -71.565353, "lat": 43.337021}}, {"id": 5084247, "name": "Carroll County", "state": "NH", "country": "US", "coord": {"lon": -71.216179, "lat": 43.866741}}, {"id": 5084376, "name": "Center Harbor", "state": "NH", "country": "US", "coord": {"lon": -71.46035, "lat": 43.709801}}, {"id": 5084457, "name": "Charlestown", "state": "NH", "country": "US", "coord": {"lon": -72.42453, "lat": 43.238689}}, {"id": 5084505, "name": "Cheshire County", "state": "NH", "country": "US", "coord": {"lon": -72.266197, "lat": 42.933411}}, {"id": 5084518, "name": "Chester", "state": "NH", "country": "US", "coord": {"lon": -71.257278, "lat": 42.956749}}, {"id": 5084524, "name": "Chesterfield", "state": "NH", "country": "US", "coord": {"lon": -72.470367, "lat": 42.887299}}, {"id": 5084536, "name": "Chichester", "state": "NH", "country": "US", "coord": {"lon": -71.399788, "lat": 43.249249}}, {"id": 5084633, "name": "Claremont", "state": "NH", "country": "US", "coord": {"lon": -72.346764, "lat": 43.37674}}, {"id": 5084820, "name": "Colebrook", "state": "NH", "country": "US", "coord": {"lon": -71.495918, "lat": 44.894489}}, {"id": 5084868, "name": "Concord", "state": "NH", "country": "US", "coord": {"lon": -71.537567, "lat": 43.208141}}, {"id": 5084874, "name": "Concord Heights", "state": "NH", "country": "US", "coord": {"lon": -71.509789, "lat": 43.212582}}, {"id": 5084917, "name": "Contoocook", "state": "NH", "country": "US", "coord": {"lon": -71.713966, "lat": 43.222019}}, {"id": 5084939, "name": "Conway", "state": "NH", "country": "US", "coord": {"lon": -71.120354, "lat": 43.97924}}, {"id": 5084973, "name": "Coos County", "state": "NH", "country": "US", "coord": {"lon": -71.316193, "lat": 44.633389}}, {"id": 5085222, "name": "Danbury", "state": "NH", "country": "US", "coord": {"lon": -71.861748, "lat": 43.525631}}, {"id": 5085244, "name": "Danville", "state": "NH", "country": "US", "coord": {"lon": -71.124496, "lat": 42.91259}}, {"id": 5085351, "name": "Deering", "state": "NH", "country": "US", "coord": {"lon": -71.844521, "lat": 43.073139}}]