[{"id": 6547524, "name": "Saarwellingen", "state": "", "country": "DE", "coord": {"lon": 6.8393, "lat": 49.352699}}, {"id": 6547525, "name": "Schmelz", "state": "", "country": "DE", "coord": {"lon": 6.85, "lat": 49.4333}}, {"id": 6547526, "name": "Schwalbach", "state": "", "country": "DE", "coord": {"lon": 6.8474, "lat": 49.3036}}, {"id": 6547527, "name": "\u00dcberherrn", "state": "", "country": "DE", "coord": {"lon": 6.7088, "lat": 49.254398}}, {"id": 6547528, "name": "Wadgassen", "state": "", "country": "DE", "coord": {"lon": 6.78333, "lat": 49.266701}}, {"id": 6547529, "name": "Wallerfangen", "state": "", "country": "DE", "coord": {"lon": 6.7208, "lat": 49.327801}}, {"id": 6547530, "name": "Bous", "state": "", "country": "DE", "coord": {"lon": 6.8214, "lat": 49.2817}}, {"id": 6547531, "name": "Ensdorf", "state": "", "country": "DE", "coord": {"lon": 6.78333, "lat": 49.299999}}, {"id": 6547532, "name": "Gersheim", "state": "", "country": "DE", "coord": {"lon": 7.236, "lat": 49.150799}}, {"id": 6547533, "name": "Marpingen", "state": "", "country": "DE", "coord": {"lon": 7.05, "lat": 49.450001}}, {"id": 6547534, "name": "Namborn", "state": "", "country": "DE", "coord": {"lon": 7.13333, "lat": 49.516701}}, {"id": 6547535, "name": "Nohfelden", "state": "", "country": "DE", "coord": {"lon": 7.0808, "lat": 49.575901}}, {"id": 6547536, "name": "Nonnweiler", "state": "", "country": "DE", "coord": {"lon": 6.95, "lat": 49.616699}}, {"id": 6547537, "name": "Oberthal", "state": "", "country": "DE", "coord": {"lon": 7.1, "lat": 49.516701}}, {"id": 6547538, "name": "Tholey", "state": "", "country": "DE", "coord": {"lon": 7.03333, "lat": 49.483299}}, {"id": 6547543, "name": "Ahrensfelde", "state": "", "country": "DE", "coord": {"lon": 13.5833, "lat": 52.583302}}, {"id": 6547544, "name": "Alth\u00fcttendorf", "state": "", "country": "DE", "coord": {"lon": 13.8, "lat": 52.966702}}, {"id": 6547546, "name": "Britz", "state": "", "country": "DE", "coord": {"lon": 13.8, "lat": 52.883301}}, {"id": 6547547, "name": "Chorin", "state": "", "country": "DE", "coord": {"lon": 13.8667, "lat": 52.916698}}, {"id": 6547548, "name": "Friedrichswalde", "state": "", "country": "DE", "coord": {"lon": 13.7167, "lat": 53.033298}}, {"id": 6547549, "name": "Hohenfinow", "state": "", "country": "DE", "coord": {"lon": 13.9333, "lat": 52.8167}}, {"id": 6547551, "name": "Liepe", "state": "", "country": "DE", "coord": {"lon": 13.9667, "lat": 52.866699}}, {"id": 6547553, "name": "Marienwerder", "state": "", "country": "DE", "coord": {"lon": 13.6, "lat": 52.849998}}, {"id": 6547554, "name": "Melchow", "state": "", "country": "DE", "coord": {"lon": 13.7167, "lat": 52.783298}}, {"id": 6547555, "name": "Niederfinow", "state": "", "country": "DE", "coord": {"lon": 13.9333, "lat": 52.833302}}, {"id": 6547557, "name": "R\u00fcdnitz", "state": "", "country": "DE", "coord": {"lon": 13.6167, "lat": 52.716702}}, {"id": 6547558, "name": "Wandlitz", "state": "", "country": "DE", "coord": {"lon": 13.4568, "lat": 52.7411}}, {"id": 6547560, "name": "Bestensee", "state": "", "country": "DE", "coord": {"lon": 13.65, "lat": 52.25}}, {"id": 6547561, "name": "Drahnsdorf", "state": "", "country": "DE", "coord": {"lon": 13.5833, "lat": 51.916698}}, {"id": 6547562, "name": "Eichwalde", "state": "", "country": "DE", "coord": {"lon": 13.6167, "lat": 52.366699}}, {"id": 6547563, "name": "Gro\u00df K\u00f6ris", "state": "", "country": "DE", "coord": {"lon": 13.6667, "lat": 52.166698}}, {"id": 6547564, "name": "Halbe", "state": "", "country": "DE", "coord": {"lon": 13.7, "lat": 52.116699}}, {"id": 6547565, "name": "Jamlitz", "state": "", "country": "DE", "coord": {"lon": 14.3667, "lat": 52}}, {"id": 6547566, "name": "Kasel-Golzig", "state": "", "country": "DE", "coord": {"lon": 13.7, "lat": 51.9333}}, {"id": 6547568, "name": "M\u00fcnchehofe", "state": "", "country": "DE", "coord": {"lon": 13.85, "lat": 52.150002}}, {"id": 6547569, "name": "Neu Zauche", "state": "", "country": "DE", "coord": {"lon": 14.1, "lat": 51.9333}}, {"id": 6547571, "name": "Schlepzig", "state": "", "country": "DE", "coord": {"lon": 13.9, "lat": 52.033298}}, {"id": 6547573, "name": "Schulzendorf", "state": "", "country": "DE", "coord": {"lon": 13.5833, "lat": 52.366699}}, {"id": 6547574, "name": "Schwerin", "state": "", "country": "DE", "coord": {"lon": 13.6333, "lat": 52.150002}}, {"id": 6547575, "name": "Straupitz", "state": "", "country": "DE", "coord": {"lon": 14.1167, "lat": 51.900002}}, {"id": 6547577, "name": "Wildau", "state": "", "country": "DE", "coord": {"lon": 13.61525, "lat": 52.316952}}, {"id": 6547578, "name": "Zeuthen", "state": "", "country": "DE", "coord": {"lon": 13.6167, "lat": 52.366699}}, {"id": 6547579, "name": "Crinitz", "state": "", "country": "DE", "coord": {"lon": 13.7667, "lat": 51.733299}}, {"id": 6547580, "name": "Hohenleipisch", "state": "", "country": "DE", "coord": {"lon": 13.55, "lat": 51.5}}, {"id": 6547581, "name": "Merzdorf", "state": "", "country": "DE", "coord": {"lon": 13.5333, "lat": 51.400002}}, {"id": 6547582, "name": "Plessa", "state": "", "country": "DE", "coord": {"lon": 13.6167, "lat": 51.466702}}, {"id": 6547583, "name": "R\u00fcckersdorf", "state": "", "country": "DE", "coord": {"lon": 13.5667, "lat": 51.583302}}, {"id": 6547584, "name": "Sallgast", "state": "", "country": "DE", "coord": {"lon": 13.8667, "lat": 51.583302}}, {"id": 6547585, "name": "Schilda", "state": "", "country": "DE", "coord": {"lon": 13.3833, "lat": 51.599998}}, {"id": 6547586, "name": "Sch\u00f6nborn", "state": "", "country": "DE", "coord": {"lon": 13.5, "lat": 51.599998}}, {"id": 6547587, "name": "Schraden", "state": "", "country": "DE", "coord": {"lon": 13.7, "lat": 51.4333}}, {"id": 6547588, "name": "Tr\u00f6bitz", "state": "", "country": "DE", "coord": {"lon": 13.4333, "lat": 51.599998}}, {"id": 6547589, "name": "Brieselang", "state": "", "country": "DE", "coord": {"lon": 13, "lat": 52.583302}}, {"id": 6547590, "name": "Dallgow-D\u00f6beritz", "state": "", "country": "DE", "coord": {"lon": 13.05837, "lat": 52.54269}}, {"id": 6547592, "name": "Gro\u00dfderschau", "state": "", "country": "DE", "coord": {"lon": 12.35, "lat": 52.783298}}, {"id": 6547595, "name": "Kotzen", "state": "", "country": "DE", "coord": {"lon": 12.5167, "lat": 52.633301}}, {"id": 6547597, "name": "Nennhausen", "state": "", "country": "DE", "coord": {"lon": 12.5, "lat": 52.599998}}, {"id": 6547598, "name": "Paulinenaue", "state": "", "country": "DE", "coord": {"lon": 12.7167, "lat": 52.6833}}, {"id": 6547599, "name": "Pessin", "state": "", "country": "DE", "coord": {"lon": 12.6667, "lat": 52.650002}}, {"id": 6547600, "name": "Retzow", "state": "", "country": "DE", "coord": {"lon": 12.7, "lat": 52.633301}}, {"id": 6547603, "name": "Wustermark", "state": "", "country": "DE", "coord": {"lon": 12.9775, "lat": 52.5406}}, {"id": 6547604, "name": "Falkenhagen", "state": "", "country": "DE", "coord": {"lon": 14.3209, "lat": 52.4291}}, {"id": 6547606, "name": "Golzow", "state": "", "country": "DE", "coord": {"lon": 14.4949, "lat": 52.574699}}, {"id": 6547607, "name": "Hoppegarten", "state": "", "country": "DE", "coord": {"lon": 13.6667, "lat": 52.516701}}, {"id": 6547608, "name": "Letschin", "state": "", "country": "DE", "coord": {"lon": 14.3667, "lat": 52.633301}}, {"id": 6547609, "name": "Lietzen", "state": "", "country": "DE", "coord": {"lon": 14.3455, "lat": 52.467701}}, {"id": 6547612, "name": "Podelzig", "state": "", "country": "DE", "coord": {"lon": 14.539, "lat": 52.470001}}, {"id": 6547613, "name": "Reitwein", "state": "", "country": "DE", "coord": {"lon": 14.5831, "lat": 52.5014}}, {"id": 6547615, "name": "Treplin", "state": "", "country": "DE", "coord": {"lon": 14.3979, "lat": 52.391399}}, {"id": 6547616, "name": "Waldsieversdorf", "state": "", "country": "DE", "coord": {"lon": 14.0688, "lat": 52.5424}}, {"id": 6547617, "name": "Birkenwerder", "state": "", "country": "DE", "coord": {"lon": 13.2833, "lat": 52.6833}}, {"id": 6547618, "name": "Gro\u00dfwoltersdorf", "state": "", "country": "DE", "coord": {"lon": 13.1, "lat": 53.0667}}, {"id": 6547619, "name": "Leegebruch", "state": "", "country": "DE", "coord": {"lon": 13.2, "lat": 52.716702}}, {"id": 6547622, "name": "Sch\u00f6nermark", "state": "", "country": "DE", "coord": {"lon": 13.1167, "lat": 53}}, {"id": 6547623, "name": "Sonnenberg", "state": "", "country": "DE", "coord": {"lon": 13.1, "lat": 53.016701}}, {"id": 6547625, "name": "Altd\u00f6bern", "state": "", "country": "DE", "coord": {"lon": 14.0333, "lat": 51.650002}}, {"id": 6547626, "name": "Bronkow", "state": "", "country": "DE", "coord": {"lon": 13.9167, "lat": 51.666698}}, {"id": 6547627, "name": "Gro\u00dfkmehlen", "state": "", "country": "DE", "coord": {"lon": 13.7333, "lat": 51.383301}}, {"id": 6547628, "name": "Gr\u00fcnewald", "state": "", "country": "DE", "coord": {"lon": 14, "lat": 51.400002}}, {"id": 6547629, "name": "Guteborn", "state": "", "country": "DE", "coord": {"lon": 13.9333, "lat": 51.416698}}, {"id": 6547630, "name": "Hermsdorf", "state": "", "country": "DE", "coord": {"lon": 13.9, "lat": 51.416698}}, {"id": 6547631, "name": "Hohenbocka", "state": "", "country": "DE", "coord": {"lon": 14, "lat": 51.4333}}, {"id": 6547632, "name": "Kroppen", "state": "", "country": "DE", "coord": {"lon": 13.8, "lat": 51.383301}}, {"id": 6547633, "name": "Lindenau", "state": "", "country": "DE", "coord": {"lon": 13.7333, "lat": 51.400002}}, {"id": 6547636, "name": "Neupetershain", "state": "", "country": "DE", "coord": {"lon": 14.1667, "lat": 51.599998}}, {"id": 6547637, "name": "Schwarzbach", "state": "", "country": "DE", "coord": {"lon": 13.9333, "lat": 51.450001}}, {"id": 6547638, "name": "Tettau", "state": "", "country": "DE", "coord": {"lon": 13.7333, "lat": 51.4333}}, {"id": 6547639, "name": "Berkenbr\u00fcck", "state": "", "country": "DE", "coord": {"lon": 14.15, "lat": 52.349998}}, {"id": 6547640, "name": "Brieskow-Finkenheerd", "state": "", "country": "DE", "coord": {"lon": 14.56993, "lat": 52.252289}}, {"id": 6547641, "name": "Diensdorf-Radlow", "state": "", "country": "DE", "coord": {"lon": 14.05, "lat": 52.240002}}, {"id": 6547643, "name": "Langewahl", "state": "", "country": "DE", "coord": {"lon": 14.1, "lat": 52.333302}}, {"id": 6547644, "name": "Lawitz", "state": "", "country": "DE", "coord": {"lon": 14.64151, "lat": 52.10672}}, {"id": 6547645, "name": "Mixdorf", "state": "", "country": "DE", "coord": {"lon": 14.4, "lat": 52.200001}}, {"id": 6547646, "name": "Rauen", "state": "", "country": "DE", "coord": {"lon": 14.0167, "lat": 52.333302}}, {"id": 6547648, "name": "Vogelsang", "state": "", "country": "DE", "coord": {"lon": 14.66331, "lat": 52.18214}}, {"id": 6547649, "name": "Wendisch Rietz", "state": "", "country": "DE", "coord": {"lon": 14.0167, "lat": 52.200001}}, {"id": 6547650, "name": "Wiesenau", "state": "", "country": "DE", "coord": {"lon": 14.59098, "lat": 52.23069}}, {"id": 6547651, "name": "Woltersdorf", "state": "", "country": "DE", "coord": {"lon": 13.7667, "lat": 52.450001}}, {"id": 6547652, "name": "Breddin", "state": "", "country": "DE", "coord": {"lon": 12.2167, "lat": 52.883301}}, {"id": 6547653, "name": "Dabergotz", "state": "", "country": "DE", "coord": {"lon": 12.7333, "lat": 52.900002}}, {"id": 6547654, "name": "Dreetz", "state": "", "country": "DE", "coord": {"lon": 12.4667, "lat": 52.799999}}, {"id": 6547656, "name": "R\u00fcthnick", "state": "", "country": "DE", "coord": {"lon": 12.9833, "lat": 52.883301}}, {"id": 6547661, "name": "Walsleben", "state": "", "country": "DE", "coord": {"lon": 12.6667, "lat": 52.9333}}, {"id": 6547665, "name": "Bensdorf", "state": "", "country": "DE", "coord": {"lon": 12.3333, "lat": 52.416698}}, {"id": 6547666, "name": "Borkheide", "state": "", "country": "DE", "coord": {"lon": 12.85, "lat": 52.216702}}, {"id": 6547667, "name": "Borkwalde", "state": "", "country": "DE", "coord": {"lon": 12.8333, "lat": 52.25}}, {"id": 6547669, "name": "Golzow", "state": "", "country": "DE", "coord": {"lon": 12.6167, "lat": 52.266701}}, {"id": 6547670, "name": "G\u00f6rzke", "state": "", "country": "DE", "coord": {"lon": 12.37056, "lat": 52.17083}}, {"id": 6547671, "name": "Gr\u00e4ben", "state": "", "country": "DE", "coord": {"lon": 12.4333, "lat": 52.233299}}, {"id": 6547672, "name": "Kleinmachnow", "state": "", "country": "DE", "coord": {"lon": 13.2333, "lat": 52.400002}}, {"id": 6547674, "name": "Linthe", "state": "", "country": "DE", "coord": {"lon": 12.7851, "lat": 52.197498}}, {"id": 6547675, "name": "Michendorf", "state": "", "country": "DE", "coord": {"lon": 13.0257, "lat": 52.301201}}, {"id": 6547677, "name": "P\u00e4wesin", "state": "", "country": "DE", "coord": {"lon": 12.7167, "lat": 52.516701}}, {"id": 6547681, "name": "Roskow", "state": "", "country": "DE", "coord": {"lon": 12.7333, "lat": 52.466702}}, {"id": 6547684, "name": "Stahnsdorf", "state": "", "country": "DE", "coord": {"lon": 13.1918, "lat": 52.358501}}, {"id": 6547685, "name": "Wenzlow", "state": "", "country": "DE", "coord": {"lon": 12.45, "lat": 52.299999}}, {"id": 6547686, "name": "Wollin", "state": "", "country": "DE", "coord": {"lon": 12.4667, "lat": 52.283298}}, {"id": 6547687, "name": "Wusterwitz", "state": "", "country": "DE", "coord": {"lon": 12.4, "lat": 52.383301}}, {"id": 6547688, "name": "Berge", "state": "", "country": "DE", "coord": {"lon": 11.8667, "lat": 53.233299}}, {"id": 6547689, "name": "Cumlosen", "state": "", "country": "DE", "coord": {"lon": 11.6667, "lat": 53.033298}}, {"id": 6547690, "name": "Gerdshagen", "state": "", "country": "DE", "coord": {"lon": 12.2, "lat": 53.25}}, {"id": 6547692, "name": "Gumtow", "state": "", "country": "DE", "coord": {"lon": 12.25, "lat": 52.983299}}, {"id": 6547694, "name": "Karst\u00e4dt", "state": "", "country": "DE", "coord": {"lon": 11.7073, "lat": 53.184399}}, {"id": 6547696, "name": "Lanz", "state": "", "country": "DE", "coord": {"lon": 11.6, "lat": 53.0667}}, {"id": 6547698, "name": "Pirow", "state": "", "country": "DE", "coord": {"lon": 11.9, "lat": 53.216702}}, {"id": 6547699, "name": "R\u00fchst\u00e4dt", "state": "", "country": "DE", "coord": {"lon": 11.8667, "lat": 52.916698}}, {"id": 6547700, "name": "Triglitz", "state": "", "country": "DE", "coord": {"lon": 12.1, "lat": 53.216702}}, {"id": 6547701, "name": "Weisen", "state": "", "country": "DE", "coord": {"lon": 11.7906, "lat": 52.997601}}, {"id": 6547702, "name": "Briesen", "state": "", "country": "DE", "coord": {"lon": 14.24429, "lat": 51.816521}}, {"id": 6547705, "name": "Drachhausen", "state": "", "country": "DE", "coord": {"lon": 14.3167, "lat": 51.900002}}, {"id": 6547706, "name": "Drehnow", "state": "", "country": "DE", "coord": {"lon": 14.3667, "lat": 51.866699}}, {"id": 6547709, "name": "Guhrow", "state": "", "country": "DE", "coord": {"lon": 14.22893, "lat": 51.813358}}, {"id": 6547710, "name": "Heinersbr\u00fcck", "state": "", "country": "DE", "coord": {"lon": 14.50839, "lat": 51.82074}}, {"id": 6547713, "name": "J\u00e4nschwalde", "state": "", "country": "DE", "coord": {"lon": 14.5, "lat": 51.866699}}, {"id": 6547714, "name": "Kolkwitz", "state": "", "country": "DE", "coord": {"lon": 14.25, "lat": 51.75}}, {"id": 6547718, "name": "Tauer", "state": "", "country": "DE", "coord": {"lon": 14.45, "lat": 51.900002}}, {"id": 6547720, "name": "Tschernitz", "state": "", "country": "DE", "coord": {"lon": 14.6167, "lat": 51.583302}}, {"id": 6547722, "name": "Werben", "state": "", "country": "DE", "coord": {"lon": 14.1833, "lat": 51.8167}}, {"id": 6547725, "name": "Gro\u00dfbeeren", "state": "", "country": "DE", "coord": {"lon": 13.3333, "lat": 52.366699}}, {"id": 6547726, "name": "Ihlow", "state": "", "country": "DE", "coord": {"lon": 13.3333, "lat": 51.883301}}, {"id": 6547727, "name": "Niederg\u00f6rsdorf", "state": "", "country": "DE", "coord": {"lon": 13, "lat": 51.983299}}, {"id": 6547729, "name": "Rangsdorf", "state": "", "country": "DE", "coord": {"lon": 13.4334, "lat": 52.294998}}, {"id": 6547733, "name": "Casekow", "state": "", "country": "DE", "coord": {"lon": 14.2167, "lat": 53.216702}}, {"id": 6547735, "name": "Gerswalde", "state": "", "country": "DE", "coord": {"lon": 13.7667, "lat": 53.166698}}, {"id": 6547736, "name": "G\u00f6ritz", "state": "", "country": "DE", "coord": {"lon": 13.9167, "lat": 53.416698}}, {"id": 6547737, "name": "Gramzow", "state": "", "country": "DE", "coord": {"lon": 14, "lat": 53.216702}}, {"id": 6547738, "name": "Gr\u00fcnow", "state": "", "country": "DE", "coord": {"lon": 13.95, "lat": 53.3167}}, {"id": 6547740, "name": "Mescherin", "state": "", "country": "DE", "coord": {"lon": 14.4333, "lat": 53.25}}, {"id": 6547741, "name": "Milmersdorf", "state": "", "country": "DE", "coord": {"lon": 13.65, "lat": 53.116699}}, {"id": 6547742, "name": "Mittenwalde", "state": "", "country": "DE", "coord": {"lon": 13.6667, "lat": 53.1833}}, {"id": 6547745, "name": "Pinnow", "state": "", "country": "DE", "coord": {"lon": 14.0833, "lat": 53.0667}}, {"id": 6547747, "name": "Schenkenberg", "state": "", "country": "DE", "coord": {"lon": 13.95, "lat": 53.366699}}, {"id": 6547748, "name": "Sch\u00f6neberg", "state": "", "country": "DE", "coord": {"lon": 14.1333, "lat": 53}}, {"id": 6547749, "name": "Sch\u00f6nfeld", "state": "", "country": "DE", "coord": {"lon": 13.9833, "lat": 53.416698}}, {"id": 6547750, "name": "Tantow", "state": "", "country": "DE", "coord": {"lon": 14.35, "lat": 53.266701}}, {"id": 6547754, "name": "Passow", "state": "", "country": "DE", "coord": {"lon": 14.1167, "lat": 53.155602}}, {"id": 6547755, "name": "Zichow", "state": "", "country": "DE", "coord": {"lon": 14.0333, "lat": 53.1833}}, {"id": 6547757, "name": "Admannshagen-Bargeshagen", "state": "", "country": "DE", "coord": {"lon": 11.9833, "lat": 54.116699}}, {"id": 6547758, "name": "Alt Bukow", "state": "", "country": "DE", "coord": {"lon": 11.6, "lat": 54}}, {"id": 6547759, "name": "Bartenshagen-Parkentin", "state": "", "country": "DE", "coord": {"lon": 11.9667, "lat": 54.083302}}, {"id": 6547760, "name": "Bastorf", "state": "", "country": "DE", "coord": {"lon": 11.7, "lat": 54.133301}}, {"id": 6547761, "name": "Benitz", "state": "", "country": "DE", "coord": {"lon": 12.1, "lat": 53.983299}}, {"id": 6547762, "name": "Bentwisch", "state": "", "country": "DE", "coord": {"lon": 12.1932, "lat": 54.113998}}, {"id": 6547763, "name": "Blankenhagen", "state": "", "country": "DE", "coord": {"lon": 12.35, "lat": 54.166698}}, {"id": 6547764, "name": "B\u00f6rgerende-Rethwisch", "state": "", "country": "DE", "coord": {"lon": 11.9167, "lat": 54.133301}}, {"id": 6547765, "name": "Br\u00f6bberow", "state": "", "country": "DE", "coord": {"lon": 12.05, "lat": 53.966702}}, {"id": 6547766, "name": "Broderstorf", "state": "", "country": "DE", "coord": {"lon": 12.2971, "lat": 54.113602}}, {"id": 6547767, "name": "Cammin", "state": "", "country": "DE", "coord": {"lon": 12.35, "lat": 53.983299}}, {"id": 6547769, "name": "Dummerstorf", "state": "", "country": "DE", "coord": {"lon": 12.2333, "lat": 54.016701}}, {"id": 6547771, "name": "Gelbensande", "state": "", "country": "DE", "coord": {"lon": 12.3, "lat": 54.200001}}, {"id": 6547772, "name": "Gnewitz", "state": "", "country": "DE", "coord": {"lon": 12.5167, "lat": 54.083302}}, {"id": 6547774, "name": "Grammow", "state": "", "country": "DE", "coord": {"lon": 12.63016, "lat": 54.047192}}, {"id": 6547775, "name": "Kassow", "state": "", "country": "DE", "coord": {"lon": 12.0667, "lat": 53.883301}}, {"id": 6547778, "name": "Kirch Mulsow", "state": "", "country": "DE", "coord": {"lon": 11.7, "lat": 53.966702}}, {"id": 6547779, "name": "Klein Kussewitz", "state": "", "country": "DE", "coord": {"lon": 12.2333, "lat": 54.133301}}, {"id": 6547780, "name": "Kritzmow", "state": "", "country": "DE", "coord": {"lon": 12.05, "lat": 54.049999}}, {"id": 6547781, "name": "Lambrechtshagen", "state": "", "country": "DE", "coord": {"lon": 12.0167, "lat": 54.099998}}, {"id": 6547783, "name": "Mandelshagen", "state": "", "country": "DE", "coord": {"lon": 12.3667, "lat": 54.150002}}, {"id": 6547784, "name": "M\u00f6nchhagen", "state": "", "country": "DE", "coord": {"lon": 12.2887, "lat": 54.186951}}, {"id": 6547786, "name": "Nustrow", "state": "", "country": "DE", "coord": {"lon": 12.6, "lat": 54.016701}}, {"id": 6547787, "name": "Papendorf", "state": "", "country": "DE", "coord": {"lon": 12.1333, "lat": 54.033298}}, {"id": 6547789, "name": "Poppendorf", "state": "", "country": "DE", "coord": {"lon": 12.2833, "lat": 54.133301}}, {"id": 6547791, "name": "Reddelich", "state": "", "country": "DE", "coord": {"lon": 11.85, "lat": 54.083302}}, {"id": 6547792, "name": "Roggentin", "state": "", "country": "DE", "coord": {"lon": 12.2034, "lat": 54.0709}}, {"id": 6547793, "name": "R\u00f6vershagen", "state": "", "country": "DE", "coord": {"lon": 12.2333, "lat": 54.1833}}, {"id": 6547794, "name": "Rukieten", "state": "", "country": "DE", "coord": {"lon": 12.15, "lat": 53.900002}}, {"id": 6547795, "name": "Sanitz", "state": "", "country": "DE", "coord": {"lon": 12.3661, "lat": 54.077499}}, {"id": 6547796, "name": "Selpin", "state": "", "country": "DE", "coord": {"lon": 12.5, "lat": 54}}, {"id": 6547797, "name": "St\u00e4below", "state": "", "country": "DE", "coord": {"lon": 12.0167, "lat": 54.033298}}, {"id": 6547798, "name": "Steffenshagen", "state": "", "country": "DE", "coord": {"lon": 11.8333, "lat": 54.099998}}, {"id": 6547799, "name": "Steinfeld", "state": "", "country": "DE", "coord": {"lon": 12.3167, "lat": 54.099998}}, {"id": 6547800, "name": "Stubbendorf", "state": "", "country": "DE", "coord": {"lon": 12.5167, "lat": 54.083302}}, {"id": 6547801, "name": "Thelkow", "state": "", "country": "DE", "coord": {"lon": 12.5667, "lat": 54.033298}}, {"id": 6547802, "name": "Thulendorf", "state": "", "country": "DE", "coord": {"lon": 12.3, "lat": 54.099998}}, {"id": 6547803, "name": "Vorbeck", "state": "", "country": "DE", "coord": {"lon": 12.0667, "lat": 53.916698}}, {"id": 6547804, "name": "Wiendorf", "state": "", "country": "DE", "coord": {"lon": 12.15, "lat": 53.950001}}, {"id": 6547805, "name": "Wittenbeck", "state": "", "country": "DE", "coord": {"lon": 11.7833, "lat": 54.116699}}, {"id": 6547806, "name": "Zarnewanz", "state": "", "country": "DE", "coord": {"lon": 12.5, "lat": 54.0667}}, {"id": 6547807, "name": "Ziesendorf", "state": "", "country": "DE", "coord": {"lon": 12.0333, "lat": 54}}, {"id": 6547808, "name": "Alt Tellin", "state": "", "country": "DE", "coord": {"lon": 13.25, "lat": 53.849998}}, {"id": 6547809, "name": "Altenhagen", "state": "", "country": "DE", "coord": {"lon": 13.1167, "lat": 53.766701}}, {"id": 6547810, "name": "Bartow", "state": "", "country": "DE", "coord": {"lon": 13.35, "lat": 53.8167}}, {"id": 6547811, "name": "Basedow", "state": "", "country": "DE", "coord": {"lon": 12.6833, "lat": 53.700001}}, {"id": 6547812, "name": "Beggerow", "state": "", "country": "DE", "coord": {"lon": 13.05, "lat": 53.833302}}, {"id": 6547813, "name": "Bentzin", "state": "", "country": "DE", "coord": {"lon": 13.2833, "lat": 53.950001}}, {"id": 6547814, "name": "Bredenfelde", "state": "", "country": "DE", "coord": {"lon": 12.95, "lat": 53.599998}}, {"id": 6547815, "name": "Breesen", "state": "", "country": "DE", "coord": {"lon": 13.1667, "lat": 53.633301}}, {"id": 6547816, "name": "Breest", "state": "", "country": "DE", "coord": {"lon": 13.3333, "lat": 53.783298}}, {"id": 6547817, "name": "Briggow", "state": "", "country": "DE", "coord": {"lon": 12.9833, "lat": 53.616699}}, {"id": 6547818, "name": "Burow", "state": "", "country": "DE", "coord": {"lon": 13.2667, "lat": 53.783298}}, {"id": 6547819, "name": "Daberkow", "state": "", "country": "DE", "coord": {"lon": 13.3, "lat": 53.833302}}, {"id": 6547820, "name": "Duckow", "state": "", "country": "DE", "coord": {"lon": 12.8, "lat": 53.700001}}, {"id": 6547821, "name": "D\u00fcvier", "state": "", "country": "DE", "coord": {"lon": 13.0667, "lat": 54.016701}}, {"id": 6547822, "name": "Faulenrost", "state": "", "country": "DE", "coord": {"lon": 12.7833, "lat": 53.633301}}, {"id": 6547823, "name": "Gielow", "state": "", "country": "DE", "coord": {"lon": 12.75, "lat": 53.700001}}, {"id": 6547824, "name": "Gnevkow", "state": "", "country": "DE", "coord": {"lon": 13.1667, "lat": 53.783298}}, {"id": 6547825, "name": "Golchen", "state": "", "country": "DE", "coord": {"lon": 13.2833, "lat": 53.799999}}, {"id": 6547826, "name": "G\u00f6rmin", "state": "", "country": "DE", "coord": {"lon": 13.2667, "lat": 53.983299}}, {"id": 6547827, "name": "Grammentin", "state": "", "country": "DE", "coord": {"lon": 12.9, "lat": 53.75}}, {"id": 6547828, "name": "Grapzow", "state": "", "country": "DE", "coord": {"lon": 13.3, "lat": 53.700001}}, {"id": 6547829, "name": "Grischow", "state": "", "country": "DE", "coord": {"lon": 13.35, "lat": 53.700001}}, {"id": 6547830, "name": "Gro\u00df Teetzleben", "state": "", "country": "DE", "coord": {"lon": 13.2333, "lat": 53.650002}}, {"id": 6547831, "name": "G\u00fcltz", "state": "", "country": "DE", "coord": {"lon": 13.1833, "lat": 53.75}}, {"id": 6547832, "name": "G\u00fclzow", "state": "", "country": "DE", "coord": {"lon": 12.85, "lat": 53.700001}}, {"id": 6547833, "name": "Hohenbollentin", "state": "", "country": "DE", "coord": {"lon": 13.0167, "lat": 53.783298}}, {"id": 6547834, "name": "Ivenack", "state": "", "country": "DE", "coord": {"lon": 12.9667, "lat": 53.716702}}, {"id": 6547835, "name": "J\u00fcrgenstorf", "state": "", "country": "DE", "coord": {"lon": 12.9, "lat": 53.666698}}, {"id": 6547836, "name": "Kittendorf", "state": "", "country": "DE", "coord": {"lon": 12.9, "lat": 53.633301}}, {"id": 6547837, "name": "Knorrendorf", "state": "", "country": "DE", "coord": {"lon": 13.0667, "lat": 53.633301}}, {"id": 6547838, "name": "Kriesow", "state": "", "country": "DE", "coord": {"lon": 13.05, "lat": 53.733299}}, {"id": 6547839, "name": "Kruckow", "state": "", "country": "DE", "coord": {"lon": 13.2333, "lat": 53.900002}}, {"id": 6547840, "name": "Kummerow", "state": "", "country": "DE", "coord": {"lon": 12.8333, "lat": 53.766701}}, {"id": 6547841, "name": "Lindenberg", "state": "", "country": "DE", "coord": {"lon": 13.0167, "lat": 53.766701}}, {"id": 6547842, "name": "Meesiger", "state": "", "country": "DE", "coord": {"lon": 12.9167, "lat": 53.8167}}, {"id": 6547843, "name": "M\u00f6lln", "state": "", "country": "DE", "coord": {"lon": 13.0833, "lat": 53.599998}}, {"id": 6547845, "name": "Nossendorf", "state": "", "country": "DE", "coord": {"lon": 12.95, "lat": 53.966702}}, {"id": 6547846, "name": "Pripsleben", "state": "", "country": "DE", "coord": {"lon": 13.1833, "lat": 53.716702}}, {"id": 6547848, "name": "Ritzerow", "state": "", "country": "DE", "coord": {"lon": 12.9667, "lat": 53.666698}}, {"id": 6547849, "name": "R\u00f6ckwitz", "state": "", "country": "DE", "coord": {"lon": 13.1, "lat": 53.700001}}, {"id": 6547850, "name": "Rosenow", "state": "", "country": "DE", "coord": {"lon": 13.0333, "lat": 53.633301}}, {"id": 6547851, "name": "Sarow", "state": "", "country": "DE", "coord": {"lon": 13.1, "lat": 53.799999}}, {"id": 6547852, "name": "Sch\u00f6nfeld", "state": "", "country": "DE", "coord": {"lon": 12.9667, "lat": 53.849998}}, {"id": 6547853, "name": "Siedenbollentin", "state": "", "country": "DE", "coord": {"lon": 13.3833, "lat": 53.733299}}, {"id": 6547854, "name": "Sommersdorf", "state": "", "country": "DE", "coord": {"lon": 12.9, "lat": 53.799999}}, {"id": 6547855, "name": "Tutow", "state": "", "country": "DE", "coord": {"lon": 13.2667, "lat": 53.916698}}, {"id": 6547856, "name": "T\u00fctzpatz", "state": "", "country": "DE", "coord": {"lon": 13.15, "lat": 53.733299}}, {"id": 6547857, "name": "V\u00f6lschow", "state": "", "country": "DE", "coord": {"lon": 13.3333, "lat": 53.883301}}, {"id": 6547858, "name": "Warrenzin", "state": "", "country": "DE", "coord": {"lon": 12.95, "lat": 53.900002}}, {"id": 6547859, "name": "Werder", "state": "", "country": "DE", "coord": {"lon": 13.3667, "lat": 53.716702}}, {"id": 6547860, "name": "Wildberg", "state": "", "country": "DE", "coord": {"lon": 13.1167, "lat": 53.650002}}, {"id": 6547861, "name": "Wolde", "state": "", "country": "DE", "coord": {"lon": 13.0833, "lat": 53.6833}}, {"id": 6547862, "name": "Zettemin", "state": "", "country": "DE", "coord": {"lon": 12.8333, "lat": 53.650002}}, {"id": 6547863, "name": "Borrentin", "state": "", "country": "DE", "coord": {"lon": 12.9667, "lat": 53.8167}}, {"id": 6547864, "name": "Hohenmocker", "state": "", "country": "DE", "coord": {"lon": 13.1833, "lat": 53.8167}}, {"id": 6547865, "name": "Kletzin", "state": "", "country": "DE", "coord": {"lon": 13.1667, "lat": 53.9333}}, {"id": 6547866, "name": "Siedenbr\u00fcnzow", "state": "", "country": "DE", "coord": {"lon": 13.15, "lat": 53.900002}}, {"id": 6547867, "name": "Utzedel", "state": "", "country": "DE", "coord": {"lon": 13.1167, "lat": 53.866699}}, {"id": 6547868, "name": "Alt S\u00fchrkow", "state": "", "country": "DE", "coord": {"lon": 12.65, "lat": 53.799999}}, {"id": 6547869, "name": "Altkalen", "state": "", "country": "DE", "coord": {"lon": 12.73908, "lat": 53.8988}}, {"id": 6547870, "name": "Behren-L\u00fcbchin", "state": "", "country": "DE", "coord": {"lon": 12.66415, "lat": 54.028851}}, {"id": 6547872, "name": "Boddin", "state": "", "country": "DE", "coord": {"lon": 12.64818, "lat": 53.938099}}, {"id": 6547873, "name": "Dahmen", "state": "", "country": "DE", "coord": {"lon": 12.5833, "lat": 53.650002}}, {"id": 6547874, "name": "Dalkendorf", "state": "", "country": "DE", "coord": {"lon": 12.5, "lat": 53.8167}}, {"id": 6547875, "name": "Diekhof", "state": "", "country": "DE", "coord": {"lon": 12.4, "lat": 53.866699}}, {"id": 6547876, "name": "Dreetz", "state": "", "country": "DE", "coord": {"lon": 11.9667, "lat": 53.783298}}, {"id": 6547877, "name": "Finkenthal", "state": "", "country": "DE", "coord": {"lon": 12.78064, "lat": 53.940262}}, {"id": 6547878, "name": "Glasewitz", "state": "", "country": "DE", "coord": {"lon": 12.2833, "lat": 53.8167}}, {"id": 6547879, "name": "Gro\u00df Roge", "state": "", "country": "DE", "coord": {"lon": 12.5, "lat": 53.783298}}, {"id": 6547880, "name": "Gro\u00df Schwiesow", "state": "", "country": "DE", "coord": {"lon": 12.1, "lat": 53.849998}}, {"id": 6547881, "name": "Gro\u00df Wokern", "state": "", "country": "DE", "coord": {"lon": 12.5, "lat": 53.75}}, {"id": 6547882, "name": "Gro\u00df W\u00fcstenfelde", "state": "", "country": "DE", "coord": {"lon": 12.55, "lat": 53.883301}}, {"id": 6547883, "name": "Gutow", "state": "", "country": "DE", "coord": {"lon": 12.1333, "lat": 53.766701}}, {"id": 6547884, "name": "Hohen Demzin", "state": "", "country": "DE", "coord": {"lon": 12.55, "lat": 53.716702}}, {"id": 6547885, "name": "Hohen Sprenz", "state": "", "country": "DE", "coord": {"lon": 12.2, "lat": 53.916698}}, {"id": 6547886, "name": "Hoppenrade", "state": "", "country": "DE", "coord": {"lon": 12.2667, "lat": 53.733299}}, {"id": 6547887, "name": "J\u00f6rdenstorf", "state": "", "country": "DE", "coord": {"lon": 12.6167, "lat": 53.883301}}, {"id": 6547888, "name": "J\u00fcrgenshagen", "state": "", "country": "DE", "coord": {"lon": 11.9, "lat": 53.950001}}, {"id": 6547889, "name": "Klein Belitz", "state": "", "country": "DE", "coord": {"lon": 11.9667, "lat": 53.9333}}, {"id": 6547890, "name": "Klein Upahl", "state": "", "country": "DE", "coord": {"lon": 12.0667, "lat": 53.716702}}, {"id": 6547891, "name": "Kuchelmi\u00df", "state": "", "country": "DE", "coord": {"lon": 12.3667, "lat": 53.6833}}, {"id": 6547892, "name": "Kuhs", "state": "", "country": "DE", "coord": {"lon": 12.2333, "lat": 53.866699}}, {"id": 6547893, "name": "Lalendorf", "state": "", "country": "DE", "coord": {"lon": 12.3833, "lat": 53.75}}, {"id": 6547894, "name": "Langhagen", "state": "", "country": "DE", "coord": {"lon": 12.4333, "lat": 53.6833}}, {"id": 6547895, "name": "Lelkendorf", "state": "", "country": "DE", "coord": {"lon": 12.7333, "lat": 53.849998}}, {"id": 6547896, "name": "Lohmen", "state": "", "country": "DE", "coord": {"lon": 12.1, "lat": 53.6833}}, {"id": 6547897, "name": "L\u00fchburg", "state": "", "country": "DE", "coord": {"lon": 12.6, "lat": 53.983299}}, {"id": 6547898, "name": "L\u00fcssow", "state": "", "country": "DE", "coord": {"lon": 12.15, "lat": 53.833302}}, {"id": 6547899, "name": "Mistorf", "state": "", "country": "DE", "coord": {"lon": 12.15, "lat": 53.883301}}, {"id": 6547900, "name": "M\u00fchl Rosin", "state": "", "country": "DE", "coord": {"lon": 12.2167, "lat": 53.766701}}, {"id": 6547902, "name": "Penzin", "state": "", "country": "DE", "coord": {"lon": 11.93, "lat": 53.916698}}, {"id": 6547904, "name": "Reimershagen", "state": "", "country": "DE", "coord": {"lon": 12.1833, "lat": 53.666698}}, {"id": 6547905, "name": "R\u00fchn", "state": "", "country": "DE", "coord": {"lon": 11.9333, "lat": 53.8167}}, {"id": 6547906, "name": "Steinhagen", "state": "", "country": "DE", "coord": {"lon": 11.9333, "lat": 53.849998}}, {"id": 6547907, "name": "Tarnow", "state": "", "country": "DE", "coord": {"lon": 12.0167, "lat": 53.783298}}, {"id": 6547908, "name": "Th\u00fcrkow", "state": "", "country": "DE", "coord": {"lon": 12.5667, "lat": 53.833302}}, {"id": 6547909, "name": "Walkendorf", "state": "", "country": "DE", "coord": {"lon": 12.55, "lat": 53.966702}}, {"id": 6547910, "name": "Wardow", "state": "", "country": "DE", "coord": {"lon": 12.4167, "lat": 53.9333}}, {"id": 6547911, "name": "Warnkenhagen", "state": "", "country": "DE", "coord": {"lon": 12.45, "lat": 53.849998}}, {"id": 6547913, "name": "Zehna", "state": "", "country": "DE", "coord": {"lon": 12.15, "lat": 53.716702}}, {"id": 6547914, "name": "Zepelin", "state": "", "country": "DE", "coord": {"lon": 12.05, "lat": 53.833302}}, {"id": 6547915, "name": "Prebberede", "state": "", "country": "DE", "coord": {"lon": 12.4833, "lat": 53.916698}}, {"id": 6547916, "name": "Alt Krenzlin", "state": "", "country": "DE", "coord": {"lon": 11.3, "lat": 53.3167}}, {"id": 6547917, "name": "Alt Zachun", "state": "", "country": "DE", "coord": {"lon": 11.3333, "lat": 53.483299}}, {"id": 6547918, "name": "Balow", "state": "", "country": "DE", "coord": {"lon": 11.7167, "lat": 53.266701}}, {"id": 6547920, "name": "Belsch", "state": "", "country": "DE", "coord": {"lon": 11.2, "lat": 53.333302}}, {"id": 6547921, "name": "Besitz", "state": "", "country": "DE", "coord": {"lon": 10.8667, "lat": 53.349998}}, {"id": 6547922, "name": "Blievenstorf", "state": "", "country": "DE", "coord": {"lon": 11.6667, "lat": 53.366699}}, {"id": 6547923, "name": "Bobzin", "state": "", "country": "DE", "coord": {"lon": 11.14706, "lat": 53.478989}}, {"id": 6547924, "name": "Brahlstorf", "state": "", "country": "DE", "coord": {"lon": 10.9333, "lat": 53.366699}}, {"id": 6547925, "name": "Brenz", "state": "", "country": "DE", "coord": {"lon": 11.6667, "lat": 53.383301}}, {"id": 6547926, "name": "Dambeck", "state": "", "country": "DE", "coord": {"lon": 11.7667, "lat": 53.25}}, {"id": 6547927, "name": "Dersenow", "state": "", "country": "DE", "coord": {"lon": 10.8833, "lat": 53.383301}}, {"id": 6547928, "name": "D\u00fcmmer", "state": "", "country": "DE", "coord": {"lon": 11.2, "lat": 53.583302}}, {"id": 6547929, "name": "Eldena", "state": "", "country": "DE", "coord": {"lon": 11.4167, "lat": 53.233299}}, {"id": 6547931, "name": "Gallin", "state": "", "country": "DE", "coord": {"lon": 10.83316, "lat": 53.49353}}, {"id": 6547932, "name": "Gammelin", "state": "", "country": "DE", "coord": {"lon": 11.2333, "lat": 53.516701}}, {"id": 6547934, "name": "G\u00f6hlen", "state": "", "country": "DE", "coord": {"lon": 11.3667, "lat": 53.299999}}, {"id": 6547935, "name": "Gorlosen", "state": "", "country": "DE", "coord": {"lon": 11.4667, "lat": 53.1833}}, {"id": 6547936, "name": "Gresse", "state": "", "country": "DE", "coord": {"lon": 10.75, "lat": 53.4333}}, {"id": 6547937, "name": "Greven", "state": "", "country": "DE", "coord": {"lon": 10.8, "lat": 53.483299}}, {"id": 6547938, "name": "Gro\u00df Krams", "state": "", "country": "DE", "coord": {"lon": 11.2667, "lat": 53.333302}}, {"id": 6547939, "name": "Gro\u00df Laasch", "state": "", "country": "DE", "coord": {"lon": 11.55, "lat": 53.349998}}, {"id": 6547940, "name": "Holthusen", "state": "", "country": "DE", "coord": {"lon": 11.35, "lat": 53.549999}}, {"id": 6547941, "name": "Hoort", "state": "", "country": "DE", "coord": {"lon": 11.3667, "lat": 53.483299}}, {"id": 6547942, "name": "H\u00fclseburg", "state": "", "country": "DE", "coord": {"lon": 11.2, "lat": 53.516701}}, {"id": 6547943, "name": "Karenz", "state": "", "country": "DE", "coord": {"lon": 11.35, "lat": 53.233299}}, {"id": 6547944, "name": "Karst\u00e4dt", "state": "", "country": "DE", "coord": {"lon": 11.4833, "lat": 53.283298}}, {"id": 6547945, "name": "Kirch Jesar", "state": "", "country": "DE", "coord": {"lon": 11.2833, "lat": 53.4333}}, {"id": 6547947, "name": "Klein Rogahn", "state": "", "country": "DE", "coord": {"lon": 11.35, "lat": 53.599998}}, {"id": 6547948, "name": "Kogel", "state": "", "country": "DE", "coord": {"lon": 10.95042, "lat": 53.49752}}, {"id": 6547949, "name": "K\u00f6rchow", "state": "", "country": "DE", "coord": {"lon": 11.0667, "lat": 53.450001}}, {"id": 6547950, "name": "Kremmin", "state": "", "country": "DE", "coord": {"lon": 11.6, "lat": 53.25}}, {"id": 6547951, "name": "Kuhstorf", "state": "", "country": "DE", "coord": {"lon": 11.25, "lat": 53.383301}}, {"id": 6547953, "name": "Lehsen", "state": "", "country": "DE", "coord": {"lon": 11.0333, "lat": 53.483299}}, {"id": 6547954, "name": "Leussow", "state": "", "country": "DE", "coord": {"lon": 11.2833, "lat": 53.283298}}, {"id": 6547955, "name": "L\u00fcbesse", "state": "", "country": "DE", "coord": {"lon": 11.4667, "lat": 53.483299}}, {"id": 6547956, "name": "L\u00fcblow", "state": "", "country": "DE", "coord": {"lon": 11.4667, "lat": 53.416698}}, {"id": 6547957, "name": "Malli\u00df", "state": "", "country": "DE", "coord": {"lon": 11.3167, "lat": 53.216702}}, {"id": 6547958, "name": "Milow", "state": "", "country": "DE", "coord": {"lon": 11.5333, "lat": 53.200001}}, {"id": 6547959, "name": "M\u00f6llenbeck", "state": "", "country": "DE", "coord": {"lon": 11.7333, "lat": 53.283298}}, {"id": 6547960, "name": "Moraas", "state": "", "country": "DE", "coord": {"lon": 11.3, "lat": 53.416698}}, {"id": 6547961, "name": "Muchow", "state": "", "country": "DE", "coord": {"lon": 11.6833, "lat": 53.3167}}, {"id": 6547962, "name": "Neu G\u00fclze", "state": "", "country": "DE", "coord": {"lon": 10.7833, "lat": 53.366699}}, {"id": 6547963, "name": "Neu Kali\u00df", "state": "", "country": "DE", "coord": {"lon": 11.2833, "lat": 53.166698}}, {"id": 6547964, "name": "Nostorf", "state": "", "country": "DE", "coord": {"lon": 10.65406, "lat": 53.40654}}, {"id": 6547965, "name": "Pampow", "state": "", "country": "DE", "coord": {"lon": 11.3667, "lat": 53.5667}}, {"id": 6547966, "name": "Picher", "state": "", "country": "DE", "coord": {"lon": 11.35, "lat": 53.349998}}, {"id": 6547967, "name": "Prislich", "state": "", "country": "DE", "coord": {"lon": 11.6167, "lat": 53.266701}}, {"id": 6547968, "name": "Pritzier", "state": "", "country": "DE", "coord": {"lon": 11.07811, "lat": 53.379189}}, {"id": 6547969, "name": "Rastow", "state": "", "country": "DE", "coord": {"lon": 11.4333, "lat": 53.450001}}, {"id": 6547970, "name": "Redefin", "state": "", "country": "DE", "coord": {"lon": 11.2, "lat": 53.349998}}, {"id": 6547971, "name": "Schossin", "state": "", "country": "DE", "coord": {"lon": 11.2167, "lat": 53.549999}}, {"id": 6547972, "name": "Schwanheide", "state": "", "country": "DE", "coord": {"lon": 10.6833, "lat": 53.4333}}, {"id": 6547973, "name": "Setzin", "state": "", "country": "DE", "coord": {"lon": 11.0833, "lat": 53.416698}}, {"id": 6547974, "name": "Steesow", "state": "", "country": "DE", "coord": {"lon": 11.5333, "lat": 53.166698}}, {"id": 6547975, "name": "Stralendorf", "state": "", "country": "DE", "coord": {"lon": 11.3, "lat": 53.583302}}, {"id": 6547976, "name": "Strohkirchen", "state": "", "country": "DE", "coord": {"lon": 11.3167, "lat": 53.400002}}, {"id": 6547977, "name": "S\u00fclstorf", "state": "", "country": "DE", "coord": {"lon": 11.3667, "lat": 53.516701}}, {"id": 6547979, "name": "Toddin", "state": "", "country": "DE", "coord": {"lon": 11.1333, "lat": 53.416698}}, {"id": 6547980, "name": "Uelitz", "state": "", "country": "DE", "coord": {"lon": 11.4333, "lat": 53.483299}}, {"id": 6547981, "name": "Vellahn", "state": "", "country": "DE", "coord": {"lon": 10.9667, "lat": 53.400002}}, {"id": 6547982, "name": "Vielank", "state": "", "country": "DE", "coord": {"lon": 11.1333, "lat": 53.233299}}, {"id": 6547983, "name": "Warlitz", "state": "", "country": "DE", "coord": {"lon": 11.14943, "lat": 53.37846}}, {"id": 6547984, "name": "Warlow", "state": "", "country": "DE", "coord": {"lon": 11.4, "lat": 53.349998}}, {"id": 6547985, "name": "Warsow", "state": "", "country": "DE", "coord": {"lon": 11.3, "lat": 53.533298}}, {"id": 6547987, "name": "Wittenf\u00f6rden", "state": "", "country": "DE", "coord": {"lon": 11.3333, "lat": 53.633301}}, {"id": 6547988, "name": "W\u00f6bbelin", "state": "", "country": "DE", "coord": {"lon": 11.5, "lat": 53.400002}}, {"id": 6547989, "name": "Zierzow", "state": "", "country": "DE", "coord": {"lon": 11.6833, "lat": 53.283298}}, {"id": 6547990, "name": "Z\u00fclow", "state": "", "country": "DE", "coord": {"lon": 11.2667, "lat": 53.583302}}, {"id": 6547991, "name": "Beseritz", "state": "", "country": "DE", "coord": {"lon": 13.45, "lat": 53.700001}}, {"id": 6547992, "name": "Blankenhof", "state": "", "country": "DE", "coord": {"lon": 13.1333, "lat": 53.583302}}, {"id": 6547993, "name": "Blankensee", "state": "", "country": "DE", "coord": {"lon": 13.2667, "lat": 53.416698}}, {"id": 6547994, "name": "Blumenholz", "state": "", "country": "DE", "coord": {"lon": 13.1167, "lat": 53.416698}}, {"id": 6547995, "name": "Brunn", "state": "", "country": "DE", "coord": {"lon": 13.3667, "lat": 53.666698}}, {"id": 6547996, "name": "Cammin", "state": "", "country": "DE", "coord": {"lon": 13.3, "lat": 53.4333}}, {"id": 6547997, "name": "Carpin", "state": "", "country": "DE", "coord": {"lon": 13.25, "lat": 53.349998}}, {"id": 6547998, "name": "C\u00f6lpin", "state": "", "country": "DE", "coord": {"lon": 13.4333, "lat": 53.516701}}, {"id": 6547999, "name": "Genzkow", "state": "", "country": "DE", "coord": {"lon": 13.5, "lat": 53.633301}}, {"id": 6548000, "name": "Glienke", "state": "", "country": "DE", "coord": {"lon": 13.4333, "lat": 53.599998}}, {"id": 6548001, "name": "Godendorf", "state": "", "country": "DE", "coord": {"lon": 13.15, "lat": 53.266701}}, {"id": 6548003, "name": "Gro\u00df Nemerow", "state": "", "country": "DE", "coord": {"lon": 13.2333, "lat": 53.466702}}, {"id": 6548004, "name": "Gr\u00fcnow", "state": "", "country": "DE", "coord": {"lon": 13.3167, "lat": 53.349998}}, {"id": 6548005, "name": "Hohenzieritz", "state": "", "country": "DE", "coord": {"lon": 13.1, "lat": 53.450001}}, {"id": 6548006, "name": "Holldorf", "state": "", "country": "DE", "coord": {"lon": 13.2667, "lat": 53.466702}}, {"id": 6548007, "name": "Klein Vielen", "state": "", "country": "DE", "coord": {"lon": 13.0333, "lat": 53.450001}}, {"id": 6548008, "name": "Kratzeburg", "state": "", "country": "DE", "coord": {"lon": 12.95, "lat": 53.4333}}, {"id": 6548009, "name": "Kublank", "state": "", "country": "DE", "coord": {"lon": 13.5, "lat": 53.549999}}, {"id": 6548010, "name": "Mildenitz", "state": "", "country": "DE", "coord": {"lon": 13.65, "lat": 53.466702}}, {"id": 6548011, "name": "M\u00f6llenbeck", "state": "", "country": "DE", "coord": {"lon": 13.35, "lat": 53.383301}}, {"id": 6548012, "name": "Neddemin", "state": "", "country": "DE", "coord": {"lon": 13.2833, "lat": 53.650002}}, {"id": 6548013, "name": "Neetzka", "state": "", "country": "DE", "coord": {"lon": 13.5167, "lat": 53.533298}}, {"id": 6548014, "name": "Neuenkirchen", "state": "", "country": "DE", "coord": {"lon": 13.3667, "lat": 53.599998}}, {"id": 6548015, "name": "Neverin", "state": "", "country": "DE", "coord": {"lon": 13.3333, "lat": 53.616699}}, {"id": 6548016, "name": "Petersdorf", "state": "", "country": "DE", "coord": {"lon": 13.5167, "lat": 53.483299}}, {"id": 6548017, "name": "Pragsdorf", "state": "", "country": "DE", "coord": {"lon": 13.4, "lat": 53.533298}}, {"id": 6548018, "name": "Priepert", "state": "", "country": "DE", "coord": {"lon": 13.0333, "lat": 53.216702}}, {"id": 6548019, "name": "Roggentin", "state": "", "country": "DE", "coord": {"lon": 12.8833, "lat": 53.333302}}, {"id": 6548020, "name": "Sch\u00f6nbeck", "state": "", "country": "DE", "coord": {"lon": 13.5833, "lat": 53.583302}}, {"id": 6548021, "name": "Sch\u00f6nhausen", "state": "", "country": "DE", "coord": {"lon": 13.7, "lat": 53.549999}}, {"id": 6548022, "name": "Staven", "state": "", "country": "DE", "coord": {"lon": 13.4, "lat": 53.633301}}, {"id": 6548024, "name": "Trollenhagen", "state": "", "country": "DE", "coord": {"lon": 13.3, "lat": 53.599998}}, {"id": 6548025, "name": "Userin", "state": "", "country": "DE", "coord": {"lon": 12.9833, "lat": 53.333302}}, {"id": 6548026, "name": "Voigtsdorf", "state": "", "country": "DE", "coord": {"lon": 13.65, "lat": 53.5667}}, {"id": 6548027, "name": "Woggersin", "state": "", "country": "DE", "coord": {"lon": 13.2333, "lat": 53.599998}}, {"id": 6548028, "name": "Wulkenzin", "state": "", "country": "DE", "coord": {"lon": 13.1667, "lat": 53.533298}}, {"id": 6548029, "name": "Wustrow", "state": "", "country": "DE", "coord": {"lon": 12.9667, "lat": 53.233299}}, {"id": 6548030, "name": "Zirzow", "state": "", "country": "DE", "coord": {"lon": 13.2, "lat": 53.583302}}, {"id": 6548032, "name": "Gro\u00df Miltzow", "state": "", "country": "DE", "coord": {"lon": 13.6, "lat": 53.533298}}, {"id": 6548033, "name": "Helpt", "state": "", "country": "DE", "coord": {"lon": 13.6, "lat": 53.5}}, {"id": 6548034, "name": "Eichhorst", "state": "", "country": "DE", "coord": {"lon": 13.5, "lat": 53.599998}}, {"id": 6548038, "name": "Sponholz", "state": "", "country": "DE", "coord": {"lon": 13.3667, "lat": 53.549999}}, {"id": 6548042, "name": "Alt Schwerin", "state": "", "country": "DE", "coord": {"lon": 12.3667, "lat": 53.516701}}, {"id": 6548043, "name": "Altenhof", "state": "", "country": "DE", "coord": {"lon": 12.35, "lat": 53.349998}}, {"id": 6548044, "name": "Ankershagen", "state": "", "country": "DE", "coord": {"lon": 12.9667, "lat": 53.483299}}, {"id": 6548045, "name": "Bollewick", "state": "", "country": "DE", "coord": {"lon": 12.5833, "lat": 53.349998}}, {"id": 6548046, "name": "Buchholz", "state": "", "country": "DE", "coord": {"lon": 12.65, "lat": 53.266701}}, {"id": 6548047, "name": "B\u00fctow", "state": "", "country": "DE", "coord": {"lon": 12.4833, "lat": 53.349998}}, {"id": 6548048, "name": "Fincken", "state": "", "country": "DE", "coord": {"lon": 12.4333, "lat": 53.349998}}, {"id": 6548049, "name": "G\u00f6hren-Lebbin", "state": "", "country": "DE", "coord": {"lon": 12.4833, "lat": 53.483299}}, {"id": 6548050, "name": "Gotthun", "state": "", "country": "DE", "coord": {"lon": 12.6, "lat": 53.416698}}, {"id": 6548052, "name": "Grabowh\u00f6fe", "state": "", "country": "DE", "coord": {"lon": 12.6, "lat": 53.5667}}, {"id": 6548053, "name": "Gro\u00df Dratow", "state": "", "country": "DE", "coord": {"lon": 12.8333, "lat": 53.516701}}, {"id": 6548055, "name": "Gro\u00df Gievitz", "state": "", "country": "DE", "coord": {"lon": 12.7833, "lat": 53.583302}}, {"id": 6548056, "name": "Gro\u00df Kelle", "state": "", "country": "DE", "coord": {"lon": 12.55, "lat": 53.400002}}, {"id": 6548057, "name": "Gro\u00df Plasten", "state": "", "country": "DE", "coord": {"lon": 12.85, "lat": 53.549999}}, {"id": 6548060, "name": "Hinrichshagen", "state": "", "country": "DE", "coord": {"lon": 12.6667, "lat": 53.616699}}, {"id": 6548061, "name": "Hohen Wangelin", "state": "", "country": "DE", "coord": {"lon": 12.4333, "lat": 53.616699}}, {"id": 6548062, "name": "Jabel", "state": "", "country": "DE", "coord": {"lon": 12.55, "lat": 53.549999}}, {"id": 6548065, "name": "Kargow", "state": "", "country": "DE", "coord": {"lon": 12.75, "lat": 53.5}}, {"id": 6548066, "name": "Kieve", "state": "", "country": "DE", "coord": {"lon": 12.6, "lat": 53.283298}}, {"id": 6548067, "name": "Klein Lukow", "state": "", "country": "DE", "coord": {"lon": 13.0333, "lat": 53.533298}}, {"id": 6548068, "name": "Klink", "state": "", "country": "DE", "coord": {"lon": 12.6167, "lat": 53.483299}}, {"id": 6548070, "name": "Krukow", "state": "", "country": "DE", "coord": {"lon": 13.1333, "lat": 53.516701}}, {"id": 6548072, "name": "Lapitz", "state": "", "country": "DE", "coord": {"lon": 13.0833, "lat": 53.549999}}, {"id": 6548073, "name": "L\u00e4rz", "state": "", "country": "DE", "coord": {"lon": 12.75, "lat": 53.299999}}, {"id": 6548074, "name": "Leizen", "state": "", "country": "DE", "coord": {"lon": 12.4833, "lat": 53.366699}}, {"id": 6548076, "name": "Ludorf", "state": "", "country": "DE", "coord": {"lon": 12.6667, "lat": 53.383301}}, {"id": 6548077, "name": "Mallin", "state": "", "country": "DE", "coord": {"lon": 13.1333, "lat": 53.533298}}, {"id": 6548079, "name": "Massow", "state": "", "country": "DE", "coord": {"lon": 12.4167, "lat": 53.3167}}, {"id": 6548080, "name": "Melz", "state": "", "country": "DE", "coord": {"lon": 12.6167, "lat": 53.299999}}, {"id": 6548081, "name": "M\u00f6llenhagen", "state": "", "country": "DE", "coord": {"lon": 12.9333, "lat": 53.533298}}, {"id": 6548083, "name": "Moltzow", "state": "", "country": "DE", "coord": {"lon": 12.5833, "lat": 53.633301}}, {"id": 6548084, "name": "Neu Gaarz", "state": "", "country": "DE", "coord": {"lon": 12.5333, "lat": 53.583302}}, {"id": 6548085, "name": "Nossentiner H\u00fctte", "state": "", "country": "DE", "coord": {"lon": 12.4333, "lat": 53.533298}}, {"id": 6548086, "name": "Penkow", "state": "", "country": "DE", "coord": {"lon": 12.4833, "lat": 53.450001}}, {"id": 6548087, "name": "Priborn", "state": "", "country": "DE", "coord": {"lon": 12.6667, "lat": 53.299999}}, {"id": 6548088, "name": "Puchow", "state": "", "country": "DE", "coord": {"lon": 13.0667, "lat": 53.533298}}, {"id": 6548089, "name": "Rechlin", "state": "", "country": "DE", "coord": {"lon": 12.7333, "lat": 53.349998}}, {"id": 6548092, "name": "Schloen", "state": "", "country": "DE", "coord": {"lon": 12.8167, "lat": 53.549999}}, {"id": 6548093, "name": "Schwarz", "state": "", "country": "DE", "coord": {"lon": 12.7833, "lat": 53.216702}}, {"id": 6548094, "name": "Schwinkendorf", "state": "", "country": "DE", "coord": {"lon": 12.6833, "lat": 53.650002}}, {"id": 6548095, "name": "Stuer", "state": "", "country": "DE", "coord": {"lon": 12.3333, "lat": 53.383301}}, {"id": 6548097, "name": "Varchentin", "state": "", "country": "DE", "coord": {"lon": 12.85, "lat": 53.583302}}, {"id": 6548098, "name": "Vielist", "state": "", "country": "DE", "coord": {"lon": 12.6333, "lat": 53.549999}}, {"id": 6548099, "name": "Vipperow", "state": "", "country": "DE", "coord": {"lon": 12.6833, "lat": 53.333302}}, {"id": 6548100, "name": "Vollrathsruhe", "state": "", "country": "DE", "coord": {"lon": 12.4833, "lat": 53.650002}}, {"id": 6548101, "name": "Walow", "state": "", "country": "DE", "coord": {"lon": 12.4667, "lat": 53.416698}}, {"id": 6548102, "name": "Wredenhagen", "state": "", "country": "DE", "coord": {"lon": 12.5167, "lat": 53.299999}}, {"id": 6548103, "name": "Zepkow", "state": "", "country": "DE", "coord": {"lon": 12.5, "lat": 53.299999}}, {"id": 6548104, "name": "Zislow", "state": "", "country": "DE", "coord": {"lon": 12.3167, "lat": 53.4333}}, {"id": 6548106, "name": "Altenpleen", "state": "", "country": "DE", "coord": {"lon": 12.9333, "lat": 54.349998}}, {"id": 6548109, "name": "Deyelsdorf", "state": "", "country": "DE", "coord": {"lon": 12.8333, "lat": 54.049999}}, {"id": 6548111, "name": "Drechow", "state": "", "country": "DE", "coord": {"lon": 12.8, "lat": 54.133301}}, {"id": 6548112, "name": "Eixen", "state": "", "country": "DE", "coord": {"lon": 12.72337, "lat": 54.161659}}, {"id": 6548113, "name": "Elmenhorst", "state": "", "country": "DE", "coord": {"lon": 13.0667, "lat": 54.216702}}, {"id": 6548114, "name": "Fuhlendorf", "state": "", "country": "DE", "coord": {"lon": 12.6, "lat": 54.366699}}, {"id": 6548115, "name": "Glewitz", "state": "", "country": "DE", "coord": {"lon": 12.9333, "lat": 54.016701}}, {"id": 6548116, "name": "Grammendorf", "state": "", "country": "DE", "coord": {"lon": 12.8833, "lat": 54.033298}}, {"id": 6548117, "name": "Gransebieth", "state": "", "country": "DE", "coord": {"lon": 12.8833, "lat": 54.0667}}, {"id": 6548118, "name": "Gro\u00df Kordshagen", "state": "", "country": "DE", "coord": {"lon": 12.85, "lat": 54.333302}}, {"id": 6548119, "name": "Gro\u00df Mohrdorf", "state": "", "country": "DE", "coord": {"lon": 12.94799, "lat": 54.387859}}, {"id": 6548121, "name": "Hugoldsdorf", "state": "", "country": "DE", "coord": {"lon": 12.75, "lat": 54.150002}}, {"id": 6548122, "name": "Jakobsdorf", "state": "", "country": "DE", "coord": {"lon": 12.9333, "lat": 54.233299}}, {"id": 6548123, "name": "Karnin", "state": "", "country": "DE", "coord": {"lon": 12.8, "lat": 54.299999}}, {"id": 6548125, "name": "Klausdorf", "state": "", "country": "DE", "coord": {"lon": 13.01365, "lat": 54.403851}}, {"id": 6548126, "name": "Kramerhof", "state": "", "country": "DE", "coord": {"lon": 13.05, "lat": 54.349998}}, {"id": 6548127, "name": "Kummerow", "state": "", "country": "DE", "coord": {"lon": 12.88216, "lat": 54.29549}}, {"id": 6548128, "name": "L\u00fcdershagen", "state": "", "country": "DE", "coord": {"lon": 12.6167, "lat": 54.299999}}, {"id": 6548129, "name": "L\u00fcssow", "state": "", "country": "DE", "coord": {"lon": 13.0333, "lat": 54.283298}}, {"id": 6548131, "name": "Neu Bartelshagen", "state": "", "country": "DE", "coord": {"lon": 12.8667, "lat": 54.349998}}, {"id": 6548132, "name": "Niepars", "state": "", "country": "DE", "coord": {"lon": 12.9333, "lat": 54.3167}}, {"id": 6548133, "name": "Pantelitz", "state": "", "country": "DE", "coord": {"lon": 12.9667, "lat": 54.299999}}, {"id": 6548134, "name": "Papenhagen", "state": "", "country": "DE", "coord": {"lon": 12.9833, "lat": 54.150002}}, {"id": 6548135, "name": "Preetz", "state": "", "country": "DE", "coord": {"lon": 12.9833, "lat": 54.349998}}, {"id": 6548137, "name": "Prohn", "state": "", "country": "DE", "coord": {"lon": 13.0333, "lat": 54.366699}}, {"id": 6548138, "name": "Pruchten", "state": "", "country": "DE", "coord": {"lon": 12.6667, "lat": 54.383301}}, {"id": 6548140, "name": "Saal", "state": "", "country": "DE", "coord": {"lon": 12.49798, "lat": 54.311321}}, {"id": 6548141, "name": "Schlemmin", "state": "", "country": "DE", "coord": {"lon": 12.68281, "lat": 54.222439}}, {"id": 6548142, "name": "Semlow", "state": "", "country": "DE", "coord": {"lon": 12.65694, "lat": 54.181252}}, {"id": 6548143, "name": "Steinhagen", "state": "", "country": "DE", "coord": {"lon": 12.9833, "lat": 54.216702}}, {"id": 6548144, "name": "Trinwillershagen", "state": "", "country": "DE", "coord": {"lon": 12.6333, "lat": 54.25}}, {"id": 6548145, "name": "Velgast", "state": "", "country": "DE", "coord": {"lon": 12.8, "lat": 54.266701}}, {"id": 6548146, "name": "Weitenhagen", "state": "", "country": "DE", "coord": {"lon": 12.7833, "lat": 54.233299}}, {"id": 6548147, "name": "Wendisch Baggendorf", "state": "", "country": "DE", "coord": {"lon": 12.95, "lat": 54.083302}}, {"id": 6548148, "name": "Wendorf", "state": "", "country": "DE", "coord": {"lon": 13.0667, "lat": 54.25}}, {"id": 6548150, "name": "Wittenhagen", "state": "", "country": "DE", "coord": {"lon": 13.0833, "lat": 54.1833}}, {"id": 6548152, "name": "Zarrendorf", "state": "", "country": "DE", "coord": {"lon": 13.0833, "lat": 54.233299}}, {"id": 6548153, "name": "Zingst", "state": "", "country": "DE", "coord": {"lon": 12.6833, "lat": 54.4333}}, {"id": 6548159, "name": "Alt Meteln", "state": "", "country": "DE", "coord": {"lon": 11.35, "lat": 53.75}}, {"id": 6548160, "name": "Bad Kleinen", "state": "", "country": "DE", "coord": {"lon": 11.4667, "lat": 53.766701}}, {"id": 6548162, "name": "Barnekow", "state": "", "country": "DE", "coord": {"lon": 11.3667, "lat": 53.866699}}, {"id": 6548163, "name": "Benz", "state": "", "country": "DE", "coord": {"lon": 11.5833, "lat": 53.916698}}, {"id": 6548164, "name": "Bernstorf", "state": "", "country": "DE", "coord": {"lon": 11.1167, "lat": 53.833302}}, {"id": 6548165, "name": "Bibow", "state": "", "country": "DE", "coord": {"lon": 11.6333, "lat": 53.783298}}, {"id": 6548166, "name": "Blowatz", "state": "", "country": "DE", "coord": {"lon": 11.5333, "lat": 53.983299}}, {"id": 6548167, "name": "Boiensdorf", "state": "", "country": "DE", "coord": {"lon": 11.5667, "lat": 54.016701}}, {"id": 6548168, "name": "B\u00f6rzow", "state": "", "country": "DE", "coord": {"lon": 11.1167, "lat": 53.849998}}, {"id": 6548169, "name": "Br\u00fcsewitz", "state": "", "country": "DE", "coord": {"lon": 11.25, "lat": 53.6833}}, {"id": 6548170, "name": "Carlow", "state": "", "country": "DE", "coord": {"lon": 10.9333, "lat": 53.766701}}, {"id": 6548171, "name": "Cramonshagen", "state": "", "country": "DE", "coord": {"lon": 11.2833, "lat": 53.700001}}, {"id": 6548173, "name": "Damshagen", "state": "", "country": "DE", "coord": {"lon": 11.15, "lat": 53.9333}}, {"id": 6548174, "name": "Dechow", "state": "", "country": "DE", "coord": {"lon": 10.9167, "lat": 53.716702}}, {"id": 6548176, "name": "Dragun", "state": "", "country": "DE", "coord": {"lon": 11.2167, "lat": 53.700001}}, {"id": 6548177, "name": "G\u00e4gelow", "state": "", "country": "DE", "coord": {"lon": 11.3833, "lat": 53.9021}}, {"id": 6548178, "name": "Glasin", "state": "", "country": "DE", "coord": {"lon": 11.7333, "lat": 53.916698}}, {"id": 6548179, "name": "Gottesgabe", "state": "", "country": "DE", "coord": {"lon": 11.25, "lat": 53.633301}}, {"id": 6548180, "name": "Grambow", "state": "", "country": "DE", "coord": {"lon": 11.2833, "lat": 53.616699}}, {"id": 6548182, "name": "Grieben", "state": "", "country": "DE", "coord": {"lon": 11.05, "lat": 53.833302}}, {"id": 6548183, "name": "Gro\u00df Molzahn", "state": "", "country": "DE", "coord": {"lon": 10.8667, "lat": 53.733299}}, {"id": 6548184, "name": "Gro\u00df Siemz", "state": "", "country": "DE", "coord": {"lon": 10.9333, "lat": 53.8167}}, {"id": 6548185, "name": "Gro\u00df Stieten", "state": "", "country": "DE", "coord": {"lon": 11.45, "lat": 53.8167}}, {"id": 6548187, "name": "Hanshagen", "state": "", "country": "DE", "coord": {"lon": 11.15, "lat": 53.799999}}, {"id": 6548188, "name": "Hohen Viecheln", "state": "", "country": "DE", "coord": {"lon": 11.5111, "lat": 53.784531}}, {"id": 6548189, "name": "Holdorf", "state": "", "country": "DE", "coord": {"lon": 11.0667, "lat": 53.733299}}, {"id": 6548190, "name": "Hornstorf", "state": "", "country": "DE", "coord": {"lon": 11.5333, "lat": 53.916698}}, {"id": 6548191, "name": "Jesendorf", "state": "", "country": "DE", "coord": {"lon": 11.6, "lat": 53.799999}}, {"id": 6548192, "name": "Klein Trebbow", "state": "", "country": "DE", "coord": {"lon": 11.3833, "lat": 53.700001}}, {"id": 6548193, "name": "K\u00f6chelstorf", "state": "", "country": "DE", "coord": {"lon": 11.1, "lat": 53.766701}}, {"id": 6548194, "name": "Krembz", "state": "", "country": "DE", "coord": {"lon": 11.0667, "lat": 53.650002}}, {"id": 6548195, "name": "Krusenhagen", "state": "", "country": "DE", "coord": {"lon": 11.5333, "lat": 53.950001}}, {"id": 6548196, "name": "Lockwisch", "state": "", "country": "DE", "coord": {"lon": 10.8667, "lat": 53.833302}}, {"id": 6548197, "name": "L\u00fcbberstorf", "state": "", "country": "DE", "coord": {"lon": 11.7333, "lat": 53.866699}}, {"id": 6548198, "name": "L\u00fcbow", "state": "", "country": "DE", "coord": {"lon": 11.5167, "lat": 53.849998}}, {"id": 6548199, "name": "L\u00fcdersdorf", "state": "", "country": "DE", "coord": {"lon": 10.8167, "lat": 53.833302}}, {"id": 6548200, "name": "L\u00fctzow", "state": "", "country": "DE", "coord": {"lon": 11.1833, "lat": 53.650002}}, {"id": 6548201, "name": "Mallentin", "state": "", "country": "DE", "coord": {"lon": 11.0667, "lat": 53.883301}}, {"id": 6548202, "name": "Menzendorf", "state": "", "country": "DE", "coord": {"lon": 11.0167, "lat": 53.849998}}, {"id": 6548203, "name": "Metelsdorf", "state": "", "country": "DE", "coord": {"lon": 11.4333, "lat": 53.849998}}, {"id": 6548204, "name": "M\u00fchlen Eichsen", "state": "", "country": "DE", "coord": {"lon": 11.25, "lat": 53.766701}}, {"id": 6548207, "name": "Niendorf", "state": "", "country": "DE", "coord": {"lon": 10.9, "lat": 53.8167}}, {"id": 6548208, "name": "Passee", "state": "", "country": "DE", "coord": {"lon": 11.7667, "lat": 53.966702}}, {"id": 6548209, "name": "Perlin", "state": "", "country": "DE", "coord": {"lon": 11.1833, "lat": 53.583302}}, {"id": 6548210, "name": "Pingelshagen", "state": "", "country": "DE", "coord": {"lon": 11.33652, "lat": 53.682781}}, {"id": 6548211, "name": "Pl\u00fcschow", "state": "", "country": "DE", "coord": {"lon": 11.2667, "lat": 53.833302}}, {"id": 6548212, "name": "Pokrent", "state": "", "country": "DE", "coord": {"lon": 11.15, "lat": 53.650002}}, {"id": 6548214, "name": "Rieps", "state": "", "country": "DE", "coord": {"lon": 10.8667, "lat": 53.766701}}, {"id": 6548215, "name": "Roduchelstorf", "state": "", "country": "DE", "coord": {"lon": 10.9833, "lat": 53.8167}}, {"id": 6548216, "name": "Roggendorf", "state": "", "country": "DE", "coord": {"lon": 11.0167, "lat": 53.700001}}, {"id": 6548217, "name": "Roggenstorf", "state": "", "country": "DE", "coord": {"lon": 11.0667, "lat": 53.916698}}, {"id": 6548218, "name": "R\u00f6gnitz", "state": "", "country": "DE", "coord": {"lon": 11.0333, "lat": 53.616699}}, {"id": 6548219, "name": "R\u00fcting", "state": "", "country": "DE", "coord": {"lon": 11.2167, "lat": 53.783298}}, {"id": 6548221, "name": "Schlagsdorf", "state": "", "country": "DE", "coord": {"lon": 10.8333, "lat": 53.733299}}, {"id": 6548222, "name": "Seehof", "state": "", "country": "DE", "coord": {"lon": 11.43256, "lat": 53.69249}}, {"id": 6548223, "name": "Selmsdorf", "state": "", "country": "DE", "coord": {"lon": 10.8925, "lat": 53.8409}}, {"id": 6548224, "name": "Testorf-Steinfort", "state": "", "country": "DE", "coord": {"lon": 11.2667, "lat": 53.783298}}, {"id": 6548225, "name": "Thandorf", "state": "", "country": "DE", "coord": {"lon": 10.8167, "lat": 53.766701}}, {"id": 6548226, "name": "Upahl", "state": "", "country": "DE", "coord": {"lon": 11.2167, "lat": 53.8167}}, {"id": 6548227, "name": "Utecht", "state": "", "country": "DE", "coord": {"lon": 10.7667, "lat": 53.766701}}, {"id": 6548228, "name": "Veelb\u00f6ken", "state": "", "country": "DE", "coord": {"lon": 11.1833, "lat": 53.75}}, {"id": 6548229, "name": "Ventschow", "state": "", "country": "DE", "coord": {"lon": 11.58045, "lat": 53.787769}}, {"id": 6548231, "name": "Warnow", "state": "", "country": "DE", "coord": {"lon": 11.2, "lat": 53.883301}}, {"id": 6548232, "name": "Wedendorf", "state": "", "country": "DE", "coord": {"lon": 11.1167, "lat": 53.766701}}, {"id": 6548233, "name": "Zickhusen", "state": "", "country": "DE", "coord": {"lon": 11.41394, "lat": 53.758862}}, {"id": 6548234, "name": "Zierow", "state": "", "country": "DE", "coord": {"lon": 11.3667, "lat": 53.9333}}, {"id": 6548235, "name": "Zurow", "state": "", "country": "DE", "coord": {"lon": 11.6167, "lat": 53.866699}}, {"id": 6548236, "name": "Z\u00fcsow", "state": "", "country": "DE", "coord": {"lon": 11.6833, "lat": 53.916698}}, {"id": 6548238, "name": "Kalkhorst", "state": "", "country": "DE", "coord": {"lon": 11.0667, "lat": 53.966702}}, {"id": 6548239, "name": "Bobitz", "state": "", "country": "DE", "coord": {"lon": 11.35, "lat": 53.799999}}, {"id": 6548241, "name": "Bandelin", "state": "", "country": "DE", "coord": {"lon": 13.3833, "lat": 53.966702}}, {"id": 6548243, "name": "Bargischow", "state": "", "country": "DE", "coord": {"lon": 13.75, "lat": 53.833302}}, {"id": 6548244, "name": "Behrenhoff", "state": "", "country": "DE", "coord": {"lon": 13.4, "lat": 54.016701}}, {"id": 6548245, "name": "Benz", "state": "", "country": "DE", "coord": {"lon": 14.0667, "lat": 53.9333}}, {"id": 6548246, "name": "Blesewitz", "state": "", "country": "DE", "coord": {"lon": 13.6167, "lat": 53.8167}}, {"id": 6548247, "name": "Boldekow", "state": "", "country": "DE", "coord": {"lon": 13.6, "lat": 53.733299}}, {"id": 6548248, "name": "Br\u00fcnzow", "state": "", "country": "DE", "coord": {"lon": 13.5667, "lat": 54.099998}}, {"id": 6548249, "name": "Buddenhagen", "state": "", "country": "DE", "coord": {"lon": 13.7, "lat": 54}}, {"id": 6548250, "name": "Bugewitz", "state": "", "country": "DE", "coord": {"lon": 13.8333, "lat": 53.799999}}, {"id": 6548251, "name": "Buggenhagen", "state": "", "country": "DE", "coord": {"lon": 13.8667, "lat": 53.916698}}, {"id": 6548252, "name": "Butzow", "state": "", "country": "DE", "coord": {"lon": 13.65, "lat": 53.833302}}, {"id": 6548253, "name": "Dargelin", "state": "", "country": "DE", "coord": {"lon": 13.35, "lat": 54.016701}}, {"id": 6548254, "name": "Dargen", "state": "", "country": "DE", "coord": {"lon": 14.0667, "lat": 53.883301}}, {"id": 6548255, "name": "Dersekow", "state": "", "country": "DE", "coord": {"lon": 13.3, "lat": 54.049999}}, {"id": 6548256, "name": "Diedrichshagen", "state": "", "country": "DE", "coord": {"lon": 13.4833, "lat": 54.049999}}, {"id": 6548258, "name": "Ducherow", "state": "", "country": "DE", "coord": {"lon": 13.7766, "lat": 53.755699}}, {"id": 6548259, "name": "Garz", "state": "", "country": "DE", "coord": {"lon": 14.1667, "lat": 53.883301}}, {"id": 6548260, "name": "Gribow", "state": "", "country": "DE", "coord": {"lon": 13.4833, "lat": 53.950001}}, {"id": 6548262, "name": "Gro\u00df Kiesow", "state": "", "country": "DE", "coord": {"lon": 13.4833, "lat": 54.016701}}, {"id": 6548263, "name": "Gro\u00df Polzin", "state": "", "country": "DE", "coord": {"lon": 13.6, "lat": 53.900002}}, {"id": 6548264, "name": "Hanshagen", "state": "", "country": "DE", "coord": {"lon": 13.5333, "lat": 54.049999}}, {"id": 6548265, "name": "Heringsdorf", "state": "", "country": "DE", "coord": {"lon": 14.1667, "lat": 53.966702}}, {"id": 6548267, "name": "Hohendorf", "state": "", "country": "DE", "coord": {"lon": 13.7333, "lat": 54.016701}}, {"id": 6548268, "name": "Iven", "state": "", "country": "DE", "coord": {"lon": 13.4333, "lat": 53.799999}}, {"id": 6548271, "name": "Kamminke", "state": "", "country": "DE", "coord": {"lon": 14.2, "lat": 53.866699}}, {"id": 6548272, "name": "Karlsburg", "state": "", "country": "DE", "coord": {"lon": 13.6167, "lat": 53.966702}}, {"id": 6548273, "name": "Karlshagen", "state": "", "country": "DE", "coord": {"lon": 13.8333, "lat": 54.116699}}, {"id": 6548274, "name": "Katzow", "state": "", "country": "DE", "coord": {"lon": 13.6833, "lat": 54.049999}}, {"id": 6548275, "name": "Kemnitz", "state": "", "country": "DE", "coord": {"lon": 13.55, "lat": 54.0667}}, {"id": 6548276, "name": "Klein B\u00fcnzow", "state": "", "country": "DE", "coord": {"lon": 13.6333, "lat": 53.9333}}, {"id": 6548277, "name": "K\u00f6lzin", "state": "", "country": "DE", "coord": {"lon": 13.45, "lat": 53.966702}}, {"id": 6548278, "name": "Korswandt", "state": "", "country": "DE", "coord": {"lon": 14.1667, "lat": 53.916698}}, {"id": 6548279, "name": "Koserow", "state": "", "country": "DE", "coord": {"lon": 14.0251, "lat": 54.029701}}, {"id": 6548280, "name": "Krien", "state": "", "country": "DE", "coord": {"lon": 13.45, "lat": 53.833302}}, {"id": 6548281, "name": "Kr\u00f6slin", "state": "", "country": "DE", "coord": {"lon": 13.7667, "lat": 54.116699}}, {"id": 6548282, "name": "Krummin", "state": "", "country": "DE", "coord": {"lon": 13.85, "lat": 54.049999}}, {"id": 6548283, "name": "Krusenfelde", "state": "", "country": "DE", "coord": {"lon": 13.4, "lat": 53.849998}}, {"id": 6548284, "name": "Levenhagen", "state": "", "country": "DE", "coord": {"lon": 13.2667, "lat": 54.083302}}, {"id": 6548285, "name": "Liepen", "state": "", "country": "DE", "coord": {"lon": 13.4667, "lat": 53.883301}}, {"id": 6548286, "name": "Loddin", "state": "", "country": "DE", "coord": {"lon": 14.0167, "lat": 54.033298}}, {"id": 6548287, "name": "Loissin", "state": "", "country": "DE", "coord": {"lon": 13.5333, "lat": 54.116699}}, {"id": 6548289, "name": "Lubmin", "state": "", "country": "DE", "coord": {"lon": 13.6, "lat": 54.116699}}, {"id": 6548290, "name": "L\u00fchmannsdorf", "state": "", "country": "DE", "coord": {"lon": 13.6333, "lat": 54}}, {"id": 6548292, "name": "L\u00fctow", "state": "", "country": "DE", "coord": {"lon": 13.8833, "lat": 54.016701}}, {"id": 6548293, "name": "Medow", "state": "", "country": "DE", "coord": {"lon": 13.55, "lat": 53.849998}}, {"id": 6548294, "name": "Mellenthin", "state": "", "country": "DE", "coord": {"lon": 14.0167, "lat": 53.916698}}, {"id": 6548295, "name": "Mesekenhagen", "state": "", "country": "DE", "coord": {"lon": 13.3167, "lat": 54.150002}}, {"id": 6548296, "name": "M\u00f6lschow", "state": "", "country": "DE", "coord": {"lon": 13.8333, "lat": 54.083302}}, {"id": 6548298, "name": "Murchin", "state": "", "country": "DE", "coord": {"lon": 13.7333, "lat": 53.900002}}, {"id": 6548299, "name": "Neetzow", "state": "", "country": "DE", "coord": {"lon": 13.4167, "lat": 53.883301}}, {"id": 6548300, "name": "Neu Boltenhagen", "state": "", "country": "DE", "coord": {"lon": 13.6167, "lat": 54.0667}}, {"id": 6548301, "name": "Neu Kosenow", "state": "", "country": "DE", "coord": {"lon": 13.75, "lat": 53.799999}}, {"id": 6548302, "name": "Neuendorf A", "state": "", "country": "DE", "coord": {"lon": 13.8333, "lat": 53.733299}}, {"id": 6548304, "name": "Neuenkirchen", "state": "", "country": "DE", "coord": {"lon": 13.5667, "lat": 53.799999}}, {"id": 6548305, "name": "Neuenkirchen", "state": "", "country": "DE", "coord": {"lon": 13.3916, "lat": 54.0513}}, {"id": 6548306, "name": "Peenem\u00fcnde", "state": "", "country": "DE", "coord": {"lon": 13.7833, "lat": 54.133301}}, {"id": 6548308, "name": "Postlow", "state": "", "country": "DE", "coord": {"lon": 13.5833, "lat": 53.833302}}, {"id": 6548309, "name": "Pudagla", "state": "", "country": "DE", "coord": {"lon": 14.0667, "lat": 53.966702}}, {"id": 6548311, "name": "Putzar", "state": "", "country": "DE", "coord": {"lon": 13.65, "lat": 53.716702}}, {"id": 6548312, "name": "Rankwitz", "state": "", "country": "DE", "coord": {"lon": 13.9333, "lat": 53.950001}}, {"id": 6548315, "name": "Rossin", "state": "", "country": "DE", "coord": {"lon": 13.7, "lat": 53.766701}}, {"id": 6548316, "name": "Rubenow", "state": "", "country": "DE", "coord": {"lon": 13.7, "lat": 54.099998}}, {"id": 6548317, "name": "Rubkow", "state": "", "country": "DE", "coord": {"lon": 13.7167, "lat": 53.9333}}, {"id": 6548318, "name": "Sarnow", "state": "", "country": "DE", "coord": {"lon": 13.6333, "lat": 53.75}}, {"id": 6548319, "name": "Sauzin", "state": "", "country": "DE", "coord": {"lon": 13.7833, "lat": 54.033298}}, {"id": 6548320, "name": "Schmatzin", "state": "", "country": "DE", "coord": {"lon": 13.55, "lat": 53.916698}}, {"id": 6548321, "name": "Spantekow", "state": "", "country": "DE", "coord": {"lon": 13.5333, "lat": 53.783298}}, {"id": 6548322, "name": "Stolpe", "state": "", "country": "DE", "coord": {"lon": 13.5667, "lat": 53.866699}}, {"id": 6548324, "name": "Trassenheide", "state": "", "country": "DE", "coord": {"lon": 13.8667, "lat": 54.099998}}, {"id": 6548325, "name": "\u00dcckeritz", "state": "", "country": "DE", "coord": {"lon": 14.05, "lat": 54.016701}}, {"id": 6548326, "name": "Wackerow", "state": "", "country": "DE", "coord": {"lon": 13.35, "lat": 54.099998}}, {"id": 6548327, "name": "Weitenhagen", "state": "", "country": "DE", "coord": {"lon": 13.4167, "lat": 54.049999}}, {"id": 6548328, "name": "Wietstock", "state": "", "country": "DE", "coord": {"lon": 13.7833, "lat": 53.716702}}, {"id": 6548329, "name": "Wrangelsburg", "state": "", "country": "DE", "coord": {"lon": 13.6, "lat": 54.016701}}, {"id": 6548330, "name": "Wusterhusen", "state": "", "country": "DE", "coord": {"lon": 13.6167, "lat": 54.116699}}, {"id": 6548331, "name": "Zemitz", "state": "", "country": "DE", "coord": {"lon": 13.75, "lat": 53.983299}}, {"id": 6548332, "name": "Zempin", "state": "", "country": "DE", "coord": {"lon": 13.9667, "lat": 54.0667}}, {"id": 6548333, "name": "Ziethen", "state": "", "country": "DE", "coord": {"lon": 13.6833, "lat": 53.883301}}, {"id": 6548335, "name": "Zirchow", "state": "", "country": "DE", "coord": {"lon": 14.1333, "lat": 53.883301}}, {"id": 6548336, "name": "Z\u00fcssow", "state": "", "country": "DE", "coord": {"lon": 13.55, "lat": 53.966702}}, {"id": 6548337, "name": "Banzkow", "state": "", "country": "DE", "coord": {"lon": 11.5167, "lat": 53.533298}}, {"id": 6548338, "name": "Barnin", "state": "", "country": "DE", "coord": {"lon": 11.7, "lat": 53.599998}}, {"id": 6548339, "name": "Blankenberg", "state": "", "country": "DE", "coord": {"lon": 11.7167, "lat": 53.766701}}, {"id": 6548340, "name": "Borkow", "state": "", "country": "DE", "coord": {"lon": 11.9333, "lat": 53.666698}}, {"id": 6548341, "name": "Cambs", "state": "", "country": "DE", "coord": {"lon": 11.52715, "lat": 53.697159}}, {"id": 6548342, "name": "Dabel", "state": "", "country": "DE", "coord": {"lon": 11.9, "lat": 53.666698}}, {"id": 6548344, "name": "Diestelow", "state": "", "country": "DE", "coord": {"lon": 12.0833, "lat": 53.549999}}, {"id": 6548345, "name": "Dobbertin", "state": "", "country": "DE", "coord": {"lon": 12.0667, "lat": 53.633301}}, {"id": 6548346, "name": "Doms\u00fchl", "state": "", "country": "DE", "coord": {"lon": 11.7667, "lat": 53.483299}}, {"id": 6548347, "name": "Friedrichsruhe", "state": "", "country": "DE", "coord": {"lon": 11.7667, "lat": 53.533298}}, {"id": 6548348, "name": "Ganzlin", "state": "", "country": "DE", "coord": {"lon": 12.25, "lat": 53.383301}}, {"id": 6548349, "name": "Gischow", "state": "", "country": "DE", "coord": {"lon": 12.0167, "lat": 53.4333}}, {"id": 6548350, "name": "Gneven", "state": "", "country": "DE", "coord": {"lon": 11.5667, "lat": 53.633301}}, {"id": 6548351, "name": "Godern", "state": "", "country": "DE", "coord": {"lon": 11.5432, "lat": 53.618759}}, {"id": 6548352, "name": "G\u00f6hren", "state": "", "country": "DE", "coord": {"lon": 11.6, "lat": 53.533298}}, {"id": 6548354, "name": "Granzin", "state": "", "country": "DE", "coord": {"lon": 11.95, "lat": 53.5}}, {"id": 6548355, "name": "Grebbin", "state": "", "country": "DE", "coord": {"lon": 11.8667, "lat": 53.516701}}, {"id": 6548356, "name": "Gro\u00df Godems", "state": "", "country": "DE", "coord": {"lon": 11.8, "lat": 53.366699}}, {"id": 6548357, "name": "Gro\u00df Niendorf", "state": "", "country": "DE", "coord": {"lon": 11.85, "lat": 53.583302}}, {"id": 6548358, "name": "Herzberg", "state": "", "country": "DE", "coord": {"lon": 11.9333, "lat": 53.533298}}, {"id": 6548359, "name": "Hohen Pritz", "state": "", "country": "DE", "coord": {"lon": 11.9, "lat": 53.633301}}, {"id": 6548361, "name": "Karow", "state": "", "country": "DE", "coord": {"lon": 12.2667, "lat": 53.533298}}, {"id": 6548362, "name": "Karrenzin", "state": "", "country": "DE", "coord": {"lon": 11.8, "lat": 53.333302}}, {"id": 6548364, "name": "Kobrow", "state": "", "country": "DE", "coord": {"lon": 11.8, "lat": 53.6833}}, {"id": 6548365, "name": "Kreien", "state": "", "country": "DE", "coord": {"lon": 12.05, "lat": 53.400002}}, {"id": 6548366, "name": "Kritzow", "state": "", "country": "DE", "coord": {"lon": 12.1333, "lat": 53.450001}}, {"id": 6548367, "name": "Langen Br\u00fctz", "state": "", "country": "DE", "coord": {"lon": 11.55, "lat": 53.650002}}, {"id": 6548368, "name": "Langen Jarchow", "state": "", "country": "DE", "coord": {"lon": 11.65, "lat": 53.766701}}, {"id": 6548370, "name": "Leezen", "state": "", "country": "DE", "coord": {"lon": 11.49874, "lat": 53.662651}}, {"id": 6548371, "name": "Lutheran", "state": "", "country": "DE", "coord": {"lon": 12, "lat": 53.450001}}, {"id": 6548372, "name": "Marnitz", "state": "", "country": "DE", "coord": {"lon": 11.9333, "lat": 53.3167}}, {"id": 6548374, "name": "Mestlin", "state": "", "country": "DE", "coord": {"lon": 11.9333, "lat": 53.583302}}, {"id": 6548375, "name": "Mustin", "state": "", "country": "DE", "coord": {"lon": 11.9667, "lat": 53.700001}}, {"id": 6548376, "name": "Neu Poserin", "state": "", "country": "DE", "coord": {"lon": 12.1667, "lat": 53.549999}}, {"id": 6548377, "name": "Passow", "state": "", "country": "DE", "coord": {"lon": 12.05, "lat": 53.5}}, {"id": 6548378, "name": "Pinnow", "state": "", "country": "DE", "coord": {"lon": 11.55, "lat": 53.599998}}, {"id": 6548379, "name": "Plate", "state": "", "country": "DE", "coord": {"lon": 11.5, "lat": 53.549999}}, {"id": 6548380, "name": "Raben Steinfeld", "state": "", "country": "DE", "coord": {"lon": 11.5, "lat": 53.599998}}, {"id": 6548382, "name": "Rom", "state": "", "country": "DE", "coord": {"lon": 11.9333, "lat": 53.450001}}, {"id": 6548383, "name": "Severin", "state": "", "country": "DE", "coord": {"lon": 11.7667, "lat": 53.5}}, {"id": 6548384, "name": "Siggelkow", "state": "", "country": "DE", "coord": {"lon": 11.9333, "lat": 53.383301}}, {"id": 6548385, "name": "Spornitz", "state": "", "country": "DE", "coord": {"lon": 11.7167, "lat": 53.400002}}, {"id": 6548386, "name": "Stolpe", "state": "", "country": "DE", "coord": {"lon": 11.7333, "lat": 53.349998}}, {"id": 6548387, "name": "Suckow", "state": "", "country": "DE", "coord": {"lon": 11.9667, "lat": 53.3167}}, {"id": 6548388, "name": "Sukow", "state": "", "country": "DE", "coord": {"lon": 11.5667, "lat": 53.549999}}, {"id": 6548389, "name": "Techentin", "state": "", "country": "DE", "coord": {"lon": 11.9833, "lat": 53.583302}}, {"id": 6548390, "name": "Tessenow", "state": "", "country": "DE", "coord": {"lon": 11.9, "lat": 53.349998}}, {"id": 6548391, "name": "Tramm", "state": "", "country": "DE", "coord": {"lon": 11.6333, "lat": 53.516701}}, {"id": 6548392, "name": "Wahlstorf", "state": "", "country": "DE", "coord": {"lon": 12.0833, "lat": 53.366699}}, {"id": 6548393, "name": "Weitendorf", "state": "", "country": "DE", "coord": {"lon": 11.75, "lat": 53.716702}}, {"id": 6548394, "name": "Wendisch Priborn", "state": "", "country": "DE", "coord": {"lon": 12.2833, "lat": 53.333302}}, {"id": 6548395, "name": "Wendisch Waren", "state": "", "country": "DE", "coord": {"lon": 12.1333, "lat": 53.5667}}, {"id": 6548396, "name": "Werder", "state": "", "country": "DE", "coord": {"lon": 12.0167, "lat": 53.5}}, {"id": 6548397, "name": "Wessin", "state": "", "country": "DE", "coord": {"lon": 11.7333, "lat": 53.5667}}, {"id": 6548398, "name": "Witzin", "state": "", "country": "DE", "coord": {"lon": 11.9167, "lat": 53.716702}}, {"id": 6548399, "name": "Zahrensdorf", "state": "", "country": "DE", "coord": {"lon": 11.6667, "lat": 53.75}}, {"id": 6548400, "name": "Zapel", "state": "", "country": "DE", "coord": {"lon": 11.6667, "lat": 53.549999}}, {"id": 6548401, "name": "Ziegendorf", "state": "", "country": "DE", "coord": {"lon": 11.8167, "lat": 53.283298}}, {"id": 6548402, "name": "Z\u00f6lkow", "state": "", "country": "DE", "coord": {"lon": 11.8206, "lat": 53.563251}}, {"id": 6548404, "name": "Altef\u00e4hr", "state": "", "country": "DE", "coord": {"lon": 13.1167, "lat": 54.3167}}, {"id": 6548405, "name": "Altenkirchen", "state": "", "country": "DE", "coord": {"lon": 13.3333, "lat": 54.633301}}, {"id": 6548408, "name": "Breege", "state": "", "country": "DE", "coord": {"lon": 13.35, "lat": 54.616699}}, {"id": 6548409, "name": "Buschvitz", "state": "", "country": "DE", "coord": {"lon": 13.47136, "lat": 54.429821}}, {"id": 6548410, "name": "Dranske", "state": "", "country": "DE", "coord": {"lon": 13.2333, "lat": 54.633301}}, {"id": 6548411, "name": "Dreschvitz", "state": "", "country": "DE", "coord": {"lon": 13.3167, "lat": 54.400002}}, {"id": 6548412, "name": "Gager", "state": "", "country": "DE", "coord": {"lon": 13.6833, "lat": 54.299999}}, {"id": 6548413, "name": "Gingst", "state": "", "country": "DE", "coord": {"lon": 13.25, "lat": 54.450001}}, {"id": 6548414, "name": "Glowe", "state": "", "country": "DE", "coord": {"lon": 13.4833, "lat": 54.5667}}, {"id": 6548416, "name": "Gustow", "state": "", "country": "DE", "coord": {"lon": 13.2167, "lat": 54.299999}}, {"id": 6548418, "name": "Kluis", "state": "", "country": "DE", "coord": {"lon": 13.3, "lat": 54.466702}}, {"id": 6548419, "name": "Lancken-Granitz", "state": "", "country": "DE", "coord": {"lon": 13.6333, "lat": 54.366699}}, {"id": 6548420, "name": "Lietzow", "state": "", "country": "DE", "coord": {"lon": 13.5167, "lat": 54.483299}}, {"id": 6548421, "name": "Lohme", "state": "", "country": "DE", "coord": {"lon": 13.6167, "lat": 54.583302}}, {"id": 6548422, "name": "Middelhagen", "state": "", "country": "DE", "coord": {"lon": 13.7, "lat": 54.333302}}, {"id": 6548423, "name": "Neuenkirchen", "state": "", "country": "DE", "coord": {"lon": 13.3333, "lat": 54.549999}}, {"id": 6548424, "name": "Parchtitz", "state": "", "country": "DE", "coord": {"lon": 13.4, "lat": 54.4333}}, {"id": 6548425, "name": "Patzig", "state": "", "country": "DE", "coord": {"lon": 13.4, "lat": 54.466702}}, {"id": 6548426, "name": "Poseritz", "state": "", "country": "DE", "coord": {"lon": 13.2833, "lat": 54.299999}}, {"id": 6548427, "name": "Putgarten", "state": "", "country": "DE", "coord": {"lon": 13.4167, "lat": 54.666698}}, {"id": 6548428, "name": "Ralswiek", "state": "", "country": "DE", "coord": {"lon": 13.45, "lat": 54.466702}}, {"id": 6548429, "name": "Rambin", "state": "", "country": "DE", "coord": {"lon": 13.2167, "lat": 54.349998}}, {"id": 6548430, "name": "Rappin", "state": "", "country": "DE", "coord": {"lon": 13.3833, "lat": 54.5}}, {"id": 6548431, "name": "Sagard", "state": "", "country": "DE", "coord": {"lon": 13.55, "lat": 54.533298}}, {"id": 6548432, "name": "Samtens", "state": "", "country": "DE", "coord": {"lon": 13.3001, "lat": 54.362}}, {"id": 6548433, "name": "Schaprode", "state": "", "country": "DE", "coord": {"lon": 13.1667, "lat": 54.516701}}, {"id": 6548434, "name": "Sehlen", "state": "", "country": "DE", "coord": {"lon": 13.448, "lat": 54.4375}}, {"id": 6548436, "name": "Thesenvitz", "state": "", "country": "DE", "coord": {"lon": 13.3833, "lat": 54.450001}}, {"id": 6548437, "name": "Thiessow", "state": "", "country": "DE", "coord": {"lon": 13.7167, "lat": 54.266701}}, {"id": 6548438, "name": "Trent", "state": "", "country": "DE", "coord": {"lon": 13.25, "lat": 54.516701}}, {"id": 6548439, "name": "Ummanz", "state": "", "country": "DE", "coord": {"lon": 13.1833, "lat": 54.466702}}, {"id": 6548440, "name": "Wiek", "state": "", "country": "DE", "coord": {"lon": 13.2833, "lat": 54.616699}}, {"id": 6548441, "name": "Zirkow", "state": "", "country": "DE", "coord": {"lon": 13.55, "lat": 54.383301}}, {"id": 6548442, "name": "Ahlbeck", "state": "", "country": "DE", "coord": {"lon": 14.2, "lat": 53.666698}}, {"id": 6548443, "name": "Altwarp", "state": "", "country": "DE", "coord": {"lon": 14.2833, "lat": 53.75}}, {"id": 6548444, "name": "Altwigshagen", "state": "", "country": "DE", "coord": {"lon": 13.8333, "lat": 53.700001}}, {"id": 6548445, "name": "Bergholz", "state": "", "country": "DE", "coord": {"lon": 14.1667, "lat": 53.450001}}, {"id": 6548446, "name": "Blankensee", "state": "", "country": "DE", "coord": {"lon": 14.3167, "lat": 53.516701}}, {"id": 6548447, "name": "Blumenhagen", "state": "", "country": "DE", "coord": {"lon": 13.8833, "lat": 53.533298}}, {"id": 6548448, "name": "Boock", "state": "", "country": "DE", "coord": {"lon": 14.2667, "lat": 53.483299}}, {"id": 6548450, "name": "Damerow", "state": "", "country": "DE", "coord": {"lon": 13.9833, "lat": 53.450001}}, {"id": 6548451, "name": "Fahrenwalde", "state": "", "country": "DE", "coord": {"lon": 14.0667, "lat": 53.4333}}, {"id": 6548452, "name": "Ferdinandshof", "state": "", "country": "DE", "coord": {"lon": 13.8833, "lat": 53.666698}}, {"id": 6548453, "name": "Glasow", "state": "", "country": "DE", "coord": {"lon": 14.2667, "lat": 53.383301}}, {"id": 6548454, "name": "Grambin", "state": "", "country": "DE", "coord": {"lon": 14.0167, "lat": 53.766701}}, {"id": 6548455, "name": "Gro\u00df Luckow", "state": "", "country": "DE", "coord": {"lon": 13.8333, "lat": 53.533298}}, {"id": 6548456, "name": "Heinrichsruh", "state": "", "country": "DE", "coord": {"lon": 13.9167, "lat": 53.650002}}, {"id": 6548457, "name": "Heinrichswalde", "state": "", "country": "DE", "coord": {"lon": 13.7667, "lat": 53.616699}}, {"id": 6548458, "name": "Hintersee", "state": "", "country": "DE", "coord": {"lon": 14.2667, "lat": 53.633301}}, {"id": 6548459, "name": "Jatznick", "state": "", "country": "DE", "coord": {"lon": 13.9417, "lat": 53.583302}}, {"id": 6548460, "name": "Klein Luckow", "state": "", "country": "DE", "coord": {"lon": 13.8333, "lat": 53.5667}}, {"id": 6548461, "name": "Koblentz", "state": "", "country": "DE", "coord": {"lon": 14.1333, "lat": 53.533298}}, {"id": 6548462, "name": "Krugsdorf", "state": "", "country": "DE", "coord": {"lon": 14.0833, "lat": 53.516701}}, {"id": 6548463, "name": "Leopoldshagen", "state": "", "country": "DE", "coord": {"lon": 13.9, "lat": 53.783298}}, {"id": 6548464, "name": "Liepgarten", "state": "", "country": "DE", "coord": {"lon": 14.0167, "lat": 53.716702}}, {"id": 6548465, "name": "L\u00f6cknitz", "state": "", "country": "DE", "coord": {"lon": 14.2239, "lat": 53.4856}}, {"id": 6548466, "name": "Luckow", "state": "", "country": "DE", "coord": {"lon": 14.1667, "lat": 53.700001}}, {"id": 6548467, "name": "Meiersberg", "state": "", "country": "DE", "coord": {"lon": 13.95, "lat": 53.700001}}, {"id": 6548469, "name": "M\u00f6nkebude", "state": "", "country": "DE", "coord": {"lon": 13.9667, "lat": 53.766701}}, {"id": 6548470, "name": "Nadrensee", "state": "", "country": "DE", "coord": {"lon": 14.35, "lat": 53.333302}}, {"id": 6548471, "name": "Nieden", "state": "", "country": "DE", "coord": {"lon": 13.9167, "lat": 53.4333}}, {"id": 6548472, "name": "Papendorf", "state": "", "country": "DE", "coord": {"lon": 13.95, "lat": 53.5}}, {"id": 6548473, "name": "Pl\u00f6wen", "state": "", "country": "DE", "coord": {"lon": 14.2667, "lat": 53.466702}}, {"id": 6548474, "name": "Polzow", "state": "", "country": "DE", "coord": {"lon": 14.0667, "lat": 53.5}}, {"id": 6548475, "name": "Ramin", "state": "", "country": "DE", "coord": {"lon": 14.2833, "lat": 53.416698}}, {"id": 6548476, "name": "Rollwitz", "state": "", "country": "DE", "coord": {"lon": 13.9833, "lat": 53.466702}}, {"id": 6548477, "name": "Rothem\u00fchl", "state": "", "country": "DE", "coord": {"lon": 13.8333, "lat": 53.599998}}, {"id": 6548478, "name": "Rothenklempenow", "state": "", "country": "DE", "coord": {"lon": 14.2, "lat": 53.516701}}, {"id": 6548479, "name": "Sch\u00f6nwalde", "state": "", "country": "DE", "coord": {"lon": 13.9, "lat": 53.533298}}, {"id": 6548480, "name": "Torgelow-Holl\u00e4nderei", "state": "", "country": "DE", "coord": {"lon": 14.0333, "lat": 53.666698}}, {"id": 6548481, "name": "Viereck", "state": "", "country": "DE", "coord": {"lon": 14.05, "lat": 53.549999}}, {"id": 6548483, "name": "Wilhelmsburg", "state": "", "country": "DE", "coord": {"lon": 13.8667, "lat": 53.650002}}, {"id": 6548484, "name": "Zerrenthin", "state": "", "country": "DE", "coord": {"lon": 14.1, "lat": 53.5}}, {"id": 6548485, "name": "Z\u00fcsedom", "state": "", "country": "DE", "coord": {"lon": 14.0167, "lat": 53.450001}}, {"id": 6548486, "name": "L\u00fcbs", "state": "", "country": "DE", "coord": {"lon": 13.8833, "lat": 53.733299}}, {"id": 6548487, "name": "Chemnitz", "state": "", "country": "DE", "coord": {"lon": 12.92218, "lat": 50.83506}}, {"id": 6548490, "name": "B\u00e4renstein", "state": "", "country": "DE", "coord": {"lon": 13.0333, "lat": 50.5}}, {"id": 6548491, "name": "Crottendorf", "state": "", "country": "DE", "coord": {"lon": 12.95, "lat": 50.516701}}, {"id": 6548493, "name": "K\u00f6nigswalde", "state": "", "country": "DE", "coord": {"lon": 13.05, "lat": 50.549999}}, {"id": 6548494, "name": "Mildenau", "state": "", "country": "DE", "coord": {"lon": 13.0833, "lat": 50.599998}}, {"id": 6548497, "name": "Tannenberg", "state": "", "country": "DE", "coord": {"lon": 12.95, "lat": 50.599998}}, {"id": 6548500, "name": "Bernsdorf", "state": "", "country": "DE", "coord": {"lon": 12.6667, "lat": 50.766701}}, {"id": 6548501, "name": "Callenberg", "state": "", "country": "DE", "coord": {"lon": 12.6333, "lat": 50.849998}}, {"id": 6548502, "name": "Gersdorf", "state": "", "country": "DE", "coord": {"lon": 12.7167, "lat": 50.75}}, {"id": 6548504, "name": "Niederfrohna", "state": "", "country": "DE", "coord": {"lon": 12.7167, "lat": 50.900002}}, {"id": 6548506, "name": "Oberwiera", "state": "", "country": "DE", "coord": {"lon": 12.5, "lat": 50.883301}}, {"id": 6548508, "name": "Remse", "state": "", "country": "DE", "coord": {"lon": 12.5667, "lat": 50.849998}}, {"id": 6548509, "name": "Sch\u00f6nberg", "state": "", "country": "DE", "coord": {"lon": 12.5, "lat": 50.866699}}, {"id": 6548511, "name": "Dorfchemnitz", "state": "", "country": "DE", "coord": {"lon": 13.45, "lat": 50.766701}}, {"id": 6548512, "name": "Eppendorf", "state": "", "country": "DE", "coord": {"lon": 13.2501, "lat": 50.7999}}, {"id": 6548513, "name": "Falkenau", "state": "", "country": "DE", "coord": {"lon": 13.1167, "lat": 50.849998}}, {"id": 6548514, "name": "Frankenstein", "state": "", "country": "DE", "coord": {"lon": 13.2167, "lat": 50.900002}}, {"id": 6548517, "name": "Gro\u00dfhartmannsdorf", "state": "", "country": "DE", "coord": {"lon": 13.3333, "lat": 50.799999}}, {"id": 6548518, "name": "Halsbr\u00fccke", "state": "", "country": "DE", "coord": {"lon": 13.35, "lat": 50.950001}}, {"id": 6548519, "name": "Hilbersdorf", "state": "", "country": "DE", "coord": {"lon": 13.4, "lat": 50.900002}}, {"id": 6548520, "name": "Leubsdorf", "state": "", "country": "DE", "coord": {"lon": 13.1667, "lat": 50.799999}}, {"id": 6548522, "name": "Niederwiesa", "state": "", "country": "DE", "coord": {"lon": 13.0033, "lat": 50.8624}}, {"id": 6548524, "name": "Obersch\u00f6na", "state": "", "country": "DE", "coord": {"lon": 13.2667, "lat": 50.900002}}, {"id": 6548525, "name": "Rechenberg-Bienenm\u00fchle", "state": "", "country": "DE", "coord": {"lon": 13.5333, "lat": 50.733299}}, {"id": 6548526, "name": "Reinsberg", "state": "", "country": "DE", "coord": {"lon": 13.3667, "lat": 51}}, {"id": 6548527, "name": "Bad Brambach", "state": "", "country": "DE", "coord": {"lon": 12.3167, "lat": 50.216702}}, {"id": 6548528, "name": "Bergen", "state": "", "country": "DE", "coord": {"lon": 12.27917, "lat": 50.476391}}, {"id": 6548529, "name": "B\u00f6senbrunn", "state": "", "country": "DE", "coord": {"lon": 12.1, "lat": 50.400002}}, {"id": 6548531, "name": "Eichigt", "state": "", "country": "DE", "coord": {"lon": 12.1667, "lat": 50.349998}}, {"id": 6548532, "name": "Ellefeld", "state": "", "country": "DE", "coord": {"lon": 12.4, "lat": 50.483299}}, {"id": 6548533, "name": "Erlbach", "state": "", "country": "DE", "coord": {"lon": 12.3667, "lat": 50.3167}}, {"id": 6548536, "name": "Limbach", "state": "", "country": "DE", "coord": {"lon": 12.25, "lat": 50.583302}}, {"id": 6548537, "name": "Mehltheuer", "state": "", "country": "DE", "coord": {"lon": 12.05, "lat": 50.549999}}, {"id": 6548539, "name": "Neumark", "state": "", "country": "DE", "coord": {"lon": 12.35, "lat": 50.666698}}, {"id": 6548540, "name": "P\u00f6hl", "state": "", "country": "DE", "coord": {"lon": 12.1833, "lat": 50.549999}}, {"id": 6548541, "name": "Reuth", "state": "", "country": "DE", "coord": {"lon": 11.9667, "lat": 50.466702}}, {"id": 6548543, "name": "Syrau", "state": "", "country": "DE", "coord": {"lon": 12.0833, "lat": 50.533298}}, {"id": 6548544, "name": "Theuma", "state": "", "country": "DE", "coord": {"lon": 12.2167, "lat": 50.466702}}, {"id": 6548545, "name": "Tirpersdorf", "state": "", "country": "DE", "coord": {"lon": 12.25, "lat": 50.4333}}, {"id": 6548546, "name": "Weischlitz", "state": "", "country": "DE", "coord": {"lon": 12.0112, "lat": 50.437099}}, {"id": 6548547, "name": "Werda", "state": "", "country": "DE", "coord": {"lon": 12.3167, "lat": 50.4333}}, {"id": 6548548, "name": "Zwota", "state": "", "country": "DE", "coord": {"lon": 12.4333, "lat": 50.356998}}, {"id": 6548550, "name": "Borstendorf", "state": "", "country": "DE", "coord": {"lon": 13.1667, "lat": 50.783298}}, {"id": 6548551, "name": "Deutschneudorf", "state": "", "country": "DE", "coord": {"lon": 13.4667, "lat": 50.616699}}, {"id": 6548552, "name": "Gro\u00dfolbersdorf", "state": "", "country": "DE", "coord": {"lon": 13.0833, "lat": 50.700001}}, {"id": 6548553, "name": "Gro\u00dfr\u00fcckerswalde", "state": "", "country": "DE", "coord": {"lon": 13.1167, "lat": 50.633301}}, {"id": 6548554, "name": "Gr\u00fcnhainichen", "state": "", "country": "DE", "coord": {"lon": 13.1667, "lat": 50.766701}}, {"id": 6548555, "name": "Heidersdorf", "state": "", "country": "DE", "coord": {"lon": 13.4, "lat": 50.6833}}, {"id": 6548556, "name": "Pfaffroda", "state": "", "country": "DE", "coord": {"lon": 13.35, "lat": 50.700001}}, {"id": 6548558, "name": "Pockau", "state": "", "country": "DE", "coord": {"lon": 13.2798, "lat": 50.724098}}, {"id": 6548560, "name": "Altmittweida", "state": "", "country": "DE", "coord": {"lon": 12.95, "lat": 50.966702}}, {"id": 6548562, "name": "Clau\u00dfnitz", "state": "", "country": "DE", "coord": {"lon": 12.8833, "lat": 50.9333}}, {"id": 6548563, "name": "Erlau", "state": "", "country": "DE", "coord": {"lon": 12.9333, "lat": 51.016701}}, {"id": 6548564, "name": "Hartmannsdorf", "state": "", "country": "DE", "coord": {"lon": 12.8, "lat": 50.900002}}, {"id": 6548565, "name": "K\u00f6nigsfeld", "state": "", "country": "DE", "coord": {"lon": 12.75, "lat": 51.0667}}, {"id": 6548567, "name": "Kriebstein", "state": "", "country": "DE", "coord": {"lon": 13.0167, "lat": 51.049999}}, {"id": 6548568, "name": "Rossau", "state": "", "country": "DE", "coord": {"lon": 13.0667, "lat": 51}}, {"id": 6548569, "name": "Seelitz", "state": "", "country": "DE", "coord": {"lon": 12.8167, "lat": 51.033298}}, {"id": 6548571, "name": "Taura", "state": "", "country": "DE", "coord": {"lon": 12.8313, "lat": 50.9179}}, {"id": 6548573, "name": "Wechselburg", "state": "", "country": "DE", "coord": {"lon": 12.7667, "lat": 51}}, {"id": 6548574, "name": "Zettlitz", "state": "", "country": "DE", "coord": {"lon": 12.8333, "lat": 51.0667}}, {"id": 6548575, "name": "Auerbach", "state": "", "country": "DE", "coord": {"lon": 12.9167, "lat": 50.6833}}, {"id": 6548576, "name": "Burkhardtsdorf", "state": "", "country": "DE", "coord": {"lon": 12.9167, "lat": 50.733299}}, {"id": 6548578, "name": "Gornsdorf", "state": "", "country": "DE", "coord": {"lon": 12.8833, "lat": 50.700001}}, {"id": 6548579, "name": "Hohndorf", "state": "", "country": "DE", "coord": {"lon": 12.6833, "lat": 50.75}}, {"id": 6548580, "name": "Hormersdorf", "state": "", "country": "DE", "coord": {"lon": 12.8833, "lat": 50.666698}}, {"id": 6548583, "name": "Bernsbach", "state": "", "country": "DE", "coord": {"lon": 12.7667, "lat": 50.583302}}, {"id": 6548584, "name": "Bockau", "state": "", "country": "DE", "coord": {"lon": 12.7, "lat": 50.549999}}, {"id": 6548591, "name": "Sch\u00f6nheide", "state": "", "country": "DE", "coord": {"lon": 12.5057, "lat": 50.5037}}, {"id": 6548592, "name": "Sosa", "state": "", "country": "DE", "coord": {"lon": 12.6667, "lat": 50.5}}, {"id": 6548593, "name": "St\u00fctzengr\u00fcn", "state": "", "country": "DE", "coord": {"lon": 12.5333, "lat": 50.533298}}, {"id": 6548594, "name": "Zschorlau", "state": "", "country": "DE", "coord": {"lon": 12.65, "lat": 50.5667}}, {"id": 6548596, "name": "Dennheritz", "state": "", "country": "DE", "coord": {"lon": 12.45, "lat": 50.8167}}, {"id": 6548597, "name": "Fraureuth", "state": "", "country": "DE", "coord": {"lon": 12.35, "lat": 50.700001}}, {"id": 6548598, "name": "Hirschfeld", "state": "", "country": "DE", "coord": {"lon": 12.4667, "lat": 50.633301}}, {"id": 6548599, "name": "Langenbernsdorf", "state": "", "country": "DE", "coord": {"lon": 12.3, "lat": 50.75}}, {"id": 6548600, "name": "Lichtentanne", "state": "", "country": "DE", "coord": {"lon": 12.4333, "lat": 50.700001}}, {"id": 6548601, "name": "Reinsdorf", "state": "", "country": "DE", "coord": {"lon": 12.5833, "lat": 50.700001}}, {"id": 6548603, "name": "Burkau", "state": "", "country": "DE", "coord": {"lon": 14.1833, "lat": 51.1833}}, {"id": 6548604, "name": "Crostau", "state": "", "country": "DE", "coord": {"lon": 14.45, "lat": 51.083302}}, {"id": 6548605, "name": "Cunewalde", "state": "", "country": "DE", "coord": {"lon": 14.5167, "lat": 51.099998}}, {"id": 6548606, "name": "Demitz-Thumitz", "state": "", "country": "DE", "coord": {"lon": 14.25, "lat": 51.133301}}, {"id": 6548608, "name": "Frankenthal", "state": "", "country": "DE", "coord": {"lon": 14.1167, "lat": 51.133301}}, {"id": 6548609, "name": "G\u00f6da", "state": "", "country": "DE", "coord": {"lon": 14.3167, "lat": 51.1833}}, {"id": 6548610, "name": "Gro\u00dfdubrau", "state": "", "country": "DE", "coord": {"lon": 14.4667, "lat": 51.25}}, {"id": 6548611, "name": "Gro\u00dfharthau", "state": "", "country": "DE", "coord": {"lon": 14.1, "lat": 51.116699}}, {"id": 6548612, "name": "Guttau", "state": "", "country": "DE", "coord": {"lon": 14.5667, "lat": 51.25}}, {"id": 6548613, "name": "Hochkirch", "state": "", "country": "DE", "coord": {"lon": 14.5833, "lat": 51.150002}}, {"id": 6548614, "name": "Kirschau", "state": "", "country": "DE", "coord": {"lon": 14.4167, "lat": 51.099998}}, {"id": 6548615, "name": "K\u00f6nigswartha", "state": "", "country": "DE", "coord": {"lon": 14.3333, "lat": 51.3167}}, {"id": 6548616, "name": "Kubsch\u00fctz", "state": "", "country": "DE", "coord": {"lon": 14.4838, "lat": 51.1698}}, {"id": 6548617, "name": "Malschwitz", "state": "", "country": "DE", "coord": {"lon": 14.5167, "lat": 51.233299}}, {"id": 6548618, "name": "Neschwitz", "state": "", "country": "DE", "coord": {"lon": 14.3333, "lat": 51.266701}}, {"id": 6548619, "name": "Obergurig", "state": "", "country": "DE", "coord": {"lon": 14.4, "lat": 51.133301}}, {"id": 6548620, "name": "Puschwitz", "state": "", "country": "DE", "coord": {"lon": 14.3, "lat": 51.25}}, {"id": 6548621, "name": "Radibor", "state": "", "country": "DE", "coord": {"lon": 14.4, "lat": 51.25}}, {"id": 6548622, "name": "Rammenau", "state": "", "country": "DE", "coord": {"lon": 14.222, "lat": 51.130402}}, {"id": 6548624, "name": "Steinigtwolmsdorf", "state": "", "country": "DE", "coord": {"lon": 14.35, "lat": 51.0667}}, {"id": 6548628, "name": "Klipphausen", "state": "", "country": "DE", "coord": {"lon": 13.5333, "lat": 51.083302}}, {"id": 6548630, "name": "Moritzburg", "state": "", "country": "DE", "coord": {"lon": 13.6833, "lat": 51.166698}}, {"id": 6548631, "name": "Niederau", "state": "", "country": "DE", "coord": {"lon": 13.5707, "lat": 51.144001}}, {"id": 6548633, "name": "Weinb\u00f6hla", "state": "", "country": "DE", "coord": {"lon": 13.5672, "lat": 51.184299}}, {"id": 6548634, "name": "Gablenz", "state": "", "country": "DE", "coord": {"lon": 14.6667, "lat": 51.533298}}, {"id": 6548635, "name": "Gro\u00df D\u00fcben", "state": "", "country": "DE", "coord": {"lon": 14.5667, "lat": 51.5667}}, {"id": 6548636, "name": "H\u00e4hnichen", "state": "", "country": "DE", "coord": {"lon": 14.8667, "lat": 51.366699}}, {"id": 6548638, "name": "Horka", "state": "", "country": "DE", "coord": {"lon": 14.9, "lat": 51.299999}}, {"id": 6548639, "name": "Kodersdorf", "state": "", "country": "DE", "coord": {"lon": 14.8833, "lat": 51.233299}}, {"id": 6548640, "name": "K\u00f6nigshain", "state": "", "country": "DE", "coord": {"lon": 14.8667, "lat": 51.1833}},