[{"id": 1804451, "name": "Lianyuan", "state": "", "country": "CN", "coord": {"lon": 111.664169, "lat": 27.68833}}, {"id": 1804452, "name": "Lantian", "state": "", "country": "CN", "coord": {"lon": 109.294724, "lat": 27.025}}, {"id": 1804455, "name": "Lantian", "state": "", "country": "CN", "coord": {"lon": 114.225883, "lat": 23.865761}}, {"id": 1804456, "name": "Lantang", "state": "", "country": "CN", "coord": {"lon": 114.93026, "lat": 23.417601}}, {"id": 1804463, "name": "Tafeng", "state": "", "country": "CN", "coord": {"lon": 112.189873, "lat": 25.354071}}, {"id": 1804465, "name": "Lanqiao", "state": "", "country": "CN", "coord": {"lon": 109.457932, "lat": 34.07431}}, {"id": 1804472, "name": "Lanli", "state": "", "country": "CN", "coord": {"lon": 109.91861, "lat": 27.88694}}, {"id": 1804497, "name": "Rangxi", "state": "", "country": "CN", "coord": {"lon": 116.722412, "lat": 29.915489}}, {"id": 1804499, "name": "Jianping", "state": "", "country": "CN", "coord": {"lon": 119.173302, "lat": 31.138309}}, {"id": 1804500, "name": "Langxi", "state": "", "country": "CN", "coord": {"lon": 110.309036, "lat": 28.921801}}, {"id": 1804506, "name": "Languan", "state": "", "country": "CN", "coord": {"lon": 109.314148, "lat": 34.157539}}, {"id": 1804518, "name": "Langqiao", "state": "", "country": "CN", "coord": {"lon": 118.452637, "lat": 30.477671}}, {"id": 1804526, "name": "Langli", "state": "", "country": "CN", "coord": {"lon": 113.113609, "lat": 28.179171}}, {"id": 1804540, "name": "Langfang", "state": "", "country": "CN", "coord": {"lon": 116.694717, "lat": 39.50972}}, {"id": 1804578, "name": "Laizhou", "state": "", "country": "CN", "coord": {"lon": 119.921387, "lat": 37.171669}}, {"id": 1804583, "name": "Laiyuan", "state": "", "country": "CN", "coord": {"lon": 117.020561, "lat": 25.563089}}, {"id": 1804586, "name": "Laiyang", "state": "", "country": "CN", "coord": {"lon": 120.713608, "lat": 36.97583}}, {"id": 1804591, "name": "Laiwu", "state": "", "country": "CN", "coord": {"lon": 117.656937, "lat": 36.19278}}, {"id": 1804602, "name": "Xiangfeng", "state": "", "country": "CN", "coord": {"lon": 109.402657, "lat": 29.50761}}, {"id": 1804603, "name": "Laifang", "state": "", "country": "CN", "coord": {"lon": 116.884148, "lat": 25.936029}}, {"id": 1804605, "name": "Laicun", "state": "", "country": "CN", "coord": {"lon": 115.818916, "lat": 26.347151}}, {"id": 1804609, "name": "Laibin", "state": "", "country": "CN", "coord": {"lon": 109.26667, "lat": 23.700001}}, {"id": 1804618, "name": "Labuleng", "state": "", "country": "CN", "coord": {"lon": 102.521172, "lat": 35.201248}}, {"id": 1804619, "name": "Labu", "state": "", "country": "CN", "coord": {"lon": 109.334137, "lat": 24.25985}}, {"id": 1804622, "name": "Zhongtie", "state": "", "country": "CN", "coord": {"lon": 100.132896, "lat": 35.244808}}, {"id": 1804645, "name": "Kunyang", "state": "", "country": "CN", "coord": {"lon": 120.565826, "lat": 27.665831}}, {"id": 1804646, "name": "Kunyang", "state": "", "country": "CN", "coord": {"lon": 102.591904, "lat": 24.66753}}, {"id": 1804651, "name": "Kunming", "state": "", "country": "CN", "coord": {"lon": 102.71833, "lat": 25.038891}}, {"id": 1804658, "name": "Kuiyong", "state": "", "country": "CN", "coord": {"lon": 114.416191, "lat": 22.634581}}, {"id": 1804664, "name": "Kuitan", "state": "", "country": "CN", "coord": {"lon": 115.973351, "lat": 23.068371}}, {"id": 1804668, "name": "Kuishan", "state": "", "country": "CN", "coord": {"lon": 117.190826, "lat": 34.243328}}, {"id": 1804672, "name": "Kuimeishan", "state": "", "country": "CN", "coord": {"lon": 114.887787, "lat": 24.66898}}, {"id": 1804685, "name": "Kuangyuan", "state": "", "country": "CN", "coord": {"lon": 103.147888, "lat": 24.91379}}, {"id": 1804686, "name": "Kuangyan", "state": "", "country": "CN", "coord": {"lon": 121.29586, "lat": 30.15127}}, {"id": 1804694, "name": "Kuanchuan", "state": "", "country": "CN", "coord": {"lon": 106.259399, "lat": 32.99437}}, {"id": 1804709, "name": "Kouzhen", "state": "", "country": "CN", "coord": {"lon": 108.697502, "lat": 34.708889}}, {"id": 1804714, "name": "Koujiahe", "state": "", "country": "CN", "coord": {"lon": 107.064453, "lat": 34.718819}}, {"id": 1804732, "name": "Konglong", "state": "", "country": "CN", "coord": {"lon": 115.903229, "lat": 29.886681}}, {"id": 1804733, "name": "Huzhuang", "state": "", "country": "CN", "coord": {"lon": 120.021439, "lat": 32.351841}}, {"id": 1804734, "name": "Kongwan", "state": "", "country": "CN", "coord": {"lon": 112.266342, "lat": 31.570959}}, {"id": 1804751, "name": "Kesha", "state": "", "country": "CN", "coord": {"lon": 109.947571, "lat": 29.0958}}, {"id": 1804753, "name": "Keqiao", "state": "", "country": "CN", "coord": {"lon": 120.486443, "lat": 30.072651}}, {"id": 1804758, "name": "Kengyuan", "state": "", "country": "CN", "coord": {"lon": 119.767776, "lat": 26.340281}}, {"id": 1804761, "name": "Kengtian", "state": "", "country": "CN", "coord": {"lon": 115.378731, "lat": 27.344999}}, {"id": 1804775, "name": "Lanyi", "state": "", "country": "CN", "coord": {"lon": 111.597832, "lat": 38.71983}}, {"id": 1804781, "name": "Kefang", "state": "", "country": "CN", "coord": {"lon": 116.586937, "lat": 26.7174}}, {"id": 1804784, "name": "Kedian", "state": "", "country": "CN", "coord": {"lon": 112.86747, "lat": 31.360531}}, {"id": 1804805, "name": "Kanshan", "state": "", "country": "CN", "coord": {"lon": 120.407143, "lat": 30.19397}}, {"id": 1804819, "name": "Kangshan", "state": "", "country": "CN", "coord": {"lon": 116.431129, "lat": 28.88122}}, {"id": 1804826, "name": "Kangle", "state": "", "country": "CN", "coord": {"lon": 114.450073, "lat": 28.09557}}, {"id": 1804850, "name": "Kaiyuan", "state": "", "country": "CN", "coord": {"lon": 103.303719, "lat": 23.69767}}, {"id": 1804869, "name": "Xinning", "state": "", "country": "CN", "coord": {"lon": 107.865082, "lat": 31.08515}}, {"id": 1804873, "name": "Kaihua Chengguanzhen", "state": "", "country": "CN", "coord": {"lon": 118.403328, "lat": 29.143061}}, {"id": 1804874, "name": "Kaihua", "state": "", "country": "CN", "coord": {"lon": 104.279999, "lat": 23.3687}}, {"id": 1804879, "name": "Kaifeng", "state": "", "country": "CN", "coord": {"lon": 114.348328, "lat": 34.791111}}, {"id": 1804892, "name": "Juye", "state": "", "country": "CN", "coord": {"lon": 116.088333, "lat": 35.394718}}, {"id": 1804894, "name": "Juxing", "state": "", "country": "CN", "coord": {"lon": 121.542778, "lat": 31.966391}}, {"id": 1804899, "name": "Juxi", "state": "", "country": "CN", "coord": {"lon": 116.738708, "lat": 25.49465}}, {"id": 1804900, "name": "Juting", "state": "", "country": "CN", "coord": {"lon": 106.084534, "lat": 33.05534}}, {"id": 1804917, "name": "Junxi", "state": "", "country": "CN", "coord": {"lon": 117.844704, "lat": 25.675079}}, {"id": 1804922, "name": "Junshan", "state": "", "country": "CN", "coord": {"lon": 114.126984, "lat": 30.366051}}, {"id": 1804935, "name": "Junlian", "state": "", "country": "CN", "coord": {"lon": 104.51162, "lat": 28.171061}}, {"id": 1804936, "name": "Junkou", "state": "", "country": "CN", "coord": {"lon": 116.79467, "lat": 26.65814}}, {"id": 1804946, "name": "Junchuan", "state": "", "country": "CN", "coord": {"lon": 113.21843, "lat": 31.65206}}, {"id": 1804950, "name": "Junbu", "state": "", "country": "CN", "coord": {"lon": 115.665642, "lat": 26.704519}}, {"id": 1804977, "name": "Juexi", "state": "", "country": "CN", "coord": {"lon": 121.94722, "lat": 29.47361}}, {"id": 1804979, "name": "Juegang", "state": "", "country": "CN", "coord": {"lon": 121.185516, "lat": 32.317371}}, {"id": 1804983, "name": "Longhu", "state": "", "country": "CN", "coord": {"lon": 110.394478, "lat": 19.57748}}, {"id": 1804991, "name": "Juanshui", "state": "", "country": "CN", "coord": {"lon": 113.886757, "lat": 29.303061}}, {"id": 1804996, "name": "Liulin", "state": "", "country": "CN", "coord": {"lon": 103.504173, "lat": 34.589722}}, {"id": 1805012, "name": "Jiyuan", "state": "", "country": "CN", "coord": {"lon": 112.580002, "lat": 35.09}}, {"id": 1805022, "name": "Jiyang", "state": "", "country": "CN", "coord": {"lon": 118.131668, "lat": 27.13932}}, {"id": 1805026, "name": "Jixiang", "state": "", "country": "CN", "coord": {"lon": 118.912193, "lat": 26.67275}}, {"id": 1805030, "name": "Jichang", "state": "", "country": "CN", "coord": {"lon": 110.673332, "lat": 36.101109}}, {"id": 1805032, "name": "Jixian", "state": "", "country": "CN", "coord": {"lon": 108.397827, "lat": 34.088631}}, {"id": 1805052, "name": "Jiuzhou", "state": "", "country": "CN", "coord": {"lon": 110.403557, "lat": 19.762659}}, {"id": 1805064, "name": "Yuhang", "state": "", "country": "CN", "coord": {"lon": 119.932503, "lat": 30.27528}}, {"id": 1805066, "name": "Yongping", "state": "", "country": "CN", "coord": {"lon": 108.041389, "lat": 34.810829}}, {"id": 1805090, "name": "Jiuxian", "state": "", "country": "CN", "coord": {"lon": 113.299652, "lat": 33.495449}}, {"id": 1805096, "name": "Jiuxian", "state": "", "country": "CN", "coord": {"lon": 116.497597, "lat": 25.22397}}, {"id": 1805097, "name": "Jiuxi", "state": "", "country": "CN", "coord": {"lon": 111.271744, "lat": 29.181021}}, {"id": 1805101, "name": "Wugong", "state": "", "country": "CN", "coord": {"lon": 108.107613, "lat": 34.3283}}, {"id": 1805111, "name": "Jiusi", "state": "", "country": "CN", "coord": {"lon": 109.255074, "lat": 29.43363}}, {"id": 1805125, "name": "Jiupu", "state": "", "country": "CN", "coord": {"lon": 118.676666, "lat": 32.81694}}, {"id": 1805132, "name": "Jiulong", "state": "", "country": "CN", "coord": {"lon": 121.571388, "lat": 31.90806}}, {"id": 1805148, "name": "Jiulong", "state": "", "country": "CN", "coord": {"lon": 116.633034, "lat": 28.52121}}, {"id": 1805151, "name": "Jiulong", "state": "", "country": "CN", "coord": {"lon": 112.914421, "lat": 24.14414}}, {"id": 1805164, "name": "Lianzhu", "state": "", "country": "CN", "coord": {"lon": 101.710281, "lat": 23.40844}}, {"id": 1805169, "name": "Jiukou", "state": "", "country": "CN", "coord": {"lon": 112.666107, "lat": 30.864401}}, {"id": 1805173, "name": "Jiujie", "state": "", "country": "CN", "coord": {"lon": 113.764511, "lat": 33.55109}}, {"id": 1805174, "name": "Jiujie", "state": "", "country": "CN", "coord": {"lon": 114.92115, "lat": 30.835051}}, {"id": 1805179, "name": "Jiujiang", "state": "", "country": "CN", "coord": {"lon": 115.98333, "lat": 29.73333}}, {"id": 1805182, "name": "Jiuji", "state": "", "country": "CN", "coord": {"lon": 111.998329, "lat": 31.815001}}, {"id": 1805184, "name": "Jiuhua", "state": "", "country": "CN", "coord": {"lon": 120.657784, "lat": 32.138611}}, {"id": 1805192, "name": "Jiuhe", "state": "", "country": "CN", "coord": {"lon": 115.052689, "lat": 23.492439}}, {"id": 1805199, "name": "Jiuguan", "state": "", "country": "CN", "coord": {"lon": 120.276802, "lat": 30.8381}}, {"id": 1805208, "name": "Jiufeng", "state": "", "country": "CN", "coord": {"lon": 113.373749, "lat": 25.34454}}, {"id": 1805211, "name": "Jiufang", "state": "", "country": "CN", "coord": {"lon": 107.392738, "lat": 34.81451}}, {"id": 1805229, "name": "Jiuchenggong", "state": "", "country": "CN", "coord": {"lon": 107.787582, "lat": 34.67868}}, {"id": 1805253, "name": "Jiubao", "state": "", "country": "CN", "coord": {"lon": 115.900459, "lat": 25.945709}}, {"id": 1805261, "name": "Jitian", "state": "", "country": "CN", "coord": {"lon": 112.090492, "lat": 24.575411}}, {"id": 1805267, "name": "Jishui", "state": "", "country": "CN", "coord": {"lon": 115.400002, "lat": 33.73333}}, {"id": 1805270, "name": "Qianzhou", "state": "", "country": "CN", "coord": {"lon": 109.716667, "lat": 28.316669}}, {"id": 1805280, "name": "Jifeng", "state": "", "country": "CN", "coord": {"lon": 110.958542, "lat": 35.613468}}, {"id": 1805290, "name": "Jinzipai", "state": "", "country": "CN", "coord": {"lon": 117.807777, "lat": 29.84631}}, {"id": 1805298, "name": "Jinzhou", "state": "", "country": "CN", "coord": {"lon": 121.716667, "lat": 39.099998}}, {"id": 1805310, "name": "Jinyuan", "state": "", "country": "CN", "coord": {"lon": 112.470833, "lat": 37.72694}}, {"id": 1805323, "name": "Jinxiu", "state": "", "country": "CN", "coord": {"lon": 110.180092, "lat": 24.137211}}, {"id": 1805334, "name": "Jinxiang", "state": "", "country": "CN", "coord": {"lon": 120.606247, "lat": 27.43265}}, {"id": 1805347, "name": "Jintian", "state": "", "country": "CN", "coord": {"lon": 114.438599, "lat": 27.150169}}, {"id": 1805357, "name": "Jintang", "state": "", "country": "CN", "coord": {"lon": 121.866211, "lat": 30.005791}}, {"id": 1805358, "name": "Jintang", "state": "", "country": "CN", "coord": {"lon": 114.169922, "lat": 29.31389}}, {"id": 1805361, "name": "Jintan", "state": "", "country": "CN", "coord": {"lon": 115.118668, "lat": 27.271681}}, {"id": 1805362, "name": "Jintan", "state": "", "country": "CN", "coord": {"lon": 112.807892, "lat": 24.065001}}, {"id": 1805375, "name": "Jinshiqiao", "state": "", "country": "CN", "coord": {"lon": 110.945282, "lat": 27.582781}}, {"id": 1805379, "name": "Jinshi", "state": "", "country": "CN", "coord": {"lon": 111.870117, "lat": 29.60487}}, {"id": 1805380, "name": "Jinshi", "state": "", "country": "CN", "coord": {"lon": 110.800171, "lat": 26.417959}}, {"id": 1805389, "name": "Jinshan", "state": "", "country": "CN", "coord": {"lon": 109.380859, "lat": 34.289902}}, {"id": 1805391, "name": "Jinshanwei", "state": "", "country": "CN", "coord": {"lon": 121.315002, "lat": 30.72333}}, {"id": 1805394, "name": "Jinshanpu", "state": "", "country": "CN", "coord": {"lon": 113.679131, "lat": 39.294682}}, {"id": 1805399, "name": "Jinshan", "state": "", "country": "CN", "coord": {"lon": 102.09832, "lat": 25.11508}}, {"id": 1805401, "name": "Jinshan", "state": "", "country": "CN", "coord": {"lon": 110.68956, "lat": 19.998039}}, {"id": 1805408, "name": "Jinsha", "state": "", "country": "CN", "coord": {"lon": 121.073547, "lat": 32.089821}}, {"id": 1805409, "name": "Jinsha", "state": "", "country": "CN", "coord": {"lon": 118.72982, "lat": 30.2644}}, {"id": 1805414, "name": "Jinrui", "state": "", "country": "CN", "coord": {"lon": 114.20182, "lat": 27.926769}}, {"id": 1805415, "name": "Jinqu", "state": "", "country": "CN", "coord": {"lon": 107.7789, "lat": 34.211899}}, {"id": 1805431, "name": "Jinping", "state": "", "country": "CN", "coord": {"lon": 119.116669, "lat": 34.51667}}, {"id": 1805433, "name": "Jinping", "state": "", "country": "CN", "coord": {"lon": 100.819893, "lat": 24.433741}}, {"id": 1805434, "name": "Jinping", "state": "", "country": "CN", "coord": {"lon": 104.22702, "lat": 24.03054}}, {"id": 1805435, "name": "Jinhe", "state": "", "country": "CN", "coord": {"lon": 103.25, "lat": 22.76667}}, {"id": 1805438, "name": "Jinpanling", "state": "", "country": "CN", "coord": {"lon": 116.995522, "lat": 29.33535}}, {"id": 1805446, "name": "Jinnan", "state": "", "country": "CN", "coord": {"lon": 119.036392, "lat": 32.952499}}, {"id": 1805467, "name": "Jinkou", "state": "", "country": "CN", "coord": {"lon": 114.12989, "lat": 30.34008}}, {"id": 1805482, "name": "Jinjing", "state": "", "country": "CN", "coord": {"lon": 118.597221, "lat": 24.575001}}, {"id": 1805501, "name": "Jinjiang", "state": "", "country": "CN", "coord": {"lon": 116.899834, "lat": 28.400511}}, {"id": 1805505, "name": "Jinjiang", "state": "", "country": "CN", "coord": {"lon": 110.006393, "lat": 19.72917}}, {"id": 1805507, "name": "Jinjiahe", "state": "", "country": "CN", "coord": {"lon": 105.967033, "lat": 33.340969}}, {"id": 1805515, "name": "Jinji", "state": "", "country": "CN", "coord": {"lon": 110.826111, "lat": 23.22806}}, {"id": 1805518, "name": "Jining", "state": "", "country": "CN", "coord": {"lon": 116.58139, "lat": 35.404999}}, {"id": 1805522, "name": "Jinhui", "state": "", "country": "CN", "coord": {"lon": 121.492508, "lat": 30.989731}}, {"id": 1805528, "name": "Jinhua", "state": "", "country": "CN", "coord": {"lon": 119.654716, "lat": 29.10778}}, {"id": 1805531, "name": "Jinhe", "state": "", "country": "CN", "coord": {"lon": 109.604721, "lat": 27.71694}}, {"id": 1805540, "name": "Jingzhou", "state": "", "country": "CN", "coord": {"lon": 112.190277, "lat": 30.350281}}, {"id": 1805542, "name": "Jingzhou", "state": "", "country": "CN", "coord": {"lon": 116.933159, "lat": 23.62376}}, {"id": 1805553, "name": "Jingyao", "state": "", "country": "CN", "coord": {"lon": 109.444099, "lat": 34.845402}}, {"id": 1805558, "name": "Jingyang", "state": "", "country": "CN", "coord": {"lon": 118.542503, "lat": 30.291941}}, {"id": 1805560, "name": "Yancheng", "state": "", "country": "CN", "coord": {"lon": 104.06723, "lat": 29.650681}}, {"id": 1805563, "name": "Tianchang", "state": "", "country": "CN", "coord": {"lon": 114.015556, "lat": 37.998058}}, {"id": 1805565, "name": "Xiluodu", "state": "", "country": "CN", "coord": {"lon": 103.58226, "lat": 28.20063}}, {"id": 1805568, "name": "Jingchuan", "state": "", "country": "CN", "coord": {"lon": 118.404312, "lat": 30.689159}}, {"id": 1805572, "name": "Jingxi", "state": "", "country": "CN", "coord": {"lon": 117.545258, "lat": 26.19454}}, {"id": 1805583, "name": "Jingtou", "state": "", "country": "CN", "coord": {"lon": 113.677483, "lat": 23.96977}}, {"id": 1805599, "name": "Jingping", "state": "", "country": "CN", "coord": {"lon": 112.28389, "lat": 39.52}}, {"id": 1805606, "name": "Jingning Chengguanzhen", "state": "", "country": "CN", "coord": {"lon": 105.723007, "lat": 35.520359}}, {"id": 1805611, "name": "Jingmen", "state": "", "country": "CN", "coord": {"lon": 112.20472, "lat": 31.033609}}, {"id": 1805612, "name": "Jingmao", "state": "", "country": "CN", "coord": {"lon": 111.355858, "lat": 35.881828}}, {"id": 1805614, "name": "Jinglou", "state": "", "country": "CN", "coord": {"lon": 115.426071, "lat": 28.100121}}, {"id": 1805615, "name": "Jinglongqiao", "state": "", "country": "CN", "coord": {"lon": 111.096977, "lat": 29.30316}}, {"id": 1805618, "name": "Jingling", "state": "", "country": "CN", "coord": {"lon": 113.099998, "lat": 30.65}}, {"id": 1805619, "name": "Jingling", "state": "", "country": "CN", "coord": {"lon": 120.78289, "lat": 29.37343}}, {"id": 1805622, "name": "Echeng", "state": "", "country": "CN", "coord": {"lon": 111.971657, "lat": 38.374439}}, {"id": 1805638, "name": "Jingjiang", "state": "", "country": "CN", "coord": {"lon": 120.462357, "lat": 30.23344}}, {"id": 1805639, "name": "Jingjiang", "state": "", "country": "CN", "coord": {"lon": 120.262497, "lat": 32.014172}}, {"id": 1805658, "name": "Jinghai", "state": "", "country": "CN", "coord": {"lon": 116.51741, "lat": 23.00811}}, {"id": 1805664, "name": "Jinggongqiao", "state": "", "country": "CN", "coord": {"lon": 117.213402, "lat": 29.748449}}, {"id": 1805671, "name": "Jinggan", "state": "", "country": "CN", "coord": {"lon": 108.834167, "lat": 34.529999}}, {"id": 1805680, "name": "Jingdezhen", "state": "", "country": "CN", "coord": {"lon": 117.207893, "lat": 29.294701}}, {"id": 1805704, "name": "Jing\u2019an", "state": "", "country": "CN", "coord": {"lon": 113.284897, "lat": 22.20739}}, {"id": 1805709, "name": "Jin\u2019e", "state": "", "country": "CN", "coord": {"lon": 105.284431, "lat": 29.34313}}, {"id": 1805711, "name": "Jindui", "state": "", "country": "CN", "coord": {"lon": 109.967468, "lat": 34.334019}}, {"id": 1805726, "name": "Jincun", "state": "", "country": "CN", "coord": {"lon": 112.90583, "lat": 35.501942}}, {"id": 1805727, "name": "Jincun", "state": "", "country": "CN", "coord": {"lon": 112.262222, "lat": 33.951248}}, {"id": 1805733, "name": "Jinchang", "state": "", "country": "CN", "coord": {"lon": 102.173889, "lat": 38.495281}}, {"id": 1805734, "name": "Jinchuan", "state": "", "country": "CN", "coord": {"lon": 102.062363, "lat": 31.477119}}, {"id": 1805735, "name": "Jinchuan", "state": "", "country": "CN", "coord": {"lon": 115.388496, "lat": 27.760361}}, {"id": 1805741, "name": "Jincheng", "state": "", "country": "CN", "coord": {"lon": 112.832779, "lat": 35.50222}}, {"id": 1805743, "name": "Jincheng", "state": "", "country": "CN", "coord": {"lon": 105.881912, "lat": 30.99712}}, {"id": 1805744, "name": "Jincheng", "state": "", "country": "CN", "coord": {"lon": 103.568382, "lat": 28.266479}}, {"id": 1805745, "name": "Jincheng", "state": "", "country": "CN", "coord": {"lon": 102.400581, "lat": 25.501471}}, {"id": 1805746, "name": "Jincheng", "state": "", "country": "CN", "coord": {"lon": 102.744171, "lat": 24.702221}}, {"id": 1805749, "name": "Jinbi", "state": "", "country": "CN", "coord": {"lon": 101.336792, "lat": 25.708549}}, {"id": 1805753, "name": "Jinan", "state": "", "country": "CN", "coord": {"lon": 116.997223, "lat": 36.668331}}, {"id": 1805754, "name": "Jin\u2019an", "state": "", "country": "CN", "coord": {"lon": 103.596832, "lat": 32.639408}}, {"id": 1805757, "name": "Jimo", "state": "", "country": "CN", "coord": {"lon": 120.462219, "lat": 36.389721}}, {"id": 1805773, "name": "Jilong", "state": "", "country": "CN", "coord": {"lon": 114.920898, "lat": 22.804041}}, {"id": 1805790, "name": "Jijiazhuang", "state": "", "country": "CN", "coord": {"lon": 113.45414, "lat": 39.848919}}, {"id": 1805798, "name": "Jijiang", "state": "", "country": "CN", "coord": {"lon": 106.254173, "lat": 29.29056}}, {"id": 1805826, "name": "Jiedu", "state": "", "country": "CN", "coord": {"lon": 117.166672, "lat": 28.950001}}, {"id": 1805833, "name": "Jiexiu", "state": "", "country": "CN", "coord": {"lon": 111.912498, "lat": 37.024441}}, {"id": 1805835, "name": "Jietou", "state": "", "country": "CN", "coord": {"lon": 120.803757, "lat": 29.115879}}, {"id": 1805837, "name": "Jieting", "state": "", "country": "CN", "coord": {"lon": 120.27108, "lat": 29.644279}}, {"id": 1805840, "name": "Jieshui", "state": "", "country": "CN", "coord": {"lon": 114.759453, "lat": 27.78503}}, {"id": 1805844, "name": "Jieshou", "state": "", "country": "CN", "coord": {"lon": 115.361076, "lat": 33.263378}}, {"id": 1805848, "name": "Jieshou", "state": "", "country": "CN", "coord": {"lon": 113.405563, "lat": 26.603331}}, {"id": 1805857, "name": "Jieshi", "state": "", "country": "CN", "coord": {"lon": 115.825737, "lat": 22.813379}}, {"id": 1805860, "name": "Jiesheng", "state": "", "country": "CN", "coord": {"lon": 115.445648, "lat": 22.718981}}, {"id": 1805879, "name": "Xinmen", "state": "", "country": "CN", "coord": {"lon": 118.723778, "lat": 29.751841}}, {"id": 1805880, "name": "Jiekou", "state": "", "country": "CN", "coord": {"lon": 113.580391, "lat": 23.543711}}, {"id": 1805884, "name": "Jiehu", "state": "", "country": "CN", "coord": {"lon": 118.455002, "lat": 35.542782}}, {"id": 1805885, "name": "Jieheshi", "state": "", "country": "CN", "coord": {"lon": 111.714638, "lat": 30.01343}}, {"id": 1805892, "name": "Jieguanting", "state": "", "country": "CN", "coord": {"lon": 106.251938, "lat": 33.268059}}, {"id": 1805906, "name": "Xinjiebu", "state": "", "country": "CN", "coord": {"lon": 115.057404, "lat": 28.225981}}, {"id": 1805907, "name": "Jiebu", "state": "", "country": "CN", "coord": {"lon": 115.378571, "lat": 27.7694}}, {"id": 1805912, "name": "Xinji", "state": "", "country": "CN", "coord": {"lon": 116.555153, "lat": 26.338079}}, {"id": 1805926, "name": "Jibu", "state": "", "country": "CN", "coord": {"lon": 115.156937, "lat": 26.02103}}, {"id": 1805935, "name": "Jiazi", "state": "", "country": "CN", "coord": {"lon": 116.067047, "lat": 22.877911}}, {"id": 1805937, "name": "Jiazhuang", "state": "", "country": "CN", "coord": {"lon": 112.532677, "lat": 39.242149}}, {"id": 1805953, "name": "Jiaxing", "state": "", "country": "CN", "coord": {"lon": 120.75, "lat": 30.752199}}, {"id": 1805978, "name": "Jiaqu", "state": "", "country": "CN", "coord": {"lon": 109.541893, "lat": 34.917759}}, {"id": 1805980, "name": "Jiaqiao", "state": "", "country": "CN", "coord": {"lon": 111.49749, "lat": 29.16692}}, {"id": 1805987, "name": "Jiaozuo", "state": "", "country": "CN", "coord": {"lon": 113.233063, "lat": 35.239719}}, {"id": 1805988, "name": "Jiaoziya", "state": "", "country": "CN", "coord": {"lon": 110.32222, "lat": 29.28861}}, {"id": 1805999, "name": "Jiaoyang", "state": "", "country": "CN", "coord": {"lon": 116.736557, "lat": 25.22789}}, {"id": 1806001, "name": "Jiaoxie", "state": "", "country": "CN", "coord": {"lon": 109.685959, "lat": 34.665138}}, {"id": 1806014, "name": "Liuheng", "state": "", "country": "CN", "coord": {"lon": 122.108963, "lat": 29.74481}}, {"id": 1806017, "name": "Jiaotang", "state": "", "country": "CN", "coord": {"lon": 115.924339, "lat": 29.310329}}, {"id": 1806018, "name": "Jiaotan", "state": "", "country": "CN", "coord": {"lon": 117.212143, "lat": 29.54999}}, {"id": 1806025, "name": "Jiaoqiao", "state": "", "country": "CN", "coord": {"lon": 115.85878, "lat": 28.74552}}, {"id": 1806026, "name": "Jiaoqi", "state": "", "country": "CN", "coord": {"lon": 112.081963, "lat": 29.648331}}, {"id": 1806041, "name": "Jiaocheng", "state": "", "country": "CN", "coord": {"lon": 116.138893, "lat": 24.67741}}, {"id": 1806047, "name": "Jiaokui", "state": "", "country": "CN", "coord": {"lon": 104.004784, "lat": 27.594139}}, {"id": 1806061, "name": "Jiaokou", "state": "", "country": "CN", "coord": {"lon": 109.296799, "lat": 34.550159}}, {"id": 1806079, "name": "Jiaogong", "state": "", "country": "CN", "coord": {"lon": 104.646362, "lat": 33.565472}}, {"id": 1806090, "name": "Jiaodai", "state": "", "country": "CN", "coord": {"lon": 109.246391, "lat": 34.05941}}, {"id": 1806092, "name": "Jiaocun", "state": "", "country": "CN", "coord": {"lon": 118.06678, "lat": 30.191931}}, {"id": 1806095, "name": "Tianning", "state": "", "country": "CN", "coord": {"lon": 112.16053, "lat": 37.547218}}, {"id": 1806096, "name": "Jiaozhou", "state": "", "country": "CN", "coord": {"lon": 120.003326, "lat": 36.28389}}, {"id": 1806097, "name": "Ningde", "state": "", "country": "CN", "coord": {"lon": 119.522781, "lat": 26.661671}}, {"id": 1806114, "name": "Juzhen", "state": "", "country": "CN", "coord": {"lon": 121.194267, "lat": 32.413521}}, {"id": 1806124, "name": "Jiancheng", "state": "", "country": "CN", "coord": {"lon": 104.549118, "lat": 30.39097}}, {"id": 1806137, "name": "Jiantou", "state": "", "country": "CN", "coord": {"lon": 114.699272, "lat": 24.05488}}, {"id": 1806138, "name": "Jiantiao", "state": "", "country": "CN", "coord": {"lon": 121.627502, "lat": 29.04389}}, {"id": 1806141, "name": "Jiantianjie", "state": "", "country": "CN", "coord": {"lon": 116.985817, "lat": 29.42304}}, {"id": 1806146, "name": "Lin\u2019an", "state": "", "country": "CN", "coord": {"lon": 102.830917, "lat": 23.602551}}, {"id": 1806157, "name": "Jianshan", "state": "", "country": "CN", "coord": {"lon": 120.716232, "lat": 29.224991}}, {"id": 1806158, "name": "Jianshan", "state": "", "country": "CN", "coord": {"lon": 115.190353, "lat": 28.130421}}, {"id": 1806163, "name": "Jianqiao", "state": "", "country": "CN", "coord": {"lon": 120.215118, "lat": 30.31955}}, {"id": 1806167, "name": "Jian\u2019ou", "state": "", "country": "CN", "coord": {"lon": 118.325279, "lat": 27.04694}}, {"id": 1806176, "name": "Tongzilin", "state": "", "country": "CN", "coord": {"lon": 101.851341, "lat": 26.70039}}, {"id": 1806177, "name": "Jianjun", "state": "", "country": "CN", "coord": {"lon": 108.139717, "lat": 34.691391}}, {"id": 1806180, "name": "Jianjiang", "state": "", "country": "CN", "coord": {"lon": 119.754997, "lat": 26.549721}}, {"id": 1806192, "name": "Jiangzhou", "state": "", "country": "CN", "coord": {"lon": 116.12014, "lat": 29.78759}}, {"id": 1806200, "name": "Jiangzhang", "state": "", "country": "CN", "coord": {"lon": 107.922043, "lat": 34.259739}}, {"id": 1806204, "name": "Jiangzao", "state": "", "country": "CN", "coord": {"lon": 121.032356, "lat": 31.99424}}, {"id": 1806209, "name": "Xiaopu", "state": "", "country": "CN", "coord": {"lon": 111.316643, "lat": 25.23917}}, {"id": 1806214, "name": "Jiangyi", "state": "", "country": "CN", "coord": {"lon": 115.772629, "lat": 29.21162}}, {"id": 1806218, "name": "Jiangyan", "state": "", "country": "CN", "coord": {"lon": 120.142776, "lat": 32.506111}}, {"id": 1806221, "name": "Jiangya", "state": "", "country": "CN", "coord": {"lon": 110.763817, "lat": 29.50428}}, {"id": 1806222, "name": "Jiangxi Sheng", "state": "", "country": "CN", "coord": {"lon": 116, "lat": 28}}, {"id": 1806233, "name": "Gujiang", "state": "", "country": "CN", "coord": {"lon": 111.553337, "lat": 35.493992}}, {"id": 1806240, "name": "Jiangwei", "state": "", "country": "CN", "coord": {"lon": 114.119476, "lat": 24.437611}}, {"id": 1806243, "name": "Jiangwan", "state": "", "country": "CN", "coord": {"lon": 118.046944, "lat": 29.371941}}, {"id": 1806244, "name": "Jiangwan", "state": "", "country": "CN", "coord": {"lon": 113.216667, "lat": 24.616671}}, {"id": 1806245, "name": "Jiangwakou", "state": "", "country": "CN", "coord": {"lon": 117.702499, "lat": 39.522499}}, {"id": 1806248, "name": "Jianguang", "state": "", "country": "CN", "coord": {"lon": 115.7836, "lat": 28.193769}}, {"id": 1806260, "name": "Jiangsu Sheng", "state": "", "country": "CN", "coord": {"lon": 120, "lat": 33}}, {"id": 1806267, "name": "Jiangshi", "state": "", "country": "CN", "coord": {"lon": 109.737778, "lat": 27.123329}}, {"id": 1806272, "name": "Jiangshan", "state": "", "country": "CN", "coord": {"lon": 121.531487, "lat": 29.771191}}, {"id": 1806273, "name": "Jiangshan", "state": "", "country": "CN", "coord": {"lon": 118.62278, "lat": 28.73917}}, {"id": 1806274, "name": "Jiangshan", "state": "", "country": "CN", "coord": {"lon": 116.973282, "lat": 25.180161}}, {"id": 1806278, "name": "Jiangqiao", "state": "", "country": "CN", "coord": {"lon": 121.324837, "lat": 31.23896}}, {"id": 1806295, "name": "Jiangna", "state": "", "country": "CN", "coord": {"lon": 104.373123, "lat": 23.6092}}, {"id": 1806299, "name": "Jiangmen", "state": "", "country": "CN", "coord": {"lon": 113.083328, "lat": 22.58333}}, {"id": 1806300, "name": "Jiangluo", "state": "", "country": "CN", "coord": {"lon": 105.821938, "lat": 33.90139}}, {"id": 1806309, "name": "Jiangkou", "state": "", "country": "CN", "coord": {"lon": 107.050018, "lat": 33.730518}}, {"id": 1806311, "name": "Jiangkou", "state": "", "country": "CN", "coord": {"lon": 107.097359, "lat": 31.56506}}, {"id": 1806314, "name": "Jiangkou", "state": "", "country": "CN", "coord": {"lon": 121.403671, "lat": 29.732901}}, {"id": 1806319, "name": "Jiangkouxu", "state": "", "country": "CN", "coord": {"lon": 109.735832, "lat": 27.69417}}, {"id": 1806325, "name": "Jiangkou", "state": "", "country": "CN", "coord": {"lon": 115.133018, "lat": 25.95701}}, {"id": 1806327, "name": "Jiangkou", "state": "", "country": "CN", "coord": {"lon": 119.198608, "lat": 25.487221}}, {"id": 1806333, "name": "Jiangkou", "state": "", "country": "CN", "coord": {"lon": 111.496834, "lat": 23.438431}}, {"id": 1806359, "name": "Jiangfang", "state": "", "country": "CN", "coord": {"lon": 110.344719, "lat": 26.495001}}, {"id": 1806364, "name": "Jiangbu", "state": "", "country": "CN", "coord": {"lon": 116.57959, "lat": 28.63102}}, {"id": 1806367, "name": "Jiangjia", "state": "", "country": "CN", "coord": {"lon": 118.661392, "lat": 29.47715}}, {"id": 1806374, "name": "Jianghua", "state": "", "country": "CN", "coord": {"lon": 120.008949, "lat": 32.073421}}, {"id": 1806383, "name": "Jianggang", "state": "", "country": "CN", "coord": {"lon": 120.834167, "lat": 32.75861}}, {"id": 1806388, "name": "Jiangduo", "state": "", "country": "CN", "coord": {"lon": 120.241074, "lat": 32.366081}}, {"id": 1806390, "name": "Gangdong", "state": "", "country": "CN", "coord": {"lon": 110.834167, "lat": 27.916941}}, {"id": 1806400, "name": "Jiangcun", "state": "", "country": "CN", "coord": {"lon": 117.363182, "lat": 29.771999}}, {"id": 1806407, "name": "Jiangcheng", "state": "", "country": "CN", "coord": {"lon": 102.805, "lat": 24.42417}}, {"id": 1806408, "name": "Yangjiang", "state": "", "country": "CN", "coord": {"lon": 111.966667, "lat": 21.85}}, {"id": 1806412, "name": "Jiangbei", "state": "", "country": "CN", "coord": {"lon": 115.482567, "lat": 26.30117}}, {"id": 1806421, "name": "Jiang\u2019an Qu", "state": "", "country": "CN", "coord": {"lon": 114.306831, "lat": 30.6089}}, {"id": 1806422, "name": "Jiang\u2019an", "state": "", "country": "CN", "coord": {"lon": 105.068298, "lat": 28.733351}}, {"id": 1806426, "name": "Jianfeng", "state": "", "country": "CN", "coord": {"lon": 116.476761, "lat": 26.75078}}, {"id": 1806427, "name": "Jianfeng", "state": "", "country": "CN", "coord": {"lon": 108.791489, "lat": 18.693911}}, {"id": 1806439, "name": "Jianchang", "state": "", "country": "CN", "coord": {"lon": 116.639778, "lat": 27.55831}}, {"id": 1806445, "name": "Ji\u2019an", "state": "", "country": "CN", "coord": {"lon": 114.979271, "lat": 27.117161}}, {"id": 1806449, "name": "Jiamiao", "state": "", "country": "CN", "coord": {"lon": 115.081978, "lat": 30.796181}}, {"id": 1806450, "name": "Jiamaying", "state": "", "country": "CN", "coord": {"lon": 115.949997, "lat": 37.208061}}, {"id": 1806459, "name": "Jialu", "state": "", "country": "CN", "coord": {"lon": 118.846313, "lat": 30.426821}}, {"id": 1806460, "name": "Jialou", "state": "", "country": "CN", "coord": {"lon": 113.450722, "lat": 32.894741}}, {"id": 1806466, "name": "Guangyuan", "state": "", "country": "CN", "coord": {"lon": 105.822998, "lat": 32.44202}}, {"id": 1806470, "name": "Jiale", "state": "", "country": "CN", "coord": {"lon": 109.997528, "lat": 19.58621}}, {"id": 1806471, "name": "Jialai", "state": "", "country": "CN", "coord": {"lon": 109.695557, "lat": 19.708059}}, {"id": 1806483, "name": "Yancheng", "state": "", "country": "CN", "coord": {"lon": 103.566788, "lat": 29.74357}}, {"id": 1806488, "name": "Qionghai", "state": "", "country": "CN", "coord": {"lon": 110.464172, "lat": 19.2425}}, {"id": 1806491, "name": "Jiahu", "state": "", "country": "CN", "coord": {"lon": 114.652878, "lat": 24.71015}}, {"id": 1806508, "name": "Jiadingzhen", "state": "", "country": "CN", "coord": {"lon": 121.239723, "lat": 31.38806}}, {"id": 1806515, "name": "Jiacun", "state": "", "country": "CN", "coord": {"lon": 107.204247, "lat": 34.452942}}, {"id": 1806516, "name": "Jiachuan", "state": "", "country": "CN", "coord": {"lon": 106.214943, "lat": 32.209068}}, {"id": 1806535, "name": "Huzhou", "state": "", "country": "CN", "coord": {"lon": 120.0933, "lat": 30.8703}}, {"id": 1806545, "name": "Huyuan", "state": "", "country": "CN", "coord": {"lon": 117.769562, "lat": 26.12944}}, {"id": 1806546, "name": "Huyu", "state": "", "country": "CN", "coord": {"lon": 113.102608, "lat": 39.20052}}, {"id": 1806553, "name": "Huyang", "state": "", "country": "CN", "coord": {"lon": 118.82325, "lat": 31.386921}}, {"id": 1806555, "name": "Huyang", "state": "", "country": "CN", "coord": {"lon": 116.319572, "lat": 25.042971}}, {"id": 1806559, "name": "Huxiaoqiao", "state": "", "country": "CN", "coord": {"lon": 121.157242, "lat": 30.670401}}, {"id": 1806561, "name": "Ganting", "state": "", "country": "CN", "coord": {"lon": 108.594437, "lat": 34.101109}}, {"id": 1806564, "name": "Huxi", "state": "", "country": "CN", "coord": {"lon": 120.390961, "lat": 29.179291}}, {"id": 1806589, "name": "Hutang", "state": "", "country": "CN", "coord": {"lon": 119.981613, "lat": 31.73826}}, {"id": 1806591, "name": "Hutang", "state": "", "country": "CN", "coord": {"lon": 119.48333, "lat": 31.533331}}, {"id": 1806594, "name": "Mishixiang", "state": "", "country": "CN", "coord": {"lon": 120.143417, "lat": 30.29483}}, {"id": 1806602, "name": "Xushan", "state": "", "country": "CN", "coord": {"lon": 121.245697, "lat": 30.176399}}, {"id": 1806605, "name": "Hushan", "state": "", "country": "CN", "coord": {"lon": 115.004173, "lat": 28.067881}}, {"id": 1806617, "name": "Huping", "state": "", "country": "CN", "coord": {"lon": 115.747993, "lat": 27.192989}}, {"id": 1806619, "name": "Huozhuangzi", "state": "", "country": "CN", "coord": {"lon": 117.3125, "lat": 39.288059}}, {"id": 1806627, "name": "Huotong", "state": "", "country": "CN", "coord": {"lon": 119.41806, "lat": 26.84972}}, {"id": 1806643, "name": "Huoshaodian", "state": "", "country": "CN", "coord": {"lon": 106.919937, "lat": 33.542419}}, {"id": 1806646, "name": "Hengshan", "state": "", "country": "CN", "coord": {"lon": 116.318657, "lat": 31.40802}}, {"id": 1806651, "name": "Huoqiu Chengguanzhen", "state": "", "country": "CN", "coord": {"lon": 116.2939, "lat": 32.354729}}, {"id": 1806653, "name": "Huomachong", "state": "", "country": "CN", "coord": {"lon": 110.230003, "lat": 27.883329}}, {"id": 1806661, "name": "Huoli", "state": "", "country": "CN", "coord": {"lon": 118.577217, "lat": 31.69166}}, {"id": 1806675, "name": "Huogezhuang", "state": "", "country": "CN", "coord": {"lon": 117.3675, "lat": 39.743889}}, {"id": 1806684, "name": "Huochang", "state": "", "country": "CN", "coord": {"lon": 110.544762, "lat": 28.92897}}, {"id": 1806687, "name": "Yong\u2019an", "state": "", "country": "CN", "coord": {"lon": 113.68708, "lat": 39.695709}}, {"id": 1806691, "name": "Hunan Sheng", "state": "", "country": "CN", "coord": {"lon": 112, "lat": 28}}, {"id": 1806696, "name": "Humen", "state": "", "country": "CN", "coord": {"lon": 113.673058, "lat": 22.818979}}, {"id": 1806715, "name": "Huliao", "state": "", "country": "CN", "coord": {"lon": 116.649323, "lat": 24.38089}}, {"id": 1806719, "name": "Hule", "state": "", "country": "CN", "coord": {"lon": 118.772789, "lat": 30.35335}}, {"id": 1806724, "name": "Hukou", "state": "", "country": "CN", "coord": {"lon": 113.65667, "lat": 26.605}}, {"id": 1806725, "name": "Hukou", "state": "", "country": "CN", "coord": {"lon": 114.400002, "lat": 25.15}}, {"id": 1806728, "name": "Hukeng", "state": "", "country": "CN", "coord": {"lon": 114.308434, "lat": 27.473021}}, {"id": 1806753, "name": "Huji", "state": "", "country": "CN", "coord": {"lon": 120.383331, "lat": 32.51667}}, {"id": 1806755, "name": "Hujiagou", "state": "", "country": "CN", "coord": {"lon": 109.323318, "lat": 29.57407}}, {"id": 1806757, "name": "Huhe", "state": "", "country": "CN", "coord": {"lon": 118.589859, "lat": 31.510139}}, {"id": 1806763, "name": "Hujiaba", "state": "", "country": "CN", "coord": {"lon": 106.468811, "lat": 32.977589}}, {"id": 1806773, "name": "Huji", "state": "", "country": "CN", "coord": {"lon": 112.315277, "lat": 31.433331}}, {"id": 1806776, "name": "Huizhou", "state": "", "country": "CN", "coord": {"lon": 114.400002, "lat": 23.08333}}, {"id": 1806788, "name": "Huixian Chengguanzhen", "state": "", "country": "CN", "coord": {"lon": 106.080833, "lat": 33.76833}}, {"id": 1806792, "name": "Huiwen", "state": "", "country": "CN", "coord": {"lon": 110.72464, "lat": 19.463369}}, {"id": 1806802, "name": "Huishungou", "state": "", "country": "CN", "coord": {"lon": 112.41095, "lat": 38.712379}}, {"id": 1806807, "name": "Huishi", "state": "", "country": "CN", "coord": {"lon": 105.048576, "lat": 35.691959}}, {"id": 1806810, "name": "Xinshichang", "state": "", "country": "CN", "coord": {"lon": 120.80674, "lat": 29.27986}}, {"id": 1806830, "name": "Huilongshan", "state": "", "country": "CN", "coord": {"lon": 114.97699, "lat": 30.61804}}, {"id": 1806840, "name": "Huilong", "state": "", "country": "CN", "coord": {"lon": 121.654999, "lat": 31.81111}}, {"id": 1806842, "name": "Huilong", "state": "", "country": "CN", "coord": {"lon": 118.407532, "lat": 27.48073}}, {"id": 1806846, "name": "Huilong", "state": "", "country": "CN", "coord": {"lon": 113.916672, "lat": 24.183331}}, {"id": 1806854, "name": "Huili Chengguanzhen", "state": "", "country": "CN", "coord": {"lon": 102.243919, "lat": 26.66256}}, {"id": 1806857, "name": "Huikou", "state": "", "country": "CN", "coord": {"lon": 116.245369, "lat": 29.818319}}, {"id": 1806869, "name": "Huifeng", "state": "", "country": "CN", "coord": {"lon": 121.633347, "lat": 31.784731}}, {"id": 1806875, "name": "Huidong", "state": "", "country": "CN", "coord": {"lon": 102.575684, "lat": 26.637449}}, {"id": 1806880, "name": "Huicheng", "state": "", "country": "CN", "coord": {"lon": 118.43364, "lat": 29.869249}}, {"id": 1806881, "name": "Huicheng", "state": "", "country": "CN", "coord": {"lon": 116.289879, "lat": 23.03845}}, {"id": 1806882, "name": "Xinhui", "state": "", "country": "CN", "coord": {"lon": 113.048203, "lat": 22.455999}}, {"id": 1806887, "name": "Huibu", "state": "", "country": "CN", "coord": {"lon": 115.181633, "lat": 28.72563}}, {"id": 1806888, "name": "Huibu", "state": "", "country": "CN", "coord": {"lon": 115.251869, "lat": 28.29409}}, {"id": 1806904, "name": "Longquan", "state": "", "country": "CN", "coord": {"lon": 113.185707, "lat": 36.117359}}, {"id": 1806914, "name": "Hufang", "state": "", "country": "CN", "coord": {"lon": 117.550179, "lat": 28.16222}}, {"id": 1806916, "name": "Hufang", "state": "", "country": "CN", "coord": {"lon": 117.229118, "lat": 26.21804}}, {"id": 1806923, "name": "Hudong", "state": "", "country": "CN", "coord": {"lon": 106.972191, "lat": 36.549}}, {"id": 1806924, "name": "Hudong", "state": "", "country": "CN", "coord": {"lon": 115.949982, "lat": 22.81802}}, {"id": 1806934, "name": "Hucun", "state": "", "country": "CN", "coord": {"lon": 116.846184, "lat": 26.350451}}, {"id": 1806949, "name": "Hubei Sheng", "state": "", "country": "CN", "coord": {"lon": 112, "lat": 31}}, {"id": 1806951, "name": "Hubei", "state": "", "country": "CN", "coord": {"lon": 112.011436, "lat": 38.998421}}, {"id": 1806960, "name": "Huazhou", "state": "", "country": "CN", "coord": {"lon": 110.583328, "lat": 21.633329}}, {"id": 1806976, "name": "Huayuan", "state": "", "country": "CN", "coord": {"lon": 114.017754, "lat": 31.31422}}, {"id": 1806977, "name": "Huayuan", "state": "", "country": "CN", "coord": {"lon": 109.466667, "lat": 28.616671}}, {"id": 1806978, "name": "Huayuan", "state": "", "country": "CN", "coord": {"lon": 110.535828, "lat": 26.91361}}, {"id": 1806986, "name": "Shuanghejiedao", "state": "", "country": "CN", "coord": {"lon": 106.772659, "lat": 30.374479}}, {"id": 1806993, "name": "Huayang", "state": "", "country": "CN", "coord": {"lon": 109.993858, "lat": 34.415531}}, {"id": 1806996, "name": "Huayang", "state": "", "country": "CN", "coord": {"lon": 118.590317, "lat": 30.070869}}, {"id": 1807005, "name": "Huazhou", "state": "", "country": "CN", "coord": {"lon": 109.757591, "lat": 34.515221}}, {"id": 1807012, "name": "Huaxijie", "state": "", "country": "CN", "coord": {"lon": 103.013977, "lat": 24.07501}}, {"id": 1807041, "name": "Huarong", "state": "", "country": "CN", "coord": {"lon": 114.73333, "lat": 30.533331}}, {"id": 1807042, "name": "Huarong Chengguanzhen", "state": "", "country": "CN", "coord": {"lon": 112.54837, "lat": 29.51889}}, {"id": 1807043, "name": "Huaqiu", "state": "", "country": "CN", "coord": {"lon": 106.610832, "lat": 28.12528}}, {"id": 1807046, "name": "Huaqiao", "state": "", "country": "CN", "coord": {"lon": 121.076111, "lat": 31.30389}}, {"id": 1807053, "name": "Huaqiao", "state": "", "country": "CN", "coord": {"lon": 117.042877, "lat": 28.51614}}, {"id": 1807054, "name": "Huaqiao", "state": "", "country": "CN", "coord": {"lon": 114.959412, "lat": 28.53491}}, {"id": 1807058, "name": "Huaqiao", "state": "", "country": "CN", "coord": {"lon": 110.141937, "lat": 27.708059}}, {"id": 1807082, "name": "Huantuo", "state": "", "country": "CN", "coord": {"lon": 117.313606, "lat": 39.2225}}, {"id": 1807095, "name": "Fenghuangshan", "state": "", "country": "CN", "coord": {"lon": 102.206573, "lat": 24.07966}}, {"id": 1807102, "name": "Huangzhuang", "state": "", "country": "CN", "coord": {"lon": 117.513611, "lat": 39.48167}}, {"id": 1807103, "name": "Huangzhuang", "state": "", "country": "CN", "coord": {"lon": 117.053329, "lat": 39.338612}}, {"id": 1807104, "name": "Huangzhuang", "state": "", "country": "CN", "coord": {"lon": 117.053329, "lat": 39.31472}}, {"id": 1807111, "name": "Huangzhu", "state": "", "country": "CN", "coord": {"lon": 110.438698, "lat": 19.478519}}, {"id": 1807112, "name": "Huangzhou", "state": "", "country": "CN", "coord": {"lon": 114.800003, "lat": 30.450001}}, {"id": 1807119, "name": "Huangzhai", "state": "", "country": "CN", "coord": {"lon": 112.659462, "lat": 38.075142}}, {"id": 1807123, "name": "Huangze", "state": "", "country": "CN", "coord": {"lon": 120.923653, "lat": 29.578939}}, {"id": 1807128, "name": "Huangyuan Chengguanzhen", "state": "", "country": "CN", "coord": {"lon": 101.263611, "lat": 36.687222}}, {"id": 1807143, "name": "Huangyan", "state": "", "country": "CN", "coord": {"lon": 121.259438, "lat": 28.647779}}, {"id": 1807150, "name": "Huangxikou", "state": "", "country": "CN", "coord": {"lon": 110.385002, "lat": 27.718889}}, {"id": 1807162, "name": "Huangwan", "state": "", "country": "CN", "coord": {"lon": 120.795311, "lat": 30.367149}}, {"id": 1807172, "name": "Huangling", "state": "", "country": "CN", "coord": {"lon": 116.565231, "lat": 29.7999}}, {"id": 1807175, "name": "Huangtukuang", "state": "", "country": "CN", "coord": {"lon": 110.407784, "lat": 26.915279}}, {"id": 1807183, "name": "Huangtugang", "state": "", "country": "CN", "coord": {"lon": 115.228333, "lat": 27.895361}}, {"id": 1807186, "name": "Huangtu", "state": "", "country": "CN", "coord": {"lon": 120.040558, "lat": 31.87389}}, {"id": 1807194, "name": "Huangtian", "state": "", "country": "CN", "coord": {"lon": 114.978859, "lat": 23.880341}}, {"id": 1807206, "name": "Huangtang", "state": "", "country": "CN", "coord": {"lon": 114.982079, "lat": 23.69701}}, {"id": 1807209, "name": "Huangtan", "state": "", "country": "CN", "coord": {"lon": 117.078377, "lat": 29.5224}}, {"id": 1807210, "name": "Huangtan", "state": "", "country": "CN", "coord": {"lon": 121.35833, "lat": 29.29611}}, {"id": 1807211, "name": "Huangtan", "state": "", "country": "CN", "coord": {"lon": 117.32048, "lat": 26.67712}}, {"id": 1807230, "name": "Huangshi", "state": "", "country": "CN", "coord": {"lon": 115.934319, "lat": 26.241631}}, {"id": 1807234, "name": "Huangshi", "state": "", "country": "CN", "coord": {"lon": 115.077606, "lat": 30.20417}}, {"id": 1807235, "name": "Huangshi", "state": "", "country": "CN", "coord": {"lon": 111.195152, "lat": 29.182261}}, {"id": 1807242, "name": "Huangsha", "state": "", "country": "CN", "coord": {"lon": 114.671494, "lat": 28.92289}}, {"id": 1807257, "name": "Huangshan", "state": "", "country": "CN", "coord": {"lon": 118.160004, "lat": 30.06056}}, {"id": 1807258, "name": "Huangshan", "state": "", "country": "CN", "coord": {"lon": 120.324501, "lat": 29.57316}}, {"id": 1807259, "name": "Huangshan", "state": "", "country": "CN", "coord": {"lon": 100.219063, "lat": 26.82634}}, {"id": 1807268, "name": "Huanggang", "state": "", "country": "CN", "coord": {"lon": 114.764343, "lat": 28.860661}}, {"id": 1807269, "name": "Huangshagang", "state": "", "country": "CN", "coord": {"lon": 115.367554, "lat": 28.315861}}, {"id": 1807270, "name": "Huangsha", "state": "", "country": "CN", "coord": {"lon": 106.78688, "lat": 33.133011}}, {"id": 1807271, "name": "Huangshapu", "state": "", "country": "CN", "coord": {"lon": 114.679932, "lat": 29.74197}}, {"id": 1807273, "name": "Huangsangkou", "state": "", "country": "CN", "coord": {"lon": 115.32795, "lat": 30.014179}}, {"id": 1807283, "name": "Huangqiao", "state": "", "country": "CN", "coord": {"lon": 120.232803, "lat": 32.240719}}, {"id": 1807285, "name": "Huangqiao", "state": "", "country": "CN", "coord": {"lon": 110.840561, "lat": 27.02194}}, {"id": 1807287, "name": "Huangqiang", "state": "", "country": "CN", "coord": {"lon": 115.415718, "lat": 23.15592}}, {"id": 1807300, "name": "Huangpu", "state": "", "country": "CN", "coord": {"lon": 116.433327, "lat": 30.549999}}, {"id": 1807301, "name": "Dasha", "state": "", "country": "CN", "coord": {"lon": 113.444366, "lat": 23.10998}}, {"id": 1807308, "name": "Huangpi", "state": "", "country": "CN", "coord": {"lon": 114.377892, "lat": 30.884529}}, {"id": 1807339, "name": "Huangmei", "state": "", "country": "CN", "coord": {"lon": 116.024963, "lat": 30.19235}}, {"id": 1807341, "name": "Huangmaoyuan", "state": "", "country": "CN", "coord": {"lon": 110.474716, "lat": 27.404169}}, {"id": 1807348, "name": "Huangmao", "state": "", "country": "CN", "coord": {"lon": 114.072723, "lat": 28.107731}}, {"id": 1807352, "name": "Huangludian", "state": "", "country": "CN", "coord": {"lon": 112.63562, "lat": 33.256279}}, {"id": 1807361, "name": "Huanglongsi", "state": "", "country": "CN", "coord": {"lon": 114.41861, "lat": 34.744171}}, {"id": 1807364, "name": "Huanglong", "state": "", "country": "CN", "coord": {"lon": 112.455833, "lat": 31.97389}}, {"id": 1807369, "name": "Huanglong", "state": "", "country": "CN", "coord": {"lon": 110.934441, "lat": 26.541389}}, {"id": 1807373, "name": "Huangliu", "state": "", "country": "CN", "coord": {"lon": 108.789177, "lat": 18.50263}}, {"id": 1807402, "name": "Huangkeng", "state": "", "country": "CN", "coord": {"lon": 114.433327, "lat": 25.216669}}, {"id": 1807409, "name": "Huangjinjing", "state": "", "country": "CN", "coord": {"lon": 110.898064, "lat": 27.59}}, {"id": 1807412, "name": "Huangjing", "state": "", "country": "CN", "coord": {"lon": 121.101936, "lat": 31.65444}}, {"id": 1807413, "name": "Huangjindong", "state": "", "country": "CN", "coord": {"lon": 109.076912, "lat": 29.95182}}, {"id": 1807416, "name": "Huangjinbu", "state": "", "country": "CN", "coord": {"lon": 116.802856, "lat": 28.479219}}, {"id": 1807460, "name": "Huanghuatan", "state": "", "country": "CN", "coord": {"lon": 113.841942, "lat": 39.65361}}, {"id": 1807464, "name": "Huanghuai", "state": "", "country": "CN", "coord": {"lon": 115.777802, "lat": 24.473631}}, {"id": 1807468, "name": "Huanghua", "state": "", "country": "CN", "coord": {"lon": 111.378448, "lat": 30.85976}}, {"id": 1807473, "name": "Huanghu", "state": "", "country": "CN", "coord": {"lon": 119.806519, "lat": 30.45046}}, {"id": 1807498, "name": "Huanggang", "state": "", "country": "CN", "coord": {"lon": 114.543541, "lat": 28.483459}}, {"id": 1807506, "name": "Huanggang", "state": "", "country": "CN", "coord": {"lon": 117.003403, "lat": 29.15609}}, {"id": 1807508, "name": "Huanggang", "state": "", "country": "CN", "coord": {"lon": 116.999611, "lat": 23.67704}}, {"id": 1807518, "name": "Huangfang", "state": "", "country": "CN", "coord": {"lon": 116.879189, "lat": 26.979691}}, {"id": 1807520, "name": "Huangduobu", "state": "", "country": "CN", "coord": {"lon": 106.06617, "lat": 36.306782}}, {"id": 1807529, "name": "Huangdu", "state": "", "country": "CN", "coord": {"lon": 121.207771, "lat": 31.27672}}, {"id": 1807540, "name": "Huangdao", "state": "", "country": "CN", "coord": {"lon": 113.159073, "lat": 34.067871}}, {"id": 1807544, "name": "Daxing", "state": "", "country": "CN", "coord": {"lon": 116.32917, "lat": 39.72139}}, {"id": 1807546, "name": "Huangcun", "state": "", "country": "CN", "coord": {"lon": 118.327019, "lat": 30.608681}}, {"id": 1807550, "name": "Huangcun", "state": "", "country": "CN", "coord": {"lon": 115.21904, "lat": 23.83095}}, {"id": 1807553, "name": "Dingcheng", "state": "", "country": "CN", "coord": {"lon": 115.039436, "lat": 32.12722}}, {"id": 1807562, "name": "Huangcaotuo", "state": "", "country": "CN", "coord": {"lon": 117.320557, "lat": 39.17556}}, {"id": 1807580, "name": "Huangbei", "state": "", "country": "CN", "coord": {"lon": 116.124222, "lat": 27.301809}}, {"id": 1807581, "name": "Huangbei", "state": "", "country": "CN", "coord": {"lon": 115.848892, "lat": 26.692221}}, {"id": 1807582, "name": "Huangbei", "state": "", "country": "CN", "coord": {"lon": 115.738571, "lat": 24.411551}}, {"id": 1807583, "name": "Huangbayi", "state": "", "country": "CN", "coord": {"lon": 106.126717, "lat": 32.754829}}, {"id": 1807592, "name": "Huang\u2019ao", "state": "", "country": "CN", "coord": {"lon": 114.805962, "lat": 28.97957}}, {"id": 1807598, "name": "Hong\u2019an Chengguanzhen", "state": "", "country": "CN", "coord": {"lon": 114.636887, "lat": 31.36208}}, {"id": 1807599, "name": "Huanfeng", "state": "", "country": "CN", "coord": {"lon": 118.099998, "lat": 31.716669}}, {"id": 1807603, "name": "Huancheng", "state": "", "country": "CN", "coord": {"lon": 107.295959, "lat": 36.575611}}, {"id": 1807606, "name": "Huamu", "state": "", "country": "CN", "coord": {"lon": 121.54393, "lat": 31.210899}}, {"id": 1807634, "name": "Huajialing", "state": "", "country": "CN", "coord": {"lon": 105.009178, "lat": 35.379269}}, {"id": 1807640, "name": "Huaizhong", "state": "", "country": "CN", "coord": {"lon": 114.35955, "lat": 27.08758}}, {"id": 1807645, "name": "Huaiyuan Chengguanzhen", "state": "", "country": "CN", "coord": {"lon": 117.165657, "lat": 32.958931}}, {"id": 1807653, "name": "Huaiya", "state": "", "country": "CN", "coord": {"lon": 107.872559, "lat": 34.207539}}, {"id": 1807654, "name": "Huaitu", "state": "", "country": "CN", "coord": {"lon": 116.469681, "lat": 26.191839}}, {"id": 1807671, "name": "Yunzhong", "state": "", "country": "CN", "coord": {"lon": 113.096222, "lat": 39.827068}}, {"id": 1807681, "name": "Huainan", "state": "", "country": "CN", "coord": {"lon": 116.996941, "lat": 32.626389}}, {"id": 1807687, "name": "Huaicheng", "state": "", "country": "CN", "coord": {"lon": 112.193138, "lat": 23.90513}}, {"id": 1807689, "name": "Huaihua", "state": "", "country": "CN", "coord": {"lon": 109.959167, "lat": 27.54944}}, {"id": 1807695, "name": "Huaidian", "state": "", "country": "CN", "coord": {"lon": 115.033333, "lat": 33.433331}}, {"id": 1807697, "name": "Huaidao", "state": "", "country": "CN", "coord": {"lon": 112.241364, "lat": 38.678478}}, {"id": 1807700, "name": "Huaibei", "state": "", "country": "CN", "coord": {"lon": 116.791672, "lat": 33.974442}}, {"id": 1807706, "name": "Huagu", "state": "", "country": "CN", "coord": {"lon": 119.294823, "lat": 30.915051}}, {"id": 1807723, "name": "Huagai", "state": "", "country": "CN", "coord": {"lon": 104.555321, "lat": 31.546341}}, {"id": 1807727, "name": "Huafeng", "state": "", "country": "CN", "coord": {"lon": 117.527496, "lat": 25.001671}}, {"id": 1807737, "name": "Huacheng", "state": "", "country": "CN", "coord": {"lon": 102.806229, "lat": 24.78854}}, {"id": 1807738, "name": "Huacheng", "state": "", "country": "CN", "coord": {"lon": 115.598862, "lat": 24.06608}}, {"id": 1807746, "name": "Huabeitun", "state": "", "country": "CN", "coord": {"lon": 112.100517, "lat": 38.698849}}, {"id": 1807763, "name": "Houzhen", "state": "", "country": "CN", "coord": {"lon": 109.507988, "lat": 34.259789}}, {"id": 1807769, "name": "Houzhai", "state": "", "country": "CN", "coord": {"lon": 116.99469, "lat": 23.44799}}, {"id": 1807783, "name": "Houxiang", "state": "", "country": "CN", "coord": {"lon": 117.115829, "lat": 39.512779}}, {"id": 1807793, "name": "Housuo", "state": "", "country": "CN", "coord": {"lon": 112.843887, "lat": 39.310829}}, {"id": 1807811, "name": "Houping", "state": "", "country": "CN", "coord": {"lon": 110.321114, "lat": 29.06694}}, {"id": 1807816, "name": "Houmen", "state": "", "country": "CN", "coord": {"lon": 115.154419, "lat": 22.81354}}, {"id": 1807818, "name": "Xintian", "state": "", "country": "CN", "coord": {"lon": 111.356598, "lat": 35.613579}}, {"id": 1807831, "name": "Houjie", "state": "", "country": "CN", "coord": {"lon": 113.656151, "lat": 22.942659}}, {"id": 1807848, "name": "Houjiagang", "state": "", "country": "CN", "coord": {"lon": 116.847382, "lat": 29.52327}}, {"id": 1807874, "name": "Hougong", "state": "", "country": "CN", "coord": {"lon": 111.398323, "lat": 35.35778}}, {"id": 1807878, "name": "Hougang", "state": "", "country": "CN", "coord": {"lon": 120.25441, "lat": 32.686798}}, {"id": 1807879, "name": "Hougang", "state": "", "country": "CN", "coord": {"lon": 112.383888, "lat": 30.51722}}, {"id": 1807905, "name": "Hou\u2019an", "state": "", "country": "CN", "coord": {"lon": 118.051811, "lat": 30.54924}}, {"id": 1807910, "name": "Hor", "state": "", "country": "CN", "coord": {"lon": 100.986862, "lat": 35.231781}}, {"id": 1807916, "name": "Hongzhou", "state": "", "country": "CN", "coord": {"lon": 109.40889, "lat": 26.12583}}, {"id": 1807923, "name": "Hongyuan", "state": "", "country": "CN", "coord": {"lon": 117.150261, "lat": 29.321751}}, {"id": 1807936, "name": "Hongyang", "state": "", "country": "CN", "coord": {"lon": 119.462502, "lat": 26.52861}}, {"id": 1807943, "name": "Hongyanxi", "state": "", "country": "CN", "coord": {"lon": 109.632561, "lat": 29.285959}}, {"id": 1807953, "name": "Hongxingqiao", "state": "", "country": "CN", "coord": {"lon": 119.868889, "lat": 30.92333}}, {"id": 1807963, "name": "Hongxi", "state": "", "country": "CN", "coord": {"lon": 120.838493, "lat": 30.910879}}, {"id": 1807966, "name": "Hongxi", "state": "", "country": "CN", "coord": {"lon": 103.319717, "lat": 24.145}}, {"id": 1807977, "name": "Haoshui", "state": "", "country": "CN", "coord": {"lon": 106.099998, "lat": 35.650002}}, {"id": 1807981, "name": "Dahuaishu", "state": "", "country": "CN", "coord": {"lon": 111.675278, "lat": 36.26556}}, {"id": 1807987, "name": "Hongtang", "state": "", "country": "CN", "coord": {"lon": 121.506058, "lat": 29.95175}}, {"id": 1807988, "name": "Hongtang", "state": "", "country": "CN", "coord": {"lon": 114.28878, "lat": 27.904739}}, {"id": 1807993, "name": "Hongsipu", "state": "", "country": "CN", "coord": {"lon": 106.06028, "lat": 37.39917}}, {"id": 1808048, "name": "Hongqiao", "state": "", "country": "CN", "coord": {"lon": 119.984802, "lat": 30.989281}}, {"id": 1808061, "name": "Hongmiao", "state": "", "country": "CN", "coord": {"lon": 106.913582, "lat": 32.864391}}, {"id": 1808072, "name": "Hongmen", "state": "", "country": "CN", "coord": {"lon": 116.710693, "lat": 27.491779}}, {"id": 1808077, "name": "Honglong", "state": "", "country": "CN", "coord": {"lon": 119.004471, "lat": 30.498751}}, {"id": 1808083, "name": "Honglin", "state": "", "country": "CN", "coord": {"lon": 118.982018, "lat": 30.979719}}, {"id": 1808086, "name": "Hongling", "state": "", "country": "CN", "coord": {"lon": 113.966667, "lat": 24.466669}}, {"id": 1808087, "name": "Honglan", "state": "", "country": "CN", "coord": {"lon": 118.980232, "lat": 31.607321}}, {"id": 1808090, "name": "Hongkou", "state": "", "country": "CN", "coord": {"lon": 121.489166, "lat": 31.25}}, {"id": 1808103, "name": "Donghe", "state": "", "country": "CN", "coord": {"lon": 106.301262, "lat": 32.23341}}, {"id": 1808105, "name": "Hongjiang", "state": "", "country": "CN", "coord": {"lon": 114.392921, "lat": 27.62027}}, {"id": 1808106, "name": "Hongjiang", "state": "", "country": "CN", "coord": {"lon": 109.99556, "lat": 27.110001}}, {"id": 1808110, "name": "Hongjiaguan", "state": "", "country": "CN", "coord": {"lon": 110.166771, "lat": 29.477079}}, {"id": 1808118, "name": "Honghuatao", "state": "", "country": "CN", "coord": {"lon": 111.403397, "lat": 30.51453}}, {"id": 1808134, "name": "Honghe", "state": "", "country": "CN", "coord": {"lon": 106.699997, "lat": 35.76667}}, {"id": 1808154, "name": "Hongde", "state": "", "country": "CN", "coord": {"lon": 107.184311, "lat": 36.741379}}, {"id": 1808163, "name": "Hongchuan", "state": "", "country": "CN", "coord": {"lon": 105.890831, "lat": 33.750561}}, {"id": 1808180, "name": "Hezuoqiao", "state": "", "country": "CN", "coord": {"lon": 110.574997, "lat": 29.21806}}, {"id": 1808181, "name": "Hezuo", "state": "", "country": "CN", "coord": {"lon": 102.909439, "lat": 34.985561}}, {"id": 1808189, "name": "Hezhi", "state": "", "country": "CN", "coord": {"lon": 111.850159, "lat": 39.092739}}, {"id": 1808198, "name": "Heze", "state": "", "country": "CN", "coord": {"lon": 115.441109, "lat": 35.243061}}, {"id": 1808204, "name": "Heyin", "state": "", "country": "CN", "coord": {"lon": 101.424171, "lat": 36.04472}}, {"id": 1808212, "name": "Hechuan", "state": "", "country": "CN", "coord": {"lon": 106.257217, "lat": 29.99472}}, {"id": 1808220, "name": "Hexing", "state": "", "country": "CN", "coord": {"lon": 113.979332, "lat": 33.222919}}, {"id": 1808228, "name": "Hexiangqiao", "state": "", "country": "CN", "coord": {"lon": 110.963333, "lat": 27.22028}}, {"id": 1808233, "name": "Hexia", "state": "", "country": "CN", "coord": {"lon": 114.848503, "lat": 27.792891}}, {"id": 1808237, "name": "Hexi", "state": "", "country": "CN", "coord": {"lon": 107.795532, "lat": 34.94537}}, {"id": 1808251, "name": "Hetou", "state": "", "country": "CN", "coord": {"lon": 113.273621, "lat": 39.741749}}, {"id": 1808253, "name": "Hetou", "state": "", "country": "CN", "coord": {"lon": 121.099998, "lat": 29}}, {"id": 1808258, "name": "Hetian", "state": "", "country": "CN", "coord": {"lon": 116.415428, "lat": 25.667}}, {"id": 1808259, "name": "Hetian", "state": "", "country": "CN", "coord": {"lon": 115.650291, "lat": 23.305771}}, {"id": 1808268, "name": "Hetang", "state": "", "country": "CN", "coord": {"lon": 119.110619, "lat": 26.66276}}, {"id": 1808269, "name": "Hetan", "state": "", "country": "CN", "coord": {"lon": 117.296066, "lat": 28.368179}}, {"id": 1808274, "name": "Yixing", "state": "", "country": "CN", "coord": {"lon": 113.539261, "lat": 37.337601}}, {"id": 1808287, "name": "Heshui", "state": "", "country": "CN", "coord": {"lon": 114.930351, "lat": 24.3904}}, {"id": 1808295, "name": "Heshi", "state": "", "country": "CN", "coord": {"lon": 114.610046, "lat": 28.83943}}, {"id": 1808296, "name": "Heshi", "state": "", "country": "CN", "coord": {"lon": 116.650391, "lat": 28.02002}}, {"id": 1808298, "name": "Heshi", "state": "", "country": "CN", "coord": {"lon": 115.356438, "lat": 24.0084}}, {"id": 1808301, "name": "Heshengbao", "state": "", "country": "CN", "coord": {"lon": 112.905838, "lat": 39.57526}}, {"id": 1808304, "name": "Heshe", "state": "", "country": "CN", "coord": {"lon": 109.720749, "lat": 19.59734}}, {"id": 1808308, "name": "Heshang", "state": "", "country": "CN", "coord": {"lon": 120.160683, "lat": 29.943411}}, {"id": 1808316, "name": "Yiyang", "state": "", "country": "CN", "coord": {"lon": 112.328331, "lat": 28.58917}}, {"id": 1808320, "name": "Herong", "state": "", "country": "CN", "coord": {"lon": 111.972656, "lat": 30.70693}}, {"id": 1808323, "name": "Wenbi", "state": "", "country": "CN", "coord": {"lon": 111.191147, "lat": 39.387402}}, {"id": 1808331, "name": "Heqiao", "state": "", "country": "CN", "coord": {"lon": 119.230278, "lat": 30.103609}}, {"id": 1808333, "name": "Hepu", "state": "", "country": "CN", "coord": {"lon": 115.38269, "lat": 30.99428}}, {"id": 1808334, "name": "Hepu", "state": "", "country": "CN", "coord": {"lon": 121.903091, "lat": 29.15308}}, {"id": 1808336, "name": "Hepo", "state": "", "country": "CN", "coord": {"lon": 115.82991, "lat": 23.430771}}, {"id": 1808344, "name": "Heping", "state": "", "country": "CN", "coord": {"lon": 119.898331, "lat": 30.83111}}, {"id": 1808345, "name": "Hepingyizu", "state": "", "country": "CN", "coord": {"lon": 103.082489, "lat": 29.246929}}, {"id": 1808355, "name": "Heping", "state": "", "country": "CN", "coord": {"lon": 116.481529, "lat": 23.25112}}, {"id": 1808361, "name": "Hengzhou", "state": "", "country": "CN", "coord": {"lon": 109.257492, "lat": 22.70727}}, {"id": 1808370, "name": "Hengyang", "state": "", "country": "CN", "coord": {"lon": 112.614998, "lat": 26.88806}}, {"id": 1808372, "name": "Hengyancun", "state": "", "country": "CN", "coord": {"lon": 118.590851, "lat": 29.411301}}, {"id": 1808374, "name": "Hengxianhe", "state": "", "country": "CN", "coord": {"lon": 106.081879, "lat": 33.339512}}, {"id": 1808377, "name": "Hengxi", "state": "", "country": "CN", "coord": {"lon": 118.76667, "lat": 31.716669}}, {"id": 1808378, "name": "Hengxizhen", "state": "", "country": "CN", "coord": {"lon": 121.590431, "lat": 29.725491}}, {"id": 1808386, "name": "Hengtang", "state": "", "country": "CN", "coord": {"lon": 115.886909, "lat": 29.346581}}, {"id": 1808392, "name": "Hengshui", "state": "", "country": "CN", "coord": {"lon": 115.701111, "lat": 37.73222}}, {"id": 1808398, "name": "Hengshui", "state": "", "country": "CN", "coord": {"lon": 107.524193, "lat": 34.468811}}, {"id": 1808421, "name": "Kaiyun", "state": "", "country": "CN", "coord": {"lon": 112.856003, "lat": 27.213511}}, {"id": 1808431, "name": "Hengqu", "state": "", "country": "CN", "coord": {"lon": 107.959846, "lat": 34.19627}}, {"id": 1808433, "name": "Hengqiao", "state": "", "country": "CN", "coord": {"lon": 111.223709, "lat": 35.577572}}, {"id": 1808442, "name": "Henglu", "state": "", "country": "CN", "coord": {"lon": 119.314171, "lat": 30.309719}}, {"id": 1808443, "name": "Henglu", "state": "", "country": "CN", "coord": {"lon": 115.109444, "lat": 29.415001}}, {"id": 1808459, "name": "Hengli", "state": "", "country": "CN", "coord": {"lon": 114.611938, "lat": 23.17247}}, {"id": 1808466, "name": "Hengjing", "state": "", "country": "CN", "coord": {"lon": 119.698334, "lat": 32.934719}}, {"id": 1808468, "name": "Hengjie", "state": "", "country": "CN", "coord": {"lon": 118.143097, "lat": 28.70439}}, {"id": 1808474, "name": "Hengjiang", "state": "", "country": "CN", "coord": {"lon": 116.348801, "lat": 26.143459}}, {"id": 1808476, "name": "Hengjian", "state": "", "country": "CN", "coord": {"lon": 113.880219, "lat": 39.272961}}, {"id": 1808486, "name": "Henghe", "state": "", "country": "CN", "coord": {"lon": 121.237099, "lat": 30.12932}}, {"id": 1808487, "name": "Henghe", "state": "", "country": "CN", "coord": {"lon": 114.117104, "lat": 23.34376}}, {"id": 1808490, "name": "Henggouqiao", "state": "", "country": "CN", "coord": {"lon": 114.356293, "lat": 29.932199}}, {"id": 1808494, "name": "Henggang", "state": "", "country": "CN", "coord": {"lon": 115.487762, "lat": 29.556601}}, {"id": 1808496, "name": "Henggang", "state": "", "country": "CN", "coord": {"lon": 114.202431, "lat": 22.65155}}, {"id": 1808498, "name": "Hengfan", "state": "", "country": "CN", "coord": {"lon": 119.751221, "lat": 30.33074}}, {"id": 1808501, "name": "Hengdong Chengguanzhen", "state": "", "country": "CN", "coord": {"lon": 112.949997, "lat": 27.08333}}, {"id": 1808503, "name": "Hengdian", "state": "", "country": "CN", "coord": {"lon": 114.291718, "lat": 30.805321}}, {"id": 1808505, "name": "Hengdian", "state": "", "country": "CN", "coord": {"lon": 120.314781, "lat": 29.156981}}, {"id": 1808518, "name": "Hengbanqiao", "state": "", "country": "CN", "coord": {"lon": 110.86528, "lat": 27.171671}}, {"id": 1808520, "name": "Henan Sheng", "state": "", "country": "CN", "coord": {"lon": 114, "lat": 34}}, {"id": 1808534, "name": "Helong", "state": "", "country": "CN", "coord": {"lon": 116.13414, "lat": 25.9445}}, {"id": 1808535, "name": "Helixi", "state": "", "country": "CN", "coord": {"lon": 118.981239, "lat": 30.62841}}, {"id": 1808550, "name": "Hele", "state": "", "country": "CN", "coord": {"lon": 110.472633, "lat": 18.90181}}, {"id": 1808566, "name": "Hekou", "state": "", "country": "CN", "coord": {"lon": 106.814903, "lat": 33.95903}}, {"id": 1808575, "name": "Hekou", "state": "", "country": "CN", "coord": {"lon": 111.579613, "lat": 29.62886}}, {"id": 1808576, "name": "Pailou", "state": "", "country": "CN", "coord": {"lon": 109.857071, "lat": 29.54987}}, {"id": 1808585, "name": "Hekou", "state": "", "country": "CN", "coord": {"lon": 115.600273, "lat": 23.181379}}, {"id": 1808588, "name": "Hekou", "state": "", "country": "CN", "coord": {"lon": 104.011093, "lat": 22.538509}}, {"id": 1808600, "name": "Hejiayan", "state": "", "country": "CN", "coord": {"lon": 106.325829, "lat": 33.258968}}, {"id": 1808602, "name": "Hewan", "state": "", "country": "CN", "coord": {"lon": 118.080994, "lat": 30.81632}}, {"id": 1808612, "name": "Hejiang", "state": "", "country": "CN", "coord": {"lon": 105.833588, "lat": 28.811609}}, {"id": 1808624, "name": "Hejiabao", "state": "", "country": "CN", "coord": {"lon": 113.049057, "lat": 39.813641}}, {"id": 1808628, "name": "Hejia", "state": "", "country": "CN", "coord": {"lon": 118.314682, "lat": 29.32795}}, {"id": 1808673, "name": "Heilongkou", "state": "", "country": "CN", "coord": {"lon": 109.730598, "lat": 34.00959}}, {"id": 1808681, "name": "Heilangkou", "state": "", "country": "CN", "coord": {"lon": 117.401672, "lat": 39.612782}}, {"id": 1808701, "name": "Heicheng", "state": "", "country": "CN", "coord": {"lon": 106.086227, "lat": 36.37019}}, {"id": 1808707, "name": "Hehu", "state": "", "country": "CN", "coord": {"lon": 115.72364, "lat": 27.92872}}, {"id": 1808716, "name": "Hefu", "state": "", "country": "CN", "coord": {"lon": 111.597229, "lat": 29.038429}}, {"id": 1808722, "name": "Hefei", "state": "", "country": "CN", "coord": {"lon": 117.28083, "lat": 31.86389}}, {"id": 1808731, "name": "Hedian", "state": "", "country": "CN", "coord": {"lon": 113.321419, "lat": 31.593559}}, {"id": 1808740, "name": "Hedi", "state": "", "country": "CN", "coord": {"lon": 111.356918, "lat": 35.33371}}, {"id": 1808744, "name": "Hede", "state": "", "country": "CN", "coord": {"lon": 120.251671, "lat": 33.768059}}, {"id": 1808747, "name": "Hecun", "state": "", "country": "CN", "coord": {"lon": 114.111107, "lat": 36.533329}}, {"id": 1808749, "name": "Hecun", "state": "", "country": "CN", "coord": {"lon": 119.30658, "lat": 29.939131}}, {"id": 1808750, "name": "Hecun", "state": "", "country": "CN", "coord": {"lon": 118.528702, "lat": 28.670271}}, {"id": 1808755, "name": "Hechuan", "state": "", "country": "CN", "coord": {"lon": 114.300003, "lat": 26.91667}}, {"id": 1808759, "name": "Hechi", "state": "", "country": "CN", "coord": {"lon": 107.866669, "lat": 24.700001}}, {"id": 1808764, "name": "Hebu", "state": "", "country": "CN", "coord": {"lon": 115.390419, "lat": 27.836399}}, {"id": 1808770, "name": "Hebi", "state": "", "country": "CN", "coord": {"lon": 114.192497, "lat": 35.89917}}, {"id": 1808772, "name": "Hebeitun", "state": "", "country": "CN", "coord": {"lon": 117.113327, "lat": 39.574718}}, {"id": 1808773, "name": "Hebei Sheng", "state": "", "country": "CN", "coord": {"lon": 116, "lat": 39}}, {"id": 1808783, "name": "Heba", "state": "", "country": "CN", "coord": {"lon": 105.216248, "lat": 33.936241}}, {"id": 1808795, "name": "Haokou", "state": "", "country": "CN", "coord": {"lon": 112.639931, "lat": 30.381281}}, {"id": 1808796, "name": "Haozigang", "state": "", "country": "CN", "coord": {"lon": 112.056732, "lat": 29.27169}}, {"id": 1808807, "name": "Haozhai", "state": "", "country": "CN", "coord": {"lon": 113.034561, "lat": 33.00959}}, {"id": 1808810, "name": "Haoxue", "state": "", "country": "CN", "coord": {"lon": 112.46759, "lat": 30.047609}}, {"id": 1808836, "name": "Haodian", "state": "", "country": "CN", "coord": {"lon": 113.745461, "lat": 31.793039}}, {"id": 1808848, "name": "Haocun", "state": "", "country": "CN", "coord": {"lon": 118.46817, "lat": 27.59152}}, {"id": 1808857, "name": "Hanzhong", "state": "", "country": "CN", "coord": {"lon": 107.030281, "lat": 33.072781}}, {"id": 1808861, "name": "Hanyuan", "state": "", "country": "CN", "coord": {"lon": 105.291939, "lat": 34.01083}}, {"id": 1808872, "name": "Fu\u2019an", "state": "", "country": "CN", "coord": {"lon": 119.645279, "lat": 27.08917}}, {"id": 1808879, "name": "Hanting", "state": "", "country": "CN", "coord": {"lon": 119.210831, "lat": 36.770828}}, {"id": 1808880, "name": "Hanting", "state": "", "country": "CN", "coord": {"lon": 118.548477, "lat": 30.91868}}, {"id": 1808881, "name": "Hantang", "state": "", "country": "CN", "coord": {"lon": 114.789398, "lat": 28.15283}}, {"id": 1808887, "name": "Hanshou", "state": "", "country": "CN", "coord": {"lon": 111.956108, "lat": 28.90583}}, {"id": 1808899, "name": "Hanjiashu", "state": "", "country": "CN", "coord": {"lon": 117.073059, "lat": 39.1875}}, {"id": 1808915, "name": "Hanjia", "state": "", "country": "CN", "coord": {"lon": 107.868019, "lat": 34.9286}}, {"id": 1808917, "name": "Hanji", "state": "", "country": "CN", "coord": {"lon": 102.992599, "lat": 35.495441}}, {"id": 1808926, "name": "Hangzhou", "state": "", "country": "CN", "coord": {"lon": 120.161423, "lat": 30.29365}}, {"id": 1808931, "name": "Hangu", "state": "", "country": "CN", "coord": {"lon": 117.789169, "lat": 39.24889}}, {"id": 1808935, "name": "Hangou", "state": "", "country": "CN", "coord": {"lon": 117.089996, "lat": 39.290829}}, {"id": 1808936, "name": "Hangongdu", "state": "", "country": "CN", "coord": {"lon": 111.9189, "lat": 29.08882}}, {"id": 1808944, "name": "Guangze", "state": "", "country": "CN", "coord": {"lon": 117.334908, "lat": 27.51947}}, {"id": 1808951, "name": "Hanfang", "state": "", "country": "CN", "coord": {"lon": 115.093002, "lat": 25.48877}}, {"id": 1808956, "name": "Changzhi", "state": "", "country": "CN", "coord": {"lon": 113.105278, "lat": 36.183891}}, {"id": 1808957, "name": "Handian", "state": "", "country": "CN", "coord": {"lon": 113.044167, "lat": 36.04583}}, {"id": 1808963, "name": "Handan", "state": "", "country": "CN", "coord": {"lon": 114.467781, "lat": 36.600559}}, {"id": 1808977, "name": "Hanchuan", "state": "", "country": "CN", "coord": {"lon": 113.76667, "lat": 30.65}}, {"id": 1808981, "name": "Hancheng", "state": "", "country": "CN", "coord": {"lon": 110.429169, "lat": 35.460281}}, {"id": 1809003, "name": "Haizhou", "state": "", "country": "CN", "coord": {"lon": 119.128891, "lat": 34.581669}}, {"id": 1809010, "name": "Haiyou", "state": "", "country": "CN", "coord": {"lon": 121.373444, "lat": 29.123581}}, {"id": 1809013, "name": "Haiyan", "state": "", "country": "CN", "coord": {"lon": 121.341797, "lat": 32.144051}}, {"id": 1809023, "name": "Haiyang", "state": "", "country": "CN", "coord": {"lon": 118.176979, "lat": 29.786119}}, {"id": 1809033, "name": "Haitou", "state": "", "country": "CN", "coord": {"lon": 119.169724, "lat": 34.933609}}, {"id": 1809034, "name": "Haitou", "state": "", "country": "CN", "coord": {"lon": 108.950539, "lat": 19.50563}}, {"id": 1809049, "name": "Hairag", "state": "", "country": "CN", "coord": {"lon": 100.416168, "lat": 37.223171}}, {"id": 1809054, "name": "Hainan Sheng", "state": "", "country": "CN", "coord": {"lon": 109.599998, "lat": 19.200001}}, {"id": 1809061, "name": "Jiaojiang", "state": "", "country": "CN", "coord": {"lon": 121.44278, "lat": 28.680281}}, {"id": 1809062, "name": "Haimen", "state": "", "country": "CN", "coord": {"lon": 116.61422, "lat": 23.193489}}, {"id": 1809074, "name": "Haikou", "state": "", "country": "CN", "coord": {"lon": 117.807358, "lat": 29.106819}}, {"id": 1809077, "name": "Haikou", "state": "", "country": "CN", "coord": {"lon": 102.575478, "lat": 24.77985}}, {"id": 1809078, "name": "Haikou", "state": "", "country": "CN", "coord": {"lon": 110.341667, "lat": 20.04583}}, {"id": 1809084, "name": "Haihui", "state": "", "country": "CN", "coord": {"lon": 116.05336, "lat": 29.543329}}, {"id": 1809096, "name": "Haifu", "state": "", "country": "CN", "coord": {"lon": 121.6875, "lat": 31.98667}}, {"id": 1809100, "name": "Haicheng", "state": "", "country": "CN", "coord": {"lon": 115.331787, "lat": 22.97533}}, {"id": 1809104, "name": "Haidian", "state": "", "country": "CN", "coord": {"lon": 116.299171, "lat": 39.979172}}, {"id": 1809112, "name": "Haibeitou", "state": "", "country": "CN", "coord": {"lon": 113.185013, "lat": 39.803822}}, {"id": 1809116, "name": "Hai\u2019an", "state": "", "country": "CN", "coord": {"lon": 120.449997, "lat": 32.54361}}, {"id": 1809139, "name": "Guzhen Chengguanzhen", "state": "", "country": "CN", "coord": {"lon": 117.310562, "lat": 33.310558}}, {"id": 1809153, "name": "Guyong", "state": "", "country": "CN", "coord": {"lon": 117.46833, "lat": 26.730829}}, {"id": 1809157, "name": "Guyi", "state": "", "country": "CN", "coord": {"lon": 109.600281, "lat": 25.777781}}, {"id": 1809159, "name": "Guye", "state": "", "country": "CN", "coord": {"lon": 118.416672, "lat": 39.73333}}, {"id": 1809162, "name": "Guyang", "state": "", "country": "CN", "coord": {"lon": 109.933327, "lat": 28.616671}}, {"id": 1809169, "name": "Guxiang", "state": "", "country": "CN", "coord": {"lon": 116.564903, "lat": 23.66511}}, {"id": 1809190, "name": "Guxian", "state": "", "country": "CN", "coord": {"lon": 115.515442, "lat": 27.15357}}, {"id": 1809192, "name": "Guxi", "state": "", "country": "CN", "coord": {"lon": 120.334671, "lat": 32.345959}}, {"id": 1809203, "name": "Gutian", "state": "", "country": "CN", "coord": {"lon": 116.965714, "lat": 25.695629}}, {"id": 1809204, "name": "Gutian", "state": "", "country": "CN", "coord": {"lon": 116.8181, "lat": 25.227779}}, {"id": 1809206, "name": "Gutang", "state": "", "country": "CN", "coord": {"lon": 116.118073, "lat": 29.621849}}, {"id": 1809208, "name": "Gutan", "state": "", "country": "CN", "coord": {"lon": 117.680222, "lat": 29.45332}}, {"id": 1809222, "name": "Gushi", "state": "", "country": "CN", "coord": {"lon": 109.584259, "lat": 34.642502}}, {"id": 1809223, "name": "Gushi Chengguanzhen", "state": "", "country": "CN", "coord": {"lon": 115.800003, "lat": 32.200001}}, {"id": 1809224, "name": "Gushi", "state": "", "country": "CN", "coord": {"lon": 114.147972, "lat": 29.06127}}, {"id": 1809233, "name": "Gushan", "state": "", "country": "CN", "coord": {"lon": 120.300003, "lat": 32.066669}}, {"id": 1809239, "name": "Xiagulei", "state": "", "country": "CN", "coord": {"lon": 102.645828, "lat": 35.653179}}, {"id": 1809263, "name": "Guozhen", "state": "", "country": "CN", "coord": {"lon": 107.359039, "lat": 34.36591}}, {"id": 1809264, "name": "Guozhen", "state": "", "country": "CN", "coord": {"lon": 105.82486, "lat": 33.32806}}, {"id": 1809271, "name": "Guoyang Chengguanzhen", "state": "", "country": "CN", "coord": {"lon": 116.230797, "lat": 33.505501}}, {"id": 1809300, "name": "Guojiazhuang", "state": "", "country": "CN", "coord": {"lon": 111.162529, "lat": 35.304489}}, {"id": 1809305, "name": "Guoyuan", "state": "", "country": "CN", "coord": {"lon": 120.603058, "lat": 32.1675}}, {"id": 1809326, "name": "Guoji", "state": "", "country": "CN", "coord": {"lon": 113.122169, "lat": 32.978119}}, {"id": 1809329, "name": "Guohua", "state": "", "country": "CN", "coord": {"lon": 106.29229, "lat": 32.47974}}, {"id": 1809338, "name": "Guofuchang", "state": "", "country": "CN", "coord": {"lon": 106.601387, "lat": 28.85}}, {"id": 1809343, "name": "Guodu", "state": "", "country": "CN", "coord": {"lon": 108.864311, "lat": 34.155369}}, {"id": 1809361, "name": "Guocun", "state": "", "country": "CN", "coord": {"lon": 118.632957, "lat": 29.55479}}, {"id": 1809362, "name": "Guochuan", "state": "", "country": "CN", "coord": {"lon": 119.938606, "lat": 32.156391}}, {"id": 1809398, "name": "Gulonggang", "state": "", "country": "CN", "coord": {"lon": 115.696968, "lat": 26.447781}}, {"id": 1809406, "name": "Guling", "state": "", "country": "CN", "coord": {"lon": 115.976097, "lat": 29.569019}}, {"id": 1809408, "name": "Gulin", "state": "", "country": "CN", "coord": {"lon": 105.810379, "lat": 28.042231}}, {"id": 1809410, "name": "Guli", "state": "", "country": "CN", "coord": {"lon": 118.683327, "lat": 31.883329}}, {"id": 1809412, "name": "Guli", "state": "", "country": "CN", "coord": {"lon": 120.033333, "lat": 28.883329}}, {"id": 1809417, "name": "Gulaobei", "state": "", "country": "CN", "coord": {"lon": 111.426643, "lat": 30.519409}}, {"id": 1809423, "name": "Gulai", "state": "", "country": "CN", "coord": {"lon": 120.6427, "lat": 29.690941}}, {"id": 1809436, "name": "Shangyuan", "state": "", "country": "CN", "coord": {"lon": 111.13237, "lat": 35.615059}}, {"id": 1809437, "name": "Gujiao", "state": "", "country": "CN", "coord": {"lon": 106.849998, "lat": 26.533331}}, {"id": 1809439, "name": "Gujiang", "state": "", "country": "CN", "coord": {"lon": 114.788002, "lat": 27.188089}}, {"id": 1809445, "name": "Guizhou Sheng", "state": "", "country": "CN", "coord": {"lon": 107, "lat": 27}}, {"id": 1809451, "name": "Guiyu", "state": "", "country": "CN", "coord": {"lon": 116.342949, "lat": 23.32213}}, {"id": 1809461, "name": "Guiyang", "state": "", "country": "CN", "coord": {"lon": 106.716667, "lat": 26.58333}}, {"id": 1809463, "name": "Guiyang Chengguanzhen", "state": "", "country": "CN", "coord": {"lon": 112.745888, "lat": 25.73333}}, {"id": 1809471, "name": "Guitou", "state": "", "country": "CN", "coord": {"lon": 113.4263, "lat": 24.94553}}, {"id": 1809479, "name": "Guishan", "state": "", "country": "CN", "coord": {"lon": 119.550003, "lat": 30.65}}, {"id": 1809481, "name": "Guishan", "state": "", "country": "CN", "coord": {"lon": 102.000183, "lat": 24.05027}}, {"id": 1809483, "name": "Guiren", "state": "", "country": "CN", "coord": {"lon": 118.188889, "lat": 33.66972}}, {"id": 1809486, "name": "Guiping", "state": "", "country": "CN", "coord": {"lon": 110.08139, "lat": 23.3925}}, {"id": 1809498, "name": "Guilin", "state": "", "country": "CN", "coord": {"lon": 110.286392, "lat": 25.28194}}, {"id": 1809521, "name": "Guidong Chengguanzhen", "state": "", "country": "CN", "coord": {"lon": 113.982262, "lat": 26.081699}}, {"id": 1809532, "name": "Guigang", "state": "", "country": "CN", "coord": {"lon": 109.609169, "lat": 23.09639}}, {"id": 1809543, "name": "Gugao", "state": "", "country": "CN", "coord": {"lon": 120.163361, "lat": 32.364601}}, {"id": 1809548, "name": "Gufeng", "state": "", "country": "CN", "coord": {"lon": 118.981941, "lat": 26.908331}}, {"id": 1809573, "name": "Gucun", "state": "", "country": "CN", "coord": {"lon": 116.148048, "lat": 26.241631}}, {"id": 1809597, "name": "Gucheng", "state": "", "country": "CN", "coord": {"lon": 111.319237, "lat": 35.911518}}, {"id": 1809599, "name": "Gucheng", "state": "", "country": "CN", "coord": {"lon": 106.458061, "lat": 35.856941}}, {"id": 1809610, "name": "Gucheng Chengguanzhen", "state": "", "country": "CN", "coord": {"lon": 111.634758, "lat": 32.266041}}, {"id": 1809612, "name": "Gucheng", "state": "", "country": "CN", "coord": {"lon": 118.964058, "lat": 31.305679}}, {"id": 1809615, "name": "Gucheng", "state": "", "country": "CN", "coord": {"lon": 116.167992, "lat": 25.8645}}, {"id": 1809619, "name": "Gubu", "state": "", "country": "CN", "coord": {"lon": 116.801521, "lat": 28.717319}}, {"id": 1809625, "name": "Gubei", "state": "", "country": "CN", "coord": {"lon": 115.0989, "lat": 25.334579}}, {"id": 1809629, "name": "Guapo", "state": "", "country": "CN", "coord": {"lon": 109.706017, "lat": 34.47728}}, {"id": 1809650, "name": "Guanzhuang", "state": "", "country": "CN", "coord": {"lon": 108.866478, "lat": 34.95726}}, {"id": 1809651, "name": "Guanzhuang", "state": "", "country": "CN", "coord": {"lon": 108.411392, "lat": 34.89917}}, {"id": 1809653, "name": "Guanzhuang", "state": "", "country": "CN", "coord": {"lon": 113.295486, "lat": 32.886539}}, {"id": 1809662, "name": "Guanzhuang", "state": "", "country": "CN", "coord": {"lon": 116.344719, "lat": 25.309441}}, {"id": 1809675, "name": "Guanyuan", "state": "", "country": "CN", "coord": {"lon": 112.009911, "lat": 29.558729}}, {"id": 1809691, "name": "Guanyinsi", "state": "", "country": "CN", "coord": {"lon": 106.454758, "lat": 33.366669}}, {"id": 1809706, "name": "Guanyinge", "state": "", "country": "CN", "coord": {"lon": 114.590752, "lat": 23.4}}, {"id": 1809745, "name": "Guantou", "state": "", "country": "CN", "coord": {"lon": 108.074478, "lat": 34.657269}}, {"id": 1809747, "name": "Guantou", "state": "", "country": "CN", "coord": {"lon": 119.563332, "lat": 26.135281}}, {"id": 1809749, "name": "Guanting", "state": "", "country": "CN", "coord": {"lon": 106.414688, "lat": 36.163139}}, {"id": 1809750, "name": "Guanting", "state": "", "country": "CN", "coord": {"lon": 102.799622, "lat": 35.875439}}, {"id": 1809752, "name": "Guanting", "state": "", "country": "CN", "coord": {"lon": 104.532272, "lat": 33.816521}}, {"id": 1809757, "name": "Guantian", "state": "", "country": "CN", "coord": {"lon": 114.666557, "lat": 27.064541}}, {"id": 1809762, "name": "Guantangyi", "state": "", "country": "CN", "coord": {"lon": 114.085953, "lat": 29.77564}}, {"id": 1809780, "name": "Guanshan", "state": "", "country": "CN", "coord": {"lon": 109.375832, "lat": 34.692768}}, {"id": 1809782, "name": "Guanshan", "state": "", "country": "CN", "coord": {"lon": 115.446182, "lat": 27.09968}}, {"id": 1809804, "name": "Guanqian", "state": "", "country": "CN", "coord": {"lon": 116.543053, "lat": 25.937019}}, {"id": 1809819, "name": "Guanlu", "state": "", "country": "CN", "coord": {"lon": 109.72184, "lat": 34.737789}}, {"id": 1809827, "name": "Guanlan", "state": "", "country": "CN", "coord": {"lon": 114.052437, "lat": 22.7211}}, {"id": 1809831, "name": "Dujiangyan", "state": "", "country": "CN", "coord": {"lon": 103.622269, "lat": 31.00242}}, {"id": 1809833, "name": "Guankou", "state": "", "country": "CN", "coord": {"lon": 115.333328, "lat": 30.549999}}, {"id": 1809858, "name": "Guangzhou", "state": "", "country": "CN", "coord": {"lon": 113.25, "lat": 23.116671}}, {"id": 1809861, "name": "Guangyubao", "state": "", "country": "CN", "coord": {"lon": 113.411346, "lat": 39.189232}}, {"id": 1809866, "name": "Guanyang", "state": "", "country": "CN", "coord": {"lon": 111.134872, "lat": 25.49523}}, {"id": 1809867, "name": "Guangxi Zhuangzu Zizhiqu", "state": "", "country": "CN", "coord": {"lon": 109, "lat": 24}}, {"id": 1809879, "name": "Guangshui", "state": "", "country": "CN", "coord": {"lon": 113.997803, "lat": 31.6199}}, {"id": 1809889, "name": "Guangping", "state": "", "country": "CN", "coord": {"lon": 117.819038, "lat": 26.09116}}, {"id": 1809899, "name": "Guangming", "state": "", "country": "CN", "coord": {"lon": 102.411888, "lat": 28.3102}}, {"id": 1809900, "name": "Guangming", "state": "", "country": "CN", "coord": {"lon": 117.389931, "lat": 26.794781}}, {"id": 1809910, "name": "Huquan", "state": "", "country": "CN", "coord": {"lon": 114.183029, "lat": 39.79538}}, {"id": 1809911, "name": "Guangling", "state": "", "country": "CN", "coord": {"lon": 120.236267, "lat": 32.104408}}, {"id": 1809915, "name": "Guangji", "state": "", "country": "CN", "coord": {"lon": 108.147758, "lat": 34.118198}}, {"id": 1809922, "name": "Guanghai", "state": "", "country": "CN", "coord": {"lon": 112.793068, "lat": 21.961639}}, {"id": 1809923, "name": "Guangfuqiao", "state": "", "country": "CN", "coord": {"lon": 111.298187, "lat": 29.47699}}, {"id": 1809935, "name": "Guangdong Sheng", "state": "", "country": "CN", "coord": {"lon": 113, "lat": 23}}, {"id": 1809939, "name": "Guangcun", "state": "", "country": "CN", "coord": {"lon": 109.47686, "lat": 19.817659}}, {"id": 1809942, "name": "Guangchen", "state": "", "country": "CN", "coord": {"lon": 121.12603, "lat": 30.75215}}, {"id": 1809945, "name": "Guang\u2019ao", "state": "", "country": "CN", "coord": {"lon": 116.776039, "lat": 23.230829}}, {"id": 1809950, "name": "Guangang", "state": "", "country": "CN", "coord": {"lon": 116.928581, "lat": 29.911591}}, {"id": 1809955, "name": "Guan\u2019er", "state": "", "country": "CN", "coord": {"lon": 113.635193, "lat": 39.51582}}, {"id": 1809964, "name": "Guandu", "state": "", "country": "CN", "coord": {"lon": 106.08139, "lat": 28.613609}}, {"id": 1809967, "name": "Guandu", "state": "", "country": "CN", "coord": {"lon": 113.883331, "lat": 24.283331}}, {"id": 1809972, "name": "Guandiping", "state": "", "country": "CN", "coord": {"lon": 110.436203, "lat": 29.592319}}, {"id": 1809982, "name": "Guandi", "state": "", "country": "CN", "coord": {"lon": 109.442886, "lat": 34.712811}}, {"id": 1809988, "name": "Guandao", "state": "", "country": "CN", "coord": {"lon": 109.483276, "lat": 34.63007}}, {"id": 1809994, "name": "Guanchi", "state": "", "country": "CN", "coord": {"lon": 109.940361, "lat": 34.70306}}, {"id": 1809998, "name": "Guanhaiwei", "state": "", "country": "CN", "coord": {"lon": 121.401802, "lat": 30.17033}}, {"id": 1810000, "name": "Guanchao", "state": "", "country": "CN", "coord": {"lon": 114.864197, "lat": 27.8857}}, {"id": 1810012, "name": "Guanbuqiao", "state": "", "country": "CN", "coord": {"lon": 114.318771, "lat": 29.900721}}, {"id": 1810013, "name": "Guanbu", "state": "", "country": "CN", "coord": {"lon": 116.463608, "lat": 23.433611}}, {"id": 1810023, "name": "Guali", "state": "", "country": "CN", "coord": {"lon": 120.45359, "lat": 30.186609}}, {"id": 1810053, "name": "Goujie", "state": "", "country": "CN", "coord": {"lon": 103.141937, "lat": 24.789169}}, {"id": 1810073, "name": "Gongyi", "state": "", "country": "CN", "coord": {"lon": 105.721703, "lat": 35.690639}}, {"id": 1810080, "name": "Gongxi", "state": "", "country": "CN", "coord": {"lon": 115.904213, "lat": 27.661011}}, {"id": 1810094, "name": "Gongqiao", "state": "", "country": "CN", "coord": {"lon": 118.183807, "lat": 31.57128}}, {"id": 1810104, "name": "Gongping", "state": "", "country": "CN", "coord": {"lon": 115.39045, "lat": 23.061661}}, {"id": 1810120, "name": "Gongjing", "state": "", "country": "CN", "coord": {"lon": 104.711571, "lat": 29.347481}}, {"id": 1810124, "name": "Gongjiang", "state": "", "country": "CN", "coord": {"lon": 115.410019, "lat": 25.95735}}, {"id": 1810135, "name": "Gonghe", "state": "", "country": "CN", "coord": {"lon": 101.51857, "lat": 25.255751}}, {"id": 1810139, "name": "Gongfang", "state": "", "country": "CN", "coord": {"lon": 115.753433, "lat": 27.5923}}, {"id": 1810141, "name": "Gongdian", "state": "", "country": "CN", "coord": {"lon": 113.435211, "lat": 33.662552}}, {"id": 1810147, "name": "Gongchuan", "state": "", "country": "CN", "coord": {"lon": 117.437469, "lat": 26.09193}}, {"id": 1810149, "name": "Gongchenqiao", "state": "", "country": "CN", "coord": {"lon": 120.132431, "lat": 30.31745}}, {"id": 1810152, "name": "Gongcheng", "state": "", "country": "CN", "coord": {"lon": 110.816673, "lat": 24.83333}}, {"id": 1810159, "name": "Gongba", "state": "", "country": "CN", "coord": {"lon": 104.52861, "lat": 33.484581}}, {"id": 1810176, "name": "Geyuan", "state": "", "country": "CN", "coord": {"lon": 117.671837, "lat": 28.60264}}, {"id": 1810190, "name": "Geshan", "state": "", "country": "CN", "coord": {"lon": 120.4375, "lat": 29.28772}}, {"id": 1810192, "name": "Geping", "state": "", "country": "CN", "coord": {"lon": 115.120598, "lat": 27.65377}}, {"id": 1810199, "name": "Gengzhen", "state": "", "country": "CN", "coord": {"lon": 109.099838, "lat": 34.438622}}, {"id": 1810202, "name": "Gengwan", "state": "", "country": "CN", "coord": {"lon": 107.257828, "lat": 36.881351}}, {"id": 1810233, "name": "Geliao", "state": "", "country": "CN", "coord": {"lon": 112.265282, "lat": 38.719719}}, {"id": 1810240, "name": "Gejiu", "state": "", "country": "CN", "coord": {"lon": 103.163513, "lat": 23.306021}}, {"id": 1810256, "name": "Gedong", "state": "", "country": "CN", "coord": {"lon": 111.25544, "lat": 37.893108}}, {"id": 1810271, "name": "Ganzi", "state": "", "country": "CN", "coord": {"lon": 99.990494, "lat": 31.62439}}, {"id": 1810274, "name": "Garmoyangkyi", "state": "", "country": "CN", "coord": {"lon": 100.232552, "lat": 35.693409}}, {"id": 1810286, "name": "Gaozhuang", "state": "", "country": "CN", "coord": {"lon": 117.975563, "lat": 39.269169}}, {"id": 1810291, "name": "Gaozhuang", "state": "", "country": "CN", "coord": {"lon": 108.927277, "lat": 34.464432}}, {"id": 1810295, "name": "Gaozhou", "state": "", "country": "CN", "coord": {"lon": 110.846069, "lat": 21.93924}}, {"id": 1810301, "name": "Gaozeng", "state": "", "country": "CN", "coord": {"lon": 108.9375, "lat": 25.80167}}, {"id": 1810305, "name": "Gaoyu", "state": "", "country": "CN", "coord": {"lon": 119.607948, "lat": 30.82119}}, {"id": 1810309, "name": "Gaoyou", "state": "", "country": "CN", "coord": {"lon": 119.42778, "lat": 32.785831}}, {"id": 1810314, "name": "Gaoyi", "state": "", "country": "CN", "coord": {"lon": 113.456467, "lat": 32.743561}}, {"id": 1810330, "name": "Gaoya", "state": "", "country": "CN", "coord": {"lon": 107.314232, "lat": 34.896759}}, {"id": 1810335, "name": "Gaoxing", "state": "", "country": "CN", "coord": {"lon": 115.282501, "lat": 26.43306}}, {"id": 1810338, "name": "Gaoxian", "state": "", "country": "CN", "coord": {"lon": 111.420403, "lat": 35.71907}}, {"id": 1810359, "name": "Gaotangling", "state": "", "country": "CN", "coord": {"lon": 112.816673, "lat": 28.366671}}, {"id": 1810364, "name": "Gaotang", "state": "", "country": "CN", "coord": {"lon": 109.652031, "lat": 34.406582}}, {"id": 1810367, "name": "Gaotang", "state": "", "country": "CN", "coord": {"lon": 117.587021, "lat": 26.803329}}, {"id": 1810371, "name": "Gaotan", "state": "", "country": "CN", "coord": {"lon": 115.305939, "lat": 23.188351}}, {"id": 1810373, "name": "Gaosubancun", "state": "", "country": "CN", "coord": {"lon": 117.996262, "lat": 27.701969}}, {"id": 1810399, "name": "Gaoqiu", "state": "", "country": "CN", "coord": {"lon": 112.075958, "lat": 33.158829}}, {"id": 1810410, "name": "Gaoqiao", "state": "", "country": "CN", "coord": {"lon": 105.94883, "lat": 34.095249}}, {"id": 1810418, "name": "Gaoqiao", "state": "", "country": "CN", "coord": {"lon": 120.543678, "lat": 30.52486}}, {"id": 1810419, "name": "Gaoqiao", "state": "", "country": "CN", "coord": {"lon": 119.936897, "lat": 30.102039}}, {"id": 1810420, "name": "Gaoqiao", "state": "", "country": "CN", "coord": {"lon": 121.454178, "lat": 29.9081}}, {"id": 1810421, "name": "Gaoqiao", "state": "", "country": "CN", "coord": {"lon": 114.512833, "lat": 29.856461}}, {"id": 1810425, "name": "Gaoyi", "state": "", "country": "CN", "coord": {"lon": 110.015556, "lat": 26.95944}}, {"id": 1810427, "name": "Gaoqiao", "state": "", "country": "CN", "coord": {"lon": 117.774971, "lat": 26.56035}}, {"id": 1810428, "name": "Gaoqiao", "state": "", "country": "CN", "coord": {"lon": 110.900002, "lat": 26.63361}}, {"id": 1810437, "name": "Gaoping", "state": "", "country": "CN", "coord": {"lon": 106.102943, "lat": 30.775761}}, {"id": 1810442, "name": "Gaoping", "state": "", "country": "CN", "coord": {"lon": 111.142502, "lat": 27.48}}, {"id": 1810446, "name": "Gaopai", "state": "", "country": "CN", "coord": {"lon": 115.608253, "lat": 25.48959}}, {"id": 1810447, "name": "Gaoniang", "state": "", "country": "CN", "coord": {"lon": 109.178886, "lat": 26.842501}}, {"id": 1810458, "name": "Gaomi", "state": "", "country": "CN", "coord": {"lon": 119.752777, "lat": 36.383331}}, {"id": 1810464, "name": "Gaoluo", "state": "", "country": "CN", "coord": {"lon": 109.491348, "lat": 29.73221}}, {"id": 1810470, "name": "Gaolong", "state": "", "country": "CN", "coord": {"lon": 113.787216, "lat": 26.945829}}, {"id": 1810489, "name": "Gaoleshan", "state": "", "country": "CN", "coord": {"lon": 109.144531, "lat": 29.678249}}, {"id": 1810496, "name": "Gaolan", "state": "", "country": "CN", "coord": {"lon": 114.7061, "lat": 28.024599}}, {"id": 1810500, "name": "Gaojingzhuang", "state": "", "country": "CN", "coord": {"lon": 117.629997, "lat": 39.416111}}, {"id": 1810508, "name": "Gaojia", "state": "", "country": "CN", "coord": {"lon": 121.583893, "lat": 31.826111}}, {"id": 1810513, "name": "Gaojiayan", "state": "", "country": "CN", "coord": {"lon": 111.055733, "lat": 30.60881}}, {"id": 1810525, "name": "Gaojialing", "state": "", "country": "CN", "coord": {"lon": 116.782303, "lat": 29.16754}}, {"id": 1810533, "name": "Gaojiabu", "state": "", "country": "CN", "coord": {"lon": 112.446114, "lat": 39.792488}}, {"id": 1810543, "name": "Gaohu", "state": "", "country": "CN", "coord": {"lon": 115.236359, "lat": 28.926109}}, {"id": 1810545, "name": "Gaohe", "state": "", "country": "CN", "coord": {"lon": 116.835289, "lat": 30.707701}}, {"id": 1810547, "name": "Gaohang", "state": "", "country": "CN", "coord": {"lon": 121.602219, "lat": 31.29722}}, {"id": 1810553, "name": "Gaogou", "state": "", "country": "CN", "coord": {"lon": 119.188606, "lat": 34.017502}}, {"id": 1810556, "name": "Gaogongdao", "state": "", "country": "CN", "coord": {"lon": 119.466667, "lat": 34.700001}}, {"id": 1810592, "name": "Gaocun", "state": "", "country": "CN", "coord": {"lon": 114.434402, "lat": 28.342159}}, {"id": 1810593, "name": "Gaocun", "state": "", "country": "CN", "coord": {"lon": 109.78476, "lat": 27.87731}}, {"id": 1810602, "name": "Gaocheng", "state": "", "country": "CN", "coord": {"lon": 113.442177, "lat": 31.94702}}, {"id": 1810605, "name": "Gaocheng", "state": "", "country": "CN", "coord": {"lon": 114.349518, "lat": 28.10186}}, {"id": 1810610, "name": "Gaobu", "state": "", "country": "CN", "coord": {"lon": 120.664207, "lat": 30.009199}}, {"id": 1810637, "name": "Ganzhou", "state": "", "country": "CN", "coord": {"lon": 115.432716, "lat": 28.81842}}, {"id": 1810638, "name": "Ganzhou", "state": "", "country": "CN", "coord": {"lon": 114.933327, "lat": 25.85}}, {"id": 1810643, "name": "Ganyao", "state": "", "country": "CN", "coord": {"lon": 120.885323, "lat": 30.88876}}, {"id": 1810645, "name": "Ganyan", "state": "", "country": "CN", "coord": {"lon": 110.779167, "lat": 29.27861}}, {"id": 1810649, "name": "Ganxitan", "state": "", "country": "CN", "coord": {"lon": 111.375801, "lat": 29.867611}}, {"id": 1810665, "name": "Gantang", "state": "", "country": "CN", "coord": {"lon": 118.130562, "lat": 30.29694}}, {"id": 1810670, "name": "Gantang", "state": "", "country": "CN", "coord": {"lon": 119.633331, "lat": 26.92}}, {"id": 1810671, "name": "Gantang", "state": "", "country": "CN", "coord": {"lon": 118.936111, "lat": 26.79833}}, {"id": 1810673, "name": "Lingchuan", "state": "", "country": "CN", "coord": {"lon": 110.322777, "lat": 25.40951}}, {"id": 1810676, "name": "Gansu Sheng", "state": "", "country": "CN", "coord": {"lon": 102, "lat": 38}}, {"id": 1810677, "name": "Ganshui", "state": "", "country": "CN", "coord": {"lon": 106.711113, "lat": 28.74222}}, {"id": 1810685, "name": "Ganpu", "state": "", "country": "CN", "coord": {"lon": 120.889717, "lat": 30.393499}}, {"id": 1810692, "name": "Ganlin", "state": "", "country": "CN", "coord": {"lon": 120.714172, "lat": 29.520559}}, {"id": 1810694, "name": "Ganlan", "state": "", "country": "CN", "coord": {"lon": 122.136978, "lat": 30.10268}}, {"id": 1810699, "name": "Ganjing", "state": "", "country": "CN", "coord": {"lon": 108.064171, "lat": 34.720558}}, {"id": 1810704, "name": "Ganjiachang", "state": "", "country": "CN", "coord": {"lon": 112.066673, "lat": 29.75}}, {"id": 1810705, "name": "Ganjia", "state": "", "country": "CN", "coord": {"lon": 102.516403, "lat": 35.401241}}, {"id": 1810708, "name": "Ganhe", "state": "", "country": "CN", "coord": {"lon": 108.514442, "lat": 34.15778}}, {"id": 1810730, "name": "Gangshangji", "state": "", "country": "CN", "coord": {"lon": 116.519707, "lat": 28.11557}}, {"id": 1810736, "name": "Gangouyi", "state": "", "country": "CN", "coord": {"lon": 105.018784, "lat": 35.956322}}, {"id": 1810754, "name": "Gangkou", "state": "", "country": "CN", "coord": {"lon": 118.91111, "lat": 30.73278}}, {"id": 1810755, "name": "Gangkoujie", "state": "", "country": "CN", "coord": {"lon": 115.781891, "lat": 29.72504}}, {"id": 1810756, "name": "Gangkou", "state": "", "country": "CN", "coord": {"lon": 114.33255, "lat": 29.25738}}, {"id": 1810758, "name": "Gangkou", "state": "", "country": "CN", "coord": {"lon": 114.289177, "lat": 28.735559}}, {"id": 1810760, "name": "Gangkou", "state": "", "country": "CN", "coord": {"lon": 117.339302, "lat": 28.19014}}, {"id": 1810762, "name": "Gangkou", "state": "", "country": "CN", "coord": {"lon": 114.89753, "lat": 22.57478}}, {"id": 1810774, "name": "Ganfang", "state": "", "country": "CN", "coord": {"lon": 114.866051, "lat": 28.64295}}, {"id": 1810777, "name": "Yaluhu", "state": "", "country": "CN", "coord": {"lon": 102.328979, "lat": 35.890961}}, {"id": 1810783, "name": "Gancheng", "state": "", "country": "CN", "coord": {"lon": 106.339432, "lat": 36.59153}}, {"id": 1810785, "name": "Gancheng", "state": "", "country": "CN", "coord": {"lon": 108.640358, "lat": 18.85157}}, {"id": 1810787, "name": "Ganchang", "state": "", "country": "CN", "coord": {"lon": 106.924942, "lat": 32.405182}}, {"id": 1810797, "name": "Gaiyang", "state": "", "country": "CN", "coord": {"lon": 117.061142, "lat": 26.43878}}, {"id": 1810804, "name": "Gabasumdo", "state": "", "country": "CN", "coord": {"lon": 100.549942, "lat": 35.2589}}, {"id": 1810808, "name": "Fuzhuang", "state": "", "country": "CN", "coord": {"lon": 117.934441, "lat": 39.266109}},