[{"id": 1796417, "name": "Shahe", "state": "", "country": "CN", "coord": {"lon": 113.547783, "lat": 39.270828}}, {"id": 1796421, "name": "Shahecheng", "state": "", "country": "CN", "coord": {"lon": 114.505829, "lat": 36.938332}}, {"id": 1796424, "name": "Shahe", "state": "", "country": "CN", "coord": {"lon": 106.725769, "lat": 32.202999}}, {"id": 1796440, "name": "Shagou", "state": "", "country": "CN", "coord": {"lon": 100.936493, "lat": 35.917171}}, {"id": 1796444, "name": "Shagedu", "state": "", "country": "CN", "coord": {"lon": 110.859444, "lat": 39.647499}}, {"id": 1796447, "name": "Shagang", "state": "", "country": "CN", "coord": {"lon": 112.633331, "lat": 30.066669}}, {"id": 1796460, "name": "Shadaoguan", "state": "", "country": "CN", "coord": {"lon": 111.922043, "lat": 30.17284}}, {"id": 1796461, "name": "Shadaogou", "state": "", "country": "CN", "coord": {"lon": 109.556389, "lat": 29.69389}}, {"id": 1796463, "name": "Shacun", "state": "", "country": "CN", "coord": {"lon": 115.070953, "lat": 26.639}}, {"id": 1796479, "name": "Shaba", "state": "", "country": "CN", "coord": {"lon": 110.017113, "lat": 29.266529}}, {"id": 1796480, "name": "Shaanxi", "state": "", "country": "CN", "coord": {"lon": 109, "lat": 36}}, {"id": 1796484, "name": "Se\u2019ergu", "state": "", "country": "CN", "coord": {"lon": 103.419418, "lat": 31.93825}}, {"id": 1796493, "name": "Seke", "state": "", "country": "CN", "coord": {"lon": 100.33316, "lat": 32.271461}}, {"id": 1796514, "name": "Sanzhang", "state": "", "country": "CN", "coord": {"lon": 109.460732, "lat": 34.446739}}, {"id": 1796516, "name": "Sanzao", "state": "", "country": "CN", "coord": {"lon": 120.349998, "lat": 32.816669}}, {"id": 1796527, "name": "Sanyuan Chengguanzhen", "state": "", "country": "CN", "coord": {"lon": 108.928329, "lat": 34.614719}}, {"id": 1796531, "name": "Sanyu", "state": "", "country": "CN", "coord": {"lon": 121.282516, "lat": 32.123878}}, {"id": 1796533, "name": "Sanying", "state": "", "country": "CN", "coord": {"lon": 106.155457, "lat": 36.28154}}, {"id": 1796548, "name": "Sanyang", "state": "", "country": "CN", "coord": {"lon": 121.471878, "lat": 31.9266}}, {"id": 1796549, "name": "Sanyang", "state": "", "country": "CN", "coord": {"lon": 118.78334, "lat": 30.02317}}, {"id": 1796550, "name": "Sanyanggang", "state": "", "country": "CN", "coord": {"lon": 111.346031, "lat": 28.976601}}, {"id": 1796551, "name": "Sanyang", "state": "", "country": "CN", "coord": {"lon": 113.184479, "lat": 31.316469}}, {"id": 1796554, "name": "Sanyang", "state": "", "country": "CN", "coord": {"lon": 114.388641, "lat": 27.92312}}, {"id": 1796556, "name": "Sanya", "state": "", "country": "CN", "coord": {"lon": 109.504997, "lat": 18.243059}}, {"id": 1796558, "name": "Sanxing", "state": "", "country": "CN", "coord": {"lon": 121.115417, "lat": 31.968121}}, {"id": 1796563, "name": "Sanxing", "state": "", "country": "CN", "coord": {"lon": 114.461441, "lat": 28.21553}}, {"id": 1796565, "name": "Sanxi", "state": "", "country": "CN", "coord": {"lon": 114.939781, "lat": 29.82617}}, {"id": 1796572, "name": "Sanxi", "state": "", "country": "CN", "coord": {"lon": 118.427757, "lat": 30.377741}}, {"id": 1796573, "name": "Sanxi", "state": "", "country": "CN", "coord": {"lon": 116.392479, "lat": 27.143921}}, {"id": 1796590, "name": "Santang", "state": "", "country": "CN", "coord": {"lon": 116.567558, "lat": 28.73525}}, {"id": 1796617, "name": "Sanshilipu", "state": "", "country": "CN", "coord": {"lon": 107.778389, "lat": 36.097549}}, {"id": 1796637, "name": "Sanshan", "state": "", "country": "CN", "coord": {"lon": 118.22448, "lat": 31.22319}}, {"id": 1796640, "name": "Sansha", "state": "", "country": "CN", "coord": {"lon": 120.208771, "lat": 26.9242}}, {"id": 1796641, "name": "Sanrao", "state": "", "country": "CN", "coord": {"lon": 116.83149, "lat": 23.982611}}, {"id": 1796644, "name": "Sanquan", "state": "", "country": "CN", "coord": {"lon": 111.158058, "lat": 35.675282}}, {"id": 1796647, "name": "Sanqiao", "state": "", "country": "CN", "coord": {"lon": 108.835541, "lat": 34.286839}}, {"id": 1796663, "name": "Sanming", "state": "", "country": "CN", "coord": {"lon": 117.618607, "lat": 26.24861}}, {"id": 1796664, "name": "Sanmiaoqian", "state": "", "country": "CN", "coord": {"lon": 116.767319, "lat": 28.970301}}, {"id": 1796669, "name": "Sanmenxia", "state": "", "country": "CN", "coord": {"lon": 111.181389, "lat": 34.774719}}, {"id": 1796671, "name": "Sanmenpo", "state": "", "country": "CN", "coord": {"lon": 110.558052, "lat": 19.716551}}, {"id": 1796687, "name": "Sanlong", "state": "", "country": "CN", "coord": {"lon": 120.510849, "lat": 33.418491}}, {"id": 1796688, "name": "Sanlong", "state": "", "country": "CN", "coord": {"lon": 117.145111, "lat": 29.3853}}, {"id": 1796695, "name": "Sanligang", "state": "", "country": "CN", "coord": {"lon": 113.073448, "lat": 31.49353}}, {"id": 1796696, "name": "Sanlifan", "state": "", "country": "CN", "coord": {"lon": 115.266586, "lat": 30.835529}}, {"id": 1796705, "name": "Sanli", "state": "", "country": "CN", "coord": {"lon": 116.378479, "lat": 28.680901}}, {"id": 1796718, "name": "Sankou", "state": "", "country": "CN", "coord": {"lon": 118.213737, "lat": 30.259279}}, {"id": 1796719, "name": "Sankou", "state": "", "country": "CN", "coord": {"lon": 119.742058, "lat": 30.098869}}, {"id": 1796728, "name": "Sanjie", "state": "", "country": "CN", "coord": {"lon": 120.847862, "lat": 29.75909}}, {"id": 1796743, "name": "Sanjiaocheng", "state": "", "country": "CN", "coord": {"lon": 100.999718, "lat": 36.890831}}, {"id": 1796764, "name": "Sanjiang", "state": "", "country": "CN", "coord": {"lon": 116.004738, "lat": 28.29269}}, {"id": 1796776, "name": "Sanjiang", "state": "", "country": "CN", "coord": {"lon": 112.294418, "lat": 24.720631}}, {"id": 1796781, "name": "Sanjiang", "state": "", "country": "CN", "coord": {"lon": 110.601021, "lat": 19.880619}}, {"id": 1796803, "name": "Sanhu", "state": "", "country": "CN", "coord": {"lon": 115.428047, "lat": 27.92416}}, {"id": 1796808, "name": "Sanhe", "state": "", "country": "CN", "coord": {"lon": 121.118729, "lat": 31.875891}}, {"id": 1796824, "name": "Sanhe", "state": "", "country": "CN", "coord": {"lon": 105.166924, "lat": 33.299271}}, {"id": 1796836, "name": "Sangzi", "state": "", "country": "CN", "coord": {"lon": 117.157219, "lat": 39.90556}}, {"id": 1796839, "name": "Sangzhou", "state": "", "country": "CN", "coord": {"lon": 121.31633, "lat": 29.157459}}, {"id": 1796859, "name": "Sanguansi", "state": "", "country": "CN", "coord": {"lon": 110.652359, "lat": 29.430679}}, {"id": 1796862, "name": "Sanguanmiao", "state": "", "country": "CN", "coord": {"lon": 109.416, "lat": 34.254848}}, {"id": 1796876, "name": "Sangmu", "state": "", "country": "CN", "coord": {"lon": 106.26889, "lat": 28.215281}}, {"id": 1796883, "name": "Sangke", "state": "", "country": "CN", "coord": {"lon": 102.444107, "lat": 35.124969}}, {"id": 1796892, "name": "Sangengluo", "state": "", "country": "CN", "coord": {"lon": 110.180511, "lat": 18.86306}}, {"id": 1796907, "name": "Sanduo", "state": "", "country": "CN", "coord": {"lon": 119.65667, "lat": 32.816109}}, {"id": 1796910, "name": "Sandun", "state": "", "country": "CN", "coord": {"lon": 120.077629, "lat": 30.324699}}, {"id": 1796921, "name": "Sandu", "state": "", "country": "CN", "coord": {"lon": 114.685226, "lat": 29.174681}}, {"id": 1796922, "name": "Sandu", "state": "", "country": "CN", "coord": {"lon": 114.446373, "lat": 28.56992}}, {"id": 1796930, "name": "Sandouping", "state": "", "country": "CN", "coord": {"lon": 111.010483, "lat": 30.81502}}, {"id": 1796936, "name": "Sandian", "state": "", "country": "CN", "coord": {"lon": 114.795639, "lat": 30.929319}}, {"id": 1796946, "name": "Sandao", "state": "", "country": "CN", "coord": {"lon": 109.66436, "lat": 18.46699}}, {"id": 1796955, "name": "Sanchang", "state": "", "country": "CN", "coord": {"lon": 121.237221, "lat": 31.89472}}, {"id": 1796958, "name": "Sanchakou", "state": "", "country": "CN", "coord": {"lon": 117.318611, "lat": 39.784439}}, {"id": 1796960, "name": "Sankou", "state": "", "country": "CN", "coord": {"lon": 119.48333, "lat": 34.183331}}, {"id": 1796971, "name": "Sanchagang", "state": "", "country": "CN", "coord": {"lon": 116.390923, "lat": 29.274179}}, {"id": 1796976, "name": "Sancha", "state": "", "country": "CN", "coord": {"lon": 107.045403, "lat": 36.051102}}, {"id": 1796979, "name": "Sancha", "state": "", "country": "CN", "coord": {"lon": 106.672119, "lat": 33.840969}}, {"id": 1796983, "name": "Sancha", "state": "", "country": "CN", "coord": {"lon": 110.564438, "lat": 29.06222}}, {"id": 1796989, "name": "Changsha", "state": "", "country": "CN", "coord": {"lon": 112.683533, "lat": 22.38265}}, {"id": 1796991, "name": "Sanbiao", "state": "", "country": "CN", "coord": {"lon": 115.590218, "lat": 25.04208}}, {"id": 1797023, "name": "Ruoshui", "state": "", "country": "CN", "coord": {"lon": 109.966667, "lat": 27.00194}}, {"id": 1797028, "name": "Runzhen", "state": "", "country": "CN", "coord": {"lon": 108.5075, "lat": 34.869999}}, {"id": 1797034, "name": "Rende", "state": "", "country": "CN", "coord": {"lon": 103.276039, "lat": 25.558201}}, {"id": 1797038, "name": "Runing", "state": "", "country": "CN", "coord": {"lon": 114.354172, "lat": 33.00111}}, {"id": 1797039, "name": "Rulong", "state": "", "country": "CN", "coord": {"lon": 100.309578, "lat": 30.94178}}, {"id": 1797041, "name": "Rulin", "state": "", "country": "CN", "coord": {"lon": 110.266273, "lat": 26.34704}}, {"id": 1797046, "name": "Ruixi", "state": "", "country": "CN", "coord": {"lon": 110.124611, "lat": 19.734421}}, {"id": 1797047, "name": "Ruishi", "state": "", "country": "CN", "coord": {"lon": 110.265747, "lat": 29.41861}}, {"id": 1797051, "name": "Ruilin", "state": "", "country": "CN", "coord": {"lon": 115.841751, "lat": 26.16753}}, {"id": 1797054, "name": "Ruihong", "state": "", "country": "CN", "coord": {"lon": 116.4049, "lat": 28.730301}}, {"id": 1797060, "name": "Guwei", "state": "", "country": "CN", "coord": {"lon": 110.657097, "lat": 34.710339}}, {"id": 1797064, "name": "Ruhu", "state": "", "country": "CN", "coord": {"lon": 114.452904, "lat": 23.180849}}, {"id": 1797069, "name": "Rucheng", "state": "", "country": "CN", "coord": {"lon": 120.555283, "lat": 32.388329}}, {"id": 1797071, "name": "Rudong", "state": "", "country": "CN", "coord": {"lon": 111.98333, "lat": 29.73333}}, {"id": 1797076, "name": "Rucheng Chengguanzhen", "state": "", "country": "CN", "coord": {"lon": 113.720139, "lat": 25.53257}}, {"id": 1797077, "name": "Rucheng", "state": "", "country": "CN", "coord": {"lon": 113.2686, "lat": 24.77846}}, {"id": 1797079, "name": "Ru\u2019ao", "state": "", "country": "CN", "coord": {"lon": 120.916634, "lat": 29.35947}}, {"id": 1797083, "name": "Rouyuan", "state": "", "country": "CN", "coord": {"lon": 107.983109, "lat": 36.460918}}, {"id": 1797091, "name": "Rongwo", "state": "", "country": "CN", "coord": {"lon": 102.015999, "lat": 35.514832}}, {"id": 1797094, "name": "Rongshui", "state": "", "country": "CN", "coord": {"lon": 109.25, "lat": 25.066669}}, {"id": 1797099, "name": "Rongmei", "state": "", "country": "CN", "coord": {"lon": 110.026108, "lat": 29.89333}}, {"id": 1797101, "name": "Rongkou", "state": "", "country": "CN", "coord": {"lon": 117.541031, "lat": 29.745399}}, {"id": 1797102, "name": "Rongjiawan", "state": "", "country": "CN", "coord": {"lon": 113.10244, "lat": 29.15}}, {"id": 1797117, "name": "Rongcheng", "state": "", "country": "CN", "coord": {"lon": 117.8517, "lat": 30.63398}}, {"id": 1797120, "name": "Fuqing", "state": "", "country": "CN", "coord": {"lon": 119.37944, "lat": 25.725}}, {"id": 1797121, "name": "Jieyang", "state": "", "country": "CN", "coord": {"lon": 116.364159, "lat": 23.52886}}, {"id": 1797122, "name": "Rongcheng", "state": "", "country": "CN", "coord": {"lon": 110.557167, "lat": 22.877239}}, {"id": 1797132, "name": "Rizhao", "state": "", "country": "CN", "coord": {"lon": 119.455276, "lat": 35.427502}}, {"id": 1797136, "name": "Rixinhe", "state": "", "country": "CN", "coord": {"lon": 121.679718, "lat": 31.922501}}, {"id": 1797144, "name": "Rifeng", "state": "", "country": "CN", "coord": {"lon": 116.911072, "lat": 27.297279}}, {"id": 1797145, "name": "Ridong", "state": "", "country": "CN", "coord": {"lon": 116.270103, "lat": 25.983919}}, {"id": 1797175, "name": "Rentian", "state": "", "country": "CN", "coord": {"lon": 116.116608, "lat": 25.98727}}, {"id": 1797178, "name": "Renshan", "state": "", "country": "CN", "coord": {"lon": 114.80423, "lat": 22.83795}}, {"id": 1797181, "name": "Renqiu", "state": "", "country": "CN", "coord": {"lon": 116.093613, "lat": 38.698891}}, {"id": 1797195, "name": "Renhua", "state": "", "country": "CN", "coord": {"lon": 113.744461, "lat": 25.091249}}, {"id": 1797198, "name": "Renheping", "state": "", "country": "CN", "coord": {"lon": 111.236687, "lat": 30.102221}}, {"id": 1797211, "name": "Renhe", "state": "", "country": "CN", "coord": {"lon": 115.260361, "lat": 27.65657}}, {"id": 1797212, "name": "Renhe", "state": "", "country": "CN", "coord": {"lon": 101.738602, "lat": 26.49926}}, {"id": 1797219, "name": "Renfengzhuang", "state": "", "country": "CN", "coord": {"lon": 117.662216, "lat": 39.31139}}, {"id": 1797233, "name": "Renchaoxi", "state": "", "country": "CN", "coord": {"lon": 110.585678, "lat": 29.60898}}, {"id": 1797239, "name": "Raoshi", "state": "", "country": "CN", "coord": {"lon": 114.143227, "lat": 27.85004}}, {"id": 1797252, "name": "Ranghe", "state": "", "country": "CN", "coord": {"lon": 112.850822, "lat": 33.69223}}, {"id": 1797258, "name": "Quzi", "state": "", "country": "CN", "coord": {"lon": 107.512039, "lat": 36.293228}}, {"id": 1797259, "name": "Quzi", "state": "", "country": "CN", "coord": {"lon": 108.187653, "lat": 34.86565}}, {"id": 1797264, "name": "Quzhou", "state": "", "country": "CN", "coord": {"lon": 118.868607, "lat": 28.95944}}, {"id": 1797271, "name": "Quyang", "state": "", "country": "CN", "coord": {"lon": 109.638077, "lat": 26.575069}}, {"id": 1797275, "name": "Quxia", "state": "", "country": "CN", "coord": {"lon": 120.156982, "lat": 32.100368}}, {"id": 1797281, "name": "Quxi", "state": "", "country": "CN", "coord": {"lon": 116.915169, "lat": 25.653761}}, {"id": 1797283, "name": "Quxi", "state": "", "country": "CN", "coord": {"lon": 116.398018, "lat": 23.589939}}, {"id": 1797287, "name": "Lechang", "state": "", "country": "CN", "coord": {"lon": 111.467216, "lat": 35.64201}}, {"id": 1797293, "name": "Qutang", "state": "", "country": "CN", "coord": {"lon": 120.32708, "lat": 32.49641}}, {"id": 1797308, "name": "Qulai", "state": "", "country": "CN", "coord": {"lon": 114.860451, "lat": 27.05966}}, {"id": 1797318, "name": "Qujing", "state": "", "country": "CN", "coord": {"lon": 103.783333, "lat": 25.48333}}, {"id": 1797326, "name": "Qujiang", "state": "", "country": "CN", "coord": {"lon": 106.96785, "lat": 30.84206}}, {"id": 1797327, "name": "Qujiang", "state": "", "country": "CN", "coord": {"lon": 115.79097, "lat": 28.24715}}, {"id": 1797333, "name": "Qufu", "state": "", "country": "CN", "coord": {"lon": 116.991112, "lat": 35.596668}}, {"id": 1797342, "name": "Qucun", "state": "", "country": "CN", "coord": {"lon": 111.545029, "lat": 35.733341}}, {"id": 1797352, "name": "Quanzhou", "state": "", "country": "CN", "coord": {"lon": 111.0364, "lat": 25.944599}}, {"id": 1797353, "name": "Quanzhou", "state": "", "country": "CN", "coord": {"lon": 118.585831, "lat": 24.913891}}, {"id": 1797355, "name": "Quanzhai", "state": "", "country": "CN", "coord": {"lon": 113.85836, "lat": 33.442459}}, {"id": 1797368, "name": "Quanshang", "state": "", "country": "CN", "coord": {"lon": 116.962357, "lat": 26.41922}}, {"id": 1797371, "name": "Chengxiang", "state": "", "country": "CN", "coord": {"lon": 114.52491, "lat": 24.746361}}, {"id": 1797385, "name": "Quangang", "state": "", "country": "CN", "coord": {"lon": 115.596581, "lat": 28.155939}}, {"id": 1797398, "name": "Qizili", "state": "", "country": "CN", "coord": {"lon": 118.740578, "lat": 30.001699}}, {"id": 1797402, "name": "Qizhou", "state": "", "country": "CN", "coord": {"lon": 115.333328, "lat": 30.066669}}, {"id": 1797404, "name": "Qizhen", "state": "", "country": "CN", "coord": {"lon": 107.7136, "lat": 34.210621}}, {"id": 1797414, "name": "Qiying", "state": "", "country": "CN", "coord": {"lon": 106.148621, "lat": 36.503239}}, {"id": 1797417, "name": "Wuxi", "state": "", "country": "CN", "coord": {"lon": 111.841843, "lat": 26.573071}}, {"id": 1797431, "name": "Zhaoyu", "state": "", "country": "CN", "coord": {"lon": 112.316673, "lat": 37.355282}}, {"id": 1797438, "name": "Zhuangyuan", "state": "", "country": "CN", "coord": {"lon": 120.825562, "lat": 37.297501}}, {"id": 1797451, "name": "Qiuxi", "state": "", "country": "CN", "coord": {"lon": 116.271797, "lat": 27.84877}}, {"id": 1797465, "name": "Qiukou", "state": "", "country": "CN", "coord": {"lon": 117.899643, "lat": 29.34701}}, {"id": 1797466, "name": "Qiujin", "state": "", "country": "CN", "coord": {"lon": 115.678947, "lat": 29.169439}}, {"id": 1797475, "name": "Qiucun", "state": "", "country": "CN", "coord": {"lon": 121.621391, "lat": 29.604441}}, {"id": 1797476, "name": "Qiuchuan", "state": "", "country": "CN", "coord": {"lon": 118.316673, "lat": 28.866671}}, {"id": 1797479, "name": "Qiu\u2019ai", "state": "", "country": "CN", "coord": {"lon": 121.631607, "lat": 29.85198}}, {"id": 1797487, "name": "Qitao", "state": "", "country": "CN", "coord": {"lon": 119.849998, "lat": 34.166672}}, {"id": 1797501, "name": "Qishi", "state": "", "country": "CN", "coord": {"lon": 114.01236, "lat": 23.0681}}, {"id": 1797519, "name": "Qiqin", "state": "", "country": "CN", "coord": {"lon": 115.605087, "lat": 27.70569}}, {"id": 1797524, "name": "Qiping", "state": "", "country": "CN", "coord": {"lon": 114.204407, "lat": 28.665489}}, {"id": 1797535, "name": "Qiongshan", "state": "", "country": "CN", "coord": {"lon": 110.354172, "lat": 20.005831}}, {"id": 1797537, "name": "Qiongxi", "state": "", "country": "CN", "coord": {"lon": 102.542938, "lat": 32.792721}}, {"id": 1797543, "name": "Qionghu", "state": "", "country": "CN", "coord": {"lon": 112.352173, "lat": 28.842979}}, {"id": 1797551, "name": "Qinzhou", "state": "", "country": "CN", "coord": {"lon": 108.616669, "lat": 21.950001}}, {"id": 1797554, "name": "Qinhe", "state": "", "country": "CN", "coord": {"lon": 112.324722, "lat": 36.501389}}, {"id": 1797559, "name": "Dingchang", "state": "", "country": "CN", "coord": {"lon": 112.687218, "lat": 36.763062}}, {"id": 1797568, "name": "Longgang", "state": "", "country": "CN", "coord": {"lon": 112.157982, "lat": 35.689411}}, {"id": 1797575, "name": "Qinnan", "state": "", "country": "CN", "coord": {"lon": 119.91333, "lat": 33.253059}}, {"id": 1797595, "name": "Qinhuangdao", "state": "", "country": "CN", "coord": {"lon": 119.588333, "lat": 39.931671}}, {"id": 1797630, "name": "Qingyuan", "state": "", "country": "CN", "coord": {"lon": 112.325829, "lat": 37.617481}}, {"id": 1797645, "name": "Qingyang", "state": "", "country": "CN", "coord": {"lon": 120.247063, "lat": 31.765949}}, {"id": 1797646, "name": "Qingyangyi", "state": "", "country": "CN", "coord": {"lon": 106.390106, "lat": 33.084431}}, {"id": 1797656, "name": "Qingcheng", "state": "", "country": "CN", "coord": {"lon": 107.885483, "lat": 35.998901}}, {"id": 1797658, "name": "Jinjiang", "state": "", "country": "CN", "coord": {"lon": 118.574142, "lat": 24.81978}}, {"id": 1797676, "name": "Qinglang", "state": "", "country": "CN", "coord": {"lon": 108.73278, "lat": 27.12472}}, {"id": 1797677, "name": "Qingxi", "state": "", "country": "CN", "coord": {"lon": 110.359718, "lat": 26.42861}}, {"id": 1797679, "name": "Qingxi", "state": "", "country": "CN", "coord": {"lon": 115.613922, "lat": 25.22949}}, {"id": 1797680, "name": "Qingxi", "state": "", "country": "CN", "coord": {"lon": 114.155357, "lat": 22.84894}}, {"id": 1797704, "name": "Qingtang", "state": "", "country": "CN", "coord": {"lon": 113.916672, "lat": 24.200001}}, {"id": 1797736, "name": "Qingshuihe", "state": "", "country": "CN", "coord": {"lon": 113.107841, "lat": 39.721981}}, {"id": 1797747, "name": "Qingshui", "state": "", "country": "CN", "coord": {"lon": 118.47686, "lat": 31.31724}}, {"id": 1797767, "name": "Qingshan", "state": "", "country": "CN", "coord": {"lon": 116.697937, "lat": 29.69416}}, {"id": 1797782, "name": "Qingshanhu", "state": "", "country": "CN", "coord": {"lon": 119.81208, "lat": 30.250601}}, {"id": 1797793, "name": "Qingquan", "state": "", "country": "CN", "coord": {"lon": 115.255928, "lat": 30.45113}}, {"id": 1797795, "name": "Qingqiaoyi", "state": "", "country": "CN", "coord": {"lon": 106.976173, "lat": 33.328972}}, {"id": 1797798, "name": "Qingpu", "state": "", "country": "CN", "coord": {"lon": 121.114082, "lat": 31.15394}}, {"id": 1797805, "name": "Qingshuitang", "state": "", "country": "CN", "coord": {"lon": 109.06942, "lat": 29.797689}}, {"id": 1797836, "name": "Qinglong", "state": "", "country": "CN", "coord": {"lon": 102.982498, "lat": 24.44278}}, {"id": 1797852, "name": "Qinglian", "state": "", "country": "CN", "coord": {"lon": 112.755363, "lat": 24.461081}}, {"id": 1797859, "name": "Qingkou", "state": "", "country": "CN", "coord": {"lon": 119.108353, "lat": 34.848282}}, {"id": 1797870, "name": "Qingjiangqiao", "state": "", "country": "CN", "coord": {"lon": 110.985283, "lat": 26.604441}}, {"id": 1797873, "name": "Huai'an", "state": "", "country": "CN", "coord": {"lon": 119.019173, "lat": 33.588612}}, {"id": 1797875, "name": "Qingjiang", "state": "", "country": "CN", "coord": {"lon": 114.78714, "lat": 29.19211}}, {"id": 1797883, "name": "Qinghua", "state": "", "country": "CN", "coord": {"lon": 107.836311, "lat": 34.42569}}, {"id": 1797884, "name": "Qinghua", "state": "", "country": "CN", "coord": {"lon": 108.028542, "lat": 34.18409}}, {"id": 1797886, "name": "Qinghua", "state": "", "country": "CN", "coord": {"lon": 117.774338, "lat": 29.41901}}, {"id": 1797905, "name": "Qingguang", "state": "", "country": "CN", "coord": {"lon": 117.026672, "lat": 39.195}}, {"id": 1797915, "name": "Qingfu", "state": "", "country": "CN", "coord": {"lon": 104.51622, "lat": 28.43701}}, {"id": 1797929, "name": "Qingdao", "state": "", "country": "CN", "coord": {"lon": 120.371941, "lat": 36.09861}}, {"id": 1797933, "name": "Qingcun", "state": "", "country": "CN", "coord": {"lon": 121.579941, "lat": 30.92473}}, {"id": 1797934, "name": "Qingciyao", "state": "", "country": "CN", "coord": {"lon": 113.767609, "lat": 39.619831}}, {"id": 1797945, "name": "Qingyuan", "state": "", "country": "CN", "coord": {"lon": 113.033333, "lat": 23.700001}}, {"id": 1797955, "name": "Qindu", "state": "", "country": "CN", "coord": {"lon": 108.750832, "lat": 34.102501}}, {"id": 1797959, "name": "Qincheng", "state": "", "country": "CN", "coord": {"lon": 116.530083, "lat": 27.2127}}, {"id": 1797971, "name": "Qimeng", "state": "", "country": "CN", "coord": {"lon": 108.999443, "lat": 26.48472}}, {"id": 1797972, "name": "Qishan", "state": "", "country": "CN", "coord": {"lon": 117.719368, "lat": 29.844311}}, {"id": 1797988, "name": "Qilin", "state": "", "country": "CN", "coord": {"lon": 121.349129, "lat": 31.936621}}, {"id": 1797996, "name": "Qiling", "state": "", "country": "CN", "coord": {"lon": 115.449997, "lat": 24.08333}}, {"id": 1798016, "name": "Qili", "state": "", "country": "CN", "coord": {"lon": 116.268478, "lat": 28.447809}}, {"id": 1798031, "name": "Qijiaxi", "state": "", "country": "CN", "coord": {"lon": 110.647926, "lat": 28.86874}}, {"id": 1798037, "name": "Qijiaping", "state": "", "country": "CN", "coord": {"lon": 110.853638, "lat": 28.88485}}, {"id": 1798043, "name": "Qihe", "state": "", "country": "CN", "coord": {"lon": 111.375389, "lat": 29.13278}}, {"id": 1798047, "name": "Qihong", "state": "", "country": "CN", "coord": {"lon": 117.6688, "lat": 29.69524}}, {"id": 1798056, "name": "Qigong", "state": "", "country": "CN", "coord": {"lon": 112.568901, "lat": 24.310381}}, {"id": 1798078, "name": "Qidu", "state": "", "country": "CN", "coord": {"lon": 119.547218, "lat": 26.76528}}, {"id": 1798082, "name": "Hongqiao", "state": "", "country": "CN", "coord": {"lon": 112.108139, "lat": 26.76837}}, {"id": 1798091, "name": "Xiumei", "state": "", "country": "CN", "coord": {"lon": 111.625862, "lat": 29.51391}}, {"id": 1798093, "name": "Qibu", "state": "", "country": "CN", "coord": {"lon": 116.863983, "lat": 28.72151}}, {"id": 1798095, "name": "Qibu", "state": "", "country": "CN", "coord": {"lon": 119.544998, "lat": 26.5075}}, {"id": 1798100, "name": "Qiawan", "state": "", "country": "CN", "coord": {"lon": 116.574989, "lat": 27.27412}}, {"id": 1798105, "name": "Qiaozhuang", "state": "", "country": "CN", "coord": {"lon": 105.233429, "lat": 32.59026}}, {"id": 1798107, "name": "Qiaozhen", "state": "", "country": "CN", "coord": {"lon": 107.139183, "lat": 34.486549}}, {"id": 1798116, "name": "Qiaowa", "state": "", "country": "CN", "coord": {"lon": 101.277809, "lat": 27.93079}}, {"id": 1798133, "name": "Qiaotou", "state": "", "country": "CN", "coord": {"lon": 104.814178, "lat": 33.753689}}, {"id": 1798134, "name": "Qiaotou", "state": "", "country": "CN", "coord": {"lon": 104.811684, "lat": 33.107632}}, {"id": 1798135, "name": "Qiaotou", "state": "", "country": "CN", "coord": {"lon": 112.810158, "lat": 33.055149}}, {"id": 1798146, "name": "Qiaotou", "state": "", "country": "CN", "coord": {"lon": 109.926369, "lat": 19.96451}}, {"id": 1798147, "name": "Qiaoting", "state": "", "country": "CN", "coord": {"lon": 118.546669, "lat": 30.388889}}, {"id": 1798148, "name": "Qiaosi", "state": "", "country": "CN", "coord": {"lon": 120.285591, "lat": 30.351601}}, {"id": 1798150, "name": "Qiaoshe", "state": "", "country": "CN", "coord": {"lon": 115.98333, "lat": 28.85}}, {"id": 1798158, "name": "Qiaonan", "state": "", "country": "CN", "coord": {"lon": 109.592621, "lat": 34.34333}}, {"id": 1798159, "name": "Qiaomu", "state": "", "country": "CN", "coord": {"lon": 118.077263, "lat": 30.703671}}, {"id": 1798176, "name": "Qiaojiang", "state": "", "country": "CN", "coord": {"lon": 110.676392, "lat": 27.93722}}, {"id": 1798183, "name": "Qiaogu", "state": "", "country": "CN", "coord": {"lon": 117.724716, "lat": 39.3125}}, {"id": 1798190, "name": "Qiaodong", "state": "", "country": "CN", "coord": {"lon": 115.819572, "lat": 28.05839}}, {"id": 1798203, "name": "Qi\u2019an", "state": "", "country": "CN", "coord": {"lon": 121.04467, "lat": 32.175819}}, {"id": 1798219, "name": "Yuqian", "state": "", "country": "CN", "coord": {"lon": 119.39315, "lat": 30.188101}}, {"id": 1798227, "name": "Qianxiang", "state": "", "country": "CN", "coord": {"lon": 120.313583, "lat": 29.042601}}, {"id": 1798256, "name": "Qianshan", "state": "", "country": "CN", "coord": {"lon": 114.13353, "lat": 27.34815}}, {"id": 1798268, "name": "Qianqing", "state": "", "country": "CN", "coord": {"lon": 120.405121, "lat": 30.125059}}, {"id": 1798271, "name": "Qianqiao", "state": "", "country": "CN", "coord": {"lon": 120.22496, "lat": 31.603001}}, {"id": 1798292, "name": "Qianling", "state": "", "country": "CN", "coord": {"lon": 109.616669, "lat": 28.716669}}, {"id": 1798299, "name": "Qiankou", "state": "", "country": "CN", "coord": {"lon": 118.29528, "lat": 29.87056}}, {"id": 1798323, "name": "Qianjia", "state": "", "country": "CN", "coord": {"lon": 109.082031, "lat": 18.569241}}, {"id": 1798343, "name": "Qiangtou", "state": "", "country": "CN", "coord": {"lon": 121.780563, "lat": 29.46389}}, {"id": 1798349, "name": "Qiangbai", "state": "", "country": "CN", "coord": {"lon": 109.810379, "lat": 34.747139}}, {"id": 1798353, "name": "Qianfang", "state": "", "country": "CN", "coord": {"lon": 116.233566, "lat": 28.52351}}, {"id": 1798361, "name": "Qiandong", "state": "", "country": "CN", "coord": {"lon": 108.637779, "lat": 34.521111}}, {"id": 1798362, "name": "Qiandong", "state": "", "country": "CN", "coord": {"lon": 116.914497, "lat": 23.673809}}, {"id": 1798364, "name": "Qiandeng", "state": "", "country": "CN", "coord": {"lon": 120.996941, "lat": 31.266979}}, {"id": 1798371, "name": "Qiancheng", "state": "", "country": "CN", "coord": {"lon": 109.765427, "lat": 27.185011}}, {"id": 1798382, "name": "Qiagai", "state": "", "country": "CN", "coord": {"lon": 103.459129, "lat": 34.844959}}, {"id": 1798384, "name": "Zixiao", "state": "", "country": "CN", "coord": {"lon": 116.282509, "lat": 27.01759}}, {"id": 1798402, "name": "Qabqir", "state": "", "country": "CN", "coord": {"lon": 106.873611, "lat": 39.616112}}, {"id": 1798403, "name": "Qabqa", "state": "", "country": "CN", "coord": {"lon": 100.61306, "lat": 36.281391}}, {"id": 1798407, "name": "Puzi", "state": "", "country": "CN", "coord": {"lon": 109.77639, "lat": 26.986389}}, {"id": 1798417, "name": "Puyuan", "state": "", "country": "CN", "coord": {"lon": 120.62912, "lat": 30.68022}}, {"id": 1798422, "name": "Puyang Chengguanzhen", "state": "", "country": "CN", "coord": {"lon": 115.00528, "lat": 35.702782}}, {"id": 1798424, "name": "Puyang", "state": "", "country": "CN", "coord": {"lon": 120.248497, "lat": 29.987341}}, {"id": 1798425, "name": "Puyang", "state": "", "country": "CN", "coord": {"lon": 119.886108, "lat": 29.460279}}, {"id": 1798427, "name": "Pucheng", "state": "", "country": "CN", "coord": {"lon": 111.095001, "lat": 36.413609}}, {"id": 1798443, "name": "Puting", "state": "", "country": "CN", "coord": {"lon": 115.757462, "lat": 29.331289}}, {"id": 1798446, "name": "Futian", "state": "", "country": "CN", "coord": {"lon": 114.958923, "lat": 29.268299}}, {"id": 1798449, "name": "Putian", "state": "", "country": "CN", "coord": {"lon": 119.010277, "lat": 25.43944}}, {"id": 1798463, "name": "Pushang", "state": "", "country": "CN", "coord": {"lon": 117.770264, "lat": 26.933701}}, {"id": 1798472, "name": "Puqian", "state": "", "country": "CN", "coord": {"lon": 110.577538, "lat": 20.02627}}, {"id": 1798473, "name": "Puqi", "state": "", "country": "CN", "coord": {"lon": 113.883331, "lat": 29.716669}}, {"id": 1798480, "name": "Pumiao", "state": "", "country": "CN", "coord": {"lon": 108.48333, "lat": 22.75}}, {"id": 1798490, "name": "Pulandian", "state": "", "country": "CN", "coord": {"lon": 121.966942, "lat": 39.395279}}, {"id": 1798492, "name": "Pukou", "state": "", "country": "CN", "coord": {"lon": 109.555832, "lat": 26.522221}}, {"id": 1798495, "name": "Pujijie", "state": "", "country": "CN", "coord": {"lon": 108.245132, "lat": 34.233261}}, {"id": 1798500, "name": "Wugong", "state": "", "country": "CN", "coord": {"lon": 108.206749, "lat": 34.258289}}, {"id": 1798501, "name": "Puji", "state": "", "country": "CN", "coord": {"lon": 106.454781, "lat": 32.239079}}, {"id": 1798505, "name": "Puji", "state": "", "country": "CN", "coord": {"lon": 102.54126, "lat": 27.38019}}, {"id": 1798508, "name": "Puhua", "state": "", "country": "CN", "coord": {"lon": 109.395119, "lat": 34.15609}}, {"id": 1798513, "name": "Puhechang", "state": "", "country": "CN", "coord": {"lon": 106.831108, "lat": 28.952499}}, {"id": 1798524, "name": "Pudong", "state": "", "country": "CN", "coord": {"lon": 121.527588, "lat": 31.23513}}, {"id": 1798532, "name": "Pucheng Chengguanzhen", "state": "", "country": "CN", "coord": {"lon": 109.584061, "lat": 34.956108}}, {"id": 1798537, "name": "Pu\u2019an", "state": "", "country": "CN", "coord": {"lon": 105.466858, "lat": 32.037281}}, {"id": 1798548, "name": "Poyang", "state": "", "country": "CN", "coord": {"lon": 116.667542, "lat": 28.99242}}, {"id": 1798559, "name": "Potou", "state": "", "country": "CN", "coord": {"lon": 110.435448, "lat": 21.26841}}, {"id": 1798564, "name": "Wangge\u2019ertang", "state": "", "country": "CN", "coord": {"lon": 102.833069, "lat": 35.241718}}, {"id": 1798587, "name": "Pogan", "state": "", "country": "CN", "coord": {"lon": 116.78331, "lat": 28.32712}}, {"id": 1798598, "name": "Pitong", "state": "", "country": "CN", "coord": {"lon": 103.88253, "lat": 30.809931}}, {"id": 1798600, "name": "Pisha", "state": "", "country": "CN", "coord": {"lon": 102.757713, "lat": 27.07057}}, {"id": 1798632, "name": "Pingyin", "state": "", "country": "CN", "coord": {"lon": 116.445282, "lat": 36.283058}}, {"id": 1798634, "name": "Pingyi", "state": "", "country": "CN", "coord": {"lon": 117.630829, "lat": 35.500561}}, {"id": 1798636, "name": "Gutao", "state": "", "country": "CN", "coord": {"lon": 112.178062, "lat": 37.202499}}, {"id": 1798637, "name": "Pingyao", "state": "", "country": "CN", "coord": {"lon": 119.963333, "lat": 30.40056}}, {"id": 1798654, "name": "Pingxiang", "state": "", "country": "CN", "coord": {"lon": 113.849998, "lat": 27.616671}}, {"id": 1798661, "name": "Pingxi", "state": "", "country": "CN", "coord": {"lon": 115.931053, "lat": 27.115709}}, {"id": 1798665, "name": "Pingwang", "state": "", "country": "CN", "coord": {"lon": 120.636108, "lat": 30.976669}}, {"id": 1798688, "name": "Qingyang", "state": "", "country": "CN", "coord": {"lon": 113.417213, "lat": 36.207119}}, {"id": 1798689, "name": "Pingshui", "state": "", "country": "CN", "coord": {"lon": 120.6194, "lat": 29.893641}}, {"id": 1798690, "name": "Pingshui", "state": "", "country": "CN", "coord": {"lon": 113.416672, "lat": 26.85}}, {"id": 1798694, "name": "Pingshi", "state": "", "country": "CN", "coord": {"lon": 113.051399, "lat": 25.286671}}, {"id": 1798708, "name": "Pingshan", "state": "", "country": "CN", "coord": {"lon": 116.283257, "lat": 26.218149}}, {"id": 1798710, "name": "Pingshan", "state": "", "country": "CN", "coord": {"lon": 102.475807, "lat": 25.51985}}, {"id": 1798713, "name": "Pingshan", "state": "", "country": "CN", "coord": {"lon": 114.713112, "lat": 22.993759}}, {"id": 1798715, "name": "Pingshan", "state": "", "country": "CN", "coord": {"lon": 114.33783, "lat": 22.693359}}, {"id": 1798725, "name": "Pingqiao", "state": "", "country": "CN", "coord": {"lon": 114.120277, "lat": 32.095829}}, {"id": 1798733, "name": "Pingnan", "state": "", "country": "CN", "coord": {"lon": 110.397568, "lat": 23.5543}}, {"id": 1798735, "name": "Pingmu", "state": "", "country": "CN", "coord": {"lon": 107.03334, "lat": 33.98103}}, {"id": 1798739, "name": "Pingma", "state": "", "country": "CN", "coord": {"lon": 107.101402, "lat": 23.63743}}, {"id": 1798745, "name": "Pingluo", "state": "", "country": "CN", "coord": {"lon": 105.410332, "lat": 33.548801}}, {"id": 1798749, "name": "Pinglumiao", "state": "", "country": "CN", "coord": {"lon": 109.734451, "lat": 34.909939}}, {"id": 1798752, "name": "Pingling", "state": "", "country": "CN", "coord": {"lon": 114.339417, "lat": 23.651621}}, {"id": 1798753, "name": "Pinglin", "state": "", "country": "CN", "coord": {"lon": 112.709328, "lat": 31.82476}}, {"id": 1798754, "name": "Pinglin", "state": "", "country": "CN", "coord": {"lon": 113.605362, "lat": 31.415449}}, {"id": 1798760, "name": "Pingliang", "state": "", "country": "CN", "coord": {"lon": 106.686111, "lat": 35.539169}}, {"id": 1798764, "name": "Pingli", "state": "", "country": "CN", "coord": {"lon": 117.609108, "lat": 29.73666}}, {"id": 1798768, "name": "Pingle", "state": "", "country": "CN", "coord": {"lon": 110.643059, "lat": 24.64522}}, {"id": 1798775, "name": "Pingkan", "state": "", "country": "CN", "coord": {"lon": 106.997871, "lat": 33.863701}}, {"id": 1798783, "name": "Hanchang", "state": "", "country": "CN", "coord": {"lon": 113.583328, "lat": 28.700001}}, {"id": 1798784, "name": "Pingjiang", "state": "", "country": "CN", "coord": {"lon": 108.395279, "lat": 25.97056}}, {"id": 1798790, "name": "Pinghu", "state": "", "country": "CN", "coord": {"lon": 115.358139, "lat": 30.909031}}, {"id": 1798791, "name": "Pinghu", "state": "", "country": "CN", "coord": {"lon": 118.792068, "lat": 26.73731}}, {"id": 1798799, "name": "Pinghai", "state": "", "country": "CN", "coord": {"lon": 114.870796, "lat": 22.6152}}, {"id": 1798805, "name": "Pingpu", "state": "", "country": "CN", "coord": {"lon": 118.322083, "lat": 31.009821}}, {"id": 1798813, "name": "Pingfeng", "state": "", "country": "CN", "coord": {"lon": 105.561974, "lat": 35.741821}}, {"id": 1798821, "name": "Pingdu", "state": "", "country": "CN", "coord": {"lon": 119.946388, "lat": 36.784439}}, {"id": 1798822, "name": "Pingdu", "state": "", "country": "CN", "coord": {"lon": 114.610184, "lat": 27.386299}}, {"id": 1798827, "name": "Pingdingshan", "state": "", "country": "CN", "coord": {"lon": 113.301193, "lat": 33.738468}}, {"id": 1798828, "name": "Guanshan", "state": "", "country": "CN", "coord": {"lon": 113.592239, "lat": 37.81464}}, {"id": 1798846, "name": "Pingchuan", "state": "", "country": "CN", "coord": {"lon": 116.096008, "lat": 25.09453}}, {"id": 1798859, "name": "Pingba", "state": "", "country": "CN", "coord": {"lon": 113.316528, "lat": 31.315269}}, {"id": 1798863, "name": "Ping\u2019an", "state": "", "country": "CN", "coord": {"lon": 102.124718, "lat": 36.496941}}, {"id": 1798889, "name": "Xinguan", "state": "", "country": "CN", "coord": {"lon": 111.530006, "lat": 39.455269}}, {"id": 1798894, "name": "Piancheng", "state": "", "country": "CN", "coord": {"lon": 105.969482, "lat": 35.966339}}, {"id": 1798898, "name": "Pengzhai", "state": "", "country": "CN", "coord": {"lon": 115.072731, "lat": 24.359329}}, {"id": 1798899, "name": "Longcheng", "state": "", "country": "CN", "coord": {"lon": 116.551048, "lat": 29.89912}}, {"id": 1798909, "name": "Penguanzhuang", "state": "", "country": "CN", "coord": {"lon": 117.813332, "lat": 39.484169}}, {"id": 1798913, "name": "Pengsi", "state": "", "country": "CN", "coord": {"lon": 115.27166, "lat": 30.272579}}, {"id": 1798928, "name": "Penglai", "state": "", "country": "CN", "coord": {"lon": 105.251411, "lat": 30.58217}}, {"id": 1798932, "name": "Penglai", "state": "", "country": "CN", "coord": {"lon": 110.53598, "lat": 19.53784}}, {"id": 1798933, "name": "Pengkou", "state": "", "country": "CN", "coord": {"lon": 116.684448, "lat": 25.53093}}, {"id": 1798946, "name": "Pengcheng", "state": "", "country": "CN", "coord": {"lon": 114.169998, "lat": 36.43111}}, {"id": 1798949, "name": "Pendiqing", "state": "", "country": "CN", "coord": {"lon": 112.00383, "lat": 39.94191}}, {"id": 1798957, "name": "Peishe", "state": "", "country": "CN", "coord": {"lon": 111.318787, "lat": 35.29731}}, {"id": 1798972, "name": "Peicheng", "state": "", "country": "CN", "coord": {"lon": 116.924721, "lat": 34.736111}}, {"id": 1798994, "name": "Panzhuang", "state": "", "country": "CN", "coord": {"lon": 117.462784, "lat": 39.334721}}, {"id": 1798998, "name": "Dadukou", "state": "", "country": "CN", "coord": {"lon": 101.705391, "lat": 26.547899}}, {"id": 1799002, "name": "Panyang", "state": "", "country": "CN", "coord": {"lon": 118.831299, "lat": 26.5495}}, {"id": 1799009, "name": "Qingnianlu", "state": "", "country": "CN", "coord": {"lon": 103.098061, "lat": 24.223061}}, {"id": 1799020, "name": "Pantang", "state": "", "country": "CN", "coord": {"lon": 111.506157, "lat": 29.214729}}, {"id": 1799051, "name": "Panlian", "state": "", "country": "CN", "coord": {"lon": 102.10836, "lat": 26.887779}}, {"id": 1799056, "name": "Panjing", "state": "", "country": "CN", "coord": {"lon": 116.528198, "lat": 25.05286}}, {"id": 1799060, "name": "Panjiawan", "state": "", "country": "CN", "coord": {"lon": 107.306824, "lat": 34.340542}}, {"id": 1799061, "name": "Panjiawan", "state": "", "country": "CN", "coord": {"lon": 111.199188, "lat": 30.22109}}, {"id": 1799075, "name": "Pangushan", "state": "", "country": "CN", "coord": {"lon": 115.42234, "lat": 25.642799}}, {"id": 1799085, "name": "Pangguang", "state": "", "country": "CN", "coord": {"lon": 108.661942, "lat": 34.028889}}, {"id": 1799086, "name": "Panggezhuang", "state": "", "country": "CN", "coord": {"lon": 117.166107, "lat": 39.804722}}, {"id": 1799089, "name": "Pandu", "state": "", "country": "CN", "coord": {"lon": 119.451942, "lat": 26.237499}}, {"id": 1799102, "name": "Jiangkou", "state": "", "country": "CN", "coord": {"lon": 113.221107, "lat": 23.73694}}, {"id": 1799109, "name": "Fatou", "state": "", "country": "CN", "coord": {"lon": 119.851669, "lat": 30.546391}}, {"id": 1799110, "name": "Paitou", "state": "", "country": "CN", "coord": {"lon": 120.15078, "lat": 29.606239}}, {"id": 1799112, "name": "Paitan", "state": "", "country": "CN", "coord": {"lon": 113.77536, "lat": 23.490709}}, {"id": 1799114, "name": "Paishi", "state": "", "country": "CN", "coord": {"lon": 115.054512, "lat": 29.722}}, {"id": 1799117, "name": "Paipu", "state": "", "country": "CN", "coord": {"lon": 109.158607, "lat": 19.639811}}, {"id": 1799120, "name": "Pailou", "state": "", "country": "CN", "coord": {"lon": 112.282066, "lat": 31.05447}}, {"id": 1799129, "name": "Paibu", "state": "", "country": "CN", "coord": {"lon": 114.248169, "lat": 28.43388}}, {"id": 1799140, "name": "Oumiao", "state": "", "country": "CN", "coord": {"lon": 112.167831, "lat": 31.861191}}, {"id": 1799155, "name": "Oljoq", "state": "", "country": "CN", "coord": {"lon": 107.5, "lat": 38.366669}}, {"id": 1799160, "name": "Nyinqug", "state": "", "country": "CN", "coord": {"lon": 100.8424, "lat": 35.202991}}, {"id": 1799174, "name": "Nuojiang", "state": "", "country": "CN", "coord": {"lon": 107.242729, "lat": 31.915621}}, {"id": 1799194, "name": "Guang\u2019an", "state": "", "country": "CN", "coord": {"lon": 106.636963, "lat": 30.474131}}, {"id": 1799206, "name": "Niyang", "state": "", "country": "CN", "coord": {"lon": 105.821388, "lat": 33.819439}}, {"id": 1799209, "name": "Nixi", "state": "", "country": "CN", "coord": {"lon": 116.864059, "lat": 29.79221}}, {"id": 1799242, "name": "Niutian", "state": "", "country": "CN", "coord": {"lon": 115.723183, "lat": 27.30125}}, {"id": 1799279, "name": "Niujiapai", "state": "", "country": "CN", "coord": {"lon": 117.289436, "lat": 39.522221}}, {"id": 1799312, "name": "Niudaokou", "state": "", "country": "CN", "coord": {"lon": 117.25222, "lat": 39.78611}}, {"id": 1799319, "name": "Niuchehe", "state": "", "country": "CN", "coord": {"lon": 110.974968, "lat": 29.048491}}, {"id": 1799330, "name": "Niubitan", "state": "", "country": "CN", "coord": {"lon": 111.860237, "lat": 29.008619}}, {"id": 1799337, "name": "Nishi", "state": "", "country": "CN", "coord": {"lon": 110.778229, "lat": 29.93552}}, {"id": 1799341, "name": "Ningzhou", "state": "", "country": "CN", "coord": {"lon": 102.927048, "lat": 24.196079}}, {"id": 1799346, "name": "Shunling", "state": "", "country": "CN", "coord": {"lon": 111.930283, "lat": 25.591669}}, {"id": 1799348, "name": "Ningyang", "state": "", "country": "CN", "coord": {"lon": 116.791389, "lat": 35.764172}}, {"id": 1799352, "name": "Yutan", "state": "", "country": "CN", "coord": {"lon": 112.550003, "lat": 28.25}}, {"id": 1799355, "name": "Ningxia Huizu Zizhiqu", "state": "", "country": "CN", "coord": {"lon": 106, "lat": 37}}, {"id": 1799358, "name": "Fenghuang", "state": "", "country": "CN", "coord": {"lon": 112.297791, "lat": 38.997799}}, {"id": 1799362, "name": "Hanyuan", "state": "", "country": "CN", "coord": {"lon": 106.250351, "lat": 32.834}}, {"id": 1799379, "name": "Ninghe", "state": "", "country": "CN", "coord": {"lon": 117.762497, "lat": 39.461941}}, {"id": 1799383, "name": "Ninghai", "state": "", "country": "CN", "coord": {"lon": 121.583328, "lat": 37.383331}}, {"id": 1799384, "name": "Ninghai", "state": "", "country": "CN", "coord": {"lon": 121.424721, "lat": 29.289169}}, {"id": 1799389, "name": "Ning\u2019er", "state": "", "country": "CN", "coord": {"lon": 101.036827, "lat": 23.040529}}, {"id": 1799391, "name": "Ningdun", "state": "", "country": "CN", "coord": {"lon": 119.10833, "lat": 30.458891}}, {"id": 1799393, "name": "Ningchegu", "state": "", "country": "CN", "coord": {"lon": 117.662498, "lat": 39.15889}}, {"id": 1799397, "name": "Ningbo", "state": "", "country": "CN", "coord": {"lon": 121.549454, "lat": 29.878189}}, {"id": 1799406, "name": "Xinjie", "state": "", "country": "CN", "coord": {"lon": 120.110168, "lat": 32.336552}}, {"id": 1799413, "name": "Nieying", "state": "", "country": "CN", "coord": {"lon": 113.133057, "lat": 39.126389}}, {"id": 1799416, "name": "Nieqiao", "state": "", "country": "CN", "coord": {"lon": 115.65255, "lat": 29.39237}}, {"id": 1799418, "name": "Niejiahe", "state": "", "country": "CN", "coord": {"lon": 111.295792, "lat": 30.304741}}, {"id": 1799450, "name": "Nianyushan", "state": "", "country": "CN", "coord": {"lon": 117.103783, "lat": 29.206711}}, {"id": 1799455, "name": "Nianqiao", "state": "", "country": "CN", "coord": {"lon": 109.861343, "lat": 34.8083}}, {"id": 1799462, "name": "Niangxi", "state": "", "country": "CN", "coord": {"lon": 111.431862, "lat": 27.308559}}, {"id": 1799491, "name": "Neijiang", "state": "", "country": "CN", "coord": {"lon": 105.062157, "lat": 29.58354}}, {"id": 1799529, "name": "Napo Chengxiangzhen", "state": "", "country": "CN", "coord": {"lon": 105.791573, "lat": 23.479441}}, {"id": 1799535, "name": "Naodian", "state": "", "country": "CN", "coord": {"lon": 113.211021, "lat": 33.854401}}, {"id": 1799552, "name": "Nanzhou", "state": "", "country": "CN", "coord": {"lon": 112.402428, "lat": 29.35955}}, {"id": 1799565, "name": "Nanzhao Chengguanzhen", "state": "", "country": "CN", "coord": {"lon": 112.427231, "lat": 33.492489}}, {"id": 1799566, "name": "Nanzhao", "state": "", "country": "CN", "coord": {"lon": 117.171158, "lat": 23.719879}}, {"id": 1799574, "name": "Nanzhang Chengguanzhen", "state": "", "country": "CN", "coord": {"lon": 111.827522, "lat": 31.783939}}, {"id": 1799578, "name": "Nanzha", "state": "", "country": "CN", "coord": {"lon": 120.237511, "lat": 31.857691}}, {"id": 1799581, "name": "Nanyulinxi", "state": "", "country": "CN", "coord": {"lon": 112.681419, "lat": 39.20892}}, {"id": 1799591, "name": "Nanyuan", "state": "", "country": "CN", "coord": {"lon": 116.407883, "lat": 27.488489}}, {"id": 1799622, "name": "Nanyang", "state": "", "country": "CN", "coord": {"lon": 121.708893, "lat": 31.87389}}, {"id": 1799629, "name": "Nanyang", "state": "", "country": "CN", "coord": {"lon": 112.532784, "lat": 32.99472}}, {"id": 1799634, "name": "Shaxiaba", "state": "", "country": "CN", "coord": {"lon": 116.500229, "lat": 25.322359}}, {"id": 1799640, "name": "Nanya", "state": "", "country": "CN", "coord": {"lon": 118.307472, "lat": 26.876249}}, {"id": 1799642, "name": "Nanxun", "state": "", "country": "CN", "coord": {"lon": 120.419937, "lat": 30.86902}}, {"id": 1799658, "name": "Nanxing", "state": "", "country": "CN", "coord": {"lon": 106.670967, "lat": 33.768478}}, {"id": 1799664, "name": "Nanxindian", "state": "", "country": "CN", "coord": {"lon": 111.359222, "lat": 35.969551}}, {"id": 1799674, "name": "Nanxiang", "state": "", "country": "CN", "coord": {"lon": 121.311798, "lat": 31.299789}}, {"id": 1799686, "name": "Nanxi", "state": "", "country": "CN", "coord": {"lon": 104.979584, "lat": 28.842091}}, {"id": 1799697, "name": "Nanwanlingcun", "state": "", "country": "CN", "coord": {"lon": 107.146912, "lat": 34.81707}}, {"id": 1799722, "name": "Nantong", "state": "", "country": "CN", "coord": {"lon": 120.874718, "lat": 32.030281}}, {"id": 1799732, "name": "Nantang", "state": "", "country": "CN", "coord": {"lon": 115.907158, "lat": 22.91374}}, {"id": 1799759, "name": "Nanshenzao", "state": "", "country": "CN", "coord": {"lon": 120.533333, "lat": 32.783329}}, {"id": 1799764, "name": "Nanshe", "state": "", "country": "CN", "coord": {"lon": 109.111488, "lat": 34.773201}}, {"id": 1799781, "name": "Nanshan", "state": "", "country": "CN", "coord": {"lon": 116.496101, "lat": 25.599051}}, {"id": 1799783, "name": "Nanshan", "state": "", "country": "CN", "coord": {"lon": 118.324699, "lat": 26.61986}}, {"id": 1799795, "name": "Nansha", "state": "", "country": "CN", "coord": {"lon": 102.833298, "lat": 23.18037}}, {"id": 1799805, "name": "Nanrenfu", "state": "", "country": "CN", "coord": {"lon": 117.191673, "lat": 39.646111}}, {"id": 1799809, "name": "Nanquan", "state": "", "country": "CN", "coord": {"lon": 113.177193, "lat": 39.420422}}, {"id": 1799812, "name": "Nanqiu", "state": "", "country": "CN", "coord": {"lon": 106.723389, "lat": 36.899509}}, {"id": 1799824, "name": "Nanqiao", "state": "", "country": "CN", "coord": {"lon": 110.125053, "lat": 18.668131}}, {"id": 1799832, "name": "Pucheng", "state": "", "country": "CN", "coord": {"lon": 118.533333, "lat": 27.92333}}, {"id": 1799841, "name": "Yongle", "state": "", "country": "CN", "coord": {"lon": 104.23278, "lat": 33.264648}}, {"id": 1799844, "name": "Nanping", "state": "", "country": "CN", "coord": {"lon": 112.074127, "lat": 29.909479}}, {"id": 1799846, "name": "Nanping", "state": "", "country": "CN", "coord": {"lon": 118.173607, "lat": 26.645}}, {"id": 1799869, "name": "Nanning", "state": "", "country": "CN", "coord": {"lon": 108.316673, "lat": 22.816669}}, {"id": 1799876, "name": "Nanmuping", "state": "", "country": "CN", "coord": {"lon": 109.678612, "lat": 27.31111}}, {"id": 1799880, "name": "Nanmo", "state": "", "country": "CN", "coord": {"lon": 120.27417, "lat": 32.59306}}, {"id": 1799887, "name": "Nanmiao", "state": "", "country": "CN", "coord": {"lon": 114.412758, "lat": 27.687929}}, {"id": 1799895, "name": "Nanmaizhu", "state": "", "country": "CN", "coord": {"lon": 117.74472, "lat": 39.502499}}, {"id": 1799897, "name": "Nanma", "state": "", "country": "CN", "coord": {"lon": 118.158333, "lat": 36.181671}}, {"id": 1799899, "name": "Quanfu", "state": "", "country": "CN", "coord": {"lon": 120.220169, "lat": 29.103901}}, {"id": 1799903, "name": "Nanlu", "state": "", "country": "CN", "coord": {"lon": 119.871689, "lat": 30.640619}}, {"id": 1799904, "name": "Nanl\u00fc", "state": "", "country": "CN", "coord": {"lon": 110.075447, "lat": 19.250111}}, {"id": 1799908, "name": "Nanlong", "state": "", "country": "CN", "coord": {"lon": 106.063087, "lat": 31.353331}}, {"id": 1799913, "name": "Nanlinqiao", "state": "", "country": "CN", "coord": {"lon": 114.348427, "lat": 29.57235}}, {"id": 1799918, "name": "Jishan", "state": "", "country": "CN", "coord": {"lon": 118.33017, "lat": 30.92149}}, {"id": 1799919, "name": "Nanling", "state": "", "country": "CN", "coord": {"lon": 115.41877, "lat": 23.32552}}, {"id": 1799934, "name": "Nankun", "state": "", "country": "CN", "coord": {"lon": 109.942131, "lat": 19.32119}}, {"id": 1799939, "name": "Nankou", "state": "", "country": "CN", "coord": {"lon": 117.418427, "lat": 26.62616}}, {"id": 1799946, "name": "Nankang", "state": "", "country": "CN", "coord": {"lon": 116.04068, "lat": 29.446541}}, {"id": 1799962, "name": "Nanjing", "state": "", "country": "CN", "coord": {"lon": 118.777779, "lat": 32.061668}}, {"id": 1799963, "name": "Nanjing", "state": "", "country": "CN", "coord": {"lon": 114.401283, "lat": 24.686291}}, {"id": 1799967, "name": "Nanjie", "state": "", "country": "CN", "coord": {"lon": 112.438477, "lat": 23.62541}}, {"id": 1799984, "name": "Nanjiang", "state": "", "country": "CN", "coord": {"lon": 106.832382, "lat": 32.353889}}, {"id": 1799986, "name": "Nanjian", "state": "", "country": "CN", "coord": {"lon": 100.532242, "lat": 25.04801}}, {"id": 1799988, "name": "Nanjia", "state": "", "country": "CN", "coord": {"lon": 111.367203, "lat": 35.811138}}, {"id": 1799991, "name": "Zhujiaqiao", "state": "", "country": "CN", "coord": {"lon": 119.06778, "lat": 30.39917}}, {"id": 1800007, "name": "Nanhu", "state": "", "country": "CN", "coord": {"lon": 105.960381, "lat": 35.337688}}, {"id": 1800014, "name": "Nanhezhong", "state": "", "country": "CN", "coord": {"lon": 113.257347, "lat": 39.48542}}, {"id": 1800018, "name": "Nanheng", "state": "", "country": "CN", "coord": {"lon": 114.797989, "lat": 24.702021}}, {"id": 1800030, "name": "Nanhe", "state": "", "country": "CN", "coord": {"lon": 119.76667, "lat": 34.25}}, {"id": 1800065, "name": "Nangong", "state": "", "country": "CN", "coord": {"lon": 115.374443, "lat": 37.358059}}, {"id": 1800069, "name": "Nangaoqiao", "state": "", "country": "CN", "coord": {"lon": 120.097771, "lat": 30.92071}}, {"id": 1800076, "name": "Nangang", "state": "", "country": "CN", "coord": {"lon": 119.144173, "lat": 34.243889}}, {"id": 1800087, "name": "Nanfeng", "state": "", "country": "CN", "coord": {"lon": 116.561401, "lat": 29.263029}}, {"id": 1800088, "name": "Nanfeng", "state": "", "country": "CN", "coord": {"lon": 111.795929, "lat": 23.743441}}, {"id": 1800089, "name": "Nanfeng", "state": "", "country": "CN", "coord": {"lon": 109.55024, "lat": 19.410179}}, {"id": 1800093, "name": "Nanfang", "state": "", "country": "CN", "coord": {"lon": 108.333061, "lat": 34.708611}}, {"id": 1800097, "name": "Duji", "state": "", "country": "CN", "coord": {"lon": 116.8284, "lat": 33.99765}}, {"id": 1800101, "name": "Nandu", "state": "", "country": "CN", "coord": {"lon": 110.823334, "lat": 22.852501}}, {"id": 1800107, "name": "Nanding", "state": "", "country": "CN", "coord": {"lon": 118.055832, "lat": 36.748329}}, {"id": 1800119, "name": "Nandan Chengguanzhen", "state": "", "country": "CN", "coord": {"lon": 107.557121, "lat": 25.010361}}, {"id": 1800132, "name": "Nancun", "state": "", "country": "CN", "coord": {"lon": 112.772682, "lat": 35.467651}}, {"id": 1800138, "name": "Nancun", "state": "", "country": "CN", "coord": {"lon": 115.920021, "lat": 27.309839}}, {"id": 1800146, "name": "Nanchong", "state": "", "country": "CN", "coord": {"lon": 106.08474, "lat": 30.79508}}, {"id": 1800154, "name": "Nancheng", "state": "", "country": "CN", "coord": {"lon": 119.224167, "lat": 34.561668}}, {"id": 1800163, "name": "Nanchang", "state": "", "country": "CN", "coord": {"lon": 115.883331, "lat": 28.683331}}, {"id": 1800168, "name": "Nancang", "state": "", "country": "CN", "coord": {"lon": 117.13694, "lat": 39.200562}}, {"id": 1800171, "name": "Nancaicun", "state": "", "country": "CN", "coord": {"lon": 117.016113, "lat": 39.475281}}, {"id": 1800181, "name": "Nanbao", "state": "", "country": "CN", "coord": {"lon": 109.595963, "lat": 19.682421}}, {"id": 1800186, "name": "Nanbai", "state": "", "country": "CN", "coord": {"lon": 106.823059, "lat": 27.54306}}, {"id": 1800194, "name": "Cezi", "state": "", "country": "CN", "coord": {"lon": 121.93306, "lat": 30.08333}}, {"id": 1800234, "name": "Nada", "state": "", "country": "CN", "coord": {"lon": 109.578598, "lat": 19.52257}}, {"id": 1800268, "name": "Muxi", "state": "", "country": "CN", "coord": {"lon": 103.900864, "lat": 28.959641}}, {"id": 1800296, "name": "Mulan", "state": "", "country": "CN", "coord": {"lon": 116.39019, "lat": 26.496031}}, {"id": 1800306, "name": "Muhuguan", "state": "", "country": "CN", "coord": {"lon": 109.577248, "lat": 34.044231}}, {"id": 1800327, "name": "Mugang", "state": "", "country": "CN", "coord": {"lon": 115.246208, "lat": 29.723391}}, {"id": 1800335, "name": "Mudian", "state": "", "country": "CN", "coord": {"lon": 118.612503, "lat": 32.916111}}, {"id": 1800337, "name": "Shangyang", "state": "", "country": "CN", "coord": {"lon": 118.865829, "lat": 27.96472}}, {"id": 1800348, "name": "Mubo", "state": "", "country": "CN", "coord": {"lon": 107.435944, "lat": 36.446281}}, {"id": 1800357, "name": "Moyuan", "state": "", "country": "CN", "coord": {"lon": 117.550262, "lat": 26.679251}}, {"id": 1800361, "name": "Moxi", "state": "", "country": "CN", "coord": {"lon": 115.580116, "lat": 29.36581}}, {"id": 1800371, "name": "Motou", "state": "", "country": "CN", "coord": {"lon": 120.566673, "lat": 32.283329}}, {"id": 1800376, "name": "Moshi", "state": "", "country": "CN", "coord": {"lon": 110.949043, "lat": 29.76376}}, {"id": 1800391, "name": "Mailing", "state": "", "country": "CN", "coord": {"lon": 113.644691, "lat": 33.7742}}, {"id": 1800411, "name": "Shangmofang", "state": "", "country": "CN", "coord": {"lon": 113.017967, "lat": 39.104988}}, {"id": 1800430, "name": "Miyang", "state": "", "country": "CN", "coord": {"lon": 103.44278, "lat": 24.404169}}, {"id": 1800436, "name": "Mishi", "state": "", "country": "CN", "coord": {"lon": 112.118469, "lat": 30.22751}}, {"id": 1800448, "name": "Minzhu", "state": "", "country": "CN", "coord": {"lon": 115.939789, "lat": 25.00252}}, {"id": 1800453, "name": "Chengjiao Chengguanzhen", "state": "", "country": "CN", "coord": {"lon": 104.030563, "lat": 34.435829}}, {"id": 1800463, "name": "Minqiao", "state": "", "country": "CN", "coord": {"lon": 119.167778, "lat": 32.90139}}, {"id": 1800468, "name": "Minle", "state": "", "country": "CN", "coord": {"lon": 113.467003, "lat": 23.659161}}, {"id": 1800475, "name": "Minjian", "state": "", "country": "CN", "coord": {"lon": 103.545753, "lat": 28.84622}}, {"id": 1800480, "name": "Minhang", "state": "", "country": "CN", "coord": {"lon": 121.374718, "lat": 31.108801}}, {"id": 1800498, "name": "Mingshui", "state": "", "country": "CN", "coord": {"lon": 117.5, "lat": 36.716671}}, {"id": 1800508, "name": "Mingkou", "state": "", "country": "CN", "coord": {"lon": 117.43058, "lat": 28.91852}}, {"id": 1800519, "name": "Mingguang", "state": "", "country": "CN", "coord": {"lon": 117.963783, "lat": 32.78017}}, {"id": 1800521, "name": "Minggang", "state": "", "country": "CN", "coord": {"lon": 114.048607, "lat": 32.458611}}, {"id": 1800522, "name": "Mingfeng", "state": "", "country": "CN", "coord": {"lon": 111.642776, "lat": 31.06167}}, {"id": 1800523, "name": "Mingdu", "state": "", "country": "CN", "coord": {"lon": 109.102638, "lat": 34.13052}}, {"id": 1800526, "name": "Min\u2019an", "state": "", "country": "CN", "coord": {"lon": 109.439056, "lat": 29.45936}}, {"id": 1800527, "name": "Min\u2019an", "state": "", "country": "CN", "coord": {"lon": 119.497498, "lat": 26.055281}}, {"id": 1800531, "name": "Miluo Chengguanzhen", "state": "", "country": "CN", "coord": {"lon": 113.076218, "lat": 28.81605}}, {"id": 1800533, "name": "Ganlu", "state": "", "country": "CN", "coord": {"lon": 115.763908, "lat": 29.252729}}, {"id": 1800544, "name": "Micheng", "state": "", "country": "CN", "coord": {"lon": 100.499313, "lat": 25.32037}}, {"id": 1800560, "name": "Miaoxi", "state": "", "country": "CN", "coord": {"lon": 120.003998, "lat": 30.78196}}, {"id": 1800578, "name": "Miaoshou", "state": "", "country": "CN", "coord": {"lon": 118.391388, "lat": 30.26639}}, {"id": 1800579, "name": "Miaoshi", "state": "", "country": "CN", "coord": {"lon": 111.242447, "lat": 29.54376}}, {"id": 1800587, "name": "Miaoqian", "state": "", "country": "CN", "coord": {"lon": 116.679939, "lat": 25.32988}}, {"id": 1800603, "name": "Miaogou", "state": "", "country": "CN", "coord": {"lon": 107.916603, "lat": 36.880852}}, {"id": 1800619, "name": "Miaoba", "state": "", "country": "CN", "coord": {"lon": 106.320328, "lat": 33.168499}}, {"id": 1800624, "name": "Jiannan", "state": "", "country": "CN", "coord": {"lon": 104.195877, "lat": 31.34355}}, {"id": 1800627, "name": "Mianyang", "state": "", "country": "CN", "coord": {"lon": 104.754242, "lat": 31.459339}}, {"id": 1800629, "name": "Mianyang", "state": "", "country": "CN", "coord": {"lon": 106.69445, "lat": 33.157028}}, {"id": 1800636, "name": "Chengxiang", "state": "", "country": "CN", "coord": {"lon": 102.168198, "lat": 28.55262}}, {"id": 1800657, "name": "Mentougou", "state": "", "country": "CN", "coord": {"lon": 116.091667, "lat": 39.939171}}, {"id": 1800663, "name": "Wenlan", "state": "", "country": "CN", "coord": {"lon": 103.436836, "lat": 23.36002}}, {"id": 1800670, "name": "Mengzhai", "state": "", "country": "CN", "coord": {"lon": 113.608887, "lat": 33.542519}}, {"id": 1800675, "name": "Mengyin", "state": "", "country": "CN", "coord": {"lon": 117.926392, "lat": 35.70694}}, {"id": 1800686, "name": "Mengxi", "state": "", "country": "CN", "coord": {"lon": 111.816673, "lat": 29.75}}, {"id": 1800698, "name": "Mengshan", "state": "", "country": "CN", "coord": {"lon": 114.96312, "lat": 28.12302}}, {"id": 1800699, "name": "Mengshan", "state": "", "country": "CN", "coord": {"lon": 110.517754, "lat": 24.21406}}, {"id": 1800702, "name": "Mengquan", "state": "", "country": "CN", "coord": {"lon": 117.476669, "lat": 39.825279}}, {"id": 1800703, "name": "Mengquan", "state": "", "country": "CN", "coord": {"lon": 111.474983, "lat": 29.41468}}, {"id": 1800712, "name": "Menglie", "state": "", "country": "CN", "coord": {"lon": 101.867897, "lat": 22.559669}}, {"id": 1800716, "name": "Mengla", "state": "", "country": "CN", "coord": {"lon": 101.55069, "lat": 21.46859}}, {"id": 1800722, "name": "Mengjiaxi", "state": "", "country": "CN", "coord": {"lon": 112.088463, "lat": 29.854971}}, {"id": 1800759, "name": "Mengcun", "state": "", "country": "CN", "coord": {"lon": 109.215179, "lat": 34.166458}}, {"id": 1800764, "name": "Mengcheng Chengguanzhen", "state": "", "country": "CN", "coord": {"lon": 116.566048, "lat": 33.266109}}, {"id": 1800766, "name": "Mengbi", "state": "", "country": "CN", "coord": {"lon": 109.797523, "lat": 29.38102}}, {"id": 1800774, "name": "Meizhuang", "state": "", "country": "CN", "coord": {"lon": 116.406219, "lat": 28.588989}}, {"id": 1800779, "name": "Meizhou", "state": "", "country": "CN", "coord": {"lon": 116.107239, "lat": 24.297689}}, {"id": 1800780, "name": "Meizhou", "state": "", "country": "CN", "coord": {"lon": 117.313309, "lat": 23.808559}}, {"id": 1800785, "name": "Meiyuan", "state": "", "country": "CN", "coord": {"lon": 109.352882, "lat": 34.944981}}, {"id": 1800791, "name": "Meiyan", "state": "", "country": "CN", "coord": {"lon": 120.585823, "lat": 30.978741}}, {"id": 1800792, "name": "Meixing", "state": "", "country": "CN", "coord": {"lon": 102.364349, "lat": 31.00107}}, {"id": 1800797, "name": "Meixian", "state": "", "country": "CN", "coord": {"lon": 118.247917, "lat": 26.2409}}, {"id": 1800801, "name": "Meixi", "state": "", "country": "CN", "coord": {"lon": 116.394791, "lat": 28.772011}}, {"id": 1800808, "name": "Meitang", "state": "", "country": "CN", "coord": {"lon": 114.807053, "lat": 27.09766}}, {"id": 1800815, "name": "Meishan", "state": "", "country": "CN", "coord": {"lon": 115.876389, "lat": 31.684719}}, {"id": 1800818, "name": "Meishan", "state": "", "country": "CN", "coord": {"lon": 103.83696, "lat": 30.043921}}, {"id": 1800829, "name": "Wuchuan", "state": "", "country": "CN", "coord": {"lon": 110.765907, "lat": 21.45713}}, {"id": 1800831, "name": "Meilong", "state": "", "country": "CN", "coord": {"lon": 115.210007, "lat": 22.895161}}, {"id": 1800833, "name": "Meiling", "state": "", "country": "CN", "coord": {"lon": 114.333328, "lat": 25.299999}}, {"id": 1800835, "name": "Meilin", "state": "", "country": "CN", "coord": {"lon": 119.080627, "lat": 30.566971}}, {"id": 1800837, "name": "Meilin", "state": "", "country": "CN", "coord": {"lon": 117.877792, "lat": 29.18714}}, {"id": 1800838, "name": "Meilin", "state": "", "country": "CN", "coord": {"lon": 115.656693, "lat": 28.279551}}, {"id": 1800839, "name": "Meilin", "state": "", "country": "CN", "coord": {"lon": 115.010017, "lat": 25.866739}}, {"id": 1800855, "name": "Meijiang", "state": "", "country": "CN", "coord": {"lon": 116.014999, "lat": 26.47583}}, {"id": 1800862, "name": "Meihua", "state": "", "country": "CN", "coord": {"lon": 113.06601, "lat": 25.181641}}, {"id": 1800869, "name": "Meigang", "state": "", "country": "CN", "coord": {"lon": 116.814484, "lat": 28.436951}}, {"id": 1800882, "name": "Meicheng", "state": "", "country": "CN", "coord": {"lon": 116.572777, "lat": 30.634439}}, {"id": 1800885, "name": "Meicheng", "state": "", "country": "CN", "coord": {"lon": 118.861107, "lat": 26.215281}}, {"id": 1800886, "name": "Meichang", "state": "", "country": "CN", "coord": {"lon": 117.180557, "lat": 39.366112}}, {"id": 1800898, "name": "Mazhuang", "state": "", "country": "CN", "coord": {"lon": 117.133331, "lat": 39.205559}}, {"id": 1800904, "name": "Mazhuang", "state": "", "country": "CN", "coord": {"lon": 108.655563, "lat": 34.436939}}, {"id": 1800906, "name": "Mazhu", "state": "", "country": "CN", "coord": {"lon": 121.046997, "lat": 30.078011}}, {"id": 1800907, "name": "Mazhou", "state": "", "country": "CN", "coord": {"lon": 115.775284, "lat": 25.508381}}, {"id": 1800912, "name": "Mazhaozhen", "state": "", "country": "CN", "coord": {"lon": 108.18998, "lat": 34.070259}}, {"id": 1800919, "name": "Mazha", "state": "", "country": "CN", "coord": {"lon": 114.005753, "lat": 23.46204}}, {"id": 1800929, "name": "Mayingzhuang", "state": "", "country": "CN", "coord": {"lon": 112.985764, "lat": 39.369469}}, {"id": 1800931, "name": "Maying", "state": "", "country": "CN", "coord": {"lon": 112.716942, "lat": 39.719719}}, {"id": 1800935, "name": "Maying", "state": "", "country": "CN", "coord": {"lon": 105.020927, "lat": 35.305241}}, {"id": 1800936, "name": "Maying", "state": "", "country": "CN", "coord": {"lon": 107.228928, "lat": 34.341541}}, {"id": 1800945, "name": "Mayanhe", "state": "", "country": "CN", "coord": {"lon": 105.736938, "lat": 34.072498}}, {"id": 1800951, "name": "Maxu", "state": "", "country": "CN", "coord": {"lon": 116.467438, "lat": 28.13357}}, {"id": 1800970, "name": "Mawei", "state": "", "country": "CN", "coord": {"lon": 108.371674, "lat": 34.316391}}, {"id": 1800981, "name": "Mawang", "state": "", "country": "CN", "coord": {"lon": 108.712502, "lat": 34.20417}}, {"id": 1800997, "name": "Matoupu", "state": "", "country": "CN", "coord": {"lon": 111.411583, "lat": 29.77128}}, {"id": 1801014, "name": "Matou", "state": "", "country": "CN", "coord": {"lon": 115.577393, "lat": 29.831461}}, {"id": 1801018, "name": "Matou", "state": "", "country": "CN", "coord": {"lon": 114.31736, "lat": 24.12635}}, {"id": 1801019, "name": "Matou", "state": "", "country": "CN", "coord": {"lon": 107.556396, "lat": 23.355339}}, {"id": 1801021, "name": "Matiwan", "state": "", "country": "CN", "coord": {"lon": 106.048958, "lat": 33.478191}}, {"id": 1801032, "name": "Matang", "state": "", "country": "CN", "coord": {"lon": 121.040558, "lat": 32.323872}}, {"id": 1801039, "name": "Mataigou", "state": "", "country": "CN", "coord": {"lon": 106.672218, "lat": 38.796669}}, {"id": 1801062, "name": "Mashankou", "state": "", "country": "CN", "coord": {"lon": 112.002609, "lat": 33.205769}}, {"id": 1801066, "name": "Mashan", "state": "", "country": "CN", "coord": {"lon": 120.658028, "lat": 30.07937}}, {"id": 1801090, "name": "Maqiao", "state": "", "country": "CN", "coord": {"lon": 114.354424, "lat": 29.807341}}, {"id": 1801103, "name": "Maping", "state": "", "country": "CN", "coord": {"lon": 113.550552, "lat": 31.60092}}, {"id": 1801105, "name": "Mapeng", "state": "", "country": "CN", "coord": {"lon": 119.416672, "lat": 32.89806}}, {"id": 1801126, "name": "Maoyang", "state": "", "country": "CN", "coord": {"lon": 109.502434, "lat": 18.93795}}, {"id": 1801149, "name": "Maoshan", "state": "", "country": "CN", "coord": {"lon": 120.006241, "lat": 32.741779}}, {"id": 1801166, "name": "Maoping", "state": "", "country": "CN", "coord": {"lon": 110.977783, "lat": 30.82972}}, {"id": 1801169, "name": "Maoping", "state": "", "country": "CN", "coord": {"lon": 109.490097, "lat": 29.34201}}, {"id": 1801172, "name": "Maoping", "state": "", "country": "CN", "coord": {"lon": 109.221107, "lat": 26.73694}}, {"id": 1801174, "name": "Maoping", "state": "", "country": "CN", "coord": {"lon": 110.411942, "lat": 26.51972}}, {"id": 1801180, "name": "Maoming", "state": "", "country": "CN", "coord": {"lon": 110.900002, "lat": 21.65}}, {"id": 1801187, "name": "Maolin", "state": "", "country": "CN", "coord": {"lon": 118.248192, "lat": 30.508961}}, {"id": 1801189, "name": "Maoli", "state": "", "country": "CN", "coord": {"lon": 112.472504, "lat": 30.506941}}, {"id": 1801195, "name": "Maojing", "state": "", "country": "CN", "coord": {"lon": 106.60656, "lat": 36.464481}}, {"id": 1801200, "name": "Haimen", "state": "", "country": "CN", "coord": {"lon": 121.154442, "lat": 31.897221}}, {"id": 1801202, "name": "Maojiazao", "state": "", "country": "CN", "coord": {"lon": 113.269577, "lat": 39.918739}}, {"id": 1801211, "name": "Maojiagang", "state": "", "country": "CN", "coord": {"lon": 112.068611, "lat": 30.04389}}, {"id": 1801227, "name": "Maogang", "state": "", "country": "CN", "coord": {"lon": 121.209, "lat": 30.93487}}, {"id": 1801240, "name": "Maodian", "state": "", "country": "CN", "coord": {"lon": 115.044823, "lat": 25.90583}}, {"id": 1801241, "name": "Maodi", "state": "", "country": "CN", "coord": {"lon": 118.073647, "lat": 26.702511}}, {"id": 1801279, "name": "Liangshuijing", "state": "", "country": "CN", "coord": {"lon": 109.276428, "lat": 29.28838}}, {"id": 1801286, "name": "Manjiang", "state": "", "country": "CN", "coord": {"lon": 114.405151, "lat": 28.823099}}, {"id": 1801298, "name": "Quedantang", "state": "", "country": "CN", "coord": {"lon": 100.60006, "lat": 35.650219}}, {"id": 1801330, "name": "Malou", "state": "", "country": "CN", "coord": {"lon": 112.98597, "lat": 33.679871}}, {"id": 1801345, "name": "Maling", "state": "", "country": "CN", "coord": {"lon": 107.643257, "lat": 36.217571}}, {"id": 1801350, "name": "Tianya", "state": "", "country": "CN", "coord": {"lon": 109.326759, "lat": 18.30835}}, {"id": 1801353, "name": "Malin", "state": "", "country": "CN", "coord": {"lon": 110.64167, "lat": 26.455}}, {"id": 1801366, "name": "Maliang", "state": "", "country": "CN", "coord": {"lon": 112.547928, "lat": 30.885651}}, {"id": 1801367, "name": "Malianchuan", "state": "", "country": "CN", "coord": {"lon": 105.924347, "lat": 35.809589}}, {"id": 1801368, "name": "Malian", "state": "", "country": "CN", "coord": {"lon": 108.334053, "lat": 34.368809}}, {"id": 1801374, "name": "Mali", "state": "", "country": "CN", "coord": {"lon": 104.740898, "lat": 23.126221}}, {"id": 1801383, "name": "Makou", "state": "", "country": "CN", "coord": {"lon": 115.761482, "lat": 28.956841}}, {"id": 1801398, "name": "Majin", "state": "", "country": "CN", "coord": {"lon": 118.409172, "lat": 29.30311}}, {"id": 1801401, "name": "Majie", "state": "", "country": "CN", "coord": {"lon": 102.636108, "lat": 25.033331}}, {"id": 1801454, "name": "Majiadian", "state": "", "country": "CN", "coord": {"lon": 117.266113, "lat": 39.65778}}, {"id": 1801455, "name": "Zhijiang", "state": "", "country": "CN", "coord": {"lon": 111.753326, "lat": 30.421391}}, {"id": 1801485, "name": "Mahuiling", "state": "", "country": "CN", "coord": {"lon": 115.801659, "lat": 29.44614}}, {"id": 1801493, "name": "Souziqiu", "state": "", "country": "CN", "coord": {"lon": 110.363358, "lat": 29.543489}}, {"id": 1801501, "name": "Magutian", "state": "", "country": "CN", "coord": {"lon": 113.473732, "lat": 32.673828}}, {"id": 1801510, "name": "Magong", "state": "", "country": "CN", "coord": {"lon": 115.238533, "lat": 22.79019}}, {"id": 1801511, "name": "Magitang", "state": "", "country": "CN", "coord": {"lon": 102.029678, "lat": 35.938591}}, {"id": 1801520, "name": "Majiang", "state": "", "country": "CN", "coord": {"lon": 113.544167, "lat": 26.713329}}, {"id": 1801536, "name": "Ma\u2019e", "state": "", "country": "CN", "coord": {"lon": 108.930283, "lat": 34.82444}}, {"id": 1801537, "name": "Ma\u2019e", "state": "", "country": "CN", "coord": {"lon": 109.384689, "lat": 34.403221}}, {"id": 1801554, "name": "Madian", "state": "", "country": "CN", "coord": {"lon": 119.95639, "lat": 32.24139}}, {"id": 1801558, "name": "Madaotou", "state": "", "country": "CN", "coord": {"lon": 112.768608, "lat": 39.87611}}, {"id": 1801561, "name": "Madao", "state": "", "country": "CN", "coord": {"lon": 107.000137, "lat": 33.424179}}, {"id": 1801564, "name": "Madang", "state": "", "country": "CN", "coord": {"lon": 116.652077, "lat": 29.98807}}, {"id": 1801579, "name": "Macheng", "state": "", "country": "CN", "coord": {"lon": 112.289841, "lat": 30.908739}}, {"id": 1801582, "name": "Macheng", "state": "", "country": "CN", "coord": {"lon": 115.031937, "lat": 31.178329}}, {"id": 1801590, "name": "Machang", "state": "", "country": "CN", "coord": {"lon": 119.01667, "lat": 34.083328}}, {"id": 1801601, "name": "Mabugang", "state": "", "country": "CN", "coord": {"lon": 115.411697, "lat": 24.5891}}, {"id": 1801604, "name": "Mabu", "state": "", "country": "CN", "coord": {"lon": 115.392441, "lat": 27.559999}}, {"id": 1801613, "name": "Maba", "state": "", "country": "CN", "coord": {"lon": 118.785004, "lat": 32.976109}}, {"id": 1801615, "name": "Maba", "state": "", "country": "CN", "coord": {"lon": 113.598389, "lat": 24.68412}}, {"id": 1801616, "name": "Ma\u2019ao", "state": "", "country": "CN", "coord": {"lon": 114.32695, "lat": 29.05537}}, {"id": 1801617, "name": "Ma\u2019an", "state": "", "country": "CN", "coord": {"lon": 110.721107, "lat": 26.977501}}, {"id": 1801620, "name": "Ma\u2019anshan", "state": "", "country": "CN", "coord": {"lon": 118.498253, "lat": 31.695681}}, {"id": 1801632, "name": "Ma\u2019an", "state": "", "country": "CN", "coord": {"lon": 120.581741, "lat": 30.147301}}, {"id": 1801640, "name": "Luzhou", "state": "", "country": "CN", "coord": {"lon": 105.440491, "lat": 28.872391}}, {"id": 1801645, "name": "Luzhi", "state": "", "country": "CN", "coord": {"lon": 120.868889, "lat": 31.27389}}, {"id": 1801650, "name": "Luzhai", "state": "", "country": "CN", "coord": {"lon": 109.733147, "lat": 24.49754}}, {"id": 1801654, "name": "Luyuan", "state": "", "country": "CN", "coord": {"lon": 109.085083, "lat": 34.535961}}, {"id": 1801669, "name": "Luyang", "state": "", "country": "CN", "coord": {"lon": 110.098892, "lat": 27.62389}}, {"id": 1801682, "name": "L\u00fcxiang", "state": "", "country": "CN", "coord": {"lon": 121.170097, "lat": 30.829849}}, {"id": 1801684, "name": "Luxia", "state": "", "country": "CN", "coord": {"lon": 118.80722, "lat": 26.93}}, {"id": 1801688, "name": "Luxi", "state": "", "country": "CN", "coord": {"lon": 117.506523, "lat": 29.707359}}, {"id": 1801689, "name": "Luxi", "state": "", "country": "CN", "coord": {"lon": 114.035294, "lat": 27.636181}}, {"id": 1801696, "name": "Luwan", "state": "", "country": "CN", "coord": {"lon": 121.463348, "lat": 31.20908}}, {"id": 1801709, "name": "L\u00fctian", "state": "", "country": "CN", "coord": {"lon": 113.945107, "lat": 23.81336}}, {"id": 1801719, "name": "Lusi", "state": "", "country": "CN", "coord": {"lon": 117.303383, "lat": 28.898741}}, {"id": 1801720, "name": "L\u00fcsigang", "state": "", "country": "CN", "coord": {"lon": 121.595543, "lat": 32.055328}}, {"id": 1801722, "name": "L\u00fcshun", "state": "", "country": "CN", "coord": {"lon": 121.26667, "lat": 38.799999}}, {"id": 1801727, "name": "Lushui", "state": "", "country": "CN", "coord": {"lon": 113.553886, "lat": 26.9575}}, {"id": 1801730, "name": "Liushikou", "state": "", "country": "CN", "coord": {"lon": 120.3321, "lat": 29.305969}}, {"id": 1801734, "name": "Lushar", "state": "", "country": "CN", "coord": {"lon": 101.597221, "lat": 36.49556}}, {"id": 1801735, "name": "L\u00fcshan", "state": "", "country": "CN", "coord": {"lon": 119.917908, "lat": 30.93022}}, {"id": 1801738, "name": "Luyang", "state": "", "country": "CN", "coord": {"lon": 112.905083, "lat": 33.735641}}, {"id": 1801753, "name": "Luqiao", "state": "", "country": "CN", "coord": {"lon": 108.917778, "lat": 34.685001}}, {"id": 1801757, "name": "Luqiao", "state": "", "country": "CN", "coord": {"lon": 121.377151, "lat": 28.580839}}, {"id": 1801782, "name": "Luoyuan", "state": "", "country": "CN", "coord": {"lon": 109.817284, "lat": 34.200142}}, {"id": 1801791, "name": "Luoyang", "state": "", "country": "CN", "coord": {"lon": 113.425323, "lat": 31.472919}}, {"id": 1801792, "name": "Luoyang", "state": "", "country": "CN", "coord": {"lon": 112.453613, "lat": 34.683609}}, {"id": 1801797, "name": "Luoyang", "state": "", "country": "CN", "coord": {"lon": 118.681107, "lat": 24.962219}}, {"id": 1801799, "name": "Luoyang", "state": "", "country": "CN", "coord": {"lon": 114.273422, "lat": 23.162439}}, {"id": 1801806, "name": "Luoxiong", "state": "", "country": "CN", "coord": {"lon": 104.292252, "lat": 24.88558}}, {"id": 1801811, "name": "Luoxi", "state": "", "country": "CN", "coord": {"lon": 114.982552, "lat": 29.089809}}, {"id": 1801812, "name": "Luoxi", "state": "", "country": "CN", "coord": {"lon": 116.150742, "lat": 28.4149}}, {"id": 1801821, "name": "Luowa", "state": "", "country": "CN", "coord": {"lon": 106.581619, "lat": 36.26038}}, {"id": 1801825, "name": "Luotuo\u2019ao", "state": "", "country": "CN", "coord": {"lon": 115.39257, "lat": 30.686411}}, {"id": 1801826, "name": "Luotuo", "state": "", "country": "CN", "coord": {"lon": 121.584442, "lat": 29.98}}, {"id": 1801829, "name": "Luotian", "state": "", "country": "CN", "coord": {"lon": 115.049088, "lat": 27.54026}}, {"id": 1801830, "name": "Luotian", "state": "", "country": "CN", "coord": {"lon": 115.538979, "lat": 27.012991}}, {"id": 1801836, "name": "Luoshuwan", "state": "", "country": "CN", "coord": {"lon": 119.800003, "lat": 31.91667}}, {"id": 1801843, "name": "Luoshe", "state": "", "country": "CN", "coord": {"lon": 120.08889, "lat": 30.634439}}, {"id": 1801850, "name": "Luorong", "state": "", "country": "CN", "coord": {"lon": 109.608612, "lat": 24.40583}}, {"id": 1801858, "name": "Luoqiao", "state": "", "country": "CN", "coord": {"lon": 119.010277, "lat": 26.46694}}, {"id": 1801864, "name": "Luoping", "state": "", "country": "CN", "coord": {"lon": 115.257378, "lat": 29.231819}}, {"id": 1801889, "name": "Luokou", "state": "", "country": "CN", "coord": {"lon": 116.070183, "lat": 26.853239}}, {"id": 1801891, "name": "Luokeng", "state": "", "country": "CN", "coord": {"lon": 113.333328, "lat": 24.51667}}, {"id": 1801894, "name": "Luojiu", "state": "", "country": "CN", "coord": {"lon": 109.808891, "lat": 27.515829}}, {"id": 1801895, "name": "Luojing", "state": "", "country": "CN", "coord": {"lon": 121.339073, "lat": 31.478201}}, {"id": 1801907, "name": "Luojiaping", "state": "", "country": "CN", "coord": {"lon": 110.698502, "lat": 29.75518}}, {"id": 1801909, "name": "Luojiang", "state": "", "country": "CN", "coord": {"lon": 104.504837, "lat": 31.30497}}, {"id": 1801912, "name": "Luodian", "state": "", "country": "CN", "coord": {"lon": 113.779381, "lat": 31.5473}}, {"id": 1801928, "name": "Luohong", "state": "", "country": "CN", "coord": {"lon": 111.075279, "lat": 27.555559}}, {"id": 1801934, "name": "Luohe", "state": "", "country": "CN", "coord": {"lon": 114.035278, "lat": 33.571671}}, {"id": 1801948, "name": "Luofucun", "state": "", "country": "CN", "coord": {"lon": 120.650002, "lat": 28.033331}}, {"id": 1801951, "name": "Luofu", "state": "", "country": "CN", "coord": {"lon": 115.576462, "lat": 24.52705}}, {"id": 1801954, "name": "Luoshi", "state": "", "country": "CN", "coord": {"lon": 115.066673, "lat": 28.683331}}, {"id": 1801955, "name": "Luofang", "state": "", "country": "CN", "coord": {"lon": 115.112701, "lat": 27.85482}}, {"id": 1801958, "name": "Luofang", "state": "", "country": "CN", "coord": {"lon": 116.683693, "lat": 25.750681}}, {"id": 1801970, "name": "Luodian", "state": "", "country": "CN", "coord": {"lon": 113.392128, "lat": 31.11273}}, {"id": 1801980, "name": "Luochuan", "state": "", "country": "CN", "coord": {"lon": 106.001671, "lat": 36.612202}}, {"id": 1801982, "name": "Luocheng", "state": "", "country": "CN", "coord": {"lon": 104.280807, "lat": 30.980209}}, {"id": 1801983, "name": "Luocheng", "state": "", "country": "CN", "coord": {"lon": 104.028618, "lat": 29.384809}}, {"id": 1801984, "name": "Luocheng", "state": "", "country": "CN", "coord": {"lon": 118.794952, "lat": 25.03231}}, {"id": 1801998, "name": "Luobei", "state": "", "country": "CN", "coord": {"lon": 115.703133, "lat": 27.15073}}, {"id": 1802001, "name": "Luo\u2019ao", "state": "", "country": "CN", "coord": {"lon": 115.292953, "lat": 25.934731}}, {"id": 1802013, "name": "Lufu", "state": "", "country": "CN", "coord": {"lon": 103.266472, "lat": 24.760201}}, {"id": 1802015, "name": "L\u00fcmeng", "state": "", "country": "CN", "coord": {"lon": 117.171623, "lat": 29.26956}}, {"id": 1802036, "name": "Lukou", "state": "", "country": "CN", "coord": {"lon": 118.868172, "lat": 31.770821}}, {"id": 1802037, "name": "Lukou", "state": "", "country": "CN", "coord": {"lon": 114.936394, "lat": 30.49255}}, {"id": 1802038, "name": "Lukou", "state": "", "country": "CN", "coord": {"lon": 114.206161, "lat": 29.57098}}, {"id": 1802040, "name": "Lukou", "state": "", "country": "CN", "coord": {"lon": 113.152138, "lat": 27.69187}}, {"id": 1802042, "name": "Lukou", "state": "", "country": "CN", "coord": {"lon": 114.100197, "lat": 27.28363}}, {"id": 1802068, "name": "Lucheng", "state": "", "country": "CN", "coord": {"lon": 117.280571, "lat": 31.23357}}, {"id": 1802076, "name": "Lubu", "state": "", "country": "CN", "coord": {"lon": 121.230339, "lat": 29.99052}}, {"id": 1802078, "name": "Lujia", "state": "", "country": "CN", "coord": {"lon": 121.044724, "lat": 31.3125}}, {"id": 1802095, "name": "Luhua", "state": "", "country": "CN", "coord": {"lon": 102.987862, "lat": 32.067081}}, {"id": 1802128, "name": "Lugang", "state": "", "country": "CN", "coord": {"lon": 115.618622, "lat": 27.404921}}, {"id": 1802133, "name": "Lufeng", "state": "", "country": "CN", "coord": {"lon": 110.585831, "lat": 27.909439}}, {"id": 1802136, "name": "L\u00fceyang Chengguanzhen", "state": "", "country": "CN", "coord": {"lon": 106.154961, "lat": 33.332039}}, {"id": 1802139, "name": "Ludu", "state": "", "country": "CN", "coord": {"lon": 121.18222, "lat": 31.47056}}, {"id": 1802162, "name": "Daxing", "state": "", "country": "CN", "coord": {"lon": 102.406113, "lat": 22.96916}}, {"id": 1802166, "name": "Luhua", "state": "", "country": "CN", "coord": {"lon": 113.224442, "lat": 36.33139}}, {"id": 1802171, "name": "Kangding", "state": "", "country": "CN", "coord": {"lon": 101.960327, "lat": 30.05127}}, {"id": 1802174, "name": "Wenquan", "state": "", "country": "CN", "coord": {"lon": 110.255562, "lat": 22.325279}}, {"id": 1802177, "name": "Lubu", "state": "", "country": "CN", "coord": {"lon": 112.280937, "lat": 23.174219}}, {"id": 1802179, "name": "Lubiaojie", "state": "", "country": "CN", "coord": {"lon": 102.268692, "lat": 24.97563}}, {"id": 1802204, "name": "Luancheng", "state": "", "country": "CN", "coord": {"lon": 114.651672, "lat": 37.879169}}, {"id": 1802206, "name": "Lu\u2019an", "state": "", "country": "CN", "coord": {"lon": 116.491386, "lat": 31.756941}}, {"id": 1802214, "name": "Louzhuang", "state": "", "country": "CN", "coord": {"lon": 120.2202, "lat": 32.551369}}, {"id": 1802225, "name": "Louguan", "state": "", "country": "CN", "coord": {"lon": 108.299118, "lat": 34.09301}}, {"id": 1802232, "name": "Loufan", "state": "", "country": "CN", "coord": {"lon": 111.807213, "lat": 38.091801}}, {"id": 1802238, "name": "Loudi", "state": "", "country": "CN", "coord": {"lon": 111.994438, "lat": 27.73444}}, {"id": 1802247, "name": "Longzhouping", "state": "", "country": "CN", "coord": {"lon": 111.15979, "lat": 30.495251}}, {"id": 1802249, "name": "Longzhou", "state": "", "country": "CN", "coord": {"lon": 106.789673, "lat": 22.39967}}, {"id": 1802256, "name": "Longyuanba", "state": "", "country": "CN", "coord": {"lon": 114.450203, "lat": 24.943199}}, {"id": 1802272, "name": "Longyang", "state": "", "country": "CN", "coord": {"lon": 109.687103, "lat": 34.845371}}, {"id": 1802276, "name": "Longyan", "state": "", "country": "CN", "coord": {"lon": 117.022499, "lat": 25.10722}}, {"id": 1802287, "name": "Longxu", "state": "", "country": "CN", "coord": {"lon": 111.23333, "lat": 23.41667}}, {"id": 1802301, "name": "Longxian", "state": "", "country": "CN", "coord": {"lon": 114.128433, "lat": 24.353491}}, {"id": 1802312, "name": "Longxi", "state": "", "country": "CN", "coord": {"lon": 114.117363, "lat": 23.132959}}, {"id": 1802315, "name": "Longwo", "state": "", "country": "CN", "coord": {"lon": 115.288834, "lat": 23.477449}}, {"id": 1802364, "name": "Longtou\u2019an", "state": "", "country": "CN", "coord": {"lon": 110.336113, "lat": 27.67028}}, {"id": 1802388, "name": "Longtan", "state": "", "country": "CN", "coord": {"lon": 111.130951, "lat": 28.961981}}, {"id": 1802389, "name": "Longtanping", "state": "", "country": "CN", "coord": {"lon": 110.156616, "lat": 29.67692}}, {"id": 1802391, "name": "Longtanhe", "state": "", "country": "CN", "coord": {"lon": 111.07605, "lat": 29.24338}}, {"id": 1802402, "name": "Longhe", "state": "", "country": "CN", "coord": {"lon": 110.210243, "lat": 19.381769}}, {"id": 1802409, "name": "Longtan", "state": "", "country": "CN", "coord": {"lon": 110.536392, "lat": 27.41139}}, {"id": 1802431, "name": "Longsheng", "state": "", "country": "CN", "coord": {"lon": 110.009171, "lat": 25.79361}}, {"id": 1802443, "name": "Longshan", "state": "", "country": "CN", "coord": {"lon": 121.55278, "lat": 30.078609}}, {"id": 1802458, "name": "Longquan", "state": "", "country": "CN", "coord": {"lon": 104.268929, "lat": 30.5613}}, {"id": 1802472, "name": "Longquan", "state": "", "country": "CN", "coord": {"lon": 111.490242, "lat": 30.730949}}, {"id": 1802476, "name": "Longquan", "state": "", "country": "CN", "coord": {"lon": 102.161301, "lat": 24.671921}}, {"id": 1802483, "name": "Longping", "state": "", "country": "CN", "coord": {"lon": 115.697418, "lat": 29.86956}}, {"id": 1802495, "name": "Longnan", "state": "", "country": "CN", "coord": {"lon": 114.783333, "lat": 24.9}}, {"id": 1802498, "name": "Longmu", "state": "", "country": "CN", "coord": {"lon": 115.433578, "lat": 24.260731}}, {"id": 1802525, "name": "Longmen", "state": "", "country": "CN", "coord": {"lon": 116.967819, "lat": 25.09697}}, {"id": 1802526, "name": "Longmen", "state": "", "country": "CN", "coord": {"lon": 118.08889, "lat": 24.959721}}, {"id": 1802527, "name": "Longcheng", "state": "", "country": "CN", "coord": {"lon": 114.24395, "lat": 23.7309}}, {"id": 1802533, "name": "Longmen", "state": "", "country": "CN", "coord": {"lon": 110.325531, "lat": 19.44293}}, {"id": 1802541, "name": "Longlin", "state": "", "country": "CN", "coord": {"lon": 105.06739, "lat": 33.94278}}, {"id": 1802545, "name": "Longlisuo", "state": "", "country": "CN", "coord": {"lon": 109.102219, "lat": 26.414169}}, {"id": 1802550, "name": "Longgang", "state": "", "country": "CN", "coord": {"lon": 120.328613, "lat": 37.650829}}, {"id": 1802556, "name": "Longkou", "state": "", "country": "CN", "coord": {"lon": 115.30088, "lat": 26.185829}}, {"id": 1802567, "name": "Longju", "state": "", "country": "CN", "coord": {"lon": 119.099998, "lat": 34.366669}}, {"id": 1802571, "name": "Longjin", "state": "", "country": "CN", "coord": {"lon": 116.814636, "lat": 26.181971}}, {"id": 1802578, "name": "Longjie", "state": "", "country": "CN", "coord": {"lon": 114.363121, "lat": 24.19326}}, {"id": 1802580, "name": "Longjiazhai", "state": "", "country": "CN", "coord": {"lon": 109.828003, "lat": 29.20458}}, {"id": 1802593, "name": "Longjiang", "state": "", "country": "CN", "coord": {"lon": 116.169998, "lat": 22.984579}}, {"id": 1802602, "name": "Longhutang", "state": "", "country": "CN", "coord": {"lon": 119.98333, "lat": 31.85}}, {"id": 1802618, "name": "Longhua", "state": "", "country": "CN", "coord": {"lon": 114.191879, "lat": 23.61371}}, {"id": 1802619, "name": "Longhua", "state": "", "country": "CN", "coord": {"lon": 114.100777, "lat": 23.189619}}, {"id": 1802620, "name": "Longhua", "state": "", "country": "CN", "coord": {"lon": 113.998398, "lat": 22.655251}}, {"id": 1802625, "name": "Longhu", "state": "", "country": "CN", "coord": {"lon": 116.645187, "lat": 23.554939}}, {"id": 1802634, "name": "Longgun", "state": "", "country": "CN", "coord": {"lon": 110.515373, "lat": 19.060049}}, {"id": 1802644, "name": "Longgao", "state": "", "country": "CN", "coord": {"lon": 108.315033, "lat": 34.95528}}, {"id": 1802652, "name": "Longgang", "state": "", "country": "CN", "coord": {"lon": 114.950279, "lat": 29.62558}}, {"id": 1802653, "name": "Longgang Shezu", "state": "", "country": "CN", "coord": {"lon": 115.583092, "lat": 26.73842}}, {"id": 1802654, "name": "Longgang", "state": "", "country": "CN", "coord": {"lon": 116.26004, "lat": 26.108761}}, {"id": 1802682, "name": "Longchuan", "state": "", "country": "CN", "coord": {"lon": 101.294182, "lat": 25.16152}}, {"id": 1802686, "name": "Longcheng", "state": "", "country": "CN", "coord": {"lon": 105.973389, "lat": 35.000961}}, {"id": 1802687, "name": "Longcheng", "state": "", "country": "CN", "coord": {"lon": 116.950768, "lat": 34.184479}}, {"id": 1802689, "name": "Longcheng", "state": "", "country": "CN", "coord": {"lon": 102.799652, "lat": 24.89827}}, {"id": 1802701, "name": "Longbu", "state": "", "country": "CN", "coord": {"lon": 115.375999, "lat": 25.47348}}, {"id": 1802707, "name": "Long\u2019an", "state": "", "country": "CN", "coord": {"lon": 104.528679, "lat": 32.40934}}, {"id": 1802708, "name": "Long\u2019an", "state": "", "country": "CN", "coord": {"lon": 116.803413, "lat": 27.227409}}, {"id": 1802710, "name": "Long\u2019an Chengxiangzhen", "state": "", "country": "CN", "coord": {"lon": 107.650902, "lat": 23.207121}}, {"id": 1802714, "name": "Lizui", "state": "", "country": "CN", "coord": {"lon": 115.325256, "lat": 24.34222}}, {"id": 1802729, "name": "Lizhuangzi", "state": "", "country": "CN", "coord": {"lon": 117.525558, "lat": 39.004169}}, {"id": 1802740, "name": "Lizhu", "state": "", "country": "CN", "coord": {"lon": 120.466667, "lat": 29.95528}}, {"id": 1802750, "name": "Lizhai", "state": "", "country": "CN", "coord": {"lon": 117.918907, "lat": 29.00844}}, {"id": 1802769, "name": "Liyuan", "state": "", "country": "CN", "coord": {"lon": 111.323242, "lat": 35.50692}}, {"id": 1802772, "name": "Liyuan", "state": "", "country": "CN", "coord": {"lon": 110.155907, "lat": 29.39537}}, {"id": 1802786, "name": "Liyang", "state": "", "country": "CN", "coord": {"lon": 109.208572, "lat": 34.585152}}, {"id": 1802787, "name": "Liyang", "state": "", "country": "CN", "coord": {"lon": 118.349998, "lat": 31.716669}}, {"id": 1802788, "name": "Licheng", "state": "", "country": "CN", "coord": {"lon": 119.523987, "lat": 31.430799}}, {"id": 1802789, "name": "Liyang", "state": "", "country": "CN", "coord": {"lon": 121.614998, "lat": 29.306669}}, {"id": 1802791, "name": "Lixu", "state": "", "country": "CN", "coord": {"lon": 116.631653, "lat": 28.068609}}, {"id": 1802793, "name": "Lixiqiao", "state": "", "country": "CN", "coord": {"lon": 110.41806, "lat": 26.79472}}, {"id": 1802803, "name": "Lixin Chengguanzhen", "state": "", "country": "CN", "coord": {"lon": 116.22718, "lat": 33.14328}}, {"id": 1802804, "name": "Lixin", "state": "", "country": "CN", "coord": {"lon": 116.670509, "lat": 26.83127}}, {"id": 1802812, "name": "Liyang", "state": "", "country": "CN", "coord": {"lon": 111.75174, "lat": 29.63681}}, {"id": 1802820, "name": "Lixi", "state": "", "country": "CN", "coord": {"lon": 114.838219, "lat": 29.24859}}, {"id": 1802821, "name": "Lixi", "state": "", "country": "CN", "coord": {"lon": 116.366669, "lat": 27.62809}}, {"id": 1802824, "name": "Lixi", "state": "", "country": "CN", "coord": {"lon": 113.247467, "lat": 23.94359}}, {"id": 1802829, "name": "Liwang", "state": "", "country": "CN", "coord": {"lon": 106.101334, "lat": 36.667439}}, {"id": 1802835, "name": "Liuzikou", "state": "", "country": "CN", "coord": {"lon": 117.346672, "lat": 39.870281}}, {"id": 1802848, "name": "Liuzhuang", "state": "", "country": "CN", "coord": {"lon": 120.292892, "lat": 33.137699}}, {"id": 1802854, "name": "Liuzhi", "state": "", "country": "CN", "coord": {"lon": 114.494827, "lat": 30.884529}}, {"id": 1802875, "name": "Guankou", "state": "", "country": "CN", "coord": {"lon": 113.633331, "lat": 28.15}}, {"id": 1802886, "name": "Liuxia", "state": "", "country": "CN", "coord": {"lon": 120.052872, "lat": 30.245461}}, {"id": 1802889, "name": "Liuwudiancun", "state": "", "country": "CN", "coord": {"lon": 118.19558, "lat": 24.555519}}, {"id": 1802906, "name": "Liutao", "state": "", "country": "CN", "coord": {"lon": 119.794167, "lat": 34.112782}}, {"id": 1802915, "name": "Liusi", "state": "", "country": "CN", "coord": {"lon": 116.360329, "lat": 29.78784}}, {"id": 1802918, "name": "Liushui", "state": "", "country": "CN", "coord": {"lon": 112.447983, "lat": 31.56707}}, {"id": 1802936, "name": "Liushan", "state": "", "country": "CN", "coord": {"lon": 112.546188, "lat": 33.47366}}, {"id": 1802940, "name": "Puning", "state": "", "country": "CN", "coord": {"lon": 116.168694, "lat": 23.31072}}, {"id": 1802942, "name": "Liurenba", "state": "", "country": "CN", "coord": {"lon": 114.830139, "lat": 29.93786}}, {"id": 1802950, "name": "Liuqu", "state": "", "country": "CN", "coord": {"lon": 109.26548, "lat": 34.866459}}, {"id": 1802954, "name": "Liuqiao", "state": "", "country": "CN", "coord": {"lon": 120.840477, "lat": 32.16864}}, {"id": 1802965, "name": "Liupai", "state": "", "country": "CN", "coord": {"lon": 107.173149, "lat": 25.040001}}, {"id": 1802986, "name": "Liulin", "state": "", "country": "CN", "coord": {"lon": 110.901894, "lat": 37.453331}}, {"id": 1802991, "name": "Liulin", "state": "", "country": "CN", "coord": {"lon": 107.309402, "lat": 34.549431}}, {"id": 1802994, "name": "Liulin", "state": "", "country": "CN", "coord": {"lon": 113.232468, "lat": 31.53941}}, {"id": 1803002, "name": "Liuli", "state": "", "country": "CN", "coord": {"lon": 113.933327, "lat": 24.299999}}, {"id": 1803010, "name": "Liukuaizhuang", "state": "", "country": "CN", "coord": {"lon": 117.330833, "lat": 39.24472}}, {"id": 1803012, "name": "Liukou", "state": "", "country": "CN", "coord": {"lon": 117.781792, "lat": 29.70503}}, {"id": 1803052, "name": "Zhujita", "state": "", "country": "CN", "coord": {"lon": 110.224289, "lat": 29.467541}}, {"id": 1803081, "name": "Liujiachang", "state": "", "country": "CN", "coord": {"lon": 111.47068, "lat": 30.0606}}, {"id": 1803085, "name": "Liuhao", "state": "", "country": "CN", "coord": {"lon": 121.481613, "lat": 32.059509}}, {"id": 1803093, "name": "Liuji", "state": "", "country": "CN", "coord": {"lon": 109.306396, "lat": 34.773361}}, {"id": 1803109, "name": "Liuhou", "state": "", "country": "CN", "coord": {"lon": 112.022247, "lat": 31.48447}}, {"id": 1803122, "name": "Liuhe", "state": "", "country": "CN", "coord": {"lon": 112.800758, "lat": 33.317032}}, {"id": 1803124, "name": "Liuhe", "state": "", "country": "CN", "coord": {"lon": 121.25528, "lat": 31.50972}}, {"id": 1803145, "name": "Liugu", "state": "", "country": "CN", "coord": {"lon": 109.27771, "lat": 34.74416}}, {"id": 1803157, "name": "Liufang", "state": "", "country": "CN", "coord": {"lon": 116.266144, "lat": 29.54166}}, {"id": 1803159, "name": "Liuduzhai", "state": "", "country": "CN", "coord": {"lon": 110.934998, "lat": 27.36611}}, {"id": 1803167, "name": "Liudu", "state": "", "country": "CN", "coord": {"lon": 112.019508, "lat": 23.066851}}, {"id": 1803193, "name": "Liucheng", "state": "", "country": "CN", "coord": {"lon": 103.837708, "lat": 30.700001}}, {"id": 1803214, "name": "Liuba", "state": "", "country": "CN", "coord": {"lon": 106.918892, "lat": 33.61861}}, {"id": 1803216, "name": "Aozhong", "state": "", "country": "CN", "coord": {"lon": 117.747711, "lat": 23.935011}}, {"id": 1803217, "name": "Liu\u2019anzhuang", "state": "", "country": "CN", "coord": {"lon": 117.193062, "lat": 39.233891}}, {"id": 1803223, "name": "Litian", "state": "", "country": "CN", "coord": {"lon": 114.729492, "lat": 27.21122}}, {"id": 1803224, "name": "Litian", "state": "", "country": "CN", "coord": {"lon": 114.140129, "lat": 27.016911}}, {"id": 1803225, "name": "Litian", "state": "", "country": "CN", "coord": {"lon": 116.699638, "lat": 26.015169}}, {"id": 1803233, "name": "Lita", "state": "", "country": "CN", "coord": {"lon": 116.535522, "lat": 27.358801}}, {"id": 1803245, "name": "Lishui", "state": "", "country": "CN", "coord": {"lon": 119.910294, "lat": 28.460421}}, {"id": 1803255, "name": "Lishi", "state": "", "country": "CN", "coord": {"lon": 111.134171, "lat": 37.51556}}, {"id": 1803258, "name": "Lishi", "state": "", "country": "CN", "coord": {"lon": 113.51667, "lat": 24.9}}, {"id": 1803266, "name": "Lintong", "state": "", "country": "CN", "coord": {"lon": 109.208923, "lat": 34.378029}}, {"id": 1803267, "name": "Lishan", "state": "", "country": "CN", "coord": {"lon": 113.295052, "lat": 31.857639}}, {"id": 1803277, "name": "Liren", "state": "", "country": "CN", "coord": {"lon": 114.87812, "lat": 24.89896}}, {"id": 1803281, "name": "Liquan Chengguanzhen", "state": "", "country": "CN", "coord": {"lon": 108.423607, "lat": 34.48111}}, {"id": 1803298, "name": "Linzi", "state": "", "country": "CN", "coord": {"lon": 120.75, "lat": 32.299999}}, {"id": 1803300, "name": "Liuzhou", "state": "", "country": "CN", "coord": {"lon": 109.38916, "lat": 24.31258}}, {"id": 1803317, "name": "Linyi", "state": "", "country": "CN", "coord": {"lon": 116.866669, "lat": 37.19083}}, {"id": 1803318, "name": "Linyi", "state": "", "country": "CN", "coord": {"lon": 118.342781, "lat": 35.063061}}, {"id": 1803326, "name": "Linquan", "state": "", "country": "CN", "coord": {"lon": 111.020592, "lat": 37.979649}}, {"id": 1803331, "name": "Linxia Chengguanzhen", "state": "", "country": "CN", "coord": {"lon": 103.20639, "lat": 35.600281}}, {"id": 1803334, "name": "Linxi", "state": "", "country": "CN", "coord": {"lon": 118.433327, "lat": 39.700001}}, {"id": 1803335, "name": "Linxi", "state": "", "country": "CN", "coord": {"lon": 118.535278, "lat": 29.99139}}, {"id": 1803340, "name": "Linwu Chengguanzhen", "state": "", "country": "CN", "coord": {"lon": 112.53981, "lat": 25.23247}}, {"id": 1803346, "name": "Lintingkou", "state": "", "country": "CN", "coord": {"lon": 117.500282, "lat": 39.63028}}, {"id": 1803352, "name": "Linshui", "state": "", "country": "CN", "coord": {"lon": 114.20472, "lat": 36.424721}}, {"id": 1803354, "name": "Linshe", "state": "", "country": "CN", "coord": {"lon": 117.07119, "lat": 26.318399}}, {"id": 1803355, "name": "Linshanhe", "state": "", "country": "CN", "coord": {"lon": 114.884087, "lat": 30.74267}}, {"id": 1803356, "name": "Linshan", "state": "", "country": "CN", "coord": {"lon": 120.991821, "lat": 30.15395}}, {"id": 1803362, "name": "Linquan Chengguanzhen", "state": "", "country": "CN", "coord": {"lon": 115.29023, "lat": 33.08506}}, {"id": 1803364, "name": "Linqu", "state": "", "country": "CN", "coord": {"lon": 118.539719, "lat": 36.51556}}, {"id": 1803365, "name": "Linqiong", "state": "", "country": "CN", "coord": {"lon": 103.460876, "lat": 30.415871}}, {"id": 1803367, "name": "Qingnian", "state": "", "country": "CN", "coord": {"lon": 115.71167, "lat": 36.845558}}, {"id": 1803372, "name": "Linpu", "state": "", "country": "CN", "coord": {"lon": 120.244926, "lat": 30.04406}}, {"id": 1803373, "name": "Linping", "state": "", "country": "CN", "coord": {"lon": 108.096672, "lat": 34.464439}}, {"id": 1803374, "name": "Linping", "state": "", "country": "CN", "coord": {"lon": 120.297218, "lat": 30.422501}}, {"id": 1803382, "name": "Linli", "state": "", "country": "CN", "coord": {"lon": 111.650002, "lat": 29.450001}}, {"id": 1803383, "name": "Linkuang", "state": "", "country": "CN", "coord": {"lon": 112.418747, "lat": 31.295429}}, {"id": 1803387, "name": "Linkou", "state": "", "country": "CN", "coord": {"lon": 109.863609, "lat": 26.24806}}, {"id": 1803396, "name": "Linjiang", "state": "", "country": "CN", "coord": {"lon": 104.921417, "lat": 33.06218}}, {"id": 1803400, "name": "Linjiang", "state": "", "country": "CN", "coord": {"lon": 118.45546, "lat": 27.824089}}, {"id": 1803416, "name": "Linhepu", "state": "", "country": "CN", "coord": {"lon": 106.366669, "lat": 38.316669}}, {"id": 1803422, "name": "Linhai", "state": "", "country": "CN", "coord": {"lon": 121.116669, "lat": 28.85}}, {"id": 1803438, "name": "Xiayang", "state": "", "country": "CN", "coord": {"lon": 113.798027, "lat": 26.481359}}, {"id": 1803444, "name": "Lingxi", "state": "", "country": "CN", "coord": {"lon": 109.844719, "lat": 29.004999}}, {"id": 1803451, "name": "Lingui", "state": "", "country": "CN", "coord": {"lon": 110.204437, "lat": 25.245001}}, {"id": 1803458, "name": "Lingtang", "state": "", "country": "CN", "coord": {"lon": 119.216667, "lat": 32.683331}}, {"id": 1803468, "name": "Cuifeng", "state": "", "country": "CN", "coord": {"lon": 111.781723, "lat": 36.845169}},