[{"id": 2822924, "name": "Theener", "state": "", "country": "DE", "coord": {"lon": 7.3, "lat": 53.666672}}, {"id": 2822930, "name": "Thedinghausen", "state": "", "country": "DE", "coord": {"lon": 9.01667, "lat": 52.966671}}, {"id": 2822935, "name": "Thauernhausen", "state": "", "country": "DE", "coord": {"lon": 12.50424, "lat": 47.93314}}, {"id": 2822939, "name": "Tharandt", "state": "", "country": "DE", "coord": {"lon": 13.58333, "lat": 50.98333}}, {"id": 2822941, "name": "Thanstein", "state": "", "country": "DE", "coord": {"lon": 12.46667, "lat": 49.383331}}, {"id": 2822950, "name": "Thanning", "state": "", "country": "DE", "coord": {"lon": 11.53513, "lat": 47.921398}}, {"id": 2822958, "name": "Thannhausen", "state": "", "country": "DE", "coord": {"lon": 10.46667, "lat": 48.283329}}, {"id": 2822973, "name": "Thanndorf", "state": "", "country": "DE", "coord": {"lon": 12.91667, "lat": 48.583328}}, {"id": 2822976, "name": "Thannberg", "state": "", "country": "DE", "coord": {"lon": 13.28333, "lat": 48.75}}, {"id": 2822978, "name": "Thannberg", "state": "", "country": "DE", "coord": {"lon": 13.07047, "lat": 48.6497}}, {"id": 2823009, "name": "Thanhof", "state": "", "country": "DE", "coord": {"lon": 12.4, "lat": 50.683331}}, {"id": 2823018, "name": "Thanhausen", "state": "", "country": "DE", "coord": {"lon": 12.16667, "lat": 49.083328}}, {"id": 2823020, "name": "Thanham", "state": "", "country": "DE", "coord": {"lon": 13.13999, "lat": 48.389091}}, {"id": 2823022, "name": "Thangelstedt", "state": "", "country": "DE", "coord": {"lon": 11.27678, "lat": 50.843891}}, {"id": 2823024, "name": "Thandorf", "state": "", "country": "DE", "coord": {"lon": 10.81667, "lat": 53.76667}}, {"id": 2823026, "name": "Thamsbr\u00fcck", "state": "", "country": "DE", "coord": {"lon": 10.65, "lat": 51.150002}}, {"id": 2823028, "name": "Thammenhain", "state": "", "country": "DE", "coord": {"lon": 12.85898, "lat": 51.42704}}, {"id": 2823034, "name": "Thalwenden", "state": "", "country": "DE", "coord": {"lon": 10.05, "lat": 51.349998}}, {"id": 2823036, "name": "Thalveldenz", "state": "", "country": "DE", "coord": {"lon": 7.03333, "lat": 49.883331}}, {"id": 2823044, "name": "Thalm\u00e4ssing", "state": "", "country": "DE", "coord": {"lon": 11.22306, "lat": 49.088058}}, {"id": 2823045, "name": "Thalmassing", "state": "", "country": "DE", "coord": {"lon": 12.155, "lat": 48.911671}}, {"id": 2823046, "name": "Thalmannsfeld", "state": "", "country": "DE", "coord": {"lon": 11.15, "lat": 49.066669}}, {"id": 2823049, "name": "Thallwitz", "state": "", "country": "DE", "coord": {"lon": 12.68333, "lat": 51.433331}}, {"id": 2823052, "name": "Thallichtenberg", "state": "", "country": "DE", "coord": {"lon": 7.35, "lat": 49.566669}}, {"id": 2823057, "name": "Thalkleinich", "state": "", "country": "DE", "coord": {"lon": 7.18333, "lat": 49.900002}}, {"id": 2823078, "name": "Thalheim", "state": "", "country": "DE", "coord": {"lon": 12.23333, "lat": 51.650002}}, {"id": 2823081, "name": "Thalheim", "state": "", "country": "DE", "coord": {"lon": 12.85, "lat": 50.700001}}, {"id": 2823087, "name": "Thalhausen", "state": "", "country": "DE", "coord": {"lon": 7.58333, "lat": 50.5}}, {"id": 2823107, "name": "Thalham", "state": "", "country": "DE", "coord": {"lon": 12.28333, "lat": 48.26667}}, {"id": 2823137, "name": "Thaleischweiler-Fr\u00f6schen", "state": "", "country": "DE", "coord": {"lon": 7.58333, "lat": 49.26667}}, {"id": 2823139, "name": "Thalebra", "state": "", "country": "DE", "coord": {"lon": 10.78333, "lat": 51.299999}}, {"id": 2823141, "name": "Thale", "state": "", "country": "DE", "coord": {"lon": 11.05, "lat": 51.75}}, {"id": 2823146, "name": "Thalb\u00fcrgel", "state": "", "country": "DE", "coord": {"lon": 11.75, "lat": 50.933331}}, {"id": 2823163, "name": "Thal", "state": "", "country": "DE", "coord": {"lon": 7.71667, "lat": 50.75}}, {"id": 2823165, "name": "Thal", "state": "", "country": "DE", "coord": {"lon": 12.73178, "lat": 48.79612}}, {"id": 2823214, "name": "Thaining", "state": "", "country": "DE", "coord": {"lon": 10.96667, "lat": 47.950001}}, {"id": 2823218, "name": "Thaden", "state": "", "country": "DE", "coord": {"lon": 9.41667, "lat": 54.099998}}, {"id": 2823221, "name": "Tewswoos", "state": "", "country": "DE", "coord": {"lon": 11.20211, "lat": 53.228748}}, {"id": 2823225, "name": "Teveren", "state": "", "country": "DE", "coord": {"lon": 6.06667, "lat": 50.950001}}, {"id": 2823226, "name": "Tevenhausen", "state": "", "country": "DE", "coord": {"lon": 8.9875, "lat": 52.127899}}, {"id": 2823230, "name": "Teutschenthal", "state": "", "country": "DE", "coord": {"lon": 11.8, "lat": 51.450001}}, {"id": 2823233, "name": "Teutleben", "state": "", "country": "DE", "coord": {"lon": 10.56667, "lat": 50.950001}}, {"id": 2823245, "name": "Teuschnitz", "state": "", "country": "DE", "coord": {"lon": 11.38333, "lat": 50.383331}}, {"id": 2823248, "name": "Teurow", "state": "", "country": "DE", "coord": {"lon": 13.71667, "lat": 52.083328}}, {"id": 2823256, "name": "Teupitz", "state": "", "country": "DE", "coord": {"lon": 13.61667, "lat": 52.116669}}, {"id": 2823257, "name": "Teunz", "state": "", "country": "DE", "coord": {"lon": 12.38333, "lat": 49.48333}}, {"id": 2823259, "name": "Teugn", "state": "", "country": "DE", "coord": {"lon": 12.01667, "lat": 48.900002}}, {"id": 2823323, "name": "Teufelsbr\u00fcck", "state": "", "country": "DE", "coord": {"lon": 9.86444, "lat": 53.547039}}, {"id": 2823353, "name": "Teuditz", "state": "", "country": "DE", "coord": {"lon": 12.1, "lat": 51.283329}}, {"id": 2823355, "name": "Teuchern", "state": "", "country": "DE", "coord": {"lon": 12.01667, "lat": 51.116669}}, {"id": 2823360, "name": "Teublitz", "state": "", "country": "DE", "coord": {"lon": 12.08833, "lat": 49.223061}}, {"id": 2823366, "name": "Tettscheid", "state": "", "country": "DE", "coord": {"lon": 6.81667, "lat": 50.133331}}, {"id": 2823368, "name": "Tettnang", "state": "", "country": "DE", "coord": {"lon": 9.6, "lat": 47.666672}}, {"id": 2823372, "name": "Tettenweis", "state": "", "country": "DE", "coord": {"lon": 13.26955, "lat": 48.44281}}, {"id": 2823381, "name": "Tettenhausen", "state": "", "country": "DE", "coord": {"lon": 12.7541, "lat": 47.95562}}, {"id": 2823393, "name": "Tettau", "state": "", "country": "DE", "coord": {"lon": 13.73333, "lat": 51.433331}}, {"id": 2823394, "name": "Tettau", "state": "", "country": "DE", "coord": {"lon": 12.5, "lat": 50.883331}}, {"id": 2823395, "name": "Tettau", "state": "", "country": "DE", "coord": {"lon": 11.25, "lat": 50.466671}}, {"id": 2823398, "name": "Teterow", "state": "", "country": "DE", "coord": {"lon": 12.56667, "lat": 53.783329}}, {"id": 2823401, "name": "Tetenhusen", "state": "", "country": "DE", "coord": {"lon": 9.5, "lat": 54.349998}}, {"id": 2823403, "name": "Tetenb\u00fcll", "state": "", "country": "DE", "coord": {"lon": 8.82794, "lat": 54.352139}}, {"id": 2823407, "name": "Testorf-Steinfort", "state": "", "country": "DE", "coord": {"lon": 11.26667, "lat": 53.783329}}, {"id": 2823413, "name": "Testorf", "state": "", "country": "DE", "coord": {"lon": 10.71768, "lat": 53.046009}}, {"id": 2823418, "name": "Tessin", "state": "", "country": "DE", "coord": {"lon": 12.46519, "lat": 54.027641}}, {"id": 2823420, "name": "Wittend\u00f6rp", "state": "", "country": "DE", "coord": {"lon": 11.02461, "lat": 53.562851}}, {"id": 2823424, "name": "Tessenow", "state": "", "country": "DE", "coord": {"lon": 11.89459, "lat": 53.353111}}, {"id": 2823426, "name": "Tespe", "state": "", "country": "DE", "coord": {"lon": 10.41084, "lat": 53.3964}}, {"id": 2823432, "name": "Teschow", "state": "", "country": "DE", "coord": {"lon": 11.11667, "lat": 53.849998}}, {"id": 2823433, "name": "Teschow", "state": "", "country": "DE", "coord": {"lon": 12.63333, "lat": 53.783329}}, {"id": 2823435, "name": "Teschenmoschel", "state": "", "country": "DE", "coord": {"lon": 7.73333, "lat": 49.633331}}, {"id": 2823445, "name": "Teschendorf", "state": "", "country": "DE", "coord": {"lon": 13.17312, "lat": 52.852291}}, {"id": 2823455, "name": "Terpitzsch", "state": "", "country": "DE", "coord": {"lon": 12.83333, "lat": 51.116669}}, {"id": 2823457, "name": "Terpitz", "state": "", "country": "DE", "coord": {"lon": 12.62063, "lat": 51.02277}}, {"id": 2823465, "name": "Terhalle", "state": "", "country": "DE", "coord": {"lon": 7.36667, "lat": 53.616669}}, {"id": 2823468, "name": "Tergast", "state": "", "country": "DE", "coord": {"lon": 7.36667, "lat": 53.333328}}, {"id": 2823470, "name": "Terborg", "state": "", "country": "DE", "coord": {"lon": 7.38333, "lat": 53.299999}}, {"id": 2823486, "name": "Tensfeld", "state": "", "country": "DE", "coord": {"lon": 10.31667, "lat": 54.049999}}, {"id": 2823487, "name": "Tensb\u00fcttel", "state": "", "country": "DE", "coord": {"lon": 9.23333, "lat": 54.116669}}, {"id": 2823497, "name": "Tennenbronn", "state": "", "country": "DE", "coord": {"lon": 8.35176, "lat": 48.190411}}, {"id": 2823504, "name": "Teningen", "state": "", "country": "DE", "coord": {"lon": 7.81205, "lat": 48.12952}}, {"id": 2823509, "name": "Tengling", "state": "", "country": "DE", "coord": {"lon": 12.73333, "lat": 48}}, {"id": 2823512, "name": "Tengern", "state": "", "country": "DE", "coord": {"lon": 8.69894, "lat": 52.257019}}, {"id": 2823515, "name": "Tengen", "state": "", "country": "DE", "coord": {"lon": 8.66117, "lat": 47.821281}}, {"id": 2823533, "name": "Templin", "state": "", "country": "DE", "coord": {"lon": 13.5022, "lat": 53.118649}}, {"id": 2823544, "name": "Tempelfelde", "state": "", "country": "DE", "coord": {"lon": 13.71918, "lat": 52.7089}}, {"id": 2823546, "name": "Tempelberg", "state": "", "country": "DE", "coord": {"lon": 14.16667, "lat": 52.450001}}, {"id": 2823553, "name": "Tempel", "state": "", "country": "DE", "coord": {"lon": 12.51369, "lat": 54.264469}}, {"id": 2823561, "name": "Temmels", "state": "", "country": "DE", "coord": {"lon": 6.46667, "lat": 49.683331}}, {"id": 2823567, "name": "Teltow", "state": "", "country": "DE", "coord": {"lon": 13.26667, "lat": 52.400002}}, {"id": 2823575, "name": "Tellmer", "state": "", "country": "DE", "coord": {"lon": 10.30204, "lat": 53.110981}}, {"id": 2823578, "name": "Tellingstedt", "state": "", "country": "DE", "coord": {"lon": 9.28333, "lat": 54.216671}}, {"id": 2823579, "name": "Tellig", "state": "", "country": "DE", "coord": {"lon": 7.25, "lat": 50.033329}}, {"id": 2823590, "name": "Telgte", "state": "", "country": "DE", "coord": {"lon": 7.78333, "lat": 51.98333}}, {"id": 2823600, "name": "Teklenburg", "state": "", "country": "DE", "coord": {"lon": 8.61667, "lat": 53.133331}}, {"id": 2823603, "name": "Teistungen", "state": "", "country": "DE", "coord": {"lon": 10.26667, "lat": 51.466671}}, {"id": 2823605, "name": "Teisnach", "state": "", "country": "DE", "coord": {"lon": 13, "lat": 49.033329}}, {"id": 2823608, "name": "Teising", "state": "", "country": "DE", "coord": {"lon": 12.61667, "lat": 48.23333}}, {"id": 2823611, "name": "Teisendorf", "state": "", "country": "DE", "coord": {"lon": 12.81667, "lat": 47.849998}}, {"id": 2823625, "name": "Teichwolframsdorf", "state": "", "country": "DE", "coord": {"lon": 12.25, "lat": 50.716671}}, {"id": 2823626, "name": "Teichwitz", "state": "", "country": "DE", "coord": {"lon": 12.08333, "lat": 50.75}}, {"id": 2823629, "name": "Teichweiden", "state": "", "country": "DE", "coord": {"lon": 11.35, "lat": 50.75}}, {"id": 2823636, "name": "Teichlosen", "state": "", "country": "DE", "coord": {"lon": 11.01667, "lat": 53.033329}}, {"id": 2823653, "name": "Teichel", "state": "", "country": "DE", "coord": {"lon": 11.31667, "lat": 50.783329}}, {"id": 2823667, "name": "Teicha", "state": "", "country": "DE", "coord": {"lon": 11.95, "lat": 51.566669}}, {"id": 2823670, "name": "Teich", "state": "", "country": "DE", "coord": {"lon": 6.96667, "lat": 52.5}}, {"id": 2823675, "name": "Tegkwitz", "state": "", "country": "DE", "coord": {"lon": 12.35, "lat": 50.98333}}, {"id": 2823677, "name": "Tegernseeberg", "state": "", "country": "DE", "coord": {"lon": 11.78333, "lat": 47.716671}}, {"id": 2823679, "name": "Tegernsee", "state": "", "country": "DE", "coord": {"lon": 11.75271, "lat": 47.709671}}, {"id": 2823682, "name": "Tegernheim", "state": "", "country": "DE", "coord": {"lon": 12.18333, "lat": 49.01667}}, {"id": 2823688, "name": "Tegernbach", "state": "", "country": "DE", "coord": {"lon": 11.06667, "lat": 48.26667}}, {"id": 2823710, "name": "Tegau", "state": "", "country": "DE", "coord": {"lon": 11.86667, "lat": 50.650002}}, {"id": 2823728, "name": "Tecklenburg", "state": "", "country": "DE", "coord": {"lon": 7.83333, "lat": 52.216671}}, {"id": 2823737, "name": "Techentin", "state": "", "country": "DE", "coord": {"lon": 11.9878, "lat": 53.587311}}, {"id": 2823738, "name": "Techentin", "state": "", "country": "DE", "coord": {"lon": 11.5, "lat": 53.299999}}, {"id": 2823740, "name": "Techelsdorf", "state": "", "country": "DE", "coord": {"lon": 10.05, "lat": 54.216671}}, {"id": 2823747, "name": "Taxis", "state": "", "country": "DE", "coord": {"lon": 10.36667, "lat": 48.700001}}, {"id": 2823750, "name": "Taxberg", "state": "", "country": "DE", "coord": {"lon": 11.15, "lat": 48.51667}}, {"id": 2823753, "name": "Taxa", "state": "", "country": "DE", "coord": {"lon": 11.20949, "lat": 48.315971}}, {"id": 2823755, "name": "Tawern", "state": "", "country": "DE", "coord": {"lon": 6.51667, "lat": 49.666672}}, {"id": 2823764, "name": "Tautenhain", "state": "", "country": "DE", "coord": {"lon": 11.91667, "lat": 50.933331}}, {"id": 2823768, "name": "Tautendorf", "state": "", "country": "DE", "coord": {"lon": 11.9, "lat": 50.816669}}, {"id": 2823771, "name": "Tautenburg", "state": "", "country": "DE", "coord": {"lon": 11.71667, "lat": 51}}, {"id": 2823776, "name": "Tauschwitz", "state": "", "country": "DE", "coord": {"lon": 11.43333, "lat": 50.633331}}, {"id": 2823788, "name": "Tauscha", "state": "", "country": "DE", "coord": {"lon": 13.8, "lat": 51.26667}}, {"id": 2823789, "name": "Tauscha", "state": "", "country": "DE", "coord": {"lon": 12.71667, "lat": 50.916672}}, {"id": 2823795, "name": "Taura", "state": "", "country": "DE", "coord": {"lon": 12.85, "lat": 50.916672}}, {"id": 2823796, "name": "Tauperlitz", "state": "", "country": "DE", "coord": {"lon": 11.95, "lat": 50.299999}}, {"id": 2823797, "name": "Taupadel", "state": "", "country": "DE", "coord": {"lon": 11.7, "lat": 50.950001}}, {"id": 2823798, "name": "Taupadel", "state": "", "country": "DE", "coord": {"lon": 12.4, "lat": 50.900002}}, {"id": 2823799, "name": "Taunusstein", "state": "", "country": "DE", "coord": {"lon": 8.15, "lat": 50.150002}}, {"id": 2823810, "name": "Taufkirchen", "state": "", "country": "DE", "coord": {"lon": 12.13333, "lat": 48.349998}}, {"id": 2823811, "name": "Taufkirchen", "state": "", "country": "DE", "coord": {"lon": 12.45, "lat": 48.150002}}, {"id": 2823812, "name": "Taufkirchen", "state": "", "country": "DE", "coord": {"lon": 11.61907, "lat": 48.043201}}, {"id": 2823824, "name": "Tauer", "state": "", "country": "DE", "coord": {"lon": 14.45, "lat": 51.900002}}, {"id": 2823826, "name": "Tauchritz", "state": "", "country": "DE", "coord": {"lon": 14.95, "lat": 51.066669}}, {"id": 2823835, "name": "Tauche", "state": "", "country": "DE", "coord": {"lon": 14.16667, "lat": 52.150002}}, {"id": 2823836, "name": "Taucha", "state": "", "country": "DE", "coord": {"lon": 12.48333, "lat": 51.383331}}, {"id": 2823842, "name": "Taubing", "state": "", "country": "DE", "coord": {"lon": 13.66871, "lat": 48.586201}}, {"id": 2823844, "name": "Tauberzell", "state": "", "country": "DE", "coord": {"lon": 10.11667, "lat": 49.450001}}, {"id": 2823849, "name": "Tauberscheckenbach", "state": "", "country": "DE", "coord": {"lon": 10.13333, "lat": 49.433331}}, {"id": 2823850, "name": "Tauberschallbach", "state": "", "country": "DE", "coord": {"lon": 10.35, "lat": 49.200001}}, {"id": 2823851, "name": "Tauberrettersheim", "state": "", "country": "DE", "coord": {"lon": 9.93667, "lat": 49.494438}}, {"id": 2823853, "name": "Tauberfeld", "state": "", "country": "DE", "coord": {"lon": 11.26667, "lat": 48.816669}}, {"id": 2823854, "name": "Tauberbischofsheim", "state": "", "country": "DE", "coord": {"lon": 9.66278, "lat": 49.624722}}, {"id": 2823883, "name": "Taubenhof", "state": "", "country": "DE", "coord": {"lon": 10.9, "lat": 49.48333}}, {"id": 2823887, "name": "Taubenheim", "state": "", "country": "DE", "coord": {"lon": 14.48333, "lat": 51.049999}}, {"id": 2823916, "name": "Taubenbach", "state": "", "country": "DE", "coord": {"lon": 12.95, "lat": 48.283329}}, {"id": 2823924, "name": "Taubach", "state": "", "country": "DE", "coord": {"lon": 11.38333, "lat": 50.950001}}, {"id": 2823936, "name": "Tating", "state": "", "country": "DE", "coord": {"lon": 8.71667, "lat": 54.333328}}, {"id": 2823950, "name": "Tatenberg", "state": "", "country": "DE", "coord": {"lon": 10.07661, "lat": 53.496422}}, {"id": 2823951, "name": "Tastungen", "state": "", "country": "DE", "coord": {"lon": 10.30964, "lat": 51.469189}}, {"id": 2823953, "name": "Tastrup", "state": "", "country": "DE", "coord": {"lon": 9.48333, "lat": 54.76667}}, {"id": 2823956, "name": "Tasdorf", "state": "", "country": "DE", "coord": {"lon": 10.03333, "lat": 54.099998}}, {"id": 2823968, "name": "Markt Taschendorf", "state": "", "country": "DE", "coord": {"lon": 10.55, "lat": 49.700001}}, {"id": 2823969, "name": "Taschenberg", "state": "", "country": "DE", "coord": {"lon": 13.78333, "lat": 53.416672}}, {"id": 2823973, "name": "Tarthun", "state": "", "country": "DE", "coord": {"lon": 11.46667, "lat": 51.933331}}, {"id": 2823978, "name": "Tarp", "state": "", "country": "DE", "coord": {"lon": 9.4, "lat": 54.666672}}, {"id": 2823981, "name": "Tarnow", "state": "", "country": "DE", "coord": {"lon": 12.01667, "lat": 53.783329}}, {"id": 2823989, "name": "Tarmstedt", "state": "", "country": "DE", "coord": {"lon": 9.07763, "lat": 53.225052}}, {"id": 2823993, "name": "Tarbek", "state": "", "country": "DE", "coord": {"lon": 10.26667, "lat": 54.049999}}, {"id": 2823994, "name": "Tarbarg", "state": "", "country": "DE", "coord": {"lon": 7.88333, "lat": 53.333328}}, {"id": 2823997, "name": "Tappendorf", "state": "", "country": "DE", "coord": {"lon": 9.68333, "lat": 54.099998}}, {"id": 2824000, "name": "Tappenbeck", "state": "", "country": "DE", "coord": {"lon": 10.74068, "lat": 52.470551}}, {"id": 2824005, "name": "Tapfheim", "state": "", "country": "DE", "coord": {"lon": 10.68333, "lat": 48.666672}}, {"id": 2824020, "name": "Tantow", "state": "", "country": "DE", "coord": {"lon": 14.35098, "lat": 53.271629}}, {"id": 2824027, "name": "Tannroda", "state": "", "country": "DE", "coord": {"lon": 11.24648, "lat": 50.85952}}, {"id": 2824053, "name": "Tannheim", "state": "", "country": "DE", "coord": {"lon": 10.08333, "lat": 48}}, {"id": 2824055, "name": "Tannhausen", "state": "", "country": "DE", "coord": {"lon": 10.35, "lat": 48.966671}}, {"id": 2824058, "name": "Tannewitz", "state": "", "country": "DE", "coord": {"lon": 12.25, "lat": 51.150002}}, {"id": 2824063, "name": "T\u00e4nnesberg", "state": "", "country": "DE", "coord": {"lon": 12.33333, "lat": 49.533329}}, {"id": 2824067, "name": "Tannenwirtshaus", "state": "", "country": "DE", "coord": {"lon": 11.6, "lat": 50.166672}}, {"id": 2824148, "name": "Tannenbergsthal", "state": "", "country": "DE", "coord": {"lon": 12.46667, "lat": 50.433331}}, {"id": 2824152, "name": "Tannenberg", "state": "", "country": "DE", "coord": {"lon": 12.95, "lat": 50.599998}}, {"id": 2824182, "name": "Tannenberg", "state": "", "country": "DE", "coord": {"lon": 7.11667, "lat": 51.73333}}, {"id": 2824183, "name": "Tannenbaum", "state": "", "country": "DE", "coord": {"lon": 10.1, "lat": 53.700001}}, {"id": 2824225, "name": "Tannach", "state": "", "country": "DE", "coord": {"lon": 10.26667, "lat": 47.533329}}, {"id": 2824227, "name": "Tanna", "state": "", "country": "DE", "coord": {"lon": 11.85, "lat": 50.5}}, {"id": 2824229, "name": "Tann", "state": "", "country": "DE", "coord": {"lon": 10.01667, "lat": 50.650002}}, {"id": 2824230, "name": "Tann", "state": "", "country": "DE", "coord": {"lon": 12.89301, "lat": 48.314629}}, {"id": 2824245, "name": "Tangstedt", "state": "", "country": "DE", "coord": {"lon": 10.08333, "lat": 53.73333}}, {"id": 2824246, "name": "Tangstedt", "state": "", "country": "DE", "coord": {"lon": 9.85, "lat": 53.666672}}, {"id": 2824254, "name": "Tangerm\u00fcnde", "state": "", "country": "DE", "coord": {"lon": 11.97647, "lat": 52.544628}}, {"id": 2824255, "name": "Tangerh\u00fctte", "state": "", "country": "DE", "coord": {"lon": 11.8, "lat": 52.433331}}, {"id": 2824284, "name": "Tamm", "state": "", "country": "DE", "coord": {"lon": 9.11556, "lat": 48.91988}}, {"id": 2824285, "name": "Tambach-Dietharz", "state": "", "country": "DE", "coord": {"lon": 10.61667, "lat": 50.799999}}, {"id": 2824288, "name": "Tambach", "state": "", "country": "DE", "coord": {"lon": 10.86667, "lat": 50.23333}}, {"id": 2824291, "name": "Taltitz", "state": "", "country": "DE", "coord": {"lon": 12.11595, "lat": 50.437721}}, {"id": 2824297, "name": "Talling", "state": "", "country": "DE", "coord": {"lon": 6.95, "lat": 49.76667}}, {"id": 2824301, "name": "Talle", "state": "", "country": "DE", "coord": {"lon": 8.90845, "lat": 52.095539}}, {"id": 2824303, "name": "Talkau", "state": "", "country": "DE", "coord": {"lon": 10.56667, "lat": 53.566669}}, {"id": 2824316, "name": "Talheim", "state": "", "country": "DE", "coord": {"lon": 9.19306, "lat": 49.083328}}, {"id": 2824319, "name": "Talheim", "state": "", "country": "DE", "coord": {"lon": 8.66667, "lat": 48.01667}}, {"id": 2824320, "name": "Talheim", "state": "", "country": "DE", "coord": {"lon": 8.63852, "lat": 47.816559}}, {"id": 2824331, "name": "T\u00e4le", "state": "", "country": "DE", "coord": {"lon": 9.65449, "lat": 48.926762}}, {"id": 2824361, "name": "Taiting", "state": "", "country": "DE", "coord": {"lon": 11.05328, "lat": 48.40345}}, {"id": 2824366, "name": "Taimering", "state": "", "country": "DE", "coord": {"lon": 12.31667, "lat": 48.916672}}, {"id": 2824370, "name": "Tailfingen", "state": "", "country": "DE", "coord": {"lon": 9.01667, "lat": 48.25}}, {"id": 2824373, "name": "Taiding", "state": "", "country": "DE", "coord": {"lon": 12.66252, "lat": 48.803299}}, {"id": 2824379, "name": "Tagmersheim", "state": "", "country": "DE", "coord": {"lon": 10.96667, "lat": 48.816669}}, {"id": 2824383, "name": "Tagewerben", "state": "", "country": "DE", "coord": {"lon": 11.95, "lat": 51.23333}}, {"id": 2824392, "name": "T\u00e4fertingen", "state": "", "country": "DE", "coord": {"lon": 10.81667, "lat": 48.416672}}, {"id": 2824393, "name": "T\u00e4ferrot", "state": "", "country": "DE", "coord": {"lon": 9.83824, "lat": 48.84972}}, {"id": 2824412, "name": "Tackesdorf", "state": "", "country": "DE", "coord": {"lon": 9.48333, "lat": 54.183331}}, {"id": 2824419, "name": "Taching am See", "state": "", "country": "DE", "coord": {"lon": 12.73333, "lat": 47.966671}}, {"id": 2824420, "name": "Tacherting", "state": "", "country": "DE", "coord": {"lon": 12.56667, "lat": 48.083328}}, {"id": 2824425, "name": "T\u00e4bingen", "state": "", "country": "DE", "coord": {"lon": 8.72383, "lat": 48.241249}}, {"id": 2824428, "name": "Tabertshauserschwaig", "state": "", "country": "DE", "coord": {"lon": 12.88333, "lat": 48.73333}}, {"id": 2824431, "name": "Taben-Rodt", "state": "", "country": "DE", "coord": {"lon": 6.58333, "lat": 49.549999}}, {"id": 2824435, "name": "Tabeckendorf", "state": "", "country": "DE", "coord": {"lon": 12.93333, "lat": 48.599998}}, {"id": 2824437, "name": "Tabarz", "state": "", "country": "DE", "coord": {"lon": 10.51667, "lat": 50.883331}}, {"id": 2824441, "name": "Taarstedt", "state": "", "country": "DE", "coord": {"lon": 9.68333, "lat": 54.566669}}, {"id": 2824442, "name": "Taaken", "state": "", "country": "DE", "coord": {"lon": 9.2, "lat": 53.150002}}, {"id": 2824448, "name": "Syrau", "state": "", "country": "DE", "coord": {"lon": 12.08333, "lat": 50.533329}}, {"id": 2824456, "name": "Sylda", "state": "", "country": "DE", "coord": {"lon": 11.41667, "lat": 51.683331}}, {"id": 2824461, "name": "Syke", "state": "", "country": "DE", "coord": {"lon": 8.83333, "lat": 52.900002}}, {"id": 2824514, "name": "Suterode", "state": "", "country": "DE", "coord": {"lon": 10.06667, "lat": 51.666672}}, {"id": 2824517, "name": "Suterballig", "state": "", "country": "DE", "coord": {"lon": 9.9, "lat": 54.75}}, {"id": 2824522, "name": "Sustrum", "state": "", "country": "DE", "coord": {"lon": 7.28333, "lat": 52.916672}}, {"id": 2824525, "name": "S\u00fcstedt", "state": "", "country": "DE", "coord": {"lon": 8.91667, "lat": 52.866669}}, {"id": 2824540, "name": "S\u00fc\u00dfenborn", "state": "", "country": "DE", "coord": {"lon": 11.38333, "lat": 50.98333}}, {"id": 2824545, "name": "S\u00fc\u00dfen", "state": "", "country": "DE", "coord": {"lon": 9.75534, "lat": 48.67934}}, {"id": 2824554, "name": "S\u00fc\u00dfbach", "state": "", "country": "DE", "coord": {"lon": 12.4, "lat": 48.599998}}, {"id": 2824555, "name": "S\u00fcssau", "state": "", "country": "DE", "coord": {"lon": 11.06667, "lat": 54.283329}}, {"id": 2824556, "name": "S\u00fc\u00df", "state": "", "country": "DE", "coord": {"lon": 9.96667, "lat": 50.98333}}, {"id": 2824564, "name": "S\u00fcsel", "state": "", "country": "DE", "coord": {"lon": 10.71667, "lat": 54.066669}}, {"id": 2824572, "name": "Surwold", "state": "", "country": "DE", "coord": {"lon": 7.51534, "lat": 52.978001}}, {"id": 2824573, "name": "S\u00fcrth", "state": "", "country": "DE", "coord": {"lon": 7, "lat": 50.866669}}, {"id": 2824582, "name": "Surheim", "state": "", "country": "DE", "coord": {"lon": 12.95, "lat": 47.883331}}, {"id": 2824593, "name": "Surberg", "state": "", "country": "DE", "coord": {"lon": 12.7, "lat": 47.866669}}, {"id": 2824600, "name": "S\u00fcptitz", "state": "", "country": "DE", "coord": {"lon": 12.93333, "lat": 51.549999}}, {"id": 2824601, "name": "Suppo", "state": "", "country": "DE", "coord": {"lon": 14.46667, "lat": 51.099998}}, {"id": 2824602, "name": "S\u00fcpplingenburg", "state": "", "country": "DE", "coord": {"lon": 10.91011, "lat": 52.250721}}, {"id": 2824603, "name": "S\u00fcpplingen", "state": "", "country": "DE", "coord": {"lon": 10.90393, "lat": 52.228111}}, {"id": 2824609, "name": "S\u00fcplingen", "state": "", "country": "DE", "coord": {"lon": 11.3245, "lat": 52.28759}}, {"id": 2824621, "name": "S\u00fcnnerschau", "state": "", "country": "DE", "coord": {"lon": 9.88333, "lat": 54.700001}}, {"id": 2824623, "name": "S\u00fcnna", "state": "", "country": "DE", "coord": {"lon": 10, "lat": 50.799999}}, {"id": 2824642, "name": "Sundhausen", "state": "", "country": "DE", "coord": {"lon": 10.71667, "lat": 51.166672}}, {"id": 2824643, "name": "Sundhausen", "state": "", "country": "DE", "coord": {"lon": 10.66667, "lat": 50.933331}}, {"id": 2824655, "name": "Sundern", "state": "", "country": "DE", "coord": {"lon": 8, "lat": 51.333328}}, {"id": 2824687, "name": "S\u00fcnching", "state": "", "country": "DE", "coord": {"lon": 12.35, "lat": 48.883331}}, {"id": 2824689, "name": "Sumte", "state": "", "country": "DE", "coord": {"lon": 10.87732, "lat": 53.28759}}, {"id": 2824710, "name": "Sulzthal", "state": "", "country": "DE", "coord": {"lon": 10.03333, "lat": 50.133331}}, {"id": 2824715, "name": "Sulzrain", "state": "", "country": "DE", "coord": {"lon": 11.5126, "lat": 48.317051}}, {"id": 2824729, "name": "Sulzheim", "state": "", "country": "DE", "coord": {"lon": 10.33333, "lat": 49.950001}}, {"id": 2824730, "name": "Sulzheim", "state": "", "country": "DE", "coord": {"lon": 8.09167, "lat": 49.84306}}, {"id": 2824732, "name": "Sulzgries", "state": "", "country": "DE", "coord": {"lon": 9.29804, "lat": 48.75602}}, {"id": 2824738, "name": "Sulzfeld am Main", "state": "", "country": "DE", "coord": {"lon": 10.13248, "lat": 49.70694}}, {"id": 2824739, "name": "S\u00fclzfeld", "state": "", "country": "DE", "coord": {"lon": 10.36667, "lat": 50.533329}}, {"id": 2824741, "name": "Sulzfeld", "state": "", "country": "DE", "coord": {"lon": 10.40525, "lat": 50.25972}}, {"id": 2824742, "name": "Sulzfeld", "state": "", "country": "DE", "coord": {"lon": 8.85583, "lat": 49.104721}}, {"id": 2824750, "name": "S\u00fclzenbr\u00fccken", "state": "", "country": "DE", "coord": {"lon": 10.9, "lat": 50.883331}}, {"id": 2824753, "name": "Sulzemoos", "state": "", "country": "DE", "coord": {"lon": 11.26356, "lat": 48.291069}}, {"id": 2824770, "name": "Sulzdorf", "state": "", "country": "DE", "coord": {"lon": 9.9, "lat": 49.650002}}, {"id": 2824773, "name": "Sulzdorf", "state": "", "country": "DE", "coord": {"lon": 10.76667, "lat": 48.799999}}, {"id": 2824776, "name": "Sulzburg", "state": "", "country": "DE", "coord": {"lon": 7.70777, "lat": 47.84116}}, {"id": 2824786, "name": "Sulzberg", "state": "", "country": "DE", "coord": {"lon": 12.83333, "lat": 48.299999}}, {"id": 2824787, "name": "Sulzberg", "state": "", "country": "DE", "coord": {"lon": 10.35, "lat": 47.666672}}, {"id": 2824788, "name": "Sulzberg", "state": "", "country": "DE", "coord": {"lon": 10.65, "lat": 47.650002}}, {"id": 2824801, "name": "Sulzbach-Rosenberg", "state": "", "country": "DE", "coord": {"lon": 11.75167, "lat": 49.498329}}, {"id": 2824804, "name": "Sulzbach an der Murr", "state": "", "country": "DE", "coord": {"lon": 9.5003, "lat": 49.003029}}, {"id": 2824806, "name": "Sulzbach am Main", "state": "", "country": "DE", "coord": {"lon": 9.15917, "lat": 49.910831}}, {"id": 2824835, "name": "Sulzbach", "state": "", "country": "DE", "coord": {"lon": 7.75, "lat": 50.299999}}, {"id": 2824837, "name": "Sulzbach", "state": "", "country": "DE", "coord": {"lon": 8.53333, "lat": 50.133331}}, {"id": 2824838, "name": "Sulzbach", "state": "", "country": "DE", "coord": {"lon": 7.33333, "lat": 49.833328}}, {"id": 2824841, "name": "Sulzbach", "state": "", "country": "DE", "coord": {"lon": 7.06667, "lat": 49.299999}}, {"id": 2824843, "name": "Sulzbach", "state": "", "country": "DE", "coord": {"lon": 12.35, "lat": 49.116669}}, {"id": 2824855, "name": "Sulz am Neckar", "state": "", "country": "DE", "coord": {"lon": 8.63309, "lat": 48.362411}}, {"id": 2824858, "name": "Sulza", "state": "", "country": "DE", "coord": {"lon": 11.61667, "lat": 50.866669}}, {"id": 2824860, "name": "S\u00fclz", "state": "", "country": "DE", "coord": {"lon": 6.92156, "lat": 50.91819}}, {"id": 2824876, "name": "S\u00fclte", "state": "", "country": "DE", "coord": {"lon": 11.43333, "lat": 53.51667}}, {"id": 2824888, "name": "S\u00fclm", "state": "", "country": "DE", "coord": {"lon": 6.56667, "lat": 49.916672}}, {"id": 2824893, "name": "S\u00fclldorf", "state": "", "country": "DE", "coord": {"lon": 11.565, "lat": 52.025139}}, {"id": 2824902, "name": "Sulingen", "state": "", "country": "DE", "coord": {"lon": 8.8, "lat": 52.683331}}, {"id": 2824907, "name": "S\u00fclfeld", "state": "", "country": "DE", "coord": {"lon": 10.23333, "lat": 53.799999}}, {"id": 2824909, "name": "Sulenbecke", "state": "", "country": "DE", "coord": {"lon": 7.65, "lat": 51.116669}}, {"id": 2824920, "name": "S\u00fclbeck", "state": "", "country": "DE", "coord": {"lon": 10.55974, "lat": 53.265411}}, {"id": 2824926, "name": "Sukow", "state": "", "country": "DE", "coord": {"lon": 11.56667, "lat": 53.549999}}, {"id": 2824927, "name": "S\u00fckow", "state": "", "country": "DE", "coord": {"lon": 11.79828, "lat": 53.080921}}, {"id": 2824937, "name": "S\u00fclstorf", "state": "", "country": "DE", "coord": {"lon": 11.36667, "lat": 53.51667}}, {"id": 2824938, "name": "Suhler Neundorf", "state": "", "country": "DE", "coord": {"lon": 10.7, "lat": 50.599998}}, {"id": 2824940, "name": "Suhlendorf", "state": "", "country": "DE", "coord": {"lon": 10.76667, "lat": 52.933331}}, {"id": 2824944, "name": "Suhlburg", "state": "", "country": "DE", "coord": {"lon": 9.71852, "lat": 49.145569}}, {"id": 2824948, "name": "Suhl", "state": "", "country": "DE", "coord": {"lon": 10.7, "lat": 50.599998}}, {"id": 2824951, "name": "S\u00fcggerath", "state": "", "country": "DE", "coord": {"lon": 6.15, "lat": 50.966671}}, {"id": 2824954, "name": "Sugenheim", "state": "", "country": "DE", "coord": {"lon": 10.43333, "lat": 49.599998}}, {"id": 2824961, "name": "Sudweyhe", "state": "", "country": "DE", "coord": {"lon": 8.88333, "lat": 52.966671}}, {"id": 2824967, "name": "Sudwalde", "state": "", "country": "DE", "coord": {"lon": 8.85, "lat": 52.799999}}, {"id": 2824998, "name": "S\u00fcdlohn", "state": "", "country": "DE", "coord": {"lon": 6.86667, "lat": 51.933331}}, {"id": 2825001, "name": "Landkreis S\u00fcdliche Weinstra\u00dfe", "state": "", "country": "DE", "coord": {"lon": 8.07472, "lat": 49.217781}}, {"id": 2825003, "name": "S\u00fcdlengern", "state": "", "country": "DE", "coord": {"lon": 8.63333, "lat": 52.200001}}, {"id": 2825005, "name": "S\u00fcdkirchen", "state": "", "country": "DE", "coord": {"lon": 7.55, "lat": 51.716671}}, {"id": 2825006, "name": "S\u00fcdkampen", "state": "", "country": "DE", "coord": {"lon": 9.41667, "lat": 52.849998}}, {"id": 2825033, "name": "Sudheim", "state": "", "country": "DE", "coord": {"lon": 9.98333, "lat": 51.666672}}, {"id": 2825050, "name": "S\u00fcdfelde", "state": "", "country": "DE", "coord": {"lon": 8.88333, "lat": 52.366669}}, {"id": 2825056, "name": "S\u00fcderzollhaus", "state": "", "country": "DE", "coord": {"lon": 9.28333, "lat": 54.650002}}, {"id": 2825057, "name": "S\u00fcderw\u00f6hrden", "state": "", "country": "DE", "coord": {"lon": 9, "lat": 54.166672}}, {"id": 2825077, "name": "S\u00fcderstapel", "state": "", "country": "DE", "coord": {"lon": 9.21667, "lat": 54.349998}}, {"id": 2825079, "name": "Sudershausen", "state": "", "country": "DE", "coord": {"lon": 10.03333, "lat": 51.633331}}, {"id": 2825085, "name": "S\u00fcderschmedeby", "state": "", "country": "DE", "coord": {"lon": 9.45, "lat": 54.666672}}, {"id": 2825108, "name": "S\u00fcderl\u00fcgum", "state": "", "country": "DE", "coord": {"lon": 8.91667, "lat": 54.866669}}, {"id": 2825128, "name": "S\u00fcderholm", "state": "", "country": "DE", "coord": {"lon": 9.16667, "lat": 54.200001}}, {"id": 2825130, "name": "S\u00fcderh\u00f6ft", "state": "", "country": "DE", "coord": {"lon": 9.23333, "lat": 54.383331}}, {"id": 2825137, "name": "S\u00fcderheistedt", "state": "", "country": "DE", "coord": {"lon": 9.13333, "lat": 54.23333}}, {"id": 2825142, "name": "S\u00fcderhastedt", "state": "", "country": "DE", "coord": {"lon": 9.21667, "lat": 54.049999}}, {"id": 2825145, "name": "S\u00fcderhackstedt", "state": "", "country": "DE", "coord": {"lon": 9.28333, "lat": 54.599998}}, {"id": 2825148, "name": "S\u00fcdergellersen", "state": "", "country": "DE", "coord": {"lon": 10.3, "lat": 53.216671}}, {"id": 2825156, "name": "S\u00fcderfahrenstedt", "state": "", "country": "DE", "coord": {"lon": 9.58333, "lat": 54.583328}}, {"id": 2825157, "name": "S\u00fcderende", "state": "", "country": "DE", "coord": {"lon": 8.31056, "lat": 54.897789}}, {"id": 2825158, "name": "S\u00fcderende", "state": "", "country": "DE", "coord": {"lon": 8.43853, "lat": 54.726109}}, {"id": 2825173, "name": "S\u00fcderdeich", "state": "", "country": "DE", "coord": {"lon": 8.91667, "lat": 54.200001}}, {"id": 2825180, "name": "Suderburg", "state": "", "country": "DE", "coord": {"lon": 10.46667, "lat": 52.900002}}, {"id": 2825181, "name": "Suderbruch", "state": "", "country": "DE", "coord": {"lon": 9.52412, "lat": 52.675758}}, {"id": 2825186, "name": "S\u00fcderbrarup", "state": "", "country": "DE", "coord": {"lon": 9.78333, "lat": 54.633331}}, {"id": 2825196, "name": "S\u00fcderau", "state": "", "country": "DE", "coord": {"lon": 9.51667, "lat": 53.816669}}, {"id": 2825225, "name": "Suddendorf", "state": "", "country": "DE", "coord": {"lon": 7.21667, "lat": 52.299999}}, {"id": 2825232, "name": "Sudbrack", "state": "", "country": "DE", "coord": {"lon": 8.53333, "lat": 52.033329}}, {"id": 2825248, "name": "Suckow", "state": "", "country": "DE", "coord": {"lon": 11.97081, "lat": 53.30965}}, {"id": 2825250, "name": "S\u00fcckau", "state": "", "country": "DE", "coord": {"lon": 10.95474, "lat": 53.31908}}, {"id": 2825252, "name": "S\u00fcchteln", "state": "", "country": "DE", "coord": {"lon": 6.38333, "lat": 51.283329}}, {"id": 2825266, "name": "Stuvenborn", "state": "", "country": "DE", "coord": {"lon": 10.13333, "lat": 53.849998}}, {"id": 2825271, "name": "Stutzhaus", "state": "", "country": "DE", "coord": {"lon": 10.73333, "lat": 50.783329}}, {"id": 2825273, "name": "St\u00fctzerbach", "state": "", "country": "DE", "coord": {"lon": 10.86667, "lat": 50.633331}}, {"id": 2825275, "name": "St\u00fctzengr\u00fcn", "state": "", "country": "DE", "coord": {"lon": 12.53333, "lat": 50.533329}}, {"id": 2825284, "name": "St\u00fcttingshof", "state": "", "country": "DE", "coord": {"lon": 8.02626, "lat": 51.507301}}, {"id": 2825297, "name": "Stuttgart", "state": "", "country": "DE", "coord": {"lon": 9.17702, "lat": 48.782318}}, {"id": 2825333, "name": "St\u00fcrzelbach", "state": "", "country": "DE", "coord": {"lon": 7.61667, "lat": 50.650002}}, {"id": 2825359, "name": "Stupferich", "state": "", "country": "DE", "coord": {"lon": 8.50685, "lat": 48.953281}}, {"id": 2825372, "name": "Stumsdorf", "state": "", "country": "DE", "coord": {"lon": 12.06667, "lat": 51.616669}}, {"id": 2825384, "name": "Stumpf", "state": "", "country": "DE", "coord": {"lon": 7.21667, "lat": 51.099998}}, {"id": 2825386, "name": "Stumpertenrod", "state": "", "country": "DE", "coord": {"lon": 9.18333, "lat": 50.616669}}, {"id": 2825398, "name": "Stummeldorf", "state": "", "country": "DE", "coord": {"lon": 7.98333, "lat": 53.566669}}, {"id": 2825405, "name": "St\u00fclow", "state": "", "country": "DE", "coord": {"lon": 11.88333, "lat": 54.083328}}, {"id": 2825406, "name": "Stulln", "state": "", "country": "DE", "coord": {"lon": 12.13333, "lat": 49.416672}}, {"id": 2825410, "name": "Stukenbrock", "state": "", "country": "DE", "coord": {"lon": 8.65594, "lat": 51.9114}}, {"id": 2825422, "name": "Stuhr", "state": "", "country": "DE", "coord": {"lon": 8.75, "lat": 53.033329}}, {"id": 2825429, "name": "St\u00fchlingen", "state": "", "country": "DE", "coord": {"lon": 8.43333, "lat": 47.73333}}, {"id": 2825460, "name": "Stuer", "state": "", "country": "DE", "coord": {"lon": 12.3373, "lat": 53.378929}}, {"id": 2825469, "name": "St\u00fcde", "state": "", "country": "DE", "coord": {"lon": 10.67614, "lat": 52.555592}}, {"id": 2825481, "name": "Stuckenborstel", "state": "", "country": "DE", "coord": {"lon": 9.2, "lat": 53.116669}}, {"id": 2825494, "name": "St\u00fcckbrunn", "state": "", "country": "DE", "coord": {"lon": 10.74154, "lat": 49.92189}}, {"id": 2825507, "name": "Stubersheim", "state": "", "country": "DE", "coord": {"lon": 9.91774, "lat": 48.594608}}, {"id": 2825519, "name": "Stubenberg", "state": "", "country": "DE", "coord": {"lon": 13.08333, "lat": 48.316669}}, {"id": 2825550, "name": "Stubbendorf", "state": "", "country": "DE", "coord": {"lon": 12.52223, "lat": 54.087818}}, {"id": 2825554, "name": "Stubbenberg", "state": "", "country": "DE", "coord": {"lon": 10.71073, "lat": 54.046558}}, {"id": 2825558, "name": "Stubben", "state": "", "country": "DE", "coord": {"lon": 10.43333, "lat": 53.73333}}, {"id": 2825559, "name": "Stubben", "state": "", "country": "DE", "coord": {"lon": 8.78391, "lat": 53.409019}}, {"id": 2825566, "name": "St\u00fcbach", "state": "", "country": "DE", "coord": {"lon": 10.58333, "lat": 49.616669}}, {"id": 2825570, "name": "Struxdorf", "state": "", "country": "DE", "coord": {"lon": 9.65, "lat": 54.633331}}, {"id": 2825577, "name": "Struvenh\u00fctten", "state": "", "country": "DE", "coord": {"lon": 10.05, "lat": 53.866669}}, {"id": 2825602, "name": "Str\u00fcth", "state": "", "country": "DE", "coord": {"lon": 7.88333, "lat": 50.133331}}, {"id": 2825620, "name": "Struppen", "state": "", "country": "DE", "coord": {"lon": 14.01667, "lat": 50.933331}}, {"id": 2825625, "name": "Strunkeich", "state": "", "country": "DE", "coord": {"lon": 7.6, "lat": 50.616669}}, {"id": 2825626, "name": "Str\u00fcnkede", "state": "", "country": "DE", "coord": {"lon": 7.16667, "lat": 51.783329}}, {"id": 2825635, "name": "Str\u00fcmp", "state": "", "country": "DE", "coord": {"lon": 6.66667, "lat": 51.283329}}, {"id": 2825638, "name": "Strullendorf", "state": "", "country": "DE", "coord": {"lon": 10.97208, "lat": 49.844292}}, {"id": 2825641, "name": "Strukdorf", "state": "", "country": "DE", "coord": {"lon": 10.48333, "lat": 53.916672}}, {"id": 2825647, "name": "Struckum", "state": "", "country": "DE", "coord": {"lon": 9, "lat": 54.583328}}, {"id": 2825650, "name": "Str\u00fccklingen", "state": "", "country": "DE", "coord": {"lon": 7.66631, "lat": 53.125198}}, {"id": 2825681, "name": "Str\u00fcbbel", "state": "", "country": "DE", "coord": {"lon": 8.96667, "lat": 54.26667}}, {"id": 2825682, "name": "Strub", "state": "", "country": "DE", "coord": {"lon": 12.96667, "lat": 47.616669}}, {"id": 2825683, "name": "Strotzb\u00fcsch", "state": "", "country": "DE", "coord": {"lon": 6.95, "lat": 50.099998}}, {"id": 2825715, "name": "Stromberg", "state": "", "country": "DE", "coord": {"lon": 7.6, "lat": 50.450001}}, {"id": 2825716, "name": "Stromberg", "state": "", "country": "DE", "coord": {"lon": 7.77286, "lat": 49.94389}}, {"id": 2825728, "name": "Strohweiler", "state": "", "country": "DE", "coord": {"lon": 9.48665, "lat": 48.51342}}, {"id": 2825733, "name": "Strohn", "state": "", "country": "DE", "coord": {"lon": 6.91667, "lat": 50.116669}}, {"id": 2825740, "name": "Strohkirchen", "state": "", "country": "DE", "coord": {"lon": 11.31667, "lat": 53.400002}}, {"id": 2825742, "name": "Strohhof", "state": "", "country": "DE", "coord": {"lon": 12.81487, "lat": 48.005772}}, {"id": 2825761, "name": "Strohbr\u00fcck", "state": "", "country": "DE", "coord": {"lon": 9.98333, "lat": 54.333328}}, {"id": 2825785, "name": "Strodehne", "state": "", "country": "DE", "coord": {"lon": 12.22478, "lat": 52.761902}}, {"id": 2825792, "name": "Str\u00f6bing", "state": "", "country": "DE", "coord": {"lon": 12.301, "lat": 47.900028}}, {"id": 2825793, "name": "Strobenried", "state": "", "country": "DE", "coord": {"lon": 11.35, "lat": 48.533329}}, {"id": 2825797, "name": "Str\u00f6beck", "state": "", "country": "DE", "coord": {"lon": 10.95, "lat": 51.916672}}, {"id": 2825809, "name": "Strinz-Trinitatis", "state": "", "country": "DE", "coord": {"lon": 8.15, "lat": 50.23333}}, {"id": 2825829, "name": "Striesow", "state": "", "country": "DE", "coord": {"lon": 14.2603, "lat": 51.828701}}, {"id": 2825849, "name": "Strickscheid", "state": "", "country": "DE", "coord": {"lon": 6.31667, "lat": 50.133331}}, {"id": 2825859, "name": "Strick", "state": "", "country": "DE", "coord": {"lon": 7.71667, "lat": 50.833328}}, {"id": 2825875, "name": "Streufdorf", "state": "", "country": "DE", "coord": {"lon": 10.68333, "lat": 50.349998}}, {"id": 2825885, "name": "Stressenhausen", "state": "", "country": "DE", "coord": {"lon": 10.7, "lat": 50.383331}}, {"id": 2825897, "name": "Strenznaundorf", "state": "", "country": "DE", "coord": {"lon": 11.7, "lat": 51.666672}}, {"id": 2825916, "name": "Strelow", "state": "", "country": "DE", "coord": {"lon": 12.96421, "lat": 54.047401}}, {"id": 2825917, "name": "Strelln", "state": "", "country": "DE", "coord": {"lon": 12.77916, "lat": 51.481918}}, {"id": 2825936, "name": "Streitholz", "state": "", "country": "DE", "coord": {"lon": 10.09137, "lat": 51.4142}}, {"id": 2825944, "name": "Streitheim", "state": "", "country": "DE", "coord": {"lon": 10.68333, "lat": 48.416672}}, {"id": 2825949, "name": "Streithausen", "state": "", "country": "DE", "coord": {"lon": 7.81667, "lat": 50.700001}}, {"id": 2825964, "name": "Streitberg", "state": "", "country": "DE", "coord": {"lon": 14.16667, "lat": 52.333328}}, {"id": 2826003, "name": "Streifen", "state": "", "country": "DE", "coord": {"lon": 10.26667, "lat": 47.883331}}, {"id": 2826027, "name": "Strehlow", "state": "", "country": "DE", "coord": {"lon": 13.84295, "lat": 53.227928}}, {"id": 2826033, "name": "Strehla", "state": "", "country": "DE", "coord": {"lon": 13.23333, "lat": 51.349998}}, {"id": 2826034, "name": "Strehla", "state": "", "country": "DE", "coord": {"lon": 14.45, "lat": 51.166672}}, {"id": 2826046, "name": "Streesow", "state": "", "country": "DE", "coord": {"lon": 11.71091, "lat": 53.223202}}, {"id": 2826073, "name": "Strau\u00dffurt", "state": "", "country": "DE", "coord": {"lon": 10.98333, "lat": 51.166672}}, {"id": 2826082, "name": "Strausberg", "state": "", "country": "DE", "coord": {"lon": 13.88741, "lat": 52.57859}}, {"id": 2826084, "name": "Strauppen", "state": "", "country": "DE", "coord": {"lon": 10.96667, "lat": 48.633331}}, {"id": 2826088, "name": "Straupitz", "state": "", "country": "DE", "coord": {"lon": 14.11667, "lat": 51.900002}}, {"id": 2826099, "name": "Straubing", "state": "", "country": "DE", "coord": {"lon": 12.56667, "lat": 48.883331}}, {"id": 2826118, "name": "Stra\u00dfmaier", "state": "", "country": "DE", "coord": {"lon": 12.1, "lat": 48.150002}}, {"id": 2826120, "name": "Stra\u00dfkirchen", "state": "", "country": "DE", "coord": {"lon": 12.71667, "lat": 48.833328}}, {"id": 2826129, "name": "Stra\u00dfh\u00e4user", "state": "", "country": "DE", "coord": {"lon": 12.78333, "lat": 48.349998}}, {"id": 2826136, "name": "Stra\u00dfgr\u00e4bchen", "state": "", "country": "DE", "coord": {"lon": 14.06667, "lat": 51.349998}}, {"id": 2826159, "name": "Strassendorf", "state": "", "country": "DE", "coord": {"lon": 11.65, "lat": 51.349998}}, {"id": 2826163, "name": "Stra\u00dfen", "state": "", "country": "DE", "coord": {"lon": 7.28333, "lat": 50.833328}}, {"id": 2826166, "name": "Stra\u00dfe", "state": "", "country": "DE", "coord": {"lon": 7.48333, "lat": 50.866669}}, {"id": 2826187, "name": "Stra\u00dfberg", "state": "", "country": "DE", "coord": {"lon": 9.09059, "lat": 48.178051}}, {"id": 2826258, "name": "Strasburg", "state": "", "country": "DE", "coord": {"lon": 13.75, "lat": 53.51667}}, {"id": 2826277, "name": "Strande", "state": "", "country": "DE", "coord": {"lon": 10.16667, "lat": 54.433331}}, {"id": 2826287, "name": "Stralsund", "state": "", "country": "DE", "coord": {"lon": 13.0818, "lat": 54.309109}}, {"id": 2826288, "name": "Stralsbach", "state": "", "country": "DE", "coord": {"lon": 10, "lat": 50.25}}, {"id": 2826290, "name": "Stralendorf", "state": "", "country": "DE", "coord": {"lon": 11.30356, "lat": 53.574982}}, {"id": 2826291, "name": "Stralendorf", "state": "", "country": "DE", "coord": {"lon": 11.91484, "lat": 53.473541}}, {"id": 2826294, "name": "Strahlungen", "state": "", "country": "DE", "coord": {"lon": 10.23333, "lat": 50.283329}}, {"id": 2826299, "name": "Strahle", "state": "", "country": "DE", "coord": {"lon": 9, "lat": 52.466671}}, {"id": 2826303, "name": "Straeten", "state": "", "country": "DE", "coord": {"lon": 6.09183, "lat": 51.013649}}, {"id": 2826304, "name": "Straelen", "state": "", "country": "DE", "coord": {"lon": 6.26667, "lat": 51.450001}}, {"id": 2826306, "name": "Stradow", "state": "", "country": "DE", "coord": {"lon": 14.3, "lat": 51.599998}}, {"id": 2826307, "name": "Strackholt", "state": "", "country": "DE", "coord": {"lon": 7.63333, "lat": 53.366669}}, {"id": 2826315, "name": "Straberg", "state": "", "country": "DE", "coord": {"lon": 6.762, "lat": 51.093391}}, {"id": 2826318, "name": "Straach", "state": "", "country": "DE", "coord": {"lon": 12.6, "lat": 51.950001}}, {"id": 2826326, "name": "Stotzard", "state": "", "country": "DE", "coord": {"lon": 10.98333, "lat": 48.5}}, {"id": 2826328, "name": "St\u00f6ttwang", "state": "", "country": "DE", "coord": {"lon": 10.71667, "lat": 47.883331}}, {"id": 2826329, "name": "Stottoff", "state": "", "country": "DE", "coord": {"lon": 13.96667, "lat": 51.866669}}, {"id": 2826335, "name": "St\u00f6ttham", "state": "", "country": "DE", "coord": {"lon": 12.52356, "lat": 47.905701}}, {"id": 2826336, "name": "Stotternheim", "state": "", "country": "DE", "coord": {"lon": 11.05, "lat": 51.066669}}, {"id": 2826341, "name": "St\u00f6tten am Auerberg", "state": "", "country": "DE", "coord": {"lon": 10.68333, "lat": 47.73333}}, {"id": 2826344, "name": "St\u00f6tten", "state": "", "country": "DE", "coord": {"lon": 12.26667, "lat": 47.799999}}, {"id": 2826356, "name": "St\u00f6\u00dfen", "state": "", "country": "DE", "coord": {"lon": 11.93333, "lat": 51.099998}}, {"id": 2826359, "name": "Sto\u00dfdorf", "state": "", "country": "DE", "coord": {"lon": 7.25126, "lat": 50.782478}}, {"id": 2826363, "name": "St\u00f6sitz", "state": "", "country": "DE", "coord": {"lon": 13.25, "lat": 51.25}}, {"id": 2826373, "name": "St\u00f6rringen", "state": "", "country": "DE", "coord": {"lon": 7.38333, "lat": 51.316669}}, {"id": 2826380, "name": "St\u00f6rnstein", "state": "", "country": "DE", "coord": {"lon": 12.21667, "lat": 49.73333}}, {"id": 2826384, "name": "Storndorf", "state": "", "country": "DE", "coord": {"lon": 9.26667, "lat": 50.650002}}, {"id": 2826387, "name": "Stormsdorf", "state": "", "country": "DE", "coord": {"lon": 12.67479, "lat": 54.14484}}, {"id": 2826403, "name": "Storkow", "state": "", "country": "DE", "coord": {"lon": 13.93333, "lat": 52.25}}, {"id": 2826409, "name": "St\u00f6rkathen", "state": "", "country": "DE", "coord": {"lon": 9.75, "lat": 53.98333}}, {"id": 2826421, "name": "St\u00f6rdorf", "state": "", "country": "DE", "coord": {"lon": 9.42588, "lat": 53.91531}}, {"id": 2826437, "name": "Stopperich", "state": "", "country": "DE", "coord": {"lon": 7.4, "lat": 50.549999}}, {"id": 2826456, "name": "Stopfenheim", "state": "", "country": "DE", "coord": {"lon": 10.88333, "lat": 49.083328}}, {"id": 2826466, "name": "Stommeln", "state": "", "country": "DE", "coord": {"lon": 6.75968, "lat": 51.021751}}, {"id": 2826472, "name": "Stolzing", "state": "", "country": "DE", "coord": {"lon": 13.3, "lat": 48.700001}}, {"id": 2826482, "name": "Stolzenhain", "state": "", "country": "DE", "coord": {"lon": 13.45, "lat": 51.433331}}, {"id": 2826487, "name": "Stolzenhagen", "state": "", "country": "DE", "coord": {"lon": 13.43843, "lat": 52.778049}}, {"id": 2826492, "name": "Stolzenbergerhof", "state": "", "country": "DE", "coord": {"lon": 7.8, "lat": 49.683331}}, {"id": 2826503, "name": "Stolzenau", "state": "", "country": "DE", "coord": {"lon": 9.06667, "lat": 52.51667}}, {"id": 2826511, "name": "Stoltenberg", "state": "", "country": "DE", "coord": {"lon": 10.35, "lat": 54.349998}}, {"id": 2826516, "name": "Stolteb\u00fcll", "state": "", "country": "DE", "coord": {"lon": 9.88333, "lat": 54.700001}}, {"id": 2826532, "name": "Stolpen", "state": "", "country": "DE", "coord": {"lon": 14.08333, "lat": 51.049999}}, {"id": 2826536, "name": "Stolpe", "state": "", "country": "DE", "coord": {"lon": 10.21667, "lat": 54.133331}}, {"id": 2826538, "name": "Stolpe an der Peene", "state": "", "country": "DE", "coord": {"lon": 13.56056, "lat": 53.872471}}, {"id": 2826540, "name": "Stolpe", "state": "", "country": "DE", "coord": {"lon": 11.73855, "lat": 53.359058}}, {"id": 2826548, "name": "Stollsdorf", "state": "", "country": "DE", "coord": {"lon": 12.75, "lat": 51.049999}}, {"id": 2826553, "name": "St\u00f6lln", "state": "", "country": "DE", "coord": {"lon": 12.98333, "lat": 48.25}}, {"id": 2826558, "name": "Stollhamm", "state": "", "country": "DE", "coord": {"lon": 8.36291, "lat": 53.513779}}, {"id": 2826584, "name": "Stollberg", "state": "", "country": "DE", "coord": {"lon": 12.8, "lat": 50.716671}}, {"id": 2826591, "name": "Stolk", "state": "", "country": "DE", "coord": {"lon": 9.55, "lat": 54.599998}}, {"id": 2826594, "name": "Stolberg", "state": "", "country": "DE", "coord": {"lon": 10.95, "lat": 51.566669}}, {"id": 2826595, "name": "Stolberg", "state": "", "country": "DE", "coord": {"lon": 6.23333, "lat": 50.76667}}, {"id": 2826607, "name": "Stohl", "state": "", "country": "DE", "coord": {"lon": 10.15, "lat": 54.466671}}, {"id": 2826619, "name": "St\u00f6ffin", "state": "", "country": "DE", "coord": {"lon": 12.7432, "lat": 52.870171}}, {"id": 2826623, "name": "Stoffenried", "state": "", "country": "DE", "coord": {"lon": 10.3, "lat": 48.316669}}, {"id": 2826626, "name": "Stoffels", "state": "", "country": "DE", "coord": {"lon": 10.23333, "lat": 47.633331}}, {"id": 2826634, "name": "St\u00f6ffel", "state": "", "country": "DE", "coord": {"lon": 11.52174, "lat": 48.629848}}, {"id": 2826636, "name": "Stoetze", "state": "", "country": "DE", "coord": {"lon": 10.78333, "lat": 53.066669}}, {"id": 2826637, "name": "St\u00f6dtlen", "state": "", "country": "DE", "coord": {"lon": 10.3, "lat": 49}}, {"id": 2826661, "name": "Stockum", "state": "", "country": "DE", "coord": {"lon": 7.9, "lat": 50.616669}}, {"id": 2826668, "name": "St\u00f6ckte", "state": "", "country": "DE", "coord": {"lon": 10.19033, "lat": 53.382778}}, {"id": 2826670, "name": "Stockstadt am Main", "state": "", "country": "DE", "coord": {"lon": 9.06417, "lat": 49.97694}}, {"id": 2826671, "name": "Stockstadt am Rhein", "state": "", "country": "DE", "coord": {"lon": 8.47278, "lat": 49.809441}}, {"id": 2826679, "name": "Stocksee", "state": "", "country": "DE", "coord": {"lon": 10.35, "lat": 54.099998}}, {"id": 2826681, "name": "St\u00f6ckse", "state": "", "country": "DE", "coord": {"lon": 9.34027, "lat": 52.640671}}, {"id": 2826688, "name": "Stock\u00f6d", "state": "", "country": "DE", "coord": {"lon": 13.11667, "lat": 48.583328}}, {"id": 2826695, "name": "Stocklarn", "state": "", "country": "DE", "coord": {"lon": 8.05, "lat": 51.616669}}, {"id": 2826737, "name": "St\u00f6ckheim", "state": "", "country": "DE", "coord": {"lon": 9.93333, "lat": 51.75}}, {"id": 2826741, "name": "Stockheim", "state": "", "country": "DE", "coord": {"lon": 10.28333, "lat": 50.450001}}, {"id": 2826743, "name": "Stockheim", "state": "", "country": "DE", "coord": {"lon": 11.26667, "lat": 50.299999}}, {"id": 2826749, "name": "St\u00f6ckheim", "state": "", "country": "DE", "coord": {"lon": 10.52216, "lat": 52.210548}}, {"id": 2826755, "name": "Stockhausen-Illfurth", "state": "", "country": "DE", "coord": {"lon": 7.98333, "lat": 50.650002}}, {"id": 2826766, "name": "Stockhausen", "state": "", "country": "DE", "coord": {"lon": 8.32403, "lat": 50.545181}}, {"id": 2826789, "name": "St\u00f6ckey", "state": "", "country": "DE", "coord": {"lon": 10.5, "lat": 51.533329}}, {"id": 2826837, "name": "St\u00f6cken", "state": "", "country": "DE", "coord": {"lon": 7.08333, "lat": 51.183331}}, {"id": 2826841, "name": "St\u00f6cken", "state": "", "country": "DE", "coord": {"lon": 11.96667, "lat": 49.933331}}, {"id": 2826859, "name": "Stockem", "state": "", "country": "DE", "coord": {"lon": 6.38333, "lat": 49.933331}}, {"id": 2826861, "name": "Stockelsdorf", "state": "", "country": "DE", "coord": {"lon": 10.65, "lat": 53.900002}}, {"id": 2826863, "name": "St\u00f6ckelsberg", "state": "", "country": "DE", "coord": {"lon": 11.43763, "lat": 49.384441}}, {"id": 2826877, "name": "Stockborn", "state": "", "country": "DE", "coord": {"lon": 7.7, "lat": 49.48333}}, {"id": 2826889, "name": "Stockau", "state": "", "country": "DE", "coord": {"lon": 12, "lat": 49.933331}}, {"id": 2826902, "name": "St\u00f6ckach", "state": "", "country": "DE", "coord": {"lon": 11.22494, "lat": 49.613602}}, {"id": 2826909, "name": "Stockach", "state": "", "country": "DE", "coord": {"lon": 9.01667, "lat": 47.849998}}, {"id": 2826941, "name": "Stobra", "state": "", "country": "DE", "coord": {"lon": 11.56667, "lat": 51}}, {"id": 2826944, "name": "St\u00f6bnig", "state": "", "country": "DE", "coord": {"lon": 12.8, "lat": 51.049999}}, {"id": 2826960, "name": "Stixe", "state": "", "country": "DE", "coord": {"lon": 11.01929, "lat": 53.208191}}, {"id": 2826973, "name": "Stipshausen", "state": "", "country": "DE", "coord": {"lon": 7.28333, "lat": 49.849998}}, {"id": 2826974, "name": "Stipsdorf", "state": "", "country": "DE", "coord": {"lon": 10.33333, "lat": 53.950001}}, {"id": 2826985, "name": "Stinstedt", "state": "", "country": "DE", "coord": {"lon": 8.96667, "lat": 53.666672}}, {"id": 2826997, "name": "Stimpfach", "state": "", "country": "DE", "coord": {"lon": 10.09274, "lat": 49.061352}}, {"id": 2827009, "name": "Stillhorn", "state": "", "country": "DE", "coord": {"lon": 8.6, "lat": 53.23333}}, {"id": 2827040, "name": "Stiftsgr\u00fcn", "state": "", "country": "DE", "coord": {"lon": 11.85, "lat": 50.283329}}, {"id": 2827049, "name": "Stiftenh\u00f6fte", "state": "", "country": "DE", "coord": {"lon": 8.56667, "lat": 52.950001}}, {"id": 2827071, "name": "Stierhof", "state": "", "country": "DE", "coord": {"lon": 10.95, "lat": 48.349998}}, {"id": 2827108, "name": "Stiege", "state": "", "country": "DE", "coord": {"lon": 10.88333, "lat": 51.666672}}, {"id": 2827149, "name": "Stick", "state": "", "country": "DE", "coord": {"lon": 8.26667, "lat": 53.566669}}, {"id": 2827166, "name": "Steyerberg", "state": "", "country": "DE", "coord": {"lon": 9.03333, "lat": 52.566669}}, {"id": 2827179, "name": "Steutz", "state": "", "country": "DE", "coord": {"lon": 12.08333, "lat": 51.883331}}, {"id": 2827186, "name": "Steudten", "state": "", "country": "DE", "coord": {"lon": 13.21667, "lat": 51.216671}}, {"id": 2827187, "name": "Steudten", "state": "", "country": "DE", "coord": {"lon": 12.81667, "lat": 51.033329}}, {"id": 2827188, "name": "Steudnitz", "state": "", "country": "DE", "coord": {"lon": 11.7, "lat": 51.01667}}, {"id": 2827189, "name": "Steuden", "state": "", "country": "DE", "coord": {"lon": 11.76667, "lat": 51.416672}}, {"id": 2827197, "name": "Stettfeld", "state": "", "country": "DE", "coord": {"lon": 10.72386, "lat": 49.97187}}, {"id": 2827200, "name": "Stetternich", "state": "", "country": "DE", "coord": {"lon": 6.4, "lat": 50.916672}}, {"id": 2827206, "name": "Stettenhofen", "state": "", "country": "DE", "coord": {"lon": 10.86667, "lat": 48.466671}}, {"id": 2827213, "name": "Stetten bei Hechingen", "state": "", "country": "DE", "coord": {"lon": 8.97978, "lat": 48.345531}}, {"id": 2827216, "name": "Stetten am Kalten Markt", "state": "", "country": "DE", "coord": {"lon": 9.07775, "lat": 48.124191}}, {"id": 2827223, "name": "Stetten", "state": "", "country": "DE", "coord": {"lon": 8.09194, "lat": 49.669441}}, {"id": 2827238, "name": "Stetten", "state": "", "country": "DE", "coord": {"lon": 9.68106, "lat": 48.259602}}, {"id": 2827240, "name": "Stetten", "state": "", "country": "DE", "coord": {"lon": 10.43333, "lat": 48.033329}}, {"id": 2827246, "name": "Stetten", "state": "", "country": "DE", "coord": {"lon": 9.29855, "lat": 47.690121}}, {"id": 2827264, "name": "Stettberg", "state": "", "country": "DE", "coord": {"lon": 10.33333, "lat": 49.383331}}, {"id": 2827277, "name": "Sterzenbach", "state": "", "country": "DE", "coord": {"lon": 7.68333, "lat": 50.916672}}, {"id": 2827278, "name": "Sterzenbach", "state": "", "country": "DE", "coord": {"lon": 7.48333, "lat": 50.75}}, {"id": 2827282, "name": "Sterupgaard", "state": "", "country": "DE", "coord": {"lon": 9.73333, "lat": 54.716671}}, {"id": 2827284, "name": "Sterup", "state": "", "country": "DE", "coord": {"lon": 9.73333, "lat": 54.73333}}, {"id": 2827318, "name": "Sternenfels", "state": "", "country": "DE", "coord": {"lon": 8.85083, "lat": 49.051392}}, {"id": 2827328, "name": "Sternebeck", "state": "", "country": "DE", "coord": {"lon": 13.99392, "lat": 52.672951}}, {"id": 2827336, "name": "Sternberg", "state": "", "country": "DE", "coord": {"lon": 11.82678, "lat": 53.71236}}, {"id": 2827352, "name": "Stern", "state": "", "country": "DE", "coord": {"lon": 13.46667, "lat": 53.799999}}, {"id": 2827359, "name": "Sterley", "state": "", "country": "DE", "coord": {"lon": 10.81667, "lat": 53.616669}}, {"id": 2827366, "name": "Sterklis", "state": "", "country": "DE", "coord": {"lon": 10.3, "lat": 47.583328}}, {"id": 2827368, "name": "Sterkelshausen", "state": "", "country": "DE", "coord": {"lon": 9.65, "lat": 51}}, {"id": 2827376, "name": "Sterbfritz", "state": "", "country": "DE", "coord": {"lon": 9.62282, "lat": 50.313351}}, {"id": 2827389, "name": "Steppach", "state": "", "country": "DE", "coord": {"lon": 10.83333, "lat": 48.383331}}, {"id": 2827397, "name": "Stephansried", "state": "", "country": "DE", "coord": {"lon": 10.31667, "lat": 47.98333}}, {"id": 2827400, "name": "Stephansposching", "state": "", "country": "DE", "coord": {"lon": 12.8, "lat": 48.816669}}, {"id": 2827406, "name": "Stephanskirchen", "state": "", "country": "DE", "coord": {"lon": 12.1856, "lat": 47.853889}}, {"id": 2827409, "name": "Stephanshausen", "state": "", "country": "DE", "coord": {"lon": 7.95, "lat": 50.033329}}, {"id": 2827414, "name": "Stepfershausen", "state": "", "country": "DE", "coord": {"lon": 10.3, "lat": 50.599998}}, {"id": 2827427, "name": "Stenum", "state": "", "country": "DE", "coord": {"lon": 8.56667, "lat": 53.066669}}, {"id": 2827433, "name": "Stennweiler", "state": "", "country": "DE", "coord": {"lon": 7.11399, "lat": 49.391201}}, {"id": 2827436, "name": "Stennewitz", "state": "", "country": "DE", "coord": {"lon": 13.95, "lat": 51.866669}}, {"id": 2827461, "name": "Stendorf", "state": "", "country": "DE", "coord": {"lon": 11.7, "lat": 51.116669}}, {"id": 2827462, "name": "Stendorf", "state": "", "country": "DE", "coord": {"lon": 9.83333, "lat": 50.716671}}, {"id": 2827467, "name": "Stenderupau", "state": "", "country": "DE", "coord": {"lon": 9.46667, "lat": 54.633331}}, {"id": 2827469, "name": "Stenderup", "state": "", "country": "DE", "coord": {"lon": 9.48333, "lat": 54.633331}}, {"id": 2827474, "name": "Stenden", "state": "", "country": "DE", "coord": {"lon": 6.45, "lat": 51.416672}}, {"id": 2827478, "name": "Landkreis Stendal", "state": "", "country": "DE", "coord": {"lon": 11.83333, "lat": 52.599998}}, {"id": 2827479, "name": "Stendal", "state": "", "country": "DE", "coord": {"lon": 11.85, "lat": 52.599998}}, {"id": 2827480, "name": "Stemwarde", "state": "", "country": "DE", "coord": {"lon": 10.23333, "lat": 53.566669}}, {"id": 2827481, "name": "Stemshorn", "state": "", "country": "DE", "coord": {"lon": 8.36667, "lat": 52.450001}}, {"id": 2827490, "name": "Stemmern", "state": "", "country": "DE", "coord": {"lon": 11.57255, "lat": 51.996929}}, {"id": 2827498, "name": "Stemmer", "state": "", "country": "DE", "coord": {"lon": 8.86667, "lat": 52.333328}}, {"id": 2827501, "name": "Stemmen", "state": "", "country": "DE", "coord": {"lon": 9.55313, "lat": 53.224232}}, {"id": 2827527, "name": "Stelzenberg", "state": "", "country": "DE", "coord": {"lon": 7.73333, "lat": 49.383331}}, {"id": 2827552, "name": "Stellingen", "state": "", "country": "DE", "coord": {"lon": 9.9287, "lat": 53.592201}}, {"id": 2827559, "name": "Stelle-Wittenwurth", "state": "", "country": "DE", "coord": {"lon": 9.05, "lat": 54.26667}}, {"id": 2827572, "name": "Stelle", "state": "", "country": "DE", "coord": {"lon": 8.46667, "lat": 52.433331}}, {"id": 2827574, "name": "Stelle", "state": "", "country": "DE", "coord": {"lon": 10.11138, "lat": 53.384159}}, {"id": 2827597, "name": "Stellau", "state": "", "country": "DE", "coord": {"lon": 10.23333, "lat": 53.583328}}, {"id": 2827602, "name": "Stei\u00dflingen", "state": "", "country": "DE", "coord": {"lon": 8.93333, "lat": 47.799999}}, {"id": 2827608, "name": "Stein-Wingert", "state": "", "country": "DE", "coord": {"lon": 7.73333, "lat": 50.716671}}, {"id": 2827610, "name": "Steinwiesen", "state": "", "country": "DE", "coord": {"lon": 11.46667, "lat": 50.299999}}, {"id": 2827613, "name": "Steinwenden", "state": "", "country": "DE", "coord": {"lon": 7.53333, "lat": 49.450001}}, {"id": 2827615, "name": "Steinweiler", "state": "", "country": "DE", "coord": {"lon": 8.14139, "lat": 49.121109}}, {"id": 2827638, "name": "Steinthaleben", "state": "", "country": "DE", "coord": {"lon": 11.01667, "lat": 51.400002}}, {"id": 2827664, "name": "Steinsfeld", "state": "", "country": "DE", "coord": {"lon": 10.21667, "lat": 49.416672}}, {"id": 2827677, "name": "Steinsdorf", "state": "", "country": "DE", "coord": {"lon": 12.05, "lat": 50.75}}, {"id": 2827678, "name": "Steinsdorf", "state": "", "country": "DE", "coord": {"lon": 11.49436, "lat": 50.584759}}, {"id": 2827688, "name": "Steinsberg", "state": "", "country": "DE", "coord": {"lon": 7.95, "lat": 50.333328}}, {"id": 2827695, "name": "Steins", "state": "", "country": "DE", "coord": {"lon": 12.01667, "lat": 50.450001}}, {"id": 2827702, "name": "Steinrode", "state": "", "country": "DE", "coord": {"lon": 10.48333, "lat": 51.5}}, {"id": 2827712, "name": "Steinreuth", "state": "", "country": "DE", "coord": {"lon": 12.1, "lat": 49.783329}}, {"id": 2827741, "name": "Steinperf", "state": "", "country": "DE", "coord": {"lon": 8.46667, "lat": 50.816669}}, {"id": 2827749, "name": "Stein-Neukirch", "state": "", "country": "DE", "coord": {"lon": 8.05, "lat": 50.683331}}, {"id": 2827758, "name": "Steinmauern", "state": "", "country": "DE", "coord": {"lon": 8.19692, "lat": 48.900951}}, {"id": 2827764, "name": "Steinmark", "state": "", "country": "DE", "coord": {"lon": 9.525, "lat": 49.863331}}, {"id": 2827799, "name": "Steinkrug", "state": "", "country": "DE", "coord": {"lon": 9.25, "lat": 54.25}}, {"id": 2827862, "name": "Steinkirchen", "state": "", "country": "DE", "coord": {"lon": 9.61111, "lat": 53.56601}}, {"id": 2827870, "name": "Steinkirchen", "state": "", "country": "DE", "coord": {"lon": 12.08333, "lat": 48.383331}}, {"id": 2827893, "name": "Steinitz", "state": "", "country": "DE", "coord": {"lon": 12.03333, "lat": 52.51667}}, {"id": 2827896, "name": "Steinitz", "state": "", "country": "DE", "coord": {"lon": 11.11667, "lat": 52.833328}}, {"id": 2827900, "name": "Steiningen", "state": "", "country": "DE", "coord": {"lon": 6.91667, "lat": 50.183331}}, {"id": 2827907, "name": "Steinigtwolmsdorf", "state": "", "country": "DE", "coord": {"lon": 14.3454, "lat": 51.063141}}, {"id": 2827932, "name": "Steinhude", "state": "", "country": "DE", "coord": {"lon": 9.35, "lat": 52.450001}}, {"id": 2827950, "name": "Steinhorst", "state": "", "country": "DE", "coord": {"lon": 10.48333, "lat": 53.716671}}, {"id": 2827951, "name": "Steinhorst", "state": "", "country": "DE", "coord": {"lon": 10.4, "lat": 52.683331}}, {"id": 2827955, "name": "Steinh\u00f6ring", "state": "", "country": "DE", "coord": {"lon": 12.0314, "lat": 48.086788}}, {"id": 2827963, "name": "Steinhofen", "state": "", "country": "DE", "coord": {"lon": 8.91667, "lat": 48.316669}}, {"id": 2827965, "name": "Steinh\u00f6fel", "state": "", "country": "DE", "coord": {"lon": 14.16667, "lat": 52.400002}}, {"id": 2827968, "name": "Steinhof", "state": "", "country": "DE", "coord": {"lon": 12.85, "lat": 49.099998}}, {"id": 2827983, "name": "Steinheuterode", "state": "", "country": "DE", "coord": {"lon": 10.06667, "lat": 51.383331}}, {"id": 2827988, "name": "Steinheim am der Murr", "state": "", "country": "DE", "coord": {"lon": 9.28333, "lat": 48.966671}}, {"id": 2827989, "name": "Steinheim am Albuch", "state": "", "country": "DE", "coord": {"lon": 10.06382, "lat": 48.690899}}, {"id": 2827990, "name": "Steinheim", "state": "", "country": "DE", "coord": {"lon": 9.09136, "lat": 51.870659}}, {"id": 2827992, "name": "Steinheim", "state": "", "country": "DE", "coord": {"lon": 10.53726, "lat": 48.595341}}, {"id": 2827999, "name": "Steinheid", "state": "", "country": "DE", "coord": {"lon": 11.08333, "lat": 50.466671}}, {"id": 2828007, "name": "Steinhausen an der Rottum", "state": "", "country": "DE", "coord": {"lon": 9.96667, "lat": 48.01667}}, {"id": 2828016, "name": "Steinhausen", "state": "", "country": "DE", "coord": {"lon": 9.7, "lat": 48.033329}}, {"id": 2828018, "name": "Steinhausen", "state": "", "country": "DE", "coord": {"lon": 9.61667, "lat": 47.883331}}, {"id": 2828042, "name": "Steinhaldenfeld", "state": "", "country": "DE", "coord": {"lon": 9.23186, "lat": 48.827831}}, {"id": 2828045, "name": "Steinhagen", "state": "", "country": "DE", "coord": {"lon": 12.98867, "lat": 54.226158}}, {"id": 2828048, "name": "Steinhagen", "state": "", "country": "DE", "coord": {"lon": 11.93333, "lat": 53.849998}}, {"id": 2828050, "name": "Steinhagen", "state": "", "country": "DE", "coord": {"lon": 8.4, "lat": 52}}, {"id": 2828060, "name": "Steingruben", "state": "", "country": "DE", "coord": {"lon": 7.81667, "lat": 49.666672}}, {"id": 2828089, "name": "Steingaden", "state": "", "country": "DE", "coord": {"lon": 10.86667, "lat": 47.700001}}, {"id": 2828090, "name": "Steingaden", "state": "", "country": "DE", "coord": {"lon": 10.33333, "lat": 47.666672}}, {"id": 2828100, "name": "Steinfurth", "state": "", "country": "DE", "coord": {"lon": 8.75, "lat": 50.400002}}, {"id": 2828105, "name": "Steinfurt", "state": "", "country": "DE", "coord": {"lon": 7.33664, "lat": 52.150452}}, {"id": 2828118, "name": "Steinfischbach", "state": "", "country": "DE", "coord": {"lon": 8.33333, "lat": 50.283329}}, {"id": 2828121, "name": "Steinfels", "state": "", "country": "DE", "coord": {"lon": 12, "lat": 49.666672}}, {"id": 2828129, "name": "Steinfeld", "state": "", "country": "DE", "coord": {"lon": 9.75, "lat": 54.599998}}, {"id": 2828131, "name": "Steinfeld", "state": "", "country": "DE", "coord": {"lon": 12.30975, "lat": 54.108131}}, {"id": 2828132, "name": "Steinfeld", "state": "", "country": "DE", "coord": {"lon": 10.76667, "lat": 53.833328}}, {"id": 2828136, "name": "Steinfeld", "state": "", "country": "DE", "coord": {"lon": 8.21667, "lat": 52.599998}}, {"id": 2828140, "name": "Steinfeld", "state": "", "country": "DE", "coord": {"lon": 9.66944, "lat": 49.952782}}, {"id": 2828141, "name": "Steinfeld", "state": "", "country": "DE", "coord": {"lon": 8.03694, "lat": 49.048328}}, {"id": 2828165, "name": "Steineroth", "state": "", "country": "DE", "coord": {"lon": 7.85, "lat": 50.75}}, {"id": 2828206, "name": "Steinenbronn", "state": "", "country": "DE", "coord": {"lon": 9.11667, "lat": 48.666672}}, {"id": 2828227, "name": "Steinen", "state": "", "country": "DE", "coord": {"lon": 7.8, "lat": 50.583328}}, {"id": 2828228, "name": "Steinen", "state": "", "country": "DE", "coord": {"lon": 7.73914, "lat": 47.644459}}, {"id": 2828235, "name": "Steinegge", "state": "", "country": "DE", "coord": {"lon": 9.05385, "lat": 52.065262}}, {"id": 2828241, "name": "Steinefrenz", "state": "", "country": "DE", "coord": {"lon": 7.93333, "lat": 50.466671}}, {"id": 2828249, "name": "Steineberg", "state": "", "country": "DE", "coord": {"lon": 6.91667, "lat": 50.183331}}, {"id": 2828259, "name": "Steinebach", "state": "", "country": "DE", "coord": {"lon": 7.81667, "lat": 50.633331}}, {"id": 2828260, "name": "Steinebach", "state": "", "country": "DE", "coord": {"lon": 11.05, "lat": 48.049999}}, {"id": 2828270, "name": "Steindorf", "state": "", "country": "DE", "coord": {"lon": 11, "lat": 48.216671}}, {"id": 2828277, "name": "Steindamm", "state": "", "country": "DE", "coord": {"lon": 10.56667, "lat": 54}}, {"id": 2828352, "name": "Steinbr\u00fccken", "state": "", "country": "DE", "coord": {"lon": 8.33333, "lat": 50.816669}}, {"id": 2828384, "name": "Steinborn", "state": "", "country": "DE", "coord": {"lon": 6.63333, "lat": 50.066669}}, {"id": 2828386, "name": "Stein-Bockenheim", "state": "", "country": "DE", "coord": {"lon": 7.96667, "lat": 49.76667}}, {"id": 2828396, "name": "Steinbergkirche", "state": "", "country": "DE", "coord": {"lon": 9.76667, "lat": 54.75}}, {"id": 2828427, "name": "Steinberg", "state": "", "country": "DE", "coord": {"lon": 12.88333, "lat": 48.650002}}, {"id": 2828428, "name": "Steinberg", "state": "", "country": "DE", "coord": {"lon": 9.78333, "lat": 54.76667}}, {"id": 2828438, "name": "Steinberg", "state": "", "country": "DE", "coord": {"lon": 10.01667, "lat": 50.299999}}, {"id": 2828443, "name": "Steinberg", "state": "", "country": "DE", "coord": {"lon": 12.18333, "lat": 49.283329}}, {"id": 2828449, "name": "Steinberg", "state": "", "country": "DE", "coord": {"lon": 11.3, "lat": 48.116669}}, {"id": 2828681, "name": "Steinbek", "state": "", "country": "DE", "coord": {"lon": 10.4, "lat": 53.916672}}, {"id": 2828685, "name": "Stein", "state": "", "country": "DE", "coord": {"lon": 11.01667, "lat": 49.416672}}, {"id": 2828688, "name": "Steinbecker Vorstadt", "state": "", "country": "DE", "coord": {"lon": 13.38333, "lat": 54.099998}}, {"id": 2828697, "name": "Steinbeck", "state": "", "country": "DE", "coord": {"lon": 11.97158, "lat": 54.140999}}, {"id": 2828712, "name": "Steinbachweier", "state": "", "country": "DE", "coord": {"lon": 6.66667, "lat": 49.633331}}, {"id": 2828718, "name": "Steinb\u00e4chle", "state": "", "country": "DE", "coord": {"lon": 7.95, "lat": 48.316669}}, {"id": 2828723, "name": "Steinbach-Hallenberg", "state": "", "country": "DE", "coord": {"lon": 10.56667, "lat": 50.700001}}, {"id": 2828735, "name": "Steinbach am Wald", "state": "", "country": "DE", "coord": {"lon": 11.36667, "lat": 50.433331}}, {"id": 2828737, "name": "Steinbach am Taunus", "state": "", "country": "DE", "coord": {"lon": 8.56667, "lat": 50.166672}}, {"id": 2828738, "name": "Steinbach am Donnersberg", "state": "", "country": "DE", "coord": {"lon": 7.95, "lat": 49.599998}}, {"id": 2828788, "name": "Steinbach", "state": "", "country": "DE", "coord": {"lon": 10.21866, "lat": 51.422119}}, {"id": 2828794, "name": "Steinbach", "state": "", "country": "DE", "coord": {"lon": 12.65, "lat": 50.933331}}, {"id": 2828795, "name": "Steinbach", "state": "", "country": "DE", "coord": {"lon": 10.36667, "lat": 50.833328}}, {"id": 2828804, "name": "Steinbach", "state": "", "country": "DE", "coord": {"lon": 11.21378, "lat": 50.35619}}, {"id": 2828805, "name": "Steinbach", "state": "", "country": "DE", "coord": {"lon": 11.65, "lat": 50.150002}}, {"id": 2828806, "name": "Steinbach", "state": "", "country": "DE", "coord": {"lon": 7.6, "lat": 50.033329}}, {"id": 2828832, "name": "Steinbach", "state": "", "country": "DE", "coord": {"lon": 10.36667, "lat": 49.200001}}, {"id": 2828869, "name": "Steinau", "state": "", "country": "DE", "coord": {"lon": 8.88333, "lat": 53.683331}}, {"id": 2828871, "name": "Steinau an der Stra\u00dfe", "state": "", "country": "DE", "coord": {"lon": 9.46335, "lat": 50.314011}}, {"id": 2828879, "name": "Steinalben", "state": "", "country": "DE", "coord": {"lon": 7.65, "lat": 49.316669}}, {"id": 2828895, "name": "Steinach an der Ens", "state": "", "country": "DE", "coord": {"lon": 10.26667, "lat": 49.450001}}, {"id": 2828907, "name": "Steinach", "state": "", "country": "DE", "coord": {"lon": 11.16667, "lat": 50.433331}}, {"id": 2828911, "name": "Steinach", "state": "", "country": "DE", "coord": {"lon": 12.61667, "lat": 48.950001}}, {"id": 2828913, "name": "Steinach", "state": "", "country": "DE", "coord": {"lon": 8.05, "lat": 48.299999}}, {"id": 2828923, "name": "Steina", "state": "", "country": "DE", "coord": {"lon": 14.05, "lat": 51.200001}}, {"id": 2828925, "name": "Steina", "state": "", "country": "DE", "coord": {"lon": 9.25, "lat": 50.883331}}, {"id": 2828929, "name": "Stein", "state": "", "country": "DE", "coord": {"lon": 10.26667, "lat": 54.416672}}, {"id": 2828939, "name": "Stein", "state": "", "country": "DE", "coord": {"lon": 7.93333, "lat": 49.150002}}, {"id": 2828971, "name": "Steimke", "state": "", "country": "DE", "coord": {"lon": 10.60215, "lat": 52.74622}}, {"id": 2828984, "name": "Steimel", "state": "", "country": "DE", "coord": {"lon": 7.63333, "lat": 50.616669}}, {"id": 2828993, "name": "Steimbke", "state": "", "country": "DE", "coord": {"lon": 9.39091, "lat": 52.654831}}, {"id": 2828994, "name": "Steilshoop", "state": "", "country": "DE", "coord": {"lon": 10.05917, "lat": 53.610279}}, {"id": 2829011, "name": "Steigra", "state": "", "country": "DE", "coord": {"lon": 11.66667, "lat": 51.299999}}, {"id": 2829058, "name": "Steigen", "state": "", "country": "DE", "coord": {"lon": 9.3, "lat": 47.816669}}, {"id": 2829080, "name": "Stiefenhofen", "state": "", "country": "DE", "coord": {"lon": 10.00365, "lat": 47.593201}}, {"id": 2829087, "name": "Steibis", "state": "", "country": "DE", "coord": {"lon": 10.01667, "lat": 47.533329}}, {"id": 2829116, "name": "Stegh", "state": "", "country": "DE", "coord": {"lon": 6.11667, "lat": 50.933331}}, {"id": 2829130, "name": "Stegen", "state": "", "country": "DE", "coord": {"lon": 7.96667, "lat": 47.98333}}, {"id": 2829135, "name": "Stegelkaten", "state": "", "country": "DE", "coord": {"lon": 10.25, "lat": 53.950001}}, {"id": 2829139, "name": "Stegelitz", "state": "", "country": "DE", "coord": {"lon": 13.8511, "lat": 53.12875}}, {"id": 2829145, "name": "Stegaurach", "state": "", "country": "DE", "coord": {"lon": 10.84385, "lat": 49.865429}}, {"id": 2829152, "name": "Steffenshof", "state": "", "country": "DE", "coord": {"lon": 7.43333, "lat": 50.133331}}, {"id": 2829154, "name": "Steffenshagen", "state": "", "country": "DE", "coord": {"lon": 11.83333, "lat": 54.099998}}, {"id": 2829161, "name": "Steffeln", "state": "", "country": "DE", "coord": {"lon": 6.56667, "lat": 50.283329}}, {"id": 2829168, "name": "Steesow", "state": "", "country": "DE", "coord": {"lon": 11.54406, "lat": 53.15881}}, {"id": 2829175, "name": "Steenodde", "state": "", "country": "DE", "coord": {"lon": 8.3775, "lat": 54.639519}}, {"id": 2829183, "name": "Steenfeld", "state": "", "country": "DE", "coord": {"lon": 9.36667, "lat": 54.150002}}, {"id": 2829187, "name": "Steele", "state": "", "country": "DE", "coord": {"lon": 7.08333, "lat": 51.450001}}, {"id": 2829198, "name": "Steeg", "state": "", "country": "DE", "coord": {"lon": 7.4, "lat": 50.98333}}, {"id": 2829204, "name": "Steeden", "state": "", "country": "DE", "coord": {"lon": 8.13333, "lat": 50.416672}}, {"id": 2829210, "name": "Stedten", "state": "", "country": "DE", "coord": {"lon": 11.68333, "lat": 51.433331}}, {"id": 2829211, "name": "Stedten", "state": "", "country": "DE", "coord": {"lon": 10.98333, "lat": 50.933331}}, {"id": 2829212, "name": "Stedten", "state": "", "country": "DE", "coord": {"lon": 11.16667, "lat": 50.833328}}, {"id": 2829218, "name": "Stedesdorf", "state": "", "country": "DE", "coord": {"lon": 7.66667, "lat": 53.633331}}, {"id": 2829219, "name": "Stedesand", "state": "", "country": "DE", "coord": {"lon": 8.91667, "lat": 54.73333}}, {"id": 2829223, "name": "Steden", "state": "", "country": "DE", "coord": {"lon": 8.86667, "lat": 53.366669}}, {"id": 2829225, "name": "Stedefreund", "state": "", "country": "DE", "coord": {"lon": 8.60933, "lat": 52.083832}}, {"id": 2829237, "name": "Stecklenberg", "state": "", "country": "DE", "coord": {"lon": 11.08333, "lat": 51.73333}}, {"id": 2829250, "name": "Steckenborn", "state": "", "country": "DE", "coord": {"lon": 6.35, "lat": 50.633331}}, {"id": 2829268, "name": "Stechow", "state": "", "country": "DE", "coord": {"lon": 12.45, "lat": 52.633331}}, {"id": 2829280, "name": "Stebach", "state": "", "country": "DE", "coord": {"lon": 7.65, "lat": 50.51667}}, {"id": 2829291, "name": "Staven", "state": "", "country": "DE", "coord": {"lon": 13.4, "lat": 53.633331}}, {"id": 2829299, "name": "Stausacker", "state": "", "country": "DE", "coord": {"lon": 11.81667, "lat": 48.883331}}, {"id": 2829300, "name": "Staupitz", "state": "", "country": "DE", "coord": {"lon": 13.66667, "lat": 51.533329}}, {"id": 2829318, "name": "Staufen im Breisgau", "state": "", "country": "DE", "coord": {"lon": 7.73333, "lat": 47.883331}}, {"id": 2829322, "name": "Staufenberg", "state": "", "country": "DE", "coord": {"lon": 8.71667, "lat": 50.666672}}, {"id": 2829333, "name": "Staufen", "state": "", "country": "DE", "coord": {"lon": 8.21667, "lat": 47.75}}, {"id": 2829339, "name": "Stauf", "state": "", "country": "DE", "coord": {"lon": 8.0275, "lat": 49.551109}}, {"id": 2829345, "name": "Staudt", "state": "", "country": "DE", "coord": {"lon": 7.83333, "lat": 50.466671}}, {"id": 2829353, "name": "Staudernheim", "state": "", "country": "DE", "coord": {"lon": 7.68333, "lat": 49.783329}}, {"id": 2829370, "name": "Stauden", "state": "", "country": "DE", "coord": {"lon": 12.28333, "lat": 47.883331}}, {"id": 2829375, "name": "Staudach-Egerndach", "state": "", "country": "DE", "coord": {"lon": 12.48333, "lat": 47.783329}}, {"id": 2829385, "name": "Staudach", "state": "", "country": "DE", "coord": {"lon": 11.85644, "lat": 47.912109}}, {"id": 2829389, "name": "Staudach", "state": "", "country": "DE", "coord": {"lon": 11.76667, "lat": 47.700001}}, {"id": 2829401, "name": "Stauda", "state": "", "country": "DE", "coord": {"lon": 13.51667, "lat": 51.23333}}, {"id": 2829402, "name": "Stauchitz", "state": "", "country": "DE", "coord": {"lon": 13.21667, "lat": 51.25}}, {"id": 2829422, "name": "Sta\u00dffurt", "state": "", "country": "DE", "coord": {"lon": 11.58333, "lat": 51.866669}}, {"id": 2829423, "name": "Staschwitz", "state": "", "country": "DE", "coord": {"lon": 12.25, "lat": 51.083328}}, {"id": 2829456, "name": "Landkreis Starnberg", "state": "", "country": "DE", "coord": {"lon": 11.29583, "lat": 48.014999}}, {"id": 2829457, "name": "Starnberg", "state": "", "country": "DE", "coord": {"lon": 11.35, "lat": 48}}, {"id": 2829465, "name": "St\u00e4rklos", "state": "", "country": "DE", "coord": {"lon": 9.63333, "lat": 50.76667}}, {"id": 2829474, "name": "Starkenschwind", "state": "", "country": "DE", "coord": {"lon": 10.98461, "lat": 49.972969}}, {"id": 2829480, "name": "Starkenburg", "state": "", "country": "DE", "coord": {"lon": 7.13333, "lat": 49.966671}}, {"id": 2829488, "name": "Starbach", "state": "", "country": "DE", "coord": {"lon": 13.26667, "lat": 51.099998}}, {"id": 2829506, "name": "Stapelmoorerheide", "state": "", "country": "DE", "coord": {"lon": 7.28333, "lat": 53.133331}}, {"id": 2829509, "name": "Stapelfeld", "state": "", "country": "DE", "coord": {"lon": 10.21667, "lat": 53.599998}}, {"id": 2829513, "name": "Stapelburg", "state": "", "country": "DE", "coord": {"lon": 10.66667, "lat": 51.900002}}, {"id": 2829522, "name": "Stapel", "state": "", "country": "DE", "coord": {"lon": 9.2, "lat": 53.183331}}, {"id": 2829534, "name": "Stangheck", "state": "", "country": "DE", "coord": {"lon": 9.86667, "lat": 54.716671}}, {"id": 2829536, "name": "Stangerode", "state": "", "country": "DE", "coord": {"lon": 11.35, "lat": 51.650002}}, {"id": 2829542, "name": "Stangenroth", "state": "", "country": "DE", "coord": {"lon": 9.98333, "lat": 50.283329}}, {"id": 2829543, "name": "Stangenrod", "state": "", "country": "DE", "coord": {"lon": 7.9, "lat": 50.650002}}, {"id": 2829547, "name": "Stangenhagen", "state": "", "country": "DE", "coord": {"lon": 13.1, "lat": 52.216671}}, {"id": 2829548, "name": "Stangengr\u00fcn", "state": "", "country": "DE", "coord": {"lon": 12.46667, "lat": 50.599998}}, {"id": 2829564, "name": "Standkirchen", "state": "", "country": "DE", "coord": {"lon": 11.797, "lat": 47.868519}}, {"id": 2829565, "name": "Standenb\u00fchl", "state": "", "country": "DE", "coord": {"lon": 7.98333, "lat": 49.599998}}, {"id": 2829568, "name": "Stanau", "state": "", "country": "DE", "coord": {"lon": 11.73333, "lat": 50.783329}}, {"id": 2829569, "name": "Stamsried", "state": "", "country": "DE", "coord": {"lon": 12.53333, "lat": 49.26667}}, {"id": 2829573, "name": "Stampe", "state": "", "country": "DE", "coord": {"lon": 10.01667, "lat": 54.333328}}, {"id": 2829579, "name": "Stammheim", "state": "", "country": "DE", "coord": {"lon": 8.76898, "lat": 48.694302}}, {"id": 2829580, "name": "Stammham", "state": "", "country": "DE", "coord": {"lon": 11.46667, "lat": 48.849998}}, {"id": 2829581, "name": "Stammham", "state": "", "country": "DE", "coord": {"lon": 11.86961, "lat": 48.29604}}, {"id": 2829582, "name": "Stammham", "state": "", "country": "DE", "coord": {"lon": 12.88333, "lat": 48.25}}, {"id": 2829595, "name": "Stammbach", "state": "", "country": "DE", "coord": {"lon": 11.68333, "lat": 50.150002}}, {"id": 2829602, "name": "Stallwang", "state": "", "country": "DE", "coord": {"lon": 12.66667, "lat": 49.049999}}, {"id": 2829603, "name": "Stallwang", "state": "", "country": "DE", "coord": {"lon": 12.23333, "lat": 48.566669}}, {"id": 2829612, "name": "Stalldorf", "state": "", "country": "DE", "coord": {"lon": 9.93611, "lat": 49.564999}}, {"id": 2829614, "name": "Stallbr\u00fcggerfeld", "state": "", "country": "DE", "coord": {"lon": 7.65, "lat": 53.26667}}, {"id": 2829638, "name": "Stakendorf", "state": "", "country": "DE", "coord": {"lon": 10.43333, "lat": 54.383331}}, {"id": 2829641, "name": "Staitz", "state": "", "country": "DE", "coord": {"lon": 11.99244, "lat": 50.71793}}, {"id": 2829644, "name": "Staig", "state": "", "country": "DE", "coord": {"lon": 9.99138, "lat": 48.29998}}, {"id": 2829647, "name": "Staig", "state": "", "country": "DE", "coord": {"lon": 9.8, "lat": 47.783329}}, {"id": 2829657, "name": "Stahnsdorf", "state": "", "country": "DE", "coord": {"lon": 13.21667, "lat": 52.383331}}, {"id": 2829658, "name": "Stahna", "state": "", "country": "DE", "coord": {"lon": 13.26667, "lat": 51.116669}}, {"id": 2829664, "name": "Stahlhofen", "state": "", "country": "DE", "coord": {"lon": 7.86667, "lat": 50.400002}}, {"id": 2829673, "name": "Stahle", "state": "", "country": "DE", "coord": {"lon": 9.42919, "lat": 51.834721}}, {"id": 2829675, "name": "Stahlbrode", "state": "", "country": "DE", "coord": {"lon": 13.28565, "lat": 54.23283}}, {"id": 2829678, "name": "Stahlberg", "state": "", "country": "DE", "coord": {"lon": 7.78333, "lat": 49.666672}}, {"id": 2829686, "name": "Stahl", "state": "", "country": "DE", "coord": {"lon": 6.5, "lat": 49.966671}}, {"id": 2829688, "name": "Staherheide", "state": "", "country": "DE", "coord": {"lon": 6, "lat": 50.98333}}, {"id": 2829693, "name": "Stafstedt", "state": "", "country": "DE", "coord": {"lon": 9.66667, "lat": 54.166672}}, {"id": 2829698, "name": "Staffhorst", "state": "", "country": "DE", "coord": {"lon": 8.96667, "lat": 52.716671}}, {"id": 2829701, "name": "Bad Staffelstein", "state": "", "country": "DE", "coord": {"lon": 11.00128, "lat": 50.10199}}, {"id": 2829706, "name": "Staffelde", "state": "", "country": "DE", "coord": {"lon": 14.43234, "lat": 53.27076}}, {"id": 2829716, "name": "Staffelbach", "state": "", "country": "DE", "coord": {"lon": 10.75158, "lat": 49.944981}}, {"id": 2829731, "name": "Stadum", "state": "", "country": "DE", "coord": {"lon": 9.05, "lat": 54.73333}}, {"id": 2829734, "name": "Stadt Wehlen", "state": "", "country": "DE", "coord": {"lon": 14.03091, "lat": 50.95821}}, {"id": 2829742, "name": "Stadtsteinach", "state": "", "country": "DE", "coord": {"lon": 11.5, "lat": 50.166672}}, {"id": 2829749, "name": "Stadtschwarzach", "state": "", "country": "DE", "coord": {"lon": 10.21667, "lat": 49.799999}}, {"id": 2829750, "name": "Stadtroda", "state": "", "country": "DE", "coord": {"lon": 11.73333, "lat": 50.849998}}, {"id": 2829751, "name": "Stadtprozelten", "state": "", "country": "DE", "coord": {"lon": 9.41361, "lat": 49.788059}}, {"id": 2829753, "name": "Stadtoldendorf", "state": "", "country": "DE", "coord": {"lon": 9.65, "lat": 51.900002}}, {"id": 2829758, "name": "Stadtlohn", "state": "", "country": "DE", "coord": {"lon": 6.93333, "lat": 51.98333}}, {"id": 2829759, "name": "Stadtlengsfeld", "state": "", "country": "DE", "coord": {"lon": 10.13333, "lat": 50.783329}}, {"id": 2829760, "name": "Stadtlauringen", "state": "", "country": "DE", "coord": {"lon": 10.36667, "lat": 50.183331}}, {"id": 2829762, "name": "Stadtkyll", "state": "", "country": "DE", "coord": {"lon": 6.53333, "lat": 50.349998}}, {"id": 2829765, "name": "Stadtilm", "state": "", "country": "DE", "coord": {"lon": 11.08333, "lat": 50.76667}}, {"id": 2829777, "name": "Stadthagen", "state": "", "country": "DE", "coord": {"lon": 9.20311, "lat": 52.32333}}, {"id": 2829790, "name": "Stadtbergen", "state": "", "country": "DE", "coord": {"lon": 10.85, "lat": 48.366669}}, {"id": 2829804, "name": "Stadtallendorf", "state": "", "country": "DE", "coord": {"lon": 9.01667, "lat": 50.833328}}, {"id": 2829825, "name": "Stadlern", "state": "", "country": "DE", "coord": {"lon": 12.61667, "lat": 49.5}}, {"id": 2829844, "name": "Stadl", "state": "", "country": "DE", "coord": {"lon": 12.26667, "lat": 47.883331}}, {"id": 2829858, "name": "Stadensen", "state": "", "country": "DE", "coord": {"lon": 10.55619, "lat": 52.87571}}, {"id": 2829860, "name": "Stadenhausen", "state": "", "country": "DE", "coord": {"lon": 8.8, "lat": 51.98333}}, {"id": 2829862, "name": "Staden", "state": "", "country": "DE", "coord": {"lon": 7.61667, "lat": 52.383331}}, {"id": 2829874, "name": "Stadeln", "state": "", "country": "DE", "coord": {"lon": 10.7, "lat": 49.150002}}, {"id": 2829876, "name": "Stadelhofen", "state": "", "country": "DE", "coord": {"lon": 11.19757, "lat": 50.00317}}, {"id": 2829879, "name": "Stadelhofen", "state": "", "country": "DE", "coord": {"lon": 11.18872, "lat": 49.03455}}, {"id": 2829885, "name": "Stadelham", "state": "", "country": "DE", "coord": {"lon": 11.33017, "lat": 48.441841}}, {"id": 2829901, "name": "Stade", "state": "", "country": "DE", "coord": {"lon": 9.48333, "lat": 53.599998}}, {"id": 2829912, "name": "Stackelitz", "state": "", "country": "DE", "coord": {"lon": 12.38333, "lat": 52}}, {"id": 2829917, "name": "Stachesried", "state": "", "country": "DE", "coord": {"lon": 12.94327, "lat": 49.292549}}, {"id": 2829943, "name": "St\u00e4below", "state": "", "country": "DE", "coord": {"lon": 12.01667, "lat": 54.033329}}, {"id": 2829953, "name": "Staats", "state": "", "country": "DE", "coord": {"lon": 11.63333, "lat": 52.549999}}, {"id": 2829962, "name": "Staaken", "state": "", "country": "DE", "coord": {"lon": 13.13333, "lat": 52.533329}}, {"id": 2829967, "name": "Staad", "state": "", "country": "DE", "coord": {"lon": 9.21667, "lat": 47.683331}}, {"id": 2829986, "name": "Spr\u00f6tze", "state": "", "country": "DE", "coord": {"lon": 9.81667, "lat": 53.316669}}, {"id": 2829988, "name": "Sprotta", "state": "", "country": "DE", "coord": {"lon": 12.70844, "lat": 51.487801}}, {"id": 2829990, "name": "Spr\u00f6tau", "state": "", "country": "DE", "coord": {"lon": 11.2, "lat": 51.116669}}, {"id": 2829991, "name": "Sprossen", "state": "", "country": "DE", "coord": {"lon": 12.23333, "lat": 51.049999}}, {"id": 2829995, "name": "Sproitz", "state": "", "country": "DE", "coord": {"lon": 14.75, "lat": 51.299999}}, {"id": 2829997, "name": "Spr\u00f6da", "state": "", "country": "DE", "coord": {"lon": 12.42691, "lat": 51.542889}}, {"id": 2829998, "name": "Sprockh\u00f6vel", "state": "", "country": "DE", "coord": {"lon": 7.25, "lat": 51.349998}}, {"id": 2829999, "name": "Sprockhof", "state": "", "country": "DE", "coord": {"lon": 9.71689, "lat": 52.60857}}, {"id": 2830002, "name": "Sprinzenberg", "state": "", "country": "DE", "coord": {"lon": 12.66667, "lat": 48.383331}}, {"id": 2830008, "name": "Springstille", "state": "", "country": "DE", "coord": {"lon": 10.53333, "lat": 50.683331}}, {"id": 2830017, "name": "Springiersbach", "state": "", "country": "DE", "coord": {"lon": 7.06667, "lat": 50.033329}}, {"id": 2830035, "name": "Springe", "state": "", "country": "DE", "coord": {"lon": 9.55416, "lat": 52.20845}}, {"id": 2830073, "name": "Sprengel", "state": "", "country": "DE", "coord": {"lon": 9.73333, "lat": 53.066669}}, {"id": 2830080, "name": "Sprendlingen", "state": "", "country": "DE", "coord": {"lon": 7.98333, "lat": 49.866669}}, {"id": 2830096, "name": "Spreewerder", "state": "", "country": "DE", "coord": {"lon": 13.86667, "lat": 52.366669}}, {"id": 2830100, "name": "Spreenhagen", "state": "", "country": "DE", "coord": {"lon": 13.88333, "lat": 52.366669}}, {"id": 2830121, "name": "Sprakensehl", "state": "", "country": "DE", "coord": {"lon": 10.49177, "lat": 52.766682}}, {"id": 2830122, "name": "Spraken", "state": "", "country": "DE", "coord": {"lon": 9.01667, "lat": 52.883331}}, {"id": 2830129, "name": "Sprakel", "state": "", "country": "DE", "coord": {"lon": 7.61667, "lat": 52.049999}}, {"id": 2830132, "name": "Sprakeb\u00fcll", "state": "", "country": "DE", "coord": {"lon": 9.08333, "lat": 54.783329}}, {"id": 2830133, "name": "Spraitbach", "state": "", "country": "DE", "coord": {"lon": 9.76217, "lat": 48.88065}}, {"id": 2830135, "name": "Spradowerbach", "state": "", "country": "DE", "coord": {"lon": 8.58333, "lat": 52.216671}}, {"id": 2830142, "name": "Sp\u00f6tting", "state": "", "country": "DE", "coord": {"lon": 10.86667, "lat": 48.049999}}, {"id": 2830146, "name": "Spornitz", "state": "", "country": "DE", "coord": {"lon": 11.71864, "lat": 53.40749}}, {"id": 2830155, "name": "Spork", "state": "", "country": "DE", "coord": {"lon": 9.00673, "lat": 52.026829}}, {"id": 2830166, "name": "Sponholz", "state": "", "country": "DE", "coord": {"lon": 13.36667, "lat": 53.549999}}, {"id": 2830167, "name": "Sponheim", "state": "", "country": "DE", "coord": {"lon": 7.72665, "lat": 49.844959}}, {"id": 2830178, "name": "Spohle", "state": "", "country": "DE", "coord": {"lon": 8.06667, "lat": 53.299999}}, {"id": 2830192, "name": "Splietsdorf", "state": "", "country": "DE", "coord": {"lon": 12.91667, "lat": 54.116669}}, {"id": 2830193, "name": "Splietsdorf", "state": "", "country": "DE", "coord": {"lon": 12.93074, "lat": 54.12392}}, {"id": 2830209, "name": "Spitzkunnersdorf", "state": "", "country": "DE", "coord": {"lon": 14.67799, "lat": 50.936852}}, {"id": 2830363, "name": "Spittwitz", "state": "", "country": "DE", "coord": {"lon": 14.28333, "lat": 51.166672}}, {"id": 2830409, "name": "Spirkelbach", "state": "", "country": "DE", "coord": {"lon": 7.88333, "lat": 49.200001}}, {"id": 2830423, "name": "Spindlersfeld", "state": "", "country": "DE", "coord": {"lon": 13.53333, "lat": 52.450001}}, {"id": 2830425, "name": "Spindelwag", "state": "", "country": "DE", "coord": {"lon": 10, "lat": 48}}, {"id": 2830449, "name": "Spiesheim", "state": "", "country": "DE", "coord": {"lon": 8.1275, "lat": 49.81028}}, {"id": 2830452, "name": "Spiesen-Elversberg", "state": "", "country": "DE", "coord": {"lon": 7.13333, "lat": 49.316669}}, {"id": 2830453, "name": "Spiesen", "state": "", "country": "DE", "coord": {"lon": 7.15, "lat": 49.316669}}, {"id": 2830458, "name": "Spies", "state": "", "country": "DE", "coord": {"lon": 11.4, "lat": 49.633331}}, {"id": 2830531, "name": "Spiekershausen", "state": "", "country": "DE", "coord": {"lon": 9.56667, "lat": 51.349998}}, {"id": 2830534, "name": "Spiekeroog", "state": "", "country": "DE", "coord": {"lon": 7.7, "lat": 53.76667}}, {"id": 2830539, "name": "Spieka-Neufeld", "state": "", "country": "DE", "coord": {"lon": 8.56667, "lat": 53.783329}}, {"id": 2830559, "name": "Gro\u00df Spiegelberg", "state": "", "country": "DE", "coord": {"lon": 13.88333, "lat": 53.549999}}, {"id": 2830561, "name": "Spiegelberg", "state": "", "country": "DE", "coord": {"lon": 9.44444, "lat": 49.040829}}, {"id": 2830575, "name": "Spichra", "state": "", "country": "DE", "coord": {"lon": 10.23333, "lat": 51.01667}}, {"id": 2830577, "name": "Spich", "state": "", "country": "DE", "coord": {"lon": 7.11667, "lat": 50.833328}}, {"id": 2830582, "name": "Speyer", "state": "", "country": "DE", "coord": {"lon": 8.42778, "lat": 49.32972}}, {"id": 2830586, "name": "Spetzerfehn", "state": "", "country": "DE", "coord": {"lon": 7.61667, "lat": 53.383331}}, {"id": 2830591, "name": "Spessart", "state": "", "country": "DE", "coord": {"lon": 7.11667, "lat": 50.450001}}, {"id": 2830593, "name": "Spesenroth", "state": "", "country": "DE", "coord": {"lon": 7.45, "lat": 50.049999}}, {"id": 2830595, "name": "Spesbach", "state": "", "country": "DE", "coord": {"lon": 7.5, "lat": 49.433331}}, {"id": 2830604, "name": "Spernsdorf", "state": "", "country": "DE", "coord": {"lon": 12.83333, "lat": 51.066669}}, {"id": 2830620, "name": "Spergau", "state": "", "country": "DE", "coord": {"lon": 12.03333, "lat": 51.299999}}, {"id": 2830622, "name": "Sperenberg", "state": "", "country": "DE", "coord": {"lon": 13.365, "lat": 52.141129}}, {"id": 2830625, "name": "Sperberslohe", "state": "", "country": "DE", "coord": {"lon": 11.15, "lat": 48.933331}}, {"id": 2830636, "name": "Spengerheide", "state": "", "country": "DE", "coord": {"lon": 8.48333, "lat": 52.133331}}, {"id": 2830637, "name": "Spenge", "state": "", "country": "DE", "coord": {"lon": 8.48333, "lat": 52.133331}}, {"id": 2830652, "name": "Spelle", "state": "", "country": "DE", "coord": {"lon": 7.46667, "lat": 52.366669}}, {"id": 2830661, "name": "Speinshart", "state": "", "country": "DE", "coord": {"lon": 11.81667, "lat": 49.783329}}, {"id": 2830663, "name": "Speikern", "state": "", "country": "DE", "coord": {"lon": 11.3439, "lat": 49.52916}}, {"id": 2830670, "name": "Speichersdorf", "state": "", "country": "DE", "coord": {"lon": 11.78333, "lat": 49.883331}}, {"id": 2830674, "name": "Speicher", "state": "", "country": "DE", "coord": {"lon": 6.63333, "lat": 49.933331}}, {"id": 2830697, "name": "Speckhorn", "state": "", "country": "DE", "coord": {"lon": 7.18333, "lat": 51.650002}}, {"id": 2830744, "name": "Spechtshorn", "state": "", "country": "DE", "coord": {"lon": 10.38333, "lat": 52.599998}}, {"id": 2830748, "name": "Spechtsbrunn", "state": "", "country": "DE", "coord": {"lon": 11.25, "lat": 50.48333}}, {"id": 2830761, "name": "Spechbach", "state": "", "country": "DE", "coord": {"lon": 8.88333, "lat": 49.34639}}, {"id": 2830768, "name": "Spatzenhausen", "state": "", "country": "DE", "coord": {"lon": 11.2, "lat": 47.716671}}, {"id": 2830782, "name": "Sparrieshoop", "state": "", "country": "DE", "coord": {"lon": 9.68333, "lat": 53.783329}}, {"id": 2830787, "name": "Sparow", "state": "", "country": "DE", "coord": {"lon": 12.38554, "lat": 53.51429}}, {"id": 2830790, "name": "Sparneck", "state": "", "country": "DE", "coord": {"lon": 11.83333, "lat": 50.166672}}, {"id": 2830803, "name": "Spardorf", "state": "", "country": "DE", "coord": {"lon": 11.05585, "lat": 49.60854}}, {"id": 2830807, "name": "Spantekow", "state": "", "country": "DE", "coord": {"lon": 13.53333, "lat": 53.783329}}, {"id": 2830829, "name": "Spangenberg", "state": "", "country": "DE", "coord": {"lon": 9.66667, "lat": 51.116669}}, {"id": 2830832, "name": "Spangdahlem", "state": "", "country": "DE", "coord": {"lon": 6.68333, "lat": 49.98333}}, {"id": 2830846, "name": "Spanbeck", "state": "", "country": "DE", "coord": {"lon": 10.05, "lat": 51.599998}}, {"id": 2830849, "name": "Spalt", "state": "", "country": "DE", "coord": {"lon": 10.92453, "lat": 49.175529}}, {"id": 2830850, "name": "Spall", "state": "", "country": "DE", "coord": {"lon": 7.68333, "lat": 49.883331}}, {"id": 2830851, "name": "Spaichingen", "state": "", "country": "DE", "coord": {"lon": 8.71667, "lat": 48.083328}}, {"id": 2830853, "name": "Spahnsdorf", "state": "", "country": "DE", "coord": {"lon": 12.38333, "lat": 51.183331}}, {"id": 2830857, "name": "Spahn", "state": "", "country": "DE", "coord": {"lon": 7.58333, "lat": 52.866669}}, {"id": 2830860, "name": "Spahl", "state": "", "country": "DE", "coord": {"lon": 9.91216, "lat": 50.65773}}, {"id": 2830866, "name": "Spaden", "state": "", "country": "DE", "coord": {"lon": 8.63285, "lat": 53.57452}}, {"id": 2830869, "name": "Spabr\u00fccken", "state": "", "country": "DE", "coord": {"lon": 7.71667, "lat": 49.900002}}, {"id": 2830873, "name": "Soyen", "state": "", "country": "DE", "coord": {"lon": 12.2, "lat": 48.116669}}, {"id": 2830880, "name": "Sottrum", "state": "", "country": "DE", "coord": {"lon": 9.23333, "lat": 53.116669}}, {"id": 2830885, "name": "Sottmar", "state": "", "country": "DE", "coord": {"lon": 10.61743, "lat": 52.12569}}, {"id": 2830887, "name": "Sotterhausen", "state": "", "country": "DE", "coord": {"lon": 11.4, "lat": 51.450001}}, {"id": 2830891, "name": "Sothel", "state": "", "country": "DE", "coord": {"lon": 9.45, "lat": 53.216671}}, {"id": 2830896, "name": "So\u00dfmar", "state": "", "country": "DE", "coord": {"lon": 10.0597, "lat": 52.242729}}, {"id": 2830899, "name": "S\u00f6ssen", "state": "", "country": "DE", "coord": {"lon": 12.1, "lat": 51.216671}}, {"id": 2830910, "name": "Sosberg", "state": "", "country": "DE", "coord": {"lon": 7.33333, "lat": 50.083328}}, {"id": 2830912, "name": "Sosa", "state": "", "country": "DE", "coord": {"lon": 12.66667, "lat": 50.5}}, {"id": 2830916, "name": "S\u00f6rupholz", "state": "", "country": "DE", "coord": {"lon": 9.7, "lat": 54.700001}},