[{"id": 7262428, "name": "Union Hill-Novelty Hill", "state": "WA", "country": "US", "coord": {"lon": -122.028328, "lat": 47.678871}}, {"id": 7262440, "name": "Valencia West", "state": "AZ", "country": "US", "coord": {"lon": -111.114143, "lat": 32.132381}}, {"id": 7262449, "name": "Vandenberg Air Force Base", "state": "CA", "country": "US", "coord": {"lon": -120.518173, "lat": 34.748299}}, {"id": 7262460, "name": "View Park-Windsor Hills", "state": "CA", "country": "US", "coord": {"lon": -118.348351, "lat": 33.99551}}, {"id": 7262470, "name": "Walla Walla East", "state": "WA", "country": "US", "coord": {"lon": -118.304031, "lat": 46.051842}}, {"id": 7262480, "name": "Warren Air Force Base", "state": "WY", "country": "US", "coord": {"lon": -104.86216, "lat": 41.149269}}, {"id": 7262495, "name": "West Clarkston-Highland", "state": "WA", "country": "US", "coord": {"lon": -117.06395, "lat": 46.40287}}, {"id": 7262498, "name": "West Haven-Sylvan", "state": "OR", "country": "US", "coord": {"lon": -122.768089, "lat": 45.516129}}, {"id": 7262504, "name": "West Modesto", "state": "CA", "country": "US", "coord": {"lon": -121.039139, "lat": 37.617538}}, {"id": 7262510, "name": "West Pleasant View", "state": "CO", "country": "US", "coord": {"lon": -105.17852, "lat": 39.732559}}, {"id": 7262515, "name": "West Side Highway", "state": "WA", "country": "US", "coord": {"lon": -122.917152, "lat": 46.18399}}, {"id": 7262518, "name": "West Whittier-Los Nietos", "state": "CA", "country": "US", "coord": {"lon": -118.069092, "lat": 33.976002}}, {"id": 7262521, "name": "Westhaven-Moonstone", "state": "CA", "country": "US", "coord": {"lon": -124.102386, "lat": 41.044891}}, {"id": 7262527, "name": "Whetstone", "state": "AZ", "country": "US", "coord": {"lon": -110.339867, "lat": 31.70105}}, {"id": 7262586, "name": "Yosemite Valley", "state": "CA", "country": "US", "coord": {"lon": -119.577881, "lat": 37.740749}}, {"id": 7262593, "name": "Zephyr Cove-Round Hill Village", "state": "NV", "country": "US", "coord": {"lon": -119.925377, "lat": 38.99749}}, {"id": 7262622, "name": "Summerlin South", "state": "NV", "country": "US", "coord": {"lon": -115.381119, "lat": 36.102692}}, {"id": 7262635, "name": "Sunnyside-Tahoe City", "state": "CA", "country": "US", "coord": {"lon": -120.161201, "lat": 39.15023}}, {"id": 7262653, "name": "Taft Mosswood", "state": "CA", "country": "US", "coord": {"lon": -121.283157, "lat": 37.913849}}, {"id": 7262659, "name": "Tamalpais-Homestead Valley", "state": "CA", "country": "US", "coord": {"lon": -122.536247, "lat": 37.878342}}, {"id": 7262660, "name": "Tanglewilde-Thompson Place", "state": "WA", "country": "US", "coord": {"lon": -122.780807, "lat": 47.051159}}, {"id": 7262688, "name": "Barbers Point Housing", "state": "HI", "country": "US", "coord": {"lon": -158.080917, "lat": 21.32132}}, {"id": 7262697, "name": "Haiku-Pauwela", "state": "HI", "country": "US", "coord": {"lon": -156.305084, "lat": 20.921869}}, {"id": 7262713, "name": "Hickam Field", "state": "HI", "country": "US", "coord": {"lon": -157.958786, "lat": 21.33798}}, {"id": 7262717, "name": "Honaunau-Napoopoo", "state": "HI", "country": "US", "coord": {"lon": -155.864655, "lat": 19.45627}}, {"id": 7262725, "name": "Kahaluu-Keauhou", "state": "HI", "country": "US", "coord": {"lon": -155.961716, "lat": 19.57181}}, {"id": 7262734, "name": "Marine Corps Base Hawaii - MCBH", "state": "HI", "country": "US", "coord": {"lon": -157.751328, "lat": 21.445311}}, {"id": 7262761, "name": "Makakilo", "state": "HI", "country": "US", "coord": {"lon": -158.086548, "lat": 21.352369}}, {"id": 7262771, "name": "Napili-Honokowai", "state": "HI", "country": "US", "coord": {"lon": -156.670456, "lat": 20.970751}}, {"id": 7262790, "name": "Schofield Barracks", "state": "HI", "country": "US", "coord": {"lon": -158.061508, "lat": 21.493601}}, {"id": 7262791, "name": "Royal Kunia", "state": "HI", "country": "US", "coord": {"lon": -158.026703, "lat": 21.393921}}, {"id": 7262796, "name": "Waihee-Waiehu", "state": "HI", "country": "US", "coord": {"lon": -156.507584, "lat": 20.92494}}, {"id": 7262802, "name": "Wailua Homesteads", "state": "HI", "country": "US", "coord": {"lon": -159.378021, "lat": 22.066931}}, {"id": 7262813, "name": "Wheeler Air Force Base", "state": "HI", "country": "US", "coord": {"lon": -158.035156, "lat": 21.47546}}, {"id": 7262847, "name": "Deltana", "state": "AK", "country": "US", "coord": {"lon": -145.217728, "lat": 63.872169}}, {"id": 7262854, "name": "Eielson Air Force Base", "state": "AK", "country": "US", "coord": {"lon": -147.054413, "lat": 64.663269}}, {"id": 7262859, "name": "Farm Loop", "state": "AK", "country": "US", "coord": {"lon": -149.142151, "lat": 61.638908}}, {"id": 7262861, "name": "Fishhook", "state": "AK", "country": "US", "coord": {"lon": -149.23613, "lat": 61.744019}}, {"id": 7262896, "name": "Knik River", "state": "AK", "country": "US", "coord": {"lon": -148.912369, "lat": 61.460011}}, {"id": 7262897, "name": "Knik-Fairview", "state": "AK", "country": "US", "coord": {"lon": -149.600113, "lat": 61.512619}}, {"id": 7262898, "name": "Kodiak Station", "state": "AK", "country": "US", "coord": {"lon": -152.600037, "lat": 57.765869}}, {"id": 7262905, "name": "Lakes", "state": "AK", "country": "US", "coord": {"lon": -149.308609, "lat": 61.607121}}, {"id": 7263003, "name": "Salcha", "state": "AK", "country": "US", "coord": {"lon": -146.9021, "lat": 64.523987}}, {"id": 7263016, "name": "Sutton-Alpine", "state": "AK", "country": "US", "coord": {"lon": -148.85051, "lat": 61.796261}}, {"id": 7263043, "name": "Y", "state": "AK", "country": "US", "coord": {"lon": -149.850754, "lat": 62.161289}}, {"id": 7266440, "name": "Brades", "state": "", "country": "MS", "coord": {"lon": -62.210579, "lat": 16.79183}}, {"id": 7267902, "name": "Saint Croix Island", "state": "", "country": "VI", "coord": {"lon": -64.747948, "lat": 17.73563}}, {"id": 7267904, "name": "Saint Thomas Island", "state": "", "country": "VI", "coord": {"lon": -64.969414, "lat": 18.327129}}, {"id": 7267913, "name": "Andersen AFB Housing Areas", "state": "", "country": "GU", "coord": {"lon": 144.922318, "lat": 13.55691}}, {"id": 7267954, "name": "Sinajana Mayor's Office", "state": "", "country": "GU", "coord": {"lon": 144.754608, "lat": 13.46274}}, {"id": 7267962, "name": "Umatac Mayor's Office", "state": "", "country": "GU", "coord": {"lon": 144.6633, "lat": 13.29851}}, {"id": 7267965, "name": "Faleasao County", "state": "", "country": "AS", "coord": {"lon": -169.478195, "lat": -14.22079}}, {"id": 7268049, "name": "Mangilao Village", "state": "", "country": "GU", "coord": {"lon": 144.801086, "lat": 13.44761}}, {"id": 7274677, "name": "Eidelstedt", "state": "", "country": "DE", "coord": {"lon": 9.90538, "lat": 53.606972}}, {"id": 7274953, "name": "Martorell Comunidad", "state": "", "country": "PR", "coord": {"lon": -65.897682, "lat": 18.07299}}, {"id": 7274973, "name": "Pastos Comunidad", "state": "", "country": "PR", "coord": {"lon": -66.260094, "lat": 18.119289}}, {"id": 7274984, "name": "Punta Santiago Comunidad", "state": "", "country": "PR", "coord": {"lon": -65.758659, "lat": 18.1618}}, {"id": 7274990, "name": "R\u00edo Blanco Comunidad", "state": "", "country": "PR", "coord": {"lon": -65.792976, "lat": 18.21233}}, {"id": 7274993, "name": "Roosevelt Roads Comunidad", "state": "", "country": "PR", "coord": {"lon": -65.629097, "lat": 18.23498}}, {"id": 7275017, "name": "Aguas Claras Comunidad", "state": "", "country": "PR", "coord": {"lon": -65.666206, "lat": 18.24468}}, {"id": 7275050, "name": "Coraz\u00f3n Comunidad", "state": "", "country": "PR", "coord": {"lon": -66.083359, "lat": 17.994011}}, {"id": 7275055, "name": "Duque Comunidad", "state": "", "country": "PR", "coord": {"lon": -65.743172, "lat": 18.238171}}, {"id": 7275071, "name": "Imb\u00e9ry Comunidad", "state": "", "country": "PR", "coord": {"lon": -66.556503, "lat": 18.43705}}, {"id": 7276369, "name": "Maricao Zona Urbana", "state": "", "country": "PR", "coord": {"lon": -66.980499, "lat": 18.183491}}, {"id": 7276397, "name": "Villalba Zona Urbana", "state": "", "country": "PR", "coord": {"lon": -66.481499, "lat": 18.127899}}, {"id": 7276401, "name": "Aguada Zona Urbana", "state": "", "country": "PR", "coord": {"lon": -67.188339, "lat": 18.380289}}, {"id": 7276416, "name": "Cata\u00f1o Zona Urbana", "state": "", "country": "PR", "coord": {"lon": -66.13884, "lat": 18.44157}}, {"id": 7276417, "name": "Cayey Zona Urbana", "state": "", "country": "PR", "coord": {"lon": -66.16304, "lat": 18.115}}, {"id": 7276424, "name": "Culebra Zona Urbana", "state": "", "country": "PR", "coord": {"lon": -65.304253, "lat": 18.31167}}, {"id": 7279570, "name": "Higashimurayama", "state": "", "country": "JP", "coord": {"lon": 139.468521, "lat": 35.754589}}, {"id": 7279571, "name": "Kunisaki-shi", "state": "", "country": "JP", "coord": {"lon": 131.731567, "lat": 33.56543}}, {"id": 7279595, "name": "Pithampur", "state": "", "country": "IN", "coord": {"lon": 75.696487, "lat": 22.601971}}, {"id": 7279597, "name": "Barbil", "state": "", "country": "IN", "coord": {"lon": 85.643494, "lat": 21.656851}}, {"id": 7279599, "name": "Airoli", "state": "", "country": "IN", "coord": {"lon": 72.996246, "lat": 19.150961}}, {"id": 7279600, "name": "Aluva", "state": "", "country": "IN", "coord": {"lon": 76.351578, "lat": 10.10764}}, {"id": 7279602, "name": "Gautam Budh Nagar", "state": "", "country": "IN", "coord": {"lon": 77.330528, "lat": 28.58075}}, {"id": 7279734, "name": "Kotkapura", "state": "", "country": "IN", "coord": {"lon": 74.832977, "lat": 30.5819}}, {"id": 7279735, "name": "Muvattupuzha", "state": "", "country": "IN", "coord": {"lon": 76.573807, "lat": 9.97985}}, {"id": 7279739, "name": "Perumbavoor", "state": "", "country": "IN", "coord": {"lon": 76.473663, "lat": 10.10695}}, {"id": 7279741, "name": "Vapi", "state": "", "country": "IN", "coord": {"lon": 72.90493, "lat": 20.37175}}, {"id": 7279742, "name": "Baddi", "state": "", "country": "IN", "coord": {"lon": 76.791359, "lat": 30.95783}}, {"id": 7279746, "name": "Noida", "state": "", "country": "IN", "coord": {"lon": 77.330002, "lat": 28.58}}, {"id": 7279747, "name": "Bhiwadi", "state": "", "country": "IN", "coord": {"lon": 76.860558, "lat": 28.210239}}, {"id": 7279750, "name": "Parwanoo", "state": "", "country": "IN", "coord": {"lon": 76.961418, "lat": 30.83716}}, {"id": 7279751, "name": "Jorethang", "state": "", "country": "IN", "coord": {"lon": 88.323318, "lat": 27.10696}}, {"id": 7279752, "name": "Mandideep", "state": "", "country": "IN", "coord": {"lon": 77.533279, "lat": 23.081659}}, {"id": 7279754, "name": "Singrauli", "state": "", "country": "IN", "coord": {"lon": 82.675346, "lat": 24.19973}}, {"id": 7279898, "name": "Bad Leonfelden", "state": "", "country": "AT", "coord": {"lon": 14.29459, "lat": 48.52047}}, {"id": 7280288, "name": "Fukien", "state": "", "country": "TW", "coord": {"lon": 121.764221, "lat": 24.68446}}, {"id": 7280289, "name": "Kaohsiung", "state": "", "country": "TW", "coord": {"lon": 120.366211, "lat": 22.634291}}, {"id": 7280290, "name": "Taipei", "state": "", "country": "TW", "coord": {"lon": 121.651611, "lat": 25.025881}}, {"id": 7280291, "name": "Taiwan", "state": "", "country": "TW", "coord": {"lon": 120.705406, "lat": 24.15114}}, {"id": 7280414, "name": "Cole Harbour", "state": "", "country": "CA", "coord": {"lon": -63.47506, "lat": 44.67244}}, {"id": 7280459, "name": "Ko Chang Tai", "state": "", "country": "TH", "coord": {"lon": 102.372673, "lat": 12.00171}}, {"id": 7280463, "name": "North Shore", "state": "", "country": "AU", "coord": {"lon": 152.901855, "lat": -31.40237}}, {"id": 7280466, "name": "Frosta", "state": "", "country": "NO", "coord": {"lon": 10.7423, "lat": 63.5891}}, {"id": 7280471, "name": "ColeRidge Estates", "state": "", "country": "CA", "coord": {"lon": -63.465092, "lat": 44.6796}}, {"id": 7280504, "name": "Yaniklar", "state": "", "country": "TR", "coord": {"lon": 29.05081, "lat": 36.708271}}, {"id": 7280514, "name": "Naama Bay", "state": "", "country": "EG", "coord": {"lon": 34.329529, "lat": 27.913811}}, {"id": 7280528, "name": "Errachidia", "state": "", "country": "MA", "coord": {"lon": -4.42852, "lat": 31.92754}}, {"id": 7280677, "name": "Denyshi", "state": "", "country": "UA", "coord": {"lon": 28.40395, "lat": 50.214149}}, {"id": 7280679, "name": "Dushanbe", "state": "", "country": "TJ", "coord": {"lon": 68.779739, "lat": 38.557701}}, {"id": 7280708, "name": "Colonia del Valle", "state": "", "country": "MX", "coord": {"lon": -99.162041, "lat": 19.38611}}, {"id": 7280711, "name": "Colonia Lindavista", "state": "", "country": "MX", "coord": {"lon": -99.124748, "lat": 19.49156}}, {"id": 7280712, "name": "Col. Bosques de las Lomas", "state": "", "country": "MX", "coord": {"lon": -99.265869, "lat": 19.378929}}, {"id": 7280714, "name": "Colonia Roma", "state": "", "country": "MX", "coord": {"lon": -99.163048, "lat": 19.41819}}, {"id": 7280718, "name": "Colonia Nativitas", "state": "", "country": "MX", "coord": {"lon": -99.136848, "lat": 19.381189}}, {"id": 7281017, "name": "La Pintana", "state": "", "country": "CL", "coord": {"lon": -70.634193, "lat": -33.583309}}, {"id": 7281020, "name": "Lo Prado", "state": "", "country": "CL", "coord": {"lon": -70.725517, "lat": -33.444302}}, {"id": 7281782, "name": "North Ryde", "state": "", "country": "AU", "coord": {"lon": 151.124359, "lat": -33.796768}}, {"id": 7281804, "name": "North Melbourne", "state": "", "country": "AU", "coord": {"lon": 144.948166, "lat": -37.802891}}, {"id": 7281805, "name": "Caroline Springs", "state": "", "country": "AU", "coord": {"lon": 144.736313, "lat": -37.741241}}, {"id": 7281807, "name": "Hoppers Crossing", "state": "", "country": "AU", "coord": {"lon": 144.700302, "lat": -37.882641}}, {"id": 7281818, "name": "West Melbourne", "state": "", "country": "AU", "coord": {"lon": 144.949997, "lat": -37.810139}}, {"id": 7281819, "name": "Fujikawaguchiko", "state": "", "country": "JP", "coord": {"lon": 138.688324, "lat": 35.48933}}, {"id": 7281823, "name": "Rouse Hill", "state": "", "country": "AU", "coord": {"lon": 150.915405, "lat": -33.682072}}, {"id": 7281838, "name": "Logan City", "state": "", "country": "AU", "coord": {"lon": 153.109436, "lat": -27.63917}}, {"id": 7281839, "name": "Carindale", "state": "", "country": "AU", "coord": {"lon": 153.102356, "lat": -27.505779}}, {"id": 7281840, "name": "Parramatta", "state": "", "country": "AU", "coord": {"lon": 151.003479, "lat": -33.817799}}, {"id": 7281844, "name": "Macquarie", "state": "", "country": "AU", "coord": {"lon": 149.063614, "lat": -35.251259}}, {"id": 7281850, "name": "Ferntree Gully", "state": "", "country": "AU", "coord": {"lon": 145.295395, "lat": -37.884609}}, {"id": 7281931, "name": "Okanagan", "state": "", "country": "CA", "coord": {"lon": -119.349968, "lat": 50.363861}}, {"id": 7281936, "name": "West Kelowna", "state": "", "country": "CA", "coord": {"lon": -119.583328, "lat": 49.862499}}, {"id": 7283386, "name": "Changshu City", "state": "", "country": "CN", "coord": {"lon": 120.74221, "lat": 31.646151}}, {"id": 7283585, "name": "Edakkulam", "state": "", "country": "IN", "coord": {"lon": 76.183517, "lat": 10.6102}}, {"id": 7283587, "name": "Avanoor", "state": "", "country": "IN", "coord": {"lon": 76.176201, "lat": 10.60826}}, {"id": 7283711, "name": "Saint-Mathieu-de-Rioux", "state": "", "country": "CA", "coord": {"lon": -68.986931, "lat": 48.18317}}, {"id": 7283918, "name": "Olstorp", "state": "", "country": "SE", "coord": {"lon": 12.27696, "lat": 57.822769}}, {"id": 7284134, "name": "Schelfstadt", "state": "", "country": "DE", "coord": {"lon": 11.41711, "lat": 53.63382}}, {"id": 7284135, "name": "Werdervorstadt", "state": "", "country": "DE", "coord": {"lon": 11.42767, "lat": 53.639091}}, {"id": 7284137, "name": "Altstadt", "state": "", "country": "DE", "coord": {"lon": 11.41582, "lat": 53.628052}}, {"id": 7284138, "name": "Feldstadt", "state": "", "country": "DE", "coord": {"lon": 11.40673, "lat": 53.62331}}, {"id": 7284168, "name": "Paulsstadt", "state": "", "country": "DE", "coord": {"lon": 11.40372, "lat": 53.632832}}, {"id": 7284171, "name": "Weststadt", "state": "", "country": "DE", "coord": {"lon": 11.39565, "lat": 53.63472}}, {"id": 7284172, "name": "Lewenberg", "state": "", "country": "DE", "coord": {"lon": 11.40767, "lat": 53.645908}}, {"id": 7284275, "name": "Nungwi", "state": "", "country": "TZ", "coord": {"lon": 39.298698, "lat": -5.72651}}, {"id": 7284311, "name": "Sherbrooke", "state": "", "country": "CA", "coord": {"lon": -61.982719, "lat": 45.14246}}, {"id": 7284803, "name": "Birpara", "state": "", "country": "IN", "coord": {"lon": 89.14547, "lat": 26.70421}}, {"id": 7284819, "name": "La Punta", "state": "", "country": "AR", "coord": {"lon": -66.312698, "lat": -33.183681}}, {"id": 7284820, "name": "Jaigaon", "state": "", "country": "IN", "coord": {"lon": 89.37558, "lat": 26.84766}}, {"id": 7284823, "name": "Budapest XII. ker\u00fclet", "state": "", "country": "HU", "coord": {"lon": 19.014931, "lat": 47.49192}}, {"id": 7284824, "name": "Budapest XI. ker\u00fclet", "state": "", "country": "HU", "coord": {"lon": 19.036051, "lat": 47.476028}}, {"id": 7284825, "name": "Budapest IX. keruelet", "state": "", "country": "HU", "coord": {"lon": 19.06591, "lat": 47.48299}}, {"id": 7284826, "name": "Budapest VIII. ker\u00fclet", "state": "", "country": "HU", "coord": {"lon": 19.07012, "lat": 47.489189}}, {"id": 7284827, "name": "Budapest VII. keruelet", "state": "", "country": "HU", "coord": {"lon": 19.06875, "lat": 47.50045}}, {"id": 7284828, "name": "Budapest VI. ker\u00fclet", "state": "", "country": "HU", "coord": {"lon": 19.06583, "lat": 47.503689}}, {"id": 7284829, "name": "Budapest XIV. keruelet", "state": "", "country": "HU", "coord": {"lon": 19.107889, "lat": 47.518299}}, {"id": 7284830, "name": "Budapest XIII. ker\u00fclet", "state": "", "country": "HU", "coord": {"lon": 19.080681, "lat": 47.529781}}, {"id": 7284831, "name": "Budapest IV. ker\u00fclet", "state": "", "country": "HU", "coord": {"lon": 19.08909, "lat": 47.561821}}, {"id": 7284832, "name": "Budapest XV. ker\u00fclet", "state": "", "country": "HU", "coord": {"lon": 19.11681, "lat": 47.56263}}, {"id": 7284833, "name": "Budapest XVI. ker\u00fclet", "state": "", "country": "HU", "coord": {"lon": 19.17028, "lat": 47.51482}}, {"id": 7284834, "name": "Budapest X. keruelet", "state": "", "country": "HU", "coord": {"lon": 19.15835, "lat": 47.479099}}, {"id": 7284835, "name": "Budapest XIX. ker\u00fclet", "state": "", "country": "HU", "coord": {"lon": 19.149429, "lat": 47.45293}}, {"id": 7284836, "name": "Budapest XVIII. ker\u00fclet", "state": "", "country": "HU", "coord": {"lon": 19.175949, "lat": 47.444172}}, {"id": 7284837, "name": "Budapest XXIII. ker\u00fclet", "state": "", "country": "HU", "coord": {"lon": 19.11492, "lat": 47.397881}}, {"id": 7284838, "name": "Budapest XXII. ker\u00fclet", "state": "", "country": "HU", "coord": {"lon": 19.040159, "lat": 47.426979}}, {"id": 7284839, "name": "Budapest XXI. ker\u00fclet", "state": "", "country": "HU", "coord": {"lon": 19.07098, "lat": 47.43047}}, {"id": 7284840, "name": "Budapest XX. ker\u00fclet", "state": "", "country": "HU", "coord": {"lon": 19.100929, "lat": 47.436741}}, {"id": 7284841, "name": "Budapest XVII. ker\u00fclet", "state": "", "country": "HU", "coord": {"lon": 19.25388, "lat": 47.479969}}, {"id": 7284842, "name": "Budapest III. ker\u00fclet", "state": "", "country": "HU", "coord": {"lon": 19.04501, "lat": 47.541569}}, {"id": 7284843, "name": "Budapest II. ker\u00fclet", "state": "", "country": "HU", "coord": {"lon": 19.031839, "lat": 47.512909}}, {"id": 7284844, "name": "Budapest I. ker\u00fclet", "state": "", "country": "HU", "coord": {"lon": 19.03961, "lat": 47.497051}}, {"id": 7284876, "name": "Heathrow", "state": "", "country": "GB", "coord": {"lon": -0.4529, "lat": 51.4673}}, {"id": 7284885, "name": "Marseille 04", "state": "", "country": "FR", "coord": {"lon": 5.40141, "lat": 43.302132}}, {"id": 7284895, "name": "Marseille 14", "state": "", "country": "FR", "coord": {"lon": 5.38004, "lat": 43.344471}}, {"id": 7284899, "name": "Algy\u0151", "state": "", "country": "HU", "coord": {"lon": 20.20849, "lat": 46.334721}}, {"id": 7284900, "name": "Szelev\u00e9ny", "state": "", "country": "HU", "coord": {"lon": 20.202829, "lat": 46.802589}}, {"id": 7284903, "name": "Kismaros", "state": "", "country": "HU", "coord": {"lon": 19.004629, "lat": 47.837421}}, {"id": 7284908, "name": "H\u00e9halom", "state": "", "country": "HU", "coord": {"lon": 19.58519, "lat": 47.78017}}, {"id": 7284910, "name": "Mosonszentmikl\u00f3s", "state": "", "country": "HU", "coord": {"lon": 17.427839, "lat": 47.727779}}, {"id": 7284912, "name": "Kerepes", "state": "", "country": "HU", "coord": {"lon": 19.28289, "lat": 47.560081}}, {"id": 7284995, "name": "Landquart District", "state": "", "country": "CH", "coord": {"lon": 9.55472, "lat": 46.959419}}, {"id": 7284997, "name": "Maloja District", "state": "", "country": "CH", "coord": {"lon": 9.77932, "lat": 46.491119}}, {"id": 7284998, "name": "Moesa District", "state": "", "country": "CH", "coord": {"lon": 9.17679, "lat": 46.346199}}, {"id": 7284999, "name": "Surselva District", "state": "", "country": "CH", "coord": {"lon": 9.01569, "lat": 46.69297}}, {"id": 7285000, "name": "Wahlkreis Rheintal", "state": "", "country": "CH", "coord": {"lon": 9.57903, "lat": 47.377689}}, {"id": 7285001, "name": "Wahlkreis Toggenburg", "state": "", "country": "CH", "coord": {"lon": 9.17283, "lat": 47.294529}}, {"id": 7285002, "name": "Broye-Vully District", "state": "", "country": "CH", "coord": {"lon": 6.90161, "lat": 46.780819}}, {"id": 7285003, "name": "Gros-de-Vaud District", "state": "", "country": "CH", "coord": {"lon": 6.65728, "lat": 46.651798}}, {"id": 7285004, "name": "Jura-Nord vaudois District", "state": "", "country": "CH", "coord": {"lon": 6.45429, "lat": 46.729809}}, {"id": 7285005, "name": "Lavaux-Oron District", "state": "", "country": "CH", "coord": {"lon": 6.77086, "lat": 46.536179}}, {"id": 7285006, "name": "Nyon District", "state": "", "country": "CH", "coord": {"lon": 6.22177, "lat": 46.42004}}, {"id": 7285007, "name": "Ouest Lausannois District", "state": "", "country": "CH", "coord": {"lon": 6.56995, "lat": 46.545891}}, {"id": 7285009, "name": "Riviera-Pays-d'Enhaut District", "state": "", "country": "CH", "coord": {"lon": 7.02328, "lat": 46.464691}}, {"id": 7285010, "name": "Wahlkreis See-Gaster", "state": "", "country": "CH", "coord": {"lon": 9.0168, "lat": 47.22459}}, {"id": 7285011, "name": "Pr\u00e4ttigau/Davos District", "state": "", "country": "CH", "coord": {"lon": 9.84407, "lat": 46.866241}}, {"id": 7285012, "name": "Aadorf", "state": "", "country": "CH", "coord": {"lon": 8.91017, "lat": 47.49316}}, {"id": 7285013, "name": "Aarau", "state": "", "country": "CH", "coord": {"lon": 8.04826, "lat": 47.388779}}, {"id": 7285014, "name": "Aarberg", "state": "", "country": "CH", "coord": {"lon": 7.28295, "lat": 47.04615}}, {"id": 7285015, "name": "Aarburg", "state": "", "country": "CH", "coord": {"lon": 7.90735, "lat": 47.324181}}, {"id": 7285016, "name": "Aarwangen", "state": "", "country": "CH", "coord": {"lon": 7.76344, "lat": 47.235291}}, {"id": 7285019, "name": "Acquarossa", "state": "", "country": "CH", "coord": {"lon": 8.92733, "lat": 46.45993}}, {"id": 7285020, "name": "Adelboden", "state": "", "country": "CH", "coord": {"lon": 7.55516, "lat": 46.47369}}, {"id": 7285021, "name": "Adligenswil", "state": "", "country": "CH", "coord": {"lon": 8.36841, "lat": 47.07233}}, {"id": 7285023, "name": "Adliswil", "state": "", "country": "CH", "coord": {"lon": 8.52127, "lat": 47.309341}}, {"id": 7285024, "name": "Aedermannsdorf", "state": "", "country": "CH", "coord": {"lon": 7.59274, "lat": 47.312149}}, {"id": 7285027, "name": "Aesch (BL)", "state": "", "country": "CH", "coord": {"lon": 7.58539, "lat": 47.473949}}, {"id": 7285028, "name": "Aeschi bei Spiez", "state": "", "country": "CH", "coord": {"lon": 7.74868, "lat": 46.623508}}, {"id": 7285030, "name": "Aeschlen", "state": "", "country": "CH", "coord": {"lon": 7.65199, "lat": 46.832741}}, {"id": 7285037, "name": "Affoltern am Albis", "state": "", "country": "CH", "coord": {"lon": 8.45023, "lat": 47.28167}}, {"id": 7285039, "name": "Agarn", "state": "", "country": "CH", "coord": {"lon": 7.66329, "lat": 46.271061}}, {"id": 7285040, "name": "Agiez", "state": "", "country": "CH", "coord": {"lon": 6.50766, "lat": 46.718182}}, {"id": 7285042, "name": "Aigle", "state": "", "country": "CH", "coord": {"lon": 6.97246, "lat": 46.315029}}, {"id": 7285043, "name": "Aire-la-Ville", "state": "", "country": "CH", "coord": {"lon": 6.04226, "lat": 46.19022}}, {"id": 7285045, "name": "Alberswil", "state": "", "country": "CH", "coord": {"lon": 7.99517, "lat": 47.147411}}, {"id": 7285046, "name": "Albinen", "state": "", "country": "CH", "coord": {"lon": 7.64482, "lat": 46.353981}}, {"id": 7285047, "name": "Albligen", "state": "", "country": "CH", "coord": {"lon": 7.32288, "lat": 46.84861}}, {"id": 7285049, "name": "Allaman", "state": "", "country": "CH", "coord": {"lon": 6.39393, "lat": 46.470058}}, {"id": 7285050, "name": "Alle", "state": "", "country": "CH", "coord": {"lon": 7.12621, "lat": 47.428398}}, {"id": 7285052, "name": "Allschwil", "state": "", "country": "CH", "coord": {"lon": 7.53751, "lat": 47.545059}}, {"id": 7285054, "name": "Alpnach", "state": "", "country": "CH", "coord": {"lon": 8.23093, "lat": 46.949921}}, {"id": 7285055, "name": "Alpthal", "state": "", "country": "CH", "coord": {"lon": 8.71425, "lat": 47.057739}}, {"id": 7285057, "name": "Altdorf (UR)", "state": "", "country": "CH", "coord": {"lon": 8.64091, "lat": 46.88834}}, {"id": 7285058, "name": "Altendorf", "state": "", "country": "CH", "coord": {"lon": 8.82818, "lat": 47.170952}}, {"id": 7285059, "name": "Alterswil", "state": "", "country": "CH", "coord": {"lon": 7.26376, "lat": 46.792561}}, {"id": 7285061, "name": "Altishofen", "state": "", "country": "CH", "coord": {"lon": 7.95918, "lat": 47.200939}}, {"id": 7285062, "name": "Altnau", "state": "", "country": "CH", "coord": {"lon": 9.26118, "lat": 47.607319}}, {"id": 7285063, "name": "Alto Malcantone", "state": "", "country": "CH", "coord": {"lon": 8.87645, "lat": 46.054249}}, {"id": 7285064, "name": "Altst\u00e4tten", "state": "", "country": "CH", "coord": {"lon": 9.54875, "lat": 47.37801}}, {"id": 7285066, "name": "Alt St. Johann", "state": "", "country": "CH", "coord": {"lon": 9.28038, "lat": 47.184479}}, {"id": 7285068, "name": "Alvaneu", "state": "", "country": "CH", "coord": {"lon": 9.64465, "lat": 46.710659}}, {"id": 7285070, "name": "Amden", "state": "", "country": "CH", "coord": {"lon": 9.16628, "lat": 47.16021}}, {"id": 7285071, "name": "Amlikon-Bissegg", "state": "", "country": "CH", "coord": {"lon": 9.03529, "lat": 47.56192}}, {"id": 7285073, "name": "Amriswil", "state": "", "country": "CH", "coord": {"lon": 9.28712, "lat": 47.542789}}, {"id": 7285074, "name": "Amsoldingen", "state": "", "country": "CH", "coord": {"lon": 7.58576, "lat": 46.725391}}, {"id": 7285075, "name": "Andeer", "state": "", "country": "CH", "coord": {"lon": 9.43158, "lat": 46.592411}}, {"id": 7285076, "name": "Andelfingen", "state": "", "country": "CH", "coord": {"lon": 8.67544, "lat": 47.592838}}, {"id": 7285077, "name": "Andermatt", "state": "", "country": "CH", "coord": {"lon": 8.6314, "lat": 46.620491}}, {"id": 7285080, "name": "Ani\u00e8res", "state": "", "country": "CH", "coord": {"lon": 6.23323, "lat": 46.27467}}, {"id": 7285081, "name": "Anniviers", "state": "", "country": "CH", "coord": {"lon": 7.61079, "lat": 46.15049}}, {"id": 7285084, "name": "Appenzell", "state": "", "country": "CH", "coord": {"lon": 9.41263, "lat": 47.336632}}, {"id": 7285085, "name": "Apples", "state": "", "country": "CH", "coord": {"lon": 6.41665, "lat": 46.55497}}, {"id": 7285087, "name": "Arbaz", "state": "", "country": "CH", "coord": {"lon": 7.37336, "lat": 46.300571}}, {"id": 7285089, "name": "Arbon", "state": "", "country": "CH", "coord": {"lon": 9.4191, "lat": 47.515228}}, {"id": 7285090, "name": "Arch", "state": "", "country": "CH", "coord": {"lon": 7.43414, "lat": 47.165562}}, {"id": 7285091, "name": "Arconciel", "state": "", "country": "CH", "coord": {"lon": 7.1212, "lat": 46.751549}}, {"id": 7285092, "name": "Ardez", "state": "", "country": "CH", "coord": {"lon": 10.18529, "lat": 46.769939}}, {"id": 7285093, "name": "Ardon", "state": "", "country": "CH", "coord": {"lon": 7.23793, "lat": 46.230068}}, {"id": 7285094, "name": "Arisdorf", "state": "", "country": "CH", "coord": {"lon": 7.76688, "lat": 47.509529}}, {"id": 7285095, "name": "Aristau", "state": "", "country": "CH", "coord": {"lon": 8.36384, "lat": 47.291351}}, {"id": 7285096, "name": "Arlesheim", "state": "", "country": "CH", "coord": {"lon": 7.6283, "lat": 47.495441}}, {"id": 7285100, "name": "Arni (BE)", "state": "", "country": "CH", "coord": {"lon": 7.65768, "lat": 46.935379}}, {"id": 7285102, "name": "Arosa", "state": "", "country": "CH", "coord": {"lon": 9.66696, "lat": 46.766781}}, {"id": 7285103, "name": "Arth", "state": "", "country": "CH", "coord": {"lon": 8.53016, "lat": 47.053982}}, {"id": 7285104, "name": "Arvigo", "state": "", "country": "CH", "coord": {"lon": 9.09375, "lat": 46.310661}}, {"id": 7285105, "name": "Arzier-Le Muids", "state": "", "country": "CH", "coord": {"lon": 6.15798, "lat": 46.486912}}, {"id": 7285106, "name": "Arzo", "state": "", "country": "CH", "coord": {"lon": 8.93989, "lat": 45.880009}}, {"id": 7285107, "name": "Ascona", "state": "", "country": "CH", "coord": {"lon": 8.76592, "lat": 46.155128}}, {"id": 7285108, "name": "Assens", "state": "", "country": "CH", "coord": {"lon": 6.62738, "lat": 46.617779}}, {"id": 7285110, "name": "Attalens", "state": "", "country": "CH", "coord": {"lon": 6.85745, "lat": 46.512032}}, {"id": 7285112, "name": "Attinghausen", "state": "", "country": "CH", "coord": {"lon": 8.54368, "lat": 46.828251}}, {"id": 7285113, "name": "Attiswil", "state": "", "country": "CH", "coord": {"lon": 7.61073, "lat": 47.253262}}, {"id": 7285114, "name": "Aubonne", "state": "", "country": "CH", "coord": {"lon": 6.38522, "lat": 46.49057}}, {"id": 7285116, "name": "Auenstein", "state": "", "country": "CH", "coord": {"lon": 8.12616, "lat": 47.418541}}, {"id": 7285117, "name": "Augst", "state": "", "country": "CH", "coord": {"lon": 7.71729, "lat": 47.53207}}, {"id": 7285122, "name": "Autigny", "state": "", "country": "CH", "coord": {"lon": 7.02746, "lat": 46.739841}}, {"id": 7285123, "name": "Auvernier", "state": "", "country": "CH", "coord": {"lon": 6.87869, "lat": 46.977501}}, {"id": 7285124, "name": "Auw", "state": "", "country": "CH", "coord": {"lon": 8.36247, "lat": 47.214809}}, {"id": 7285125, "name": "Avegno Gordevio", "state": "", "country": "CH", "coord": {"lon": 8.76598, "lat": 46.22398}}, {"id": 7285126, "name": "Avenches", "state": "", "country": "CH", "coord": {"lon": 7.03988, "lat": 46.883968}}, {"id": 7285128, "name": "Avry", "state": "", "country": "CH", "coord": {"lon": 7.06031, "lat": 46.78809}}, {"id": 7285130, "name": "Avusy", "state": "", "country": "CH", "coord": {"lon": 6.00888, "lat": 46.14957}}, {"id": 7285131, "name": "Ayent", "state": "", "country": "CH", "coord": {"lon": 7.4103, "lat": 46.327961}}, {"id": 7285132, "name": "Baar", "state": "", "country": "CH", "coord": {"lon": 8.53701, "lat": 47.195438}}, {"id": 7285133, "name": "Bachenb\u00fclach", "state": "", "country": "CH", "coord": {"lon": 8.54553, "lat": 47.501789}}, {"id": 7285134, "name": "Baden", "state": "", "country": "CH", "coord": {"lon": 8.28964, "lat": 47.46513}}, {"id": 7285136, "name": "Bad Ragaz", "state": "", "country": "CH", "coord": {"lon": 9.47329, "lat": 46.996811}}, {"id": 7285137, "name": "Bad Zurzach", "state": "", "country": "CH", "coord": {"lon": 8.29195, "lat": 47.585892}}, {"id": 7285138, "name": "Bagnes", "state": "", "country": "CH", "coord": {"lon": 7.31914, "lat": 46.00375}}, {"id": 7285140, "name": "Balerna", "state": "", "country": "CH", "coord": {"lon": 9.00789, "lat": 45.84306}}, {"id": 7285142, "name": "Ballaigues", "state": "", "country": "CH", "coord": {"lon": 6.41037, "lat": 46.73489}}, {"id": 7285143, "name": "Ballens", "state": "", "country": "CH", "coord": {"lon": 6.37792, "lat": 46.55352}}, {"id": 7285145, "name": "Ballwil", "state": "", "country": "CH", "coord": {"lon": 8.3372, "lat": 47.14653}}, {"id": 7285148, "name": "Balsthal", "state": "", "country": "CH", "coord": {"lon": 7.70036, "lat": 47.314442}}, {"id": 7285149, "name": "Baltschieder", "state": "", "country": "CH", "coord": {"lon": 7.88059, "lat": 46.375912}}, {"id": 7285152, "name": "Bannwil", "state": "", "country": "CH", "coord": {"lon": 7.73047, "lat": 47.238522}}, {"id": 7285153, "name": "Barber\u00eache", "state": "", "country": "CH", "coord": {"lon": 7.153, "lat": 46.859852}}, {"id": 7285155, "name": "B\u00e4retswil", "state": "", "country": "CH", "coord": {"lon": 8.87216, "lat": 47.3377}}, {"id": 7285156, "name": "Bargen (BE)", "state": "", "country": "CH", "coord": {"lon": 7.24467, "lat": 47.036179}}, {"id": 7285158, "name": "B\u00e4riswil", "state": "", "country": "CH", "coord": {"lon": 7.53196, "lat": 47.016918}}, {"id": 7285159, "name": "B\u00e4rschwil", "state": "", "country": "CH", "coord": {"lon": 7.46573, "lat": 47.38504}}, {"id": 7285160, "name": "Basadingen-Schlattingen", "state": "", "country": "CH", "coord": {"lon": 8.75359, "lat": 47.660591}}, {"id": 7285161, "name": "Basel", "state": "", "country": "CH", "coord": {"lon": 7.59361, "lat": 47.557732}}, {"id": 7285162, "name": "Bas-Intyamon", "state": "", "country": "CH", "coord": {"lon": 7.10616, "lat": 46.56102}}, {"id": 7285163, "name": "Basse-Allaine", "state": "", "country": "CH", "coord": {"lon": 7.04245, "lat": 47.470509}}, {"id": 7285164, "name": "Bassecourt", "state": "", "country": "CH", "coord": {"lon": 7.24076, "lat": 47.335121}}, {"id": 7285165, "name": "Bassersdorf", "state": "", "country": "CH", "coord": {"lon": 8.63043, "lat": 47.440369}}, {"id": 7285167, "name": "B\u00e4tterkinden", "state": "", "country": "CH", "coord": {"lon": 7.52987, "lat": 47.136879}}, {"id": 7285169, "name": "Bauen", "state": "", "country": "CH", "coord": {"lon": 8.57277, "lat": 46.928909}}, {"id": 7285170, "name": "Baulmes", "state": "", "country": "CH", "coord": {"lon": 6.49949, "lat": 46.787659}}, {"id": 7285171, "name": "Bauma", "state": "", "country": "CH", "coord": {"lon": 8.8838, "lat": 47.373268}}, {"id": 7285172, "name": "Bavois", "state": "", "country": "CH", "coord": {"lon": 6.56654, "lat": 46.679771}}, {"id": 7285173, "name": "Beatenberg", "state": "", "country": "CH", "coord": {"lon": 7.80443, "lat": 46.714779}}, {"id": 7285174, "name": "Beckenried", "state": "", "country": "CH", "coord": {"lon": 8.46574, "lat": 46.96965}}, {"id": 7285180, "name": "Begnins", "state": "", "country": "CH", "coord": {"lon": 6.2533, "lat": 46.446789}}, {"id": 7285181, "name": "Beinwil am See", "state": "", "country": "CH", "coord": {"lon": 8.20523, "lat": 47.265091}}, {"id": 7285184, "name": "Belfaux", "state": "", "country": "CH", "coord": {"lon": 7.09504, "lat": 46.828732}}, {"id": 7285186, "name": "Bellerive (VD)", "state": "", "country": "CH", "coord": {"lon": 7.0252, "lat": 46.923111}}, {"id": 7285187, "name": "Bellevue", "state": "", "country": "CH", "coord": {"lon": 6.1367, "lat": 46.257259}}, {"id": 7285189, "name": "Bellinzona", "state": "", "country": "CH", "coord": {"lon": 9.02251, "lat": 46.199951}}, {"id": 7285190, "name": "Bellmund", "state": "", "country": "CH", "coord": {"lon": 7.24318, "lat": 47.102871}}, {"id": 7285191, "name": "Bellwald", "state": "", "country": "CH", "coord": {"lon": 8.15695, "lat": 46.444691}}, {"id": 7285192, "name": "Belmont-sur-Lausanne", "state": "", "country": "CH", "coord": {"lon": 6.68762, "lat": 46.52652}}, {"id": 7285194, "name": "Belp", "state": "", "country": "CH", "coord": {"lon": 7.50675, "lat": 46.892712}}, {"id": 7285197, "name": "Benken (SG)", "state": "", "country": "CH", "coord": {"lon": 8.99573, "lat": 47.19241}}, {"id": 7285200, "name": "Benzenschwil", "state": "", "country": "CH", "coord": {"lon": 8.36371, "lat": 47.24649}}, {"id": 7285201, "name": "Bercher", "state": "", "country": "CH", "coord": {"lon": 6.70623, "lat": 46.691631}}, {"id": 7285206, "name": "Berg (TG)", "state": "", "country": "CH", "coord": {"lon": 9.16961, "lat": 47.579552}}, {"id": 7285207, "name": "Berg\u00fcn/Bravuogn", "state": "", "country": "CH", "coord": {"lon": 9.78728, "lat": 46.623878}}, {"id": 7285208, "name": "Berikon", "state": "", "country": "CH", "coord": {"lon": 8.38375, "lat": 47.353851}}, {"id": 7285209, "name": "Beringen", "state": "", "country": "CH", "coord": {"lon": 8.57686, "lat": 47.70443}}, {"id": 7285212, "name": "Bern/Berne/Berna", "state": "", "country": "CH", "coord": {"lon": 7.40645, "lat": 46.947609}}, {"id": 7285213, "name": "Berneck", "state": "", "country": "CH", "coord": {"lon": 9.61254, "lat": 47.424648}}, {"id": 7285214, "name": "Bernex", "state": "", "country": "CH", "coord": {"lon": 6.0684, "lat": 46.178452}}, {"id": 7285216, "name": "Berom\u00fcnster", "state": "", "country": "CH", "coord": {"lon": 8.1837, "lat": 47.20343}}, {"id": 7285217, "name": "Bertschikon", "state": "", "country": "CH", "coord": {"lon": 8.83223, "lat": 47.529999}}, {"id": 7285220, "name": "Betschwanden", "state": "", "country": "CH", "coord": {"lon": 9.05233, "lat": 46.92979}}, {"id": 7285221, "name": "Betten", "state": "", "country": "CH", "coord": {"lon": 8.05703, "lat": 46.426498}}, {"id": 7285224, "name": "Bettingen", "state": "", "country": "CH", "coord": {"lon": 7.67225, "lat": 47.57037}}, {"id": 7285225, "name": "Bettlach", "state": "", "country": "CH", "coord": {"lon": 7.41883, "lat": 47.208542}}, {"id": 7285229, "name": "Bevaix", "state": "", "country": "CH", "coord": {"lon": 6.80414, "lat": 46.931149}}, {"id": 7285232, "name": "B\u00e9vilard", "state": "", "country": "CH", "coord": {"lon": 7.28549, "lat": 47.2313}}, {"id": 7285233, "name": "Bex", "state": "", "country": "CH", "coord": {"lon": 7.08905, "lat": 46.255611}}, {"id": 7285234, "name": "Biasca", "state": "", "country": "CH", "coord": {"lon": 8.9697, "lat": 46.359699}}, {"id": 7285235, "name": "Biberist", "state": "", "country": "CH", "coord": {"lon": 7.54779, "lat": 47.18504}}, {"id": 7285236, "name": "Bibern (SO)", "state": "", "country": "CH", "coord": {"lon": 7.45396, "lat": 47.147888}}, {"id": 7285241, "name": "Biel/Bienne", "state": "", "country": "CH", "coord": {"lon": 7.2611, "lat": 47.149231}}, {"id": 7285242, "name": "Bi\u00e8re", "state": "", "country": "CH", "coord": {"lon": 6.31759, "lat": 46.547798}}, {"id": 7285244, "name": "Biglen", "state": "", "country": "CH", "coord": {"lon": 7.62667, "lat": 46.927811}}, {"id": 7285245, "name": "Billens-Hennens", "state": "", "country": "CH", "coord": {"lon": 6.88669, "lat": 46.685322}}, {"id": 7285246, "name": "Bilten", "state": "", "country": "CH", "coord": {"lon": 9.00777, "lat": 47.147839}}, {"id": 7285247, "name": "Binn", "state": "", "country": "CH", "coord": {"lon": 8.23558, "lat": 46.368252}}, {"id": 7285248, "name": "Binningen", "state": "", "country": "CH", "coord": {"lon": 7.56783, "lat": 47.536659}}, {"id": 7285253, "name": "Birmensdorf (ZH)", "state": "", "country": "CH", "coord": {"lon": 8.43463, "lat": 47.353901}}, {"id": 7285254, "name": "Birmenstorf", "state": "", "country": "CH", "coord": {"lon": 8.25648, "lat": 47.454769}}, {"id": 7285256, "name": "Birr", "state": "", "country": "CH", "coord": {"lon": 8.2121, "lat": 47.432129}}, {"id": 7285258, "name": "Birrwil", "state": "", "country": "CH", "coord": {"lon": 8.19251, "lat": 47.291168}}, {"id": 7285259, "name": "Birsfelden", "state": "", "country": "CH", "coord": {"lon": 7.62973, "lat": 47.553478}}, {"id": 7285260, "name": "Birwinken", "state": "", "country": "CH", "coord": {"lon": 9.21467, "lat": 47.576481}}, {"id": 7285265, "name": "Bivio", "state": "", "country": "CH", "coord": {"lon": 9.66173, "lat": 46.457779}}, {"id": 7285267, "name": "Blauen", "state": "", "country": "CH", "coord": {"lon": 7.5233, "lat": 47.452709}}, {"id": 7285272, "name": "Blonay", "state": "", "country": "CH", "coord": {"lon": 6.92201, "lat": 46.477871}}, {"id": 7285276, "name": "Bodio", "state": "", "country": "CH", "coord": {"lon": 8.92041, "lat": 46.386051}}, {"id": 7285279, "name": "Bogis-Bossey", "state": "", "country": "CH", "coord": {"lon": 6.1716, "lat": 46.353779}}, {"id": 7285283, "name": "Bolligen", "state": "", "country": "CH", "coord": {"lon": 7.51363, "lat": 46.983158}}, {"id": 7285285, "name": "Boltigen", "state": "", "country": "CH", "coord": {"lon": 7.35736, "lat": 46.604599}}, {"id": 7285286, "name": "Bonaduz", "state": "", "country": "CH", "coord": {"lon": 9.37096, "lat": 46.805222}}, {"id": 7285287, "name": "Boncourt", "state": "", "country": "CH", "coord": {"lon": 7.00757, "lat": 47.487968}}, {"id": 7285289, "name": "Bonfol", "state": "", "country": "CH", "coord": {"lon": 7.15682, "lat": 47.475899}}, {"id": 7285290, "name": "B\u00f6nigen", "state": "", "country": "CH", "coord": {"lon": 7.92426, "lat": 46.679951}}, {"id": 7285292, "name": "Boniswil", "state": "", "country": "CH", "coord": {"lon": 8.19076, "lat": 47.312031}}, {"id": 7285293, "name": "Bonstetten", "state": "", "country": "CH", "coord": {"lon": 8.46625, "lat": 47.31665}}, {"id": 7285294, "name": "Bonvillars", "state": "", "country": "CH", "coord": {"lon": 6.6696, "lat": 46.851028}}, {"id": 7285296, "name": "Borex", "state": "", "country": "CH", "coord": {"lon": 6.17922, "lat": 46.38097}}, {"id": 7285299, "name": "B\u00f6singen", "state": "", "country": "CH", "coord": {"lon": 7.2358, "lat": 46.88401}}, {"id": 7285302, "name": "Bottens", "state": "", "country": "CH", "coord": {"lon": 6.66207, "lat": 46.615101}}, {"id": 7285303, "name": "Bottenwil", "state": "", "country": "CH", "coord": {"lon": 8.00312, "lat": 47.285141}}, {"id": 7285305, "name": "Bottighofen", "state": "", "country": "CH", "coord": {"lon": 9.21, "lat": 47.6334}}, {"id": 7285307, "name": "Boudevilliers", "state": "", "country": "CH", "coord": {"lon": 6.86766, "lat": 47.031582}}, {"id": 7285308, "name": "Boudry", "state": "", "country": "CH", "coord": {"lon": 6.80777, "lat": 46.95311}}, {"id": 7285311, "name": "Bourg-Saint-Pierre", "state": "", "country": "CH", "coord": {"lon": 7.21275, "lat": 45.919579}}, {"id": 7285315, "name": "Bovernier", "state": "", "country": "CH", "coord": {"lon": 7.08243, "lat": 46.064049}}, {"id": 7285316, "name": "Bowil", "state": "", "country": "CH", "coord": {"lon": 7.70121, "lat": 46.889172}}, {"id": 7285320, "name": "Braunwald", "state": "", "country": "CH", "coord": {"lon": 8.98264, "lat": 46.946152}}, {"id": 7285321, "name": "Breil/Brigels", "state": "", "country": "CH", "coord": {"lon": 9.03336, "lat": 46.785149}}, {"id": 7285322, "name": "Breitenbach", "state": "", "country": "CH", "coord": {"lon": 7.55713, "lat": 47.406521}}, {"id": 7285324, "name": "Bremgarten", "state": "", "country": "CH", "coord": {"lon": 8.32984, "lat": 47.353458}}, {"id": 7285326, "name": "Brenles", "state": "", "country": "CH", "coord": {"lon": 6.85619, "lat": 46.667789}}, {"id": 7285327, "name": "Brenzikofen", "state": "", "country": "CH", "coord": {"lon": 7.61641, "lat": 46.81485}}, {"id": 7285331, "name": "Bretzwil", "state": "", "country": "CH", "coord": {"lon": 7.6501, "lat": 47.396091}}, {"id": 7285334, "name": "Brienzwiler", "state": "", "country": "CH", "coord": {"lon": 8.09466, "lat": 46.730339}}, {"id": 7285336, "name": "Brig-Glis", "state": "", "country": "CH", "coord": {"lon": 7.97926, "lat": 46.288189}}, {"id": 7285339, "name": "Brislach", "state": "", "country": "CH", "coord": {"lon": 7.54882, "lat": 47.42495}}, {"id": 7285340, "name": "Brissago", "state": "", "country": "CH", "coord": {"lon": 8.68588, "lat": 46.12669}}, {"id": 7285343, "name": "Brittnau", "state": "", "country": "CH", "coord": {"lon": 7.92747, "lat": 47.2547}}, {"id": 7285344, "name": "Broc", "state": "", "country": "CH", "coord": {"lon": 7.11931, "lat": 46.60033}}, {"id": 7285345, "name": "Bronschhofen", "state": "", "country": "CH", "coord": {"lon": 9.04941, "lat": 47.481339}}, {"id": 7285347, "name": "Brot-Plamboz", "state": "", "country": "CH", "coord": {"lon": 6.75321, "lat": 46.98481}}, {"id": 7285348, "name": "Brugg", "state": "", "country": "CH", "coord": {"lon": 8.21102, "lat": 47.48629}}, {"id": 7285349, "name": "Br\u00fcgg", "state": "", "country": "CH", "coord": {"lon": 7.27801, "lat": 47.128151}}, {"id": 7285350, "name": "Br\u00fcgglen", "state": "", "country": "CH", "coord": {"lon": 7.49546, "lat": 47.143909}}, {"id": 7285352, "name": "Br\u00fcnisried", "state": "", "country": "CH", "coord": {"lon": 7.27636, "lat": 46.757381}}, {"id": 7285357, "name": "Brusio", "state": "", "country": "CH", "coord": {"lon": 10.11898, "lat": 46.255451}}, {"id": 7285358, "name": "Br\u00fcttelen", "state": "", "country": "CH", "coord": {"lon": 7.15119, "lat": 47.023979}}, {"id": 7285359, "name": "Br\u00fctten", "state": "", "country": "CH", "coord": {"lon": 8.6724, "lat": 47.474819}}, {"id": 7285362, "name": "Bubendorf", "state": "", "country": "CH", "coord": {"lon": 7.73702, "lat": 47.445808}}, {"id": 7285363, "name": "Bubikon", "state": "", "country": "CH", "coord": {"lon": 8.80812, "lat": 47.266479}}, {"id": 7285368, "name": "Buchholterberg", "state": "", "country": "CH", "coord": {"lon": 7.69021, "lat": 46.819569}}, {"id": 7285370, "name": "Buchrain", "state": "", "country": "CH", "coord": {"lon": 8.34792, "lat": 47.101749}}, {"id": 7285371, "name": "Buchs", "state": "", "country": "CH", "coord": {"lon": 8.08793, "lat": 47.393749}}, {"id": 7285374, "name": "Buchs (SG)", "state": "", "country": "CH", "coord": {"lon": 9.46275, "lat": 47.16597}}, {"id": 7285379, "name": "B\u00fchler", "state": "", "country": "CH", "coord": {"lon": 9.42659, "lat": 47.38073}}, {"id": 7285380, "name": "B\u00fclach", "state": "", "country": "CH", "coord": {"lon": 8.54071, "lat": 47.528042}}, {"id": 7285381, "name": "Bulle", "state": "", "country": "CH", "coord": {"lon": 7.04616, "lat": 46.60751}}, {"id": 7285383, "name": "B\u00fcnzen", "state": "", "country": "CH", "coord": {"lon": 8.32253, "lat": 47.320042}}, {"id": 7285384, "name": "Buochs", "state": "", "country": "CH", "coord": {"lon": 8.42068, "lat": 46.974628}}, {"id": 7285385, "name": "B\u00fcrchen", "state": "", "country": "CH", "coord": {"lon": 7.81808, "lat": 46.269741}}, {"id": 7285386, "name": "Bure", "state": "", "country": "CH", "coord": {"lon": 6.99693, "lat": 47.438381}}, {"id": 7285387, "name": "B\u00fcren an der Aare", "state": "", "country": "CH", "coord": {"lon": 7.37063, "lat": 47.14175}}, {"id": 7285391, "name": "Burgdorf", "state": "", "country": "CH", "coord": {"lon": 7.6191, "lat": 47.053669}}, {"id": 7285394, "name": "B\u00fcrglen (TG)", "state": "", "country": "CH", "coord": {"lon": 9.15993, "lat": 47.550758}}, {"id": 7285395, "name": "B\u00fcrglen (UR)", "state": "", "country": "CH", "coord": {"lon": 8.73152, "lat": 46.902279}}, {"id": 7285396, "name": "B\u00fcron", "state": "", "country": "CH", "coord": {"lon": 8.09521, "lat": 47.213558}}, {"id": 7285397, "name": "Bursinel", "state": "", "country": "CH", "coord": {"lon": 6.30888, "lat": 46.440971}}, {"id": 7285398, "name": "Bursins", "state": "", "country": "CH", "coord": {"lon": 6.28636, "lat": 46.452019}}, {"id": 7285399, "name": "Burtigny", "state": "", "country": "CH", "coord": {"lon": 6.26529, "lat": 46.471519}}, {"id": 7285401, "name": "B\u00fcsserach", "state": "", "country": "CH", "coord": {"lon": 7.5447, "lat": 47.389759}}, {"id": 7285404, "name": "Bussnang", "state": "", "country": "CH", "coord": {"lon": 9.09668, "lat": 47.54052}}, {"id": 7285410, "name": "B\u00fctschwil", "state": "", "country": "CH", "coord": {"lon": 9.06899, "lat": 47.352749}}, {"id": 7285415, "name": "Buus", "state": "", "country": "CH", "coord": {"lon": 7.86598, "lat": 47.50465}}, {"id": 7285417, "name": "Cademario", "state": "", "country": "CH", "coord": {"lon": 8.8918, "lat": 46.022518}}, {"id": 7285418, "name": "Cadempino", "state": "", "country": "CH", "coord": {"lon": 8.93386, "lat": 46.034168}}, {"id": 7285419, "name": "Cadenazzo", "state": "", "country": "CH", "coord": {"lon": 8.95003, "lat": 46.146629}}, {"id": 7285420, "name": "Cadro", "state": "", "country": "CH", "coord": {"lon": 8.99466, "lat": 46.042339}}, {"id": 7285421, "name": "Calfreisen", "state": "", "country": "CH", "coord": {"lon": 9.60047, "lat": 46.854439}}, {"id": 7285423, "name": "Cama", "state": "", "country": "CH", "coord": {"lon": 9.2076, "lat": 46.259789}}, {"id": 7285425, "name": "Camorino", "state": "", "country": "CH", "coord": {"lon": 9.01185, "lat": 46.157749}}, {"id": 7285426, "name": "Campello", "state": "", "country": "CH", "coord": {"lon": 8.82415, "lat": 46.499329}}, {"id": 7285431, "name": "Capriasca", "state": "", "country": "CH", "coord": {"lon": 8.98639, "lat": 46.091099}}, {"id": 7285435, "name": "Carouge (GE)", "state": "", "country": "CH", "coord": {"lon": 6.14037, "lat": 46.18166}}, {"id": 7285438, "name": "Caslano", "state": "", "country": "CH", "coord": {"lon": 8.87952, "lat": 45.969891}}, {"id": 7285440, "name": "Castasegna", "state": "", "country": "CH", "coord": {"lon": 9.51669, "lat": 46.352219}}, {"id": 7285441, "name": "Castel San Pietro", "state": "", "country": "CH", "coord": {"lon": 9.01528, "lat": 45.882332}}, {"id": 7285443, "name": "Casti-Wergenstein", "state": "", "country": "CH", "coord": {"lon": 9.35401, "lat": 46.615929}}, {"id": 7285445, "name": "Cauco", "state": "", "country": "CH", "coord": {"lon": 9.12209, "lat": 46.333641}}, {"id": 7285449, "name": "Cazis", "state": "", "country": "CH", "coord": {"lon": 9.42665, "lat": 46.73716}}, {"id": 7285450, "name": "Celerina/Schlarigna", "state": "", "country": "CH", "coord": {"lon": 9.84396, "lat": 46.509579}}, {"id": 7285451, "name": "C\u00e9ligny", "state": "", "country": "CH", "coord": {"lon": 6.19042, "lat": 46.351879}}, {"id": 7285456, "name": "Cernier", "state": "", "country": "CH", "coord": {"lon": 6.90063, "lat": 47.076172}}, {"id": 7285458, "name": "Cevio", "state": "", "country": "CH", "coord": {"lon": 8.54233, "lat": 46.3783}}, {"id": 7285460, "name": "Chabrey", "state": "", "country": "CH", "coord": {"lon": 6.9821, "lat": 46.928982}}, {"id": 7285461, "name": "Chalais", "state": "", "country": "CH", "coord": {"lon": 7.53021, "lat": 46.247719}}, {"id": 7285462, "name": "Cham", "state": "", "country": "CH", "coord": {"lon": 8.44697, "lat": 47.201221}}, {"id": 7285464, "name": "Chamoson", "state": "", "country": "CH", "coord": {"lon": 7.19715, "lat": 46.215038}}, {"id": 7285465, "name": "Champagne", "state": "", "country": "CH", "coord": {"lon": 6.65159, "lat": 46.835758}}, {"id": 7285466, "name": "Champ\u00e9ry", "state": "", "country": "CH", "coord": {"lon": 6.84595, "lat": 46.158791}}, {"id": 7285469, "name": "Champvent", "state": "", "country": "CH", "coord": {"lon": 6.56216, "lat": 46.78371}}, {"id": 7285471, "name": "Chancy", "state": "", "country": "CH", "coord": {"lon": 5.97891, "lat": 46.147598}}, {"id": 7285475, "name": "Chardonne", "state": "", "country": "CH", "coord": {"lon": 6.82165, "lat": 46.488602}}, {"id": 7285476, "name": "Charmey", "state": "", "country": "CH", "coord": {"lon": 7.20466, "lat": 46.601879}}, {"id": 7285477, "name": "Charrat", "state": "", "country": "CH", "coord": {"lon": 7.13686, "lat": 46.121342}}, {"id": 7285479, "name": "Ch\u00e2tel-Saint-Denis", "state": "", "country": "CH", "coord": {"lon": 6.9469, "lat": 46.525341}}, {"id": 7285487, "name": "Chavannes-le-Ch\u00eane", "state": "", "country": "CH", "coord": {"lon": 6.78091, "lat": 46.780102}}, {"id": 7285489, "name": "Chavannes-pr\u00e8s-Renens", "state": "", "country": "CH", "coord": {"lon": 6.57625, "lat": 46.52816}}, {"id": 7285491, "name": "Chavornay", "state": "", "country": "CH", "coord": {"lon": 6.56898, "lat": 46.706539}}, {"id": 7285492, "name": "Cheiry", "state": "", "country": "CH", "coord": {"lon": 6.84053, "lat": 46.753288}}, {"id": 7285493, "name": "Ch\u00eane-Bougeries", "state": "", "country": "CH", "coord": {"lon": 6.18171, "lat": 46.193539}}, {"id": 7285494, "name": "Ch\u00eane-Bourg", "state": "", "country": "CH", "coord": {"lon": 6.19704, "lat": 46.197369}}, {"id": 7285496, "name": "Ch\u00eane-P\u00e2quier", "state": "", "country": "CH", "coord": {"lon": 6.77058, "lat": 46.76593}}, {"id": 7285497, "name": "Chermignon", "state": "", "country": "CH", "coord": {"lon": 7.47637, "lat": 46.288601}}, {"id": 7285501, "name": "Cheseaux-sur-Lausanne", "state": "", "country": "CH", "coord": {"lon": 6.59552, "lat": 46.58453}}, {"id": 7285506, "name": "Chevroux", "state": "", "country": "CH", "coord": {"lon": 6.91122, "lat": 46.891701}}, {"id": 7285507, "name": "Chexbres", "state": "", "country": "CH", "coord": {"lon": 6.78008, "lat": 46.484322}}, {"id": 7285508, "name": "Cheyres", "state": "", "country": "CH", "coord": {"lon": 6.78809, "lat": 46.810631}}, {"id": 7285509, "name": "Ch\u00e9zard-Saint-Martin", "state": "", "country": "CH", "coord": {"lon": 6.92645, "lat": 47.080929}}, {"id": 7285510, "name": "Chiasso", "state": "", "country": "CH", "coord": {"lon": 9.01656, "lat": 45.828838}}, {"id": 7285515, "name": "Chur", "state": "", "country": "CH", "coord": {"lon": 9.52965, "lat": 46.852119}}, {"id": 7285516, "name": "Churwalden", "state": "", "country": "CH", "coord": {"lon": 9.53889, "lat": 46.789242}}, {"id": 7285519, "name": "Claro", "state": "", "country": "CH", "coord": {"lon": 9.03676, "lat": 46.265991}}, {"id": 7285521, "name": "Clos du Doubs", "state": "", "country": "CH", "coord": {"lon": 7.12063, "lat": 47.350948}}, {"id": 7285522, "name": "Coeuve", "state": "", "country": "CH", "coord": {"lon": 7.09532, "lat": 47.452339}}, {"id": 7285528, "name": "Collombey-Muraz", "state": "", "country": "CH", "coord": {"lon": 6.91099, "lat": 46.279919}}, {"id": 7285530, "name": "Collonges", "state": "", "country": "CH", "coord": {"lon": 7.05594, "lat": 46.180359}}, {"id": 7285531, "name": "Colombier (NE)", "state": "", "country": "CH", "coord": {"lon": 6.85864, "lat": 46.969589}}, {"id": 7285532, "name": "Colombier (VD)", "state": "", "country": "CH", "coord": {"lon": 6.46778, "lat": 46.55518}}, {"id": 7285533, "name": "Comano", "state": "", "country": "CH", "coord": {"lon": 8.95672, "lat": 46.040089}}, {"id": 7285539, "name": "Concise", "state": "", "country": "CH", "coord": {"lon": 6.7174, "lat": 46.86705}}, {"id": 7285540, "name": "Confignon", "state": "", "country": "CH", "coord": {"lon": 6.08905, "lat": 46.17421}}, {"id": 7285543, "name": "Conthey", "state": "", "country": "CH", "coord": {"lon": 7.25479, "lat": 46.272499}}, {"id": 7285545, "name": "Coppet", "state": "", "country": "CH", "coord": {"lon": 6.18907, "lat": 46.32135}}, {"id": 7285546, "name": "Corban", "state": "", "country": "CH", "coord": {"lon": 7.4742, "lat": 47.353199}}, {"id": 7285547, "name": "Corbeyrier", "state": "", "country": "CH", "coord": {"lon": 6.97975, "lat": 46.36956}}, {"id": 7285551, "name": "Corcelles-Cormondr\u00e8che", "state": "", "country": "CH", "coord": {"lon": 6.86743, "lat": 46.989311}}, {"id": 7285556, "name": "Corg\u00e9mont", "state": "", "country": "CH", "coord": {"lon": 7.13857, "lat": 47.191071}}, {"id": 7285558, "name": "Corminboeuf", "state": "", "country": "CH", "coord": {"lon": 7.09626, "lat": 46.802101}}, {"id": 7285560, "name": "Cornaux", "state": "", "country": "CH", "coord": {"lon": 7.01758, "lat": 47.033112}}, {"id": 7285561, "name": "Cornol", "state": "", "country": "CH", "coord": {"lon": 7.1631, "lat": 47.404739}}, {"id": 7285562, "name": "Corpataux-Magnedens", "state": "", "country": "CH", "coord": {"lon": 7.0932, "lat": 46.742321}}, {"id": 7285566, "name": "Corsier (GE)", "state": "", "country": "CH", "coord": {"lon": 6.2283, "lat": 46.262131}}, {"id": 7285568, "name": "Cortaillod", "state": "", "country": "CH", "coord": {"lon": 6.84793, "lat": 46.943989}}, {"id": 7285570, "name": "Cossonay", "state": "", "country": "CH", "coord": {"lon": 6.50344, "lat": 46.612659}}, {"id": 7285571, "name": "Cottens (FR)", "state": "", "country": "CH", "coord": {"lon": 7.03621, "lat": 46.75325}}, {"id": 7285575, "name": "Courfaivre", "state": "", "country": "CH", "coord": {"lon": 7.27973, "lat": 47.329922}}, {"id": 7285576, "name": "Courgenay", "state": "", "country": "CH", "coord": {"lon": 7.12184, "lat": 47.392941}}, {"id": 7285577, "name": "Courgevaux", "state": "", "country": "CH", "coord": {"lon": 7.10484, "lat": 46.905182}}, {"id": 7285578, "name": "Courlevon", "state": "", "country": "CH", "coord": {"lon": 7.11068, "lat": 46.891659}}, {"id": 7285579, "name": "Courrendlin", "state": "", "country": "CH", "coord": {"lon": 7.37426, "lat": 47.334648}}, {"id": 7285580, "name": "Courroux", "state": "", "country": "CH", "coord": {"lon": 7.39298, "lat": 47.369179}}, {"id": 7285581, "name": "Court", "state": "", "country": "CH", "coord": {"lon": 7.35923, "lat": 47.23975}}, {"id": 7285582, "name": "Courtedoux", "state": "", "country": "CH", "coord": {"lon": 7.028, "lat": 47.412891}}, {"id": 7285583, "name": "Courtelary", "state": "", "country": "CH", "coord": {"lon": 7.07264, "lat": 47.176441}}, {"id": 7285585, "name": "Court\u00e9telle", "state": "", "country": "CH", "coord": {"lon": 7.31764, "lat": 47.33094}}, {"id": 7285587, "name": "Crassier", "state": "", "country": "CH", "coord": {"lon": 6.16815, "lat": 46.376041}}, {"id": 7285591, "name": "Cressier (FR)", "state": "", "country": "CH", "coord": {"lon": 7.13804, "lat": 46.897789}}, {"id": 7285594, "name": "Crissier", "state": "", "country": "CH", "coord": {"lon": 6.57736, "lat": 46.558472}}, {"id": 7285595, "name": "Croglio", "state": "", "country": "CH", "coord": {"lon": 8.84229, "lat": 45.98835}}, {"id": 7285601, "name": "Cudrefin", "state": "", "country": "CH", "coord": {"lon": 7.02707, "lat": 46.952129}}, {"id": 7285604, "name": "Cugy (FR)", "state": "", "country": "CH", "coord": {"lon": 6.88657, "lat": 46.809021}}, {"id": 7285605, "name": "Cugy (VD)", "state": "", "country": "CH", "coord": {"lon": 6.64373, "lat": 46.581459}}, {"id": 7285606, "name": "Cully", "state": "", "country": "CH", "coord": {"lon": 6.73175, "lat": 46.49905}}, {"id": 7285608, "name": "Cunter", "state": "", "country": "CH", "coord": {"lon": 9.60429, "lat": 46.620232}}, {"id": 7285616, "name": "Dagmersellen", "state": "", "country": "CH", "coord": {"lon": 8.01002, "lat": 47.213169}}, {"id": 7285617, "name": "Daillens", "state": "", "country": "CH", "coord": {"lon": 6.54957, "lat": 46.628632}}, {"id": 7285618, "name": "Dallenwil", "state": "", "country": "CH", "coord": {"lon": 8.36496, "lat": 46.91737}}, {"id": 7285619, "name": "D\u00e4llikon", "state": "", "country": "CH", "coord": {"lon": 8.43243, "lat": 47.439381}}, {"id": 7285622, "name": "D\u00e4niken", "state": "", "country": "CH", "coord": {"lon": 7.97552, "lat": 47.349201}}, {"id": 7285623, "name": "D\u00e4nikon", "state": "", "country": "CH", "coord": {"lon": 8.40577, "lat": 47.44463}}, {"id": 7285624, "name": "Dardagny", "state": "", "country": "CH", "coord": {"lon": 5.98908, "lat": 46.198479}}, {"id": 7285625, "name": "D\u00e4rligen", "state": "", "country": "CH", "coord": {"lon": 7.81287, "lat": 46.653351}}, {"id": 7285627, "name": "D\u00e4ttlikon", "state": "", "country": "CH", "coord": {"lon": 8.62211, "lat": 47.52737}}, {"id": 7285629, "name": "Degersheim", "state": "", "country": "CH", "coord": {"lon": 9.18646, "lat": 47.385139}}, {"id": 7285632, "name": "Deitingen", "state": "", "country": "CH", "coord": {"lon": 7.62068, "lat": 47.21796}}, {"id": 7285633, "name": "Del\u00e9mont", "state": "", "country": "CH", "coord": {"lon": 7.3329, "lat": 47.375092}}, {"id": 7285634, "name": "Delley-Portalban", "state": "", "country": "CH", "coord": {"lon": 6.96201, "lat": 46.912521}}, {"id": 7285639, "name": "Densb\u00fcren", "state": "", "country": "CH", "coord": {"lon": 8.05681, "lat": 47.451481}}, {"id": 7285640, "name": "Derendingen", "state": "", "country": "CH", "coord": {"lon": 7.5899, "lat": 47.191849}}, {"id": 7285642, "name": "Diegten", "state": "", "country": "CH", "coord": {"lon": 7.80988, "lat": 47.409241}}, {"id": 7285643, "name": "Dielsdorf", "state": "", "country": "CH", "coord": {"lon": 8.45446, "lat": 47.476471}}, {"id": 7285645, "name": "Diemtigen", "state": "", "country": "CH", "coord": {"lon": 7.53038, "lat": 46.590302}}, {"id": 7285647, "name": "Diepoldsau", "state": "", "country": "CH", "coord": {"lon": 9.64691, "lat": 47.383999}}, {"id": 7285649, "name": "Diessbach bei B\u00fcren", "state": "", "country": "CH", "coord": {"lon": 7.3639, "lat": 47.104359}}, {"id": 7285650, "name": "Diesse", "state": "", "country": "CH", "coord": {"lon": 7.11806, "lat": 47.120152}}, {"id": 7285651, "name": "Diessenhofen", "state": "", "country": "CH", "coord": {"lon": 8.74479, "lat": 47.681049}}, {"id": 7285652, "name": "Dietikon", "state": "", "country": "CH", "coord": {"lon": 8.39824, "lat": 47.401981}}, {"id": 7285653, "name": "Dietlikon", "state": "", "country": "CH", "coord": {"lon": 8.6153, "lat": 47.423939}}, {"id": 7285654, "name": "Dietwil", "state": "", "country": "CH", "coord": {"lon": 8.39507, "lat": 47.147888}}, {"id": 7285656, "name": "Disentis/Must\u00e9r", "state": "", "country": "CH", "coord": {"lon": 8.84761, "lat": 46.734249}}, {"id": 7285658, "name": "Dizy", "state": "", "country": "CH", "coord": {"lon": 6.49486, "lat": 46.634411}}, {"id": 7285659, "name": "Domat/Ems", "state": "", "country": "CH", "coord": {"lon": 9.45455, "lat": 46.819809}}, {"id": 7285660, "name": "Dombresson", "state": "", "country": "CH", "coord": {"lon": 6.95338, "lat": 47.084492}}, {"id": 7285661, "name": "Domdidier", "state": "", "country": "CH", "coord": {"lon": 7.01607, "lat": 46.862629}}, {"id": 7285663, "name": "Dompierre (FR)", "state": "", "country": "CH", "coord": {"lon": 6.98947, "lat": 46.85677}}, {"id": 7285666, "name": "Donneloye", "state": "", "country": "CH", "coord": {"lon": 6.71967, "lat": 46.750359}}, {"id": 7285667, "name": "Doppleschwand", "state": "", "country": "CH", "coord": {"lon": 8.05082, "lat": 47.011879}}, {"id": 7285668, "name": "Dor\u00e9naz", "state": "", "country": "CH", "coord": {"lon": 7.06172, "lat": 46.151718}}, {"id": 7285671, "name": "Dornach", "state": "", "country": "CH", "coord": {"lon": 7.62427, "lat": 47.476551}}, {"id": 7285672, "name": "Dottikon", "state": "", "country": "CH", "coord": {"lon": 8.2425, "lat": 47.380589}}, {"id": 7285675, "name": "D\u00fcbendorf", "state": "", "country": "CH", "coord": {"lon": 8.61719, "lat": 47.390518}}, {"id": 7285676, "name": "D\u00fcdingen", "state": "", "country": "CH", "coord": {"lon": 7.19101, "lat": 46.844742}}, {"id": 7285678, "name": "Duillier", "state": "", "country": "CH", "coord": {"lon": 6.22979, "lat": 46.409241}}, {"id": 7285679, "name": "Dulliken", "state": "", "country": "CH", "coord": {"lon": 7.94623, "lat": 47.344761}}, {"id": 7285681, "name": "D\u00fcrnten", "state": "", "country": "CH", "coord": {"lon": 8.85378, "lat": 47.275719}}, {"id": 7285683, "name": "D\u00fcrrenroth", "state": "", "country": "CH", "coord": {"lon": 7.77898, "lat": 47.080608}}, {"id": 7285685, "name": "Ebersecken", "state": "", "country": "CH", "coord": {"lon": 7.93889, "lat": 47.180279}}, {"id": 7285687, "name": "Ebikon", "state": "", "country": "CH", "coord": {"lon": 8.3315, "lat": 47.078251}}, {"id": 7285688, "name": "Ebnat-Kappel", "state": "", "country": "CH", "coord": {"lon": 9.13046, "lat": 47.244801}}, {"id": 7285689, "name": "Echallens", "state": "", "country": "CH", "coord": {"lon": 6.63525, "lat": 46.638451}}, {"id": 7285691, "name": "Echarlens", "state": "", "country": "CH", "coord": {"lon": 7.07716, "lat": 46.645828}}, {"id": 7285697, "name": "Ecublens (FR)", "state": "", "country": "CH", "coord": {"lon": 6.80704, "lat": 46.615341}}, {"id": 7285698, "name": "Ecublens (VD)", "state": "", "country": "CH", "coord": {"lon": 6.56052, "lat": 46.52758}}, {"id": 7285701, "name": "Egerkingen", "state": "", "country": "CH", "coord": {"lon": 7.79634, "lat": 47.325989}}, {"id": 7285702, "name": "Egg", "state": "", "country": "CH", "coord": {"lon": 8.69432, "lat": 47.297619}}, {"id": 7285705, "name": "Eggersriet", "state": "", "country": "CH", "coord": {"lon": 9.48227, "lat": 47.446739}}, {"id": 7285706, "name": "Eggiwil", "state": "", "country": "CH", "coord": {"lon": 7.80918, "lat": 46.865372}}, {"id": 7285707, "name": "Eglisau", "state": "", "country": "CH", "coord": {"lon": 8.52607, "lat": 47.573349}}, {"id": 7285708, "name": "Egliswil", "state": "", "country": "CH", "coord": {"lon": 8.19025, "lat": 47.351711}}, {"id": 7285709, "name": "Egnach", "state": "", "country": "CH", "coord": {"lon": 9.36529, "lat": 47.528919}}, {"id": 7285710, "name": "Egolzwil", "state": "", "country": "CH", "coord": {"lon": 8.00318, "lat": 47.184109}}, {"id": 7285711, "name": "Ehrendingen", "state": "", "country": "CH", "coord": {"lon": 8.34679, "lat": 47.494331}}, {"id": 7285712, "name": "Eich", "state": "", "country": "CH", "coord": {"lon": 8.17132, "lat": 47.159908}}, {"id": 7285714, "name": "Eiken", "state": "", "country": "CH", "coord": {"lon": 7.98915, "lat": 47.537102}}, {"id": 7285715, "name": "Einsiedeln", "state": "", "country": "CH", "coord": {"lon": 8.77922, "lat": 47.117378}}, {"id": 7285716, "name": "Eischoll", "state": "", "country": "CH", "coord": {"lon": 7.76224, "lat": 46.282181}}, {"id": 7285717, "name": "Eisten", "state": "", "country": "CH", "coord": {"lon": 7.90762, "lat": 46.179119}}, {"id": 7285719, "name": "Elgg", "state": "", "country": "CH", "coord": {"lon": 8.86454, "lat": 47.491379}}, {"id": 7285720, "name": "Ellikon an der Thur", "state": "", "country": "CH", "coord": {"lon": 8.82418, "lat": 47.563068}}, {"id": 7285721, "name": "Elm", "state": "", "country": "CH", "coord": {"lon": 9.15636, "lat": 46.906078}}, {"id": 7285722, "name": "Elsau", "state": "", "country": "CH", "coord": {"lon": 8.80792, "lat": 47.502602}}, {"id": 7285723, "name": "Embd", "state": "", "country": "CH", "coord": {"lon": 7.79617, "lat": 46.21674}}, {"id": 7285724, "name": "Embrach", "state": "", "country": "CH", "coord": {"lon": 8.59755, "lat": 47.508492}}, {"id": 7285725, "name": "Emmen", "state": "", "country": "CH", "coord": {"lon": 8.28621, "lat": 47.086571}}, {"id": 7285726, "name": "Emmetten", "state": "", "country": "CH", "coord": {"lon": 8.52415, "lat": 46.945541}}, {"id": 7285727, "name": "Endingen", "state": "", "country": "CH", "coord": {"lon": 8.29007, "lat": 47.530708}}, {"id": 7285728, "name": "Engelberg", "state": "", "country": "CH", "coord": {"lon": 8.43409, "lat": 46.81971}}, {"id": 7285729, "name": "Enges", "state": "", "country": "CH", "coord": {"lon": 7.01183, "lat": 47.072109}}, {"id": 7285730, "name": "Engi", "state": "", "country": "CH", "coord": {"lon": 9.16935, "lat": 46.998482}}, {"id": 7285732, "name": "Ennenda", "state": "", "country": "CH", "coord": {"lon": 9.09862, "lat": 47.044529}}, {"id": 7285734, "name": "Ennetb\u00fcrgen", "state": "", "country": "CH", "coord": {"lon": 8.41191, "lat": 46.991058}}, {"id": 7285736, "name": "Entlebuch", "state": "", "country": "CH", "coord": {"lon": 8.10786, "lat": 46.976189}}, {"id": 7285738, "name": "Epalinges", "state": "", "country": "CH", "coord": {"lon": 6.66849, "lat": 46.550709}}, {"id": 7285739, "name": "Ependes (FR)", "state": "", "country": "CH", "coord": {"lon": 7.1488, "lat": 46.757118}}, {"id": 7285740, "name": "Ependes (VD)", "state": "", "country": "CH", "coord": {"lon": 6.60268, "lat": 46.744831}}, {"id": 7285744, "name": "Eptingen", "state": "", "country": "CH", "coord": {"lon": 7.81721, "lat": 47.379742}}, {"id": 7285746, "name": "Eriswil", "state": "", "country": "CH", "coord": {"lon": 7.8577, "lat": 47.071739}}, {"id": 7285748, "name": "Erlach", "state": "", "country": "CH", "coord": {"lon": 7.09186, "lat": 47.036228}}, {"id": 7285751, "name": "Erlen", "state": "", "country": "CH", "coord": {"lon": 9.23602, "lat": 47.550991}}, {"id": 7285752, "name": "Erlenbach im Simmental", "state": "", "country": "CH", "coord": {"lon": 7.5395, "lat": 46.660641}}, {"id": 7285753, "name": "Erlenbach (ZH)", "state": "", "country": "CH", "coord": {"lon": 8.60718, "lat": 47.30468}}, {"id": 7285755, "name": "Erlinsbach (SO)", "state": "", "country": "CH", "coord": {"lon": 7.99435, "lat": 47.399281}}, {"id": 7285756, "name": "Ermatingen", "state": "", "country": "CH", "coord": {"lon": 9.09177, "lat": 47.656078}}, {"id": 7285758, "name": "Ernen", "state": "", "country": "CH", "coord": {"lon": 8.18566, "lat": 46.40065}}, {"id": 7285759, "name": "Ernetschwil", "state": "", "country": "CH", "coord": {"lon": 9.01392, "lat": 47.251011}}, {"id": 7285761, "name": "Erschmatt", "state": "", "country": "CH", "coord": {"lon": 7.69351, "lat": 46.346901}}, {"id": 7285762, "name": "Erschwil", "state": "", "country": "CH", "coord": {"lon": 7.54494, "lat": 47.371868}}, {"id": 7285763, "name": "Ersigen", "state": "", "country": "CH", "coord": {"lon": 7.60423, "lat": 47.097591}}, {"id": 7285764, "name": "Erstfeld", "state": "", "country": "CH", "coord": {"lon": 8.59937, "lat": 46.81237}}, {"id": 7285765, "name": "Eschenbach (LU)", "state": "", "country": "CH", "coord": {"lon": 8.31209, "lat": 47.12545}}, {"id": 7285766, "name": "Eschenbach (SG)", "state": "", "country": "CH", "coord": {"lon": 8.91909, "lat": 47.245098}}, {"id": 7285767, "name": "Eschenz", "state": "", "country": "CH", "coord": {"lon": 8.8718, "lat": 47.635841}}, {"id": 7285770, "name": "Eschlikon", "state": "", "country": "CH", "coord": {"lon": 8.96284, "lat": 47.458279}}, {"id": 7285771, "name": "Escholzmatt", "state": "", "country": "CH", "coord": {"lon": 7.94024, "lat": 46.912289}}, {"id": 7285773, "name": "Essertines-sur-Rolle", "state": "", "country": "CH", "coord": {"lon": 6.3125, "lat": 46.483631}}, {"id": 7285774, "name": "Essertines-sur-Yverdon", "state": "", "country": "CH", "coord": {"lon": 6.6447, "lat": 46.71767}}, {"id": 7285777, "name": "Estavayer-le-Lac", "state": "", "country": "CH", "coord": {"lon": 6.85669, "lat": 46.849628}}, {"id": 7285779, "name": "Etoy", "state": "", "country": "CH", "coord": {"lon": 6.42184, "lat": 46.48423}}, {"id": 7285780, "name": "Ettingen", "state": "", "country": "CH", "coord": {"lon": 7.54595, "lat": 47.474491}}, {"id": 7285781, "name": "Ettiswil", "state": "", "country": "CH", "coord": {"lon": 8.02957, "lat": 47.15575}}, {"id": 7285785, "name": "Evilard/Leubringen", "state": "", "country": "CH", "coord": {"lon": 7.22098, "lat": 47.14558}}, {"id": 7285787, "name": "Evol\u00e8ne", "state": "", "country": "CH", "coord": {"lon": 7.5095, "lat": 46.049789}}, {"id": 7285788, "name": "Fahrni", "state": "", "country": "CH", "coord": {"lon": 7.65449, "lat": 46.798882}}, {"id": 7285790, "name": "Fahy", "state": "", "country": "CH", "coord": {"lon": 6.9567, "lat": 47.419971}}, {"id": 7285791, "name": "Faido", "state": "", "country": "CH", "coord": {"lon": 8.83548, "lat": 46.474819}}, {"id": 7285794, "name": "F\u00e4llanden", "state": "", "country": "CH", "coord": {"lon": 8.63558, "lat": 47.369518}}, {"id": 7285796, "name": "Faoug", "state": "", "country": "CH", "coord": {"lon": 7.07442, "lat": 46.902431}}, {"id": 7285798, "name": "Farvagny", "state": "", "country": "CH", "coord": {"lon": 7.06629, "lat": 46.727699}}, {"id": 7285800, "name": "Fehraltorf", "state": "", "country": "CH", "coord": {"lon": 8.74995, "lat": 47.387291}}, {"id": 7285802, "name": "Felben-Wellhausen", "state": "", "country": "CH", "coord": {"lon": 8.94028, "lat": 47.575989}}, {"id": 7285803, "name": "Feldbrunnen-St. Niklaus", "state": "", "country": "CH", "coord": {"lon": 7.55223, "lat": 47.224972}}, {"id": 7285804, "name": "Felsberg", "state": "", "country": "CH", "coord": {"lon": 9.4623, "lat": 46.856541}}, {"id": 7285806, "name": "Ferden", "state": "", "country": "CH", "coord": {"lon": 7.73441, "lat": 46.387932}}, {"id": 7285807, "name": "Ferenbalm", "state": "", "country": "CH", "coord": {"lon": 7.22473, "lat": 46.943081}}, {"id": 7285815, "name": "Feuerthalen", "state": "", "country": "CH", "coord": {"lon": 8.65167, "lat": 47.685749}}, {"id": 7285816, "name": "Feusisberg", "state": "", "country": "CH", "coord": {"lon": 8.73137, "lat": 47.174751}}, {"id": 7285818, "name": "Fideris", "state": "", "country": "CH", "coord": {"lon": 9.73945, "lat": 46.886581}}, {"id": 7285819, "name": "Fiesch", "state": "", "country": "CH", "coord": {"lon": 8.11847, "lat": 46.413429}}, {"id": 7285824, "name": "Filisur", "state": "", "country": "CH", "coord": {"lon": 9.68928, "lat": 46.650181}}, {"id": 7285825, "name": "Filzbach", "state": "", "country": "CH", "coord": {"lon": 9.12518, "lat": 47.098091}}, {"id": 7285826, "name": "Finhaut", "state": "", "country": "CH", "coord": {"lon": 6.93174, "lat": 46.069481}}, {"id": 7285830, "name": "Fischenthal", "state": "", "country": "CH", "coord": {"lon": 8.94127, "lat": 47.336632}}, {"id": 7285831, "name": "Fischingen", "state": "", "country": "CH", "coord": {"lon": 8.95293, "lat": 47.415981}}, {"id": 7285834, "name": "Flaach", "state": "", "country": "CH", "coord": {"lon": 8.60517, "lat": 47.584702}}, {"id": 7285835, "name": "Fl\u00e4sch", "state": "", "country": "CH", "coord": {"lon": 9.53303, "lat": 47.039742}}, {"id": 7285837, "name": "Flawil", "state": "", "country": "CH", "coord": {"lon": 9.19771, "lat": 47.405319}}, {"id": 7285838, "name": "Flerden", "state": "", "country": "CH", "coord": {"lon": 9.39254, "lat": 46.694141}}, {"id": 7285840, "name": "Flims", "state": "", "country": "CH", "coord": {"lon": 9.27614, "lat": 46.85891}}, {"id": 7285841, "name": "Fl\u00fcelen", "state": "", "country": "CH", "coord": {"lon": 8.64602, "lat": 46.914631}}, {"id": 7285842, "name": "Fl\u00fchli", "state": "", "country": "CH", "coord": {"lon": 8.01014, "lat": 46.848721}}, {"id": 7285843, "name": "Flumenthal", "state": "", "country": "CH", "coord": {"lon": 7.60221, "lat": 47.234249}}, {"id": 7285844, "name": "Flums", "state": "", "country": "CH", "coord": {"lon": 9.29699, "lat": 47.05975}}, {"id": 7285845, "name": "Flurlingen", "state": "", "country": "CH", "coord": {"lon": 8.6367, "lat": 47.682362}}, {"id": 7285847, "name": "Fontainemelon", "state": "", "country": "CH", "coord": {"lon": 6.88378, "lat": 47.05912}}, {"id": 7285851, "name": "Fontaines-sur-Grandson", "state": "", "country": "CH", "coord": {"lon": 6.59985, "lat": 46.856178}}, {"id": 7285853, "name": "Fontenais", "state": "", "country": "CH", "coord": {"lon": 7.07679, "lat": 47.387718}}, {"id": 7285854, "name": "Forel (Lavaux)", "state": "", "country": "CH", "coord": {"lon": 6.76288, "lat": 46.53788}}, {"id": 7285856, "name": "Forst-L\u00e4ngenb\u00fchl", "state": "", "country": "CH", "coord": {"lon": 7.53245, "lat": 46.760941}}, {"id": 7285857, "name": "Founex", "state": "", "country": "CH", "coord": {"lon": 6.18506, "lat": 46.336441}}, {"id": 7285860, "name": "Fraubrunnen", "state": "", "country": "CH", "coord": {"lon": 7.53069, "lat": 47.088879}}, {"id": 7285861, "name": "Frauenfeld", "state": "", "country": "CH", "coord": {"lon": 8.89636, "lat": 47.558029}}, {"id": 7285862, "name": "Frauenkappelen", "state": "", "country": "CH", "coord": {"lon": 7.33342, "lat": 46.955349}}, {"id": 7285863, "name": "Freienbach", "state": "", "country": "CH", "coord": {"lon": 8.77099, "lat": 47.195919}}, {"id": 7285868, "name": "Frenkendorf", "state": "", "country": "CH", "coord": {"lon": 7.69698, "lat": 47.500961}}, {"id": 7285870, "name": "Fribourg", "state": "", "country": "CH", "coord": {"lon": 7.15974, "lat": 46.80418}}, {"id": 7285871, "name": "Frick", "state": "", "country": "CH", "coord": {"lon": 8.01416, "lat": 47.509701}}, {"id": 7285872, "name": "Froideville", "state": "", "country": "CH", "coord": {"lon": 6.69177, "lat": 46.598171}}, {"id": 7285873, "name": "Frutigen", "state": "", "country": "CH", "coord": {"lon": 7.61682, "lat": 46.558449}}, {"id": 7285874, "name": "Ftan", "state": "", "country": "CH", "coord": {"lon": 10.22797, "lat": 46.825859}}, {"id": 7285876, "name": "F\u00fcllinsdorf", "state": "", "country": "CH", "coord": {"lon": 7.73196, "lat": 47.510948}}, {"id": 7285878, "name": "Fully", "state": "", "country": "CH", "coord": {"lon": 7.11185, "lat": 46.157532}}, {"id": 7285880, "name": "F\u00fcrstenau", "state": "", "country": "CH", "coord": {"lon": 9.44841, "lat": 46.721691}}, {"id": 7285881, "name": "G\u00e4chlingen", "state": "", "country": "CH", "coord": {"lon": 8.49921, "lat": 47.717201}}, {"id": 7285882, "name": "Gachnang", "state": "", "country": "CH", "coord": {"lon": 8.85401, "lat": 47.547958}}, {"id": 7285884, "name": "Gais", "state": "", "country": "CH", "coord": {"lon": 9.47118, "lat": 47.369259}}, {"id": 7285886, "name": "Gallenkirch", "state": "", "country": "CH", "coord": {"lon": 8.12546, "lat": 47.480679}}, {"id": 7285887, "name": "Galmiz", "state": "", "country": "CH", "coord": {"lon": 7.14659, "lat": 46.958759}}, {"id": 7285888, "name": "Gals", "state": "", "country": "CH", "coord": {"lon": 7.0599, "lat": 47.03476}}, {"id": 7285889, "name": "Gampel-Bratsch", "state": "", "country": "CH", "coord": {"lon": 7.72754, "lat": 46.33725}}, {"id": 7285890, "name": "Gampelen", "state": "", "country": "CH", "coord": {"lon": 7.05576, "lat": 47.00568}}, {"id": 7285891, "name": "Gams", "state": "", "country": "CH", "coord": {"lon": 9.43022, "lat": 47.211552}}, {"id": 7285892, "name": "G\u00e4nsbrunnen", "state": "", "country": "CH", "coord": {"lon": 7.46698, "lat": 47.26202}}, {"id": 7285894, "name": "Ganterschwil", "state": "", "country": "CH", "coord": {"lon": 9.0955, "lat": 47.374008}}, {"id": 7285895, "name": "Gebenstorf", "state": "", "country": "CH", "coord": {"lon": 8.24758, "lat": 47.480511}}, {"id": 7285897, "name": "Gelterkinden", "state": "", "country": "CH", "coord": {"lon": 7.85848, "lat": 47.456921}}, {"id": 7285902, "name": "Gen\u00e8ve", "state": "", "country": "CH", "coord": {"lon": 6.14161, "lat": 46.205761}}, {"id": 7285903, "name": "Genolier", "state": "", "country": "CH", "coord": {"lon": 6.22039, "lat": 46.436249}}, {"id": 7285904, "name": "Genthod", "state": "", "country": "CH", "coord": {"lon": 6.15406, "lat": 46.266418}}, {"id": 7285905, "name": "Gerlafingen", "state": "", "country": "CH", "coord": {"lon": 7.57203, "lat": 47.170559}}, {"id": 7285906, "name": "Geroldswil", "state": "", "country": "CH", "coord": {"lon": 8.41192, "lat": 47.420681}}, {"id": 7285908, "name": "Gersau", "state": "", "country": "CH", "coord": {"lon": 8.52758, "lat": 47.005619}}, {"id": 7285909, "name": "Gerzensee", "state": "", "country": "CH", "coord": {"lon": 7.54208, "lat": 46.84647}}, {"id": 7285910, "name": "Gettnau", "state": "", "country": "CH", "coord": {"lon": 7.96671, "lat": 47.138592}}, {"id": 7285911, "name": "Geuensee", "state": "", "country": "CH", "coord": {"lon": 8.1165, "lat": 47.20182}}, {"id": 7285913, "name": "Giez", "state": "", "country": "CH", "coord": {"lon": 6.60975, "lat": 46.814522}}, {"id": 7285916, "name": "Gimel", "state": "", "country": "CH", "coord": {"lon": 6.28948, "lat": 46.526661}}, {"id": 7285919, "name": "Gipf-Oberfrick", "state": "", "country": "CH", "coord": {"lon": 7.99623, "lat": 47.492889}}, {"id": 7285921, "name": "Giswil", "state": "", "country": "CH", "coord": {"lon": 8.11884, "lat": 46.835861}}, {"id": 7285922, "name": "Giubiasco", "state": "", "country": "CH", "coord": {"lon": 9.00092, "lat": 46.172611}}, {"id": 7285924, "name": "Givrins", "state": "", "country": "CH", "coord": {"lon": 6.19621, "lat": 46.432781}}, {"id": 7285925, "name": "Gland", "state": "", "country": "CH", "coord": {"lon": 6.27305, "lat": 46.419731}}, {"id": 7285926, "name": "Glarus", "state": "", "country": "CH", "coord": {"lon": 8.97896, "lat": 47.021}}, {"id": 7285927, "name": "Glattfelden", "state": "", "country": "CH", "coord": {"lon": 8.49635, "lat": 47.560638}}, {"id": 7285929, "name": "Gletterens", "state": "", "country": "CH", "coord": {"lon": 6.93627, "lat": 46.900269}}, {"id": 7285931, "name": "Glovelier", "state": "", "country": "CH", "coord": {"lon": 7.18442, "lat": 47.32692}}, {"id": 7285933, "name": "Golaten", "state": "", "country": "CH", "coord": {"lon": 7.24406, "lat": 46.98753}}, {"id": 7285934, "name": "Goldach", "state": "", "country": "CH", "coord": {"lon": 9.46787, "lat": 47.47364}}, {"id": 7285935, "name": "Goldingen", "state": "", "country": "CH", "coord": {"lon": 8.97102, "lat": 47.28513}}, {"id": 7285936, "name": "Gollion", "state": "", "country": "CH", "coord": {"lon": 6.51196, "lat": 46.586029}}, {"id": 7285938, "name": "Gondiswil", "state": "", "country": "CH", "coord": {"lon": 7.86832, "lat": 47.14344}}, {"id": 7285939, "name": "Gonten", "state": "", "country": "CH", "coord": {"lon": 9.34854, "lat": 47.319191}}, {"id": 7285940, "name": "Gontenschwil", "state": "", "country": "CH", "coord": {"lon": 8.14116, "lat": 47.267509}}, {"id": 7285941, "name": "Gordola", "state": "", "country": "CH", "coord": {"lon": 8.86378, "lat": 46.188381}}, {"id": 7285943, "name": "Gorgier", "state": "", "country": "CH", "coord": {"lon": 6.76508, "lat": 46.92424}}, {"id": 7285944, "name": "G\u00f6schenen", "state": "", "country": "CH", "coord": {"lon": 8.49877, "lat": 46.663952}}, {"id": 7285945, "name": "Gossau (SG)", "state": "", "country": "CH", "coord": {"lon": 9.25362, "lat": 47.421009}}, {"id": 7285946, "name": "Gossau (ZH)", "state": "", "country": "CH", "coord": {"lon": 8.76864, "lat": 47.302528}}, {"id": 7285948, "name": "Gottlieben", "state": "", "country": "CH", "coord": {"lon": 9.12736, "lat": 47.66452}}, {"id": 7285949, "name": "Goumoens-la-Ville", "state": "", "country": "CH", "coord": {"lon": 6.61106, "lat": 46.660198}}, {"id": 7285952, "name": "Grabs", "state": "", "country": "CH", "coord": {"lon": 9.39448, "lat": 47.168308}}, {"id": 7285957, "name": "Grancy", "state": "", "country": "CH", "coord": {"lon": 6.46093, "lat": 46.593609}}, {"id": 7285960, "name": "Grandfontaine", "state": "", "country": "CH", "coord": {"lon": 6.93355, "lat": 47.39193}}, {"id": 7285961, "name": "Grandson", "state": "", "country": "CH", "coord": {"lon": 6.64449, "lat": 46.81461}}, {"id": 7285962, "name": "Grandval", "state": "", "country": "CH", "coord": {"lon": 7.42801, "lat": 47.283588}}, {"id": 7285969, "name": "Gr\u00e4nichen", "state": "", "country": "CH", "coord": {"lon": 8.10669, "lat": 47.351559}}, {"id": 7285970, "name": "Gravesano", "state": "", "country": "CH", "coord": {"lon": 8.91899, "lat": 46.04203}}, {"id": 7285971, "name": "Greifensee", "state": "", "country": "CH", "coord": {"lon": 8.67909, "lat": 47.352928}}, {"id": 7285972, "name": "Grellingen", "state": "", "country": "CH", "coord": {"lon": 7.58669, "lat": 47.438938}}, {"id": 7285973, "name": "Grenchen", "state": "", "country": "CH", "coord": {"lon": 7.38752, "lat": 47.19717}}, {"id": 7285975, "name": "Grengiols", "state": "", "country": "CH", "coord": {"lon": 8.13701, "lat": 46.340248}}, {"id": 7285976, "name": "Grens", "state": "", "country": "CH", "coord": {"lon": 6.19169, "lat": 46.396542}}, {"id": 7285977, "name": "Greppen", "state": "", "country": "CH", "coord": {"lon": 8.44017, "lat": 47.054531}}, {"id": 7285982, "name": "Grimisuat", "state": "", "country": "CH", "coord": {"lon": 7.38094, "lat": 46.25597}}, {"id": 7285984, "name": "Grindelwald", "state": "", "country": "CH", "coord": {"lon": 8.05098, "lat": 46.619068}}, {"id": 7285985, "name": "Grolley", "state": "", "country": "CH", "coord": {"lon": 7.06589, "lat": 46.834721}}, {"id": 7285986, "name": "Gr\u00f4ne", "state": "", "country": "CH", "coord": {"lon": 7.4865, "lat": 46.233452}}, {"id": 7285987, "name": "Grono", "state": "", "country": "CH", "coord": {"lon": 9.18151, "lat": 46.23259}}, {"id": 7285988, "name": "Grossaffoltern", "state": "", "country": "CH", "coord": {"lon": 7.35639, "lat": 47.068871}}, {"id": 7285993, "name": "Grosswangen", "state": "", "country": "CH", "coord": {"lon": 8.05488, "lat": 47.133469}}, {"id": 7285995, "name": "Gr\u00fcsch", "state": "", "country": "CH", "coord": {"lon": 9.64391, "lat": 46.966141}}, {"id": 7285996, "name": "Gruy\u00e8res", "state": "", "country": "CH", "coord": {"lon": 7.05192, "lat": 46.574219}}, {"id": 7285997, "name": "Gryon", "state": "", "country": "CH", "coord": {"lon": 7.0975, "lat": 46.2906}}, {"id": 7285998, "name": "Gsteig", "state": "", "country": "CH", "coord": {"lon": 7.2527, "lat": 46.384571}}, {"id": 7286000, "name": "Guarda", "state": "", "country": "CH", "coord": {"lon": 10.14078, "lat": 46.809731}}, {"id": 7286001, "name": "Gudo", "state": "", "country": "CH", "coord": {"lon": 8.94564, "lat": 46.181438}}, {"id": 7286002, "name": "Guggisberg", "state": "", "country": "CH", "coord": {"lon": 7.34443, "lat": 46.738312}}, {"id": 7286006, "name": "Gunzgen", "state": "", "country": "CH", "coord": {"lon": 7.83524, "lat": 47.31284}}, {"id": 7286008, "name": "Gurmels", "state": "", "country": "CH", "coord": {"lon": 7.17192, "lat": 46.89407}}, {"id": 7286010, "name": "Gurtnellen", "state": "", "country": "CH", "coord": {"lon": 8.6239, "lat": 46.743481}}, {"id": 7286013, "name": "Guttet-Feschel", "state": "", "country": "CH", "coord": {"lon": 7.67664, "lat": 46.348999}}, {"id": 7286014, "name": "G\u00fcttingen", "state": "", "country": "CH", "coord": {"lon": 9.28637, "lat": 47.596451}}, {"id": 7286015, "name": "Gy", "state": "", "country": "CH", "coord": {"lon": 6.27011, "lat": 46.25172}}, {"id": 7286016, "name": "Habkern", "state": "", "country": "CH", "coord": {"lon": 7.89003, "lat": 46.755089}}, {"id": 7286017, "name": "Habsburg", "state": "", "country": "CH", "coord": {"lon": 8.18595, "lat": 47.461449}}, {"id": 7286020, "name": "H\u00e4gendorf", "state": "", "country": "CH", "coord": {"lon": 7.82451, "lat": 47.345428}}, {"id": 7286023, "name": "H\u00e4ggenschwil", "state": "", "country": "CH", "coord": {"lon": 9.34095, "lat": 47.494438}}, {"id": 7286024, "name": "H\u00e4gglingen", "state": "", "country": "CH", "coord": {"lon": 8.25828, "lat": 47.38998}}, {"id": 7286026, "name": "Haldenstein", "state": "", "country": "CH", "coord": {"lon": 9.50086, "lat": 46.881641}}, {"id": 7286027, "name": "Hallau", "state": "", "country": "CH", "coord": {"lon": 8.44315, "lat": 47.70047}}, {"id": 7286030, "name": "H\u00e4rkingen", "state": "", "country": "CH", "coord": {"lon": 7.82137, "lat": 47.304611}}, {"id": 7286031, "name": "Hasle bei Burgdorf", "state": "", "country": "CH", "coord": {"lon": 7.64314, "lat": 46.998291}}, {"id": 7286032, "name": "Hasle (LU)", "state": "", "country": "CH", "coord": {"lon": 8.07635, "lat": 46.950409}}, {"id": 7286033, "name": "Haslen", "state": "", "country": "CH", "coord": {"lon": 9.0639, "lat": 46.966301}}, {"id": 7286037, "name": "Hausen", "state": "", "country": "CH", "coord": {"lon": 8.20726, "lat": 47.461449}}, {"id": 7286038, "name": "Hausen am Albis", "state": "", "country": "CH", "coord": {"lon": 8.53664, "lat": 47.24435}}, {"id": 7286039, "name": "Haute-Ajoie", "state": "", "country": "CH", "coord": {"lon": 6.96395, "lat": 47.381908}}, {"id": 7286042, "name": "Hauteville", "state": "", "country": "CH", "coord": {"lon": 7.13425, "lat": 46.668621}}, {"id": 7286043, "name": "Haut-Intyamon", "state": "", "country": "CH", "coord": {"lon": 7.03408, "lat": 46.498692}}, {"id": 7286045, "name": "Hedingen", "state": "", "country": "CH", "coord": {"lon": 8.45094, "lat": 47.301472}}, {"id": 7286047, "name": "Heiden", "state": "", "country": "CH", "coord": {"lon": 9.53349, "lat": 47.441212}}, {"id": 7286048, "name": "Heiligenschwendi", "state": "", "country": "CH", "coord": {"lon": 7.68229, "lat": 46.75201}}, {"id": 7286049, "name": "Heimberg", "state": "", "country": "CH", "coord": {"lon": 7.60351, "lat": 46.793171}}, {"id": 7286051, "name": "Heimiswil", "state": "", "country": "CH", "coord": {"lon": 7.67084, "lat": 47.062962}}, {"id": 7286053, "name": "Heitenried", "state": "", "country": "CH", "coord": {"lon": 7.30239, "lat": 46.836288}}, {"id": 7286056, "name": "Hemberg", "state": "", "country": "CH", "coord": {"lon": 9.18632, "lat": 47.29649}}, {"id": 7286057, "name": "Hemishofen", "state": "", "country": "CH", "coord": {"lon": 8.84101, "lat": 47.688251}}, {"id": 7286059, "name": "Hendschiken", "state": "", "country": "CH", "coord": {"lon": 8.21586, "lat": 47.384499}}, {"id": 7286060, "name": "Henggart", "state": "", "country": "CH", "coord": {"lon": 8.68368, "lat": 47.562462}}, {"id": 7286062, "name": "Herbetswil", "state": "", "country": "CH", "coord": {"lon": 7.56935, "lat": 47.29348}}, {"id": 7286064, "name": "Herdern", "state": "", "country": "CH", "coord": {"lon": 8.9204, "lat": 47.615471}}, {"id": 7286065, "name": "H\u00e9r\u00e9mence", "state": "", "country": "CH", "coord": {"lon": 7.39576, "lat": 46.088772}}, {"id": 7286067, "name": "Hergiswil (NW)", "state": "", "country": "CH", "coord": {"lon": 8.27237, "lat": 46.985668}}, {"id": 7286068, "name": "Herisau", "state": "", "country": "CH", "coord": {"lon": 9.27409, "lat": 47.382881}}, {"id": 7286069, "name": "Hermance", "state": "", "country": "CH", "coord": {"lon": 6.24472, "lat": 46.293549}}, {"id": 7286074, "name": "Herrliberg", "state": "", "country": "CH", "coord": {"lon": 8.63018, "lat": 47.297161}}, {"id": 7286078, "name": "Herzogenbuchsee", "state": "", "country": "CH", "coord": {"lon": 7.70619, "lat": 47.188381}}, {"id": 7286080, "name": "Hettlingen", "state": "", "country": "CH", "coord": {"lon": 8.70623, "lat": 47.549519}}, {"id": 7286081, "name": "Hildisrieden", "state": "", "country": "CH", "coord": {"lon": 8.23181, "lat": 47.147381}}, {"id": 7286083, "name": "Hilterfingen", "state": "", "country": "CH", "coord": {"lon": 7.65822, "lat": 46.743198}}, {"id": 7286084, "name": "Himmelried", "state": "", "country": "CH", "coord": {"lon": 7.59054, "lat": 47.424782}}, {"id": 7286085, "name": "Hindelbank", "state": "", "country": "CH", "coord": {"lon": 7.54327, "lat": 47.041729}}, {"id": 7286086, "name": "Hinterrhein", "state": "", "country": "CH", "coord": {"lon": 9.13501, "lat": 46.513672}}, {"id": 7286087, "name": "Hinwil", "state": "", "country": "CH", "coord": {"lon": 8.85275, "lat": 47.301491}}, {"id": 7286089, "name": "Hittnau", "state": "", "country": "CH", "coord": {"lon": 8.8292, "lat": 47.366291}}, {"id": 7286090, "name": "Hitzkirch", "state": "", "country": "CH", "coord": {"lon": 8.26408, "lat": 47.22419}}, {"id": 7286091, "name": "Hochdorf", "state": "", "country": "CH", "coord": {"lon": 8.29232, "lat": 47.166431}}, {"id": 7286092, "name": "Hochfelden", "state": "", "country": "CH", "coord": {"lon": 8.50895, "lat": 47.528431}}, {"id": 7286094, "name": "Hochwald", "state": "", "country": "CH", "coord": {"lon": 7.6396, "lat": 47.45443}}, {"id": 7286095, "name": "H\u00f6fen", "state": "", "country": "CH", "coord": {"lon": 7.56672, "lat": 46.72253}}, {"id": 7286097, "name": "Hofstetten-Fl\u00fch", "state": "", "country": "CH", "coord": {"lon": 7.50826, "lat": 47.47216}}, {"id": 7286099, "name": "Hohenrain", "state": "", "country": "CH", "coord": {"lon": 8.31792, "lat": 47.18121}}, {"id": 7286102, "name": "Holderbank (SO)", "state": "", "country": "CH", "coord": {"lon": 7.75148, "lat": 47.333061}}, {"id": 7286103, "name": "H\u00f6lstein", "state": "", "country": "CH", "coord": {"lon": 7.77494, "lat": 47.4259}}, {"id": 7286106, "name": "Hombrechtikon", "state": "", "country": "CH", "coord": {"lon": 8.76868, "lat": 47.252682}}, {"id": 7286107, "name": "Homburg", "state": "", "country": "CH", "coord": {"lon": 8.98921, "lat": 47.634892}}, {"id": 7286109, "name": "Horgen", "state": "", "country": "CH", "coord": {"lon": 8.58482, "lat": 47.248669}}, {"id": 7286110, "name": "H\u00f6ri", "state": "", "country": "CH", "coord": {"lon": 8.50244, "lat": 47.5075}}, {"id": 7286113, "name": "Horrenbach-Buchen", "state": "", "country": "CH", "coord": {"lon": 7.78249, "lat": 46.774849}}, {"id": 7286115, "name": "Horw", "state": "", "country": "CH", "coord": {"lon": 8.31072, "lat": 47.013401}}, {"id": 7286116, "name": "Hospental", "state": "", "country": "CH", "coord": {"lon": 8.5619, "lat": 46.60664}}, {"id": 7286120, "name": "Hundwil", "state": "", "country": "CH", "coord": {"lon": 9.31788, "lat": 47.319679}}, {"id": 7286121, "name": "H\u00fcnenberg", "state": "", "country": "CH", "coord": {"lon": 8.41962, "lat": 47.191269}}, {"id": 7286123, "name": "H\u00fcntwangen", "state": "", "country": "CH", "coord": {"lon": 8.49845, "lat": 47.5919}}, {"id": 7286124, "name": "Hunzenschwil", "state": "", "country": "CH", "coord": {"lon": 8.12284, "lat": 47.384209}}, {"id": 7286125, "name": "H\u00fctten", "state": "", "country": "CH", "coord": {"lon": 8.66606, "lat": 47.173019}}, {"id": 7286127, "name": "H\u00fcttlingen", "state": "", "country": "CH", "coord": {"lon": 8.98455, "lat": 47.576778}}, {"id": 7286128, "name": "Huttwil", "state": "", "country": "CH", "coord": {"lon": 7.84642, "lat": 47.107769}}, {"id": 7286129, "name": "H\u00fcttwilen", "state": "", "country": "CH", "coord": {"lon": 8.8505, "lat": 47.615269}}, {"id": 7286132, "name": "Igis", "state": "", "country": "CH", "coord": {"lon": 9.58089, "lat": 46.957279}}, {"id": 7286133, "name": "Ilanz", "state": "", "country": "CH", "coord": {"lon": 9.19255, "lat": 46.770672}}, {"id": 7286135, "name": "Illnau-Effretikon", "state": "", "country": "CH", "coord": {"lon": 8.71605, "lat": 47.422932}}, {"id": 7286137, "name": "Inden", "state": "", "country": "CH", "coord": {"lon": 7.59799, "lat": 46.360432}}, {"id": 7286138, "name": "Ingenbohl", "state": "", "country": "CH", "coord": {"lon": 8.59841, "lat": 47.003899}}, {"id": 7286140, "name": "Innerthal", "state": "", "country": "CH", "coord": {"lon": 8.91715, "lat": 47.075562}}, {"id": 7286141, "name": "Innertkirchen", "state": "", "country": "CH", "coord": {"lon": 8.23703, "lat": 46.67165}}, {"id": 7286142, "name": "Ins", "state": "", "country": "CH", "coord": {"lon": 7.10054, "lat": 46.998131}}, {"id": 7286146, "name": "Ipsach", "state": "", "country": "CH", "coord": {"lon": 7.23181, "lat": 47.11504}}, {"id": 7286148, "name": "Iseltwald", "state": "", "country": "CH", "coord": {"lon": 7.99117, "lat": 46.700169}}, {"id": 7286149, "name": "Isenthal", "state": "", "country": "CH", "coord": {"lon": 8.52449, "lat": 46.886311}}, {"id": 7286150, "name": "Is\u00e9rables", "state": "", "country": "CH", "coord": {"lon": 7.26783, "lat": 46.148029}}, {"id": 7286153, "name": "Isorno", "state": "", "country": "CH", "coord": {"lon": 8.67284, "lat": 46.209171}}, {"id": 7286154, "name": "Itingen", "state": "", "country": "CH", "coord": {"lon": 7.78478, "lat": 47.464821}}, {"id": 7286155, "name": "Ittenthal", "state": "", "country": "CH", "coord": {"lon": 8.06219, "lat": 47.518959}}, {"id": 7286156, "name": "Ittigen", "state": "", "country": "CH", "coord": {"lon": 7.47451, "lat": 46.980629}}, {"id": 7286157, "name": "Jaberg", "state": "", "country": "CH", "coord": {"lon": 7.56586, "lat": 46.81942}}, {"id": 7286158, "name": "Jaun", "state": "", "country": "CH", "coord": {"lon": 7.26621, "lat": 46.605911}}, {"id": 7286159, "name": "Jegenstorf", "state": "", "country": "CH", "coord": {"lon": 7.50357, "lat": 47.052151}}, {"id": 7286160, "name": "Jenaz", "state": "", "country": "CH", "coord": {"lon": 9.70195, "lat": 46.906521}}, {"id": 7286161, "name": "Jenins", "state": "", "country": "CH", "coord": {"lon": 9.57439, "lat": 47.011749}}, {"id": 7286163, "name": "Jeuss", "state": "", "country": "CH", "coord": {"lon": 7.16826, "lat": 46.904629}}, {"id": 7286164, "name": "Jonen", "state": "", "country": "CH", "coord": {"lon": 8.40219, "lat": 47.299679}}, {"id": 7286165, "name": "Jongny", "state": "", "country": "CH", "coord": {"lon": 6.84659, "lat": 46.48761}}, {"id": 7286166, "name": "Jonschwil", "state": "", "country": "CH", "coord": {"lon": 9.08848, "lat": 47.42831}}, {"id": 7286169, "name": "Jussy", "state": "", "country": "CH", "coord": {"lon": 6.27913, "lat": 46.237122}}, {"id": 7286170, "name": "Kaiseraugst", "state": "", "country": "CH", "coord": {"lon": 7.74212, "lat": 47.536121}}, {"id": 7286171, "name": "Kaiserstuhl", "state": "", "country": "CH", "coord": {"lon": 8.41902, "lat": 47.567669}}, {"id": 7286172, "name": "Kaisten", "state": "", "country": "CH", "coord": {"lon": 8.04491, "lat": 47.539001}}, {"id": 7286174, "name": "Kallnach", "state": "", "country": "CH", "coord": {"lon": 7.21497, "lat": 47.015671}}, {"id": 7286175, "name": "Kaltbrunn", "state": "", "country": "CH", "coord": {"lon": 9.04905, "lat": 47.210018}}, {"id": 7286177, "name": "Kandergrund", "state": "", "country": "CH", "coord": {"lon": 7.67686, "lat": 46.536179}}, {"id": 7286178, "name": "Kandersteg", "state": "", "country": "CH", "coord": {"lon": 7.70835, "lat": 46.46925}}, {"id": 7286179, "name": "K\u00e4nerkinden", "state": "", "country": "CH", "coord": {"lon": 7.83234, "lat": 47.411598}}, {"id": 7286180, "name": "Kappel am Albis", "state": "", "country": "CH", "coord": {"lon": 8.51104, "lat": 47.225231}}, {"id": 7286184, "name": "Kehrsatz", "state": "", "country": "CH", "coord": {"lon": 7.47155, "lat": 46.912121}}, {"id": 7286185, "name": "Kemmental", "state": "", "country": "CH", "coord": {"lon": 9.14126, "lat": 47.608009}}, {"id": 7286186, "name": "Kernenried", "state": "", "country": "CH", "coord": {"lon": 7.54982, "lat": 47.066189}}, {"id": 7286187, "name": "Kerns", "state": "", "country": "CH", "coord": {"lon": 8.30134, "lat": 46.839859}}, {"id": 7286188, "name": "Kerzers", "state": "", "country": "CH", "coord": {"lon": 7.19875, "lat": 46.981232}}, {"id": 7286189, "name": "Kesswil", "state": "", "country": "CH", "coord": {"lon": 9.3129, "lat": 47.587559}}, {"id": 7286190, "name": "Kestenholz", "state": "", "country": "CH", "coord": {"lon": 7.75331, "lat": 47.27634}}, {"id": 7286195, "name": "Kilchberg (ZH)", "state": "", "country": "CH", "coord": {"lon": 8.54337, "lat": 47.3218}}, {"id": 7286196, "name": "Killwangen", "state": "", "country": "CH", "coord": {"lon": 8.34425, "lat": 47.427979}}, {"id": 7286197, "name": "Kippel", "state": "", "country": "CH", "coord": {"lon": 7.76822, "lat": 46.396259}}, {"id": 7286198, "name": "Kirchberg (BE)", "state": "", "country": "CH", "coord": {"lon": 7.60499, "lat": 47.082821}}, {"id": 7286199, "name": "Kirchberg (SG)", "state": "", "country": "CH", "coord": {"lon": 9.02598, "lat": 47.40823}}, {"id": 7286200, "name": "Kirchdorf (BE)", "state": "", "country": "CH", "coord": {"lon": 7.54553, "lat": 46.817101}}, {"id": 7286202, "name": "Kirchleerau", "state": "", "country": "CH", "coord": {"lon": 8.07405, "lat": 47.277241}}, {"id": 7286203, "name": "Kirchlindach", "state": "", "country": "CH", "coord": {"lon": 7.41578, "lat": 46.99847}}, {"id": 7286204, "name": "Kleinandelfingen", "state": "", "country": "CH", "coord": {"lon": 8.67114, "lat": 47.608471}}, {"id": 7286207, "name": "Kleinl\u00fctzel", "state": "", "country": "CH", "coord": {"lon": 7.4178, "lat": 47.426601}}, {"id": 7286208, "name": "Klingnau", "state": "", "country": "CH", "coord": {"lon": 8.25065, "lat": 47.588631}}, {"id": 7286209, "name": "Klosters-Serneus", "state": "", "country": "CH", "coord": {"lon": 9.95379, "lat": 46.854809}}, {"id": 7286210, "name": "Kloten", "state": "", "country": "CH", "coord": {"lon": 8.58528, "lat": 47.458012}}, {"id": 7286211, "name": "Knonau", "state": "", "country": "CH", "coord": {"lon": 8.46262, "lat": 47.224461}}, {"id": 7286212, "name": "Knutwil", "state": "", "country": "CH", "coord": {"lon": 8.07089, "lat": 47.19519}}, {"id": 7286213, "name": "Koblenz", "state": "", "country": "CH", "coord": {"lon": 8.24474, "lat": 47.604389}}, {"id": 7286214, "name": "K\u00f6lliken", "state": "", "country": "CH", "coord": {"lon": 8.02093, "lat": 47.333569}}, {"id": 7286216, "name": "K\u00f6niz", "state": "", "country": "CH", "coord": {"lon": 7.3978, "lat": 46.90432}}, {"id": 7286217, "name": "Konolfingen", "state": "", "country": "CH", "coord": {"lon": 7.60814, "lat": 46.886581}}, {"id": 7286218, "name": "Koppigen", "state": "", "country": "CH", "coord": {"lon": 7.60273, "lat": 47.135948}}, {"id": 7286220, "name": "Krattigen", "state": "", "country": "CH", "coord": {"lon": 7.7402, "lat": 46.650249}},