[{"id": 5230474, "name": "Platte Colony", "state": "SD", "country": "US", "coord": {"lon": -99.125931, "lat": 43.469719}}, {"id": 5230626, "name": "Prairie Village", "state": "SD", "country": "US", "coord": {"lon": -97.167557, "lat": 44.006088}}, {"id": 5230743, "name": "Redfield", "state": "SD", "country": "US", "coord": {"lon": -98.518707, "lat": 44.875809}}, {"id": 5230843, "name": "River Bluff Addition", "state": "SD", "country": "US", "coord": {"lon": -98.065628, "lat": 43.733318}}, {"id": 5230872, "name": "Roberts County", "state": "SD", "country": "US", "coord": {"lon": -96.983688, "lat": 45.516628}}, {"id": 5231228, "name": "Salem", "state": "SD", "country": "US", "coord": {"lon": -97.388947, "lat": 43.724152}}, {"id": 5231311, "name": "Schmidt Landing", "state": "SD", "country": "US", "coord": {"lon": -96.56089, "lat": 45.379688}}, {"id": 5231851, "name": "Sioux Falls", "state": "SD", "country": "US", "coord": {"lon": -96.700333, "lat": 43.549969}}, {"id": 5231863, "name": "Sisseton", "state": "SD", "country": "US", "coord": {"lon": -97.049797, "lat": 45.66468}}, {"id": 5231992, "name": "Spink County", "state": "SD", "country": "US", "coord": {"lon": -98.317039, "lat": 44.936081}}, {"id": 5232077, "name": "Springfield", "state": "SD", "country": "US", "coord": {"lon": -97.897293, "lat": 42.854172}}, {"id": 5232316, "name": "Tea", "state": "SD", "country": "US", "coord": {"lon": -96.835876, "lat": 43.446369}}, {"id": 5232489, "name": "Tyndall", "state": "SD", "country": "US", "coord": {"lon": -97.862846, "lat": 42.993328}}, {"id": 5232592, "name": "Vermillion", "state": "SD", "country": "US", "coord": {"lon": -96.929207, "lat": 42.779442}}, {"id": 5232637, "name": "Volga", "state": "SD", "country": "US", "coord": {"lon": -96.926453, "lat": 44.323582}}, {"id": 5232661, "name": "Wagner", "state": "SD", "country": "US", "coord": {"lon": -98.293129, "lat": 43.07972}}, {"id": 5232741, "name": "Watertown", "state": "SD", "country": "US", "coord": {"lon": -97.115067, "lat": 44.89941}}, {"id": 5232764, "name": "Webster", "state": "SD", "country": "US", "coord": {"lon": -97.520088, "lat": 45.33218}}, {"id": 5232802, "name": "Wessington Springs", "state": "SD", "country": "US", "coord": {"lon": -98.569542, "lat": 44.079159}}, {"id": 5232895, "name": "White", "state": "SD", "country": "US", "coord": {"lon": -96.649773, "lat": 44.434689}}, {"id": 5232994, "name": "Winner", "state": "SD", "country": "US", "coord": {"lon": -99.859009, "lat": 43.376671}}, {"id": 5233037, "name": "Woonsocket", "state": "SD", "country": "US", "coord": {"lon": -98.275642, "lat": 44.0536}}, {"id": 5233053, "name": "Yankton", "state": "SD", "country": "US", "coord": {"lon": -97.397278, "lat": 42.871109}}, {"id": 5233056, "name": "Yankton County", "state": "SD", "country": "US", "coord": {"lon": -97.383667, "lat": 43.049999}}, {"id": 5233146, "name": "Addison County", "state": "VT", "country": "US", "coord": {"lon": -73.116226, "lat": 44.05006}}, {"id": 5233315, "name": "Arlington", "state": "VT", "country": "US", "coord": {"lon": -73.153999, "lat": 43.074799}}, {"id": 5233500, "name": "Barre", "state": "VT", "country": "US", "coord": {"lon": -72.502052, "lat": 44.19701}}, {"id": 5233700, "name": "Beebe Plain", "state": "VT", "country": "US", "coord": {"lon": -72.140663, "lat": 45.005322}}, {"id": 5233738, "name": "Bellows Falls", "state": "VT", "country": "US", "coord": {"lon": -72.443977, "lat": 43.133411}}, {"id": 5233742, "name": "Bennington", "state": "VT", "country": "US", "coord": {"lon": -73.19677, "lat": 42.878132}}, {"id": 5233748, "name": "Bennington County", "state": "VT", "country": "US", "coord": {"lon": -73.099548, "lat": 43.033409}}, {"id": 5234041, "name": "Bowman Corners", "state": "VT", "country": "US", "coord": {"lon": -73.057083, "lat": 44.573662}}, {"id": 5234101, "name": "Brandon", "state": "VT", "country": "US", "coord": {"lon": -73.087608, "lat": 43.798119}}, {"id": 5234136, "name": "Bread Loaf", "state": "VT", "country": "US", "coord": {"lon": -72.992607, "lat": 43.9534}}, {"id": 5234141, "name": "Brattleboro", "state": "VT", "country": "US", "coord": {"lon": -72.557869, "lat": 42.850922}}, {"id": 5234158, "name": "Bridgewater Corners", "state": "VT", "country": "US", "coord": {"lon": -72.65593, "lat": 43.588402}}, {"id": 5234183, "name": "Bristol", "state": "VT", "country": "US", "coord": {"lon": -73.07901, "lat": 44.133389}}, {"id": 5234282, "name": "Brownsville", "state": "VT", "country": "US", "coord": {"lon": -72.470917, "lat": 43.468681}}, {"id": 5234372, "name": "Burlington", "state": "VT", "country": "US", "coord": {"lon": -73.212067, "lat": 44.47588}}, {"id": 5234814, "name": "Chelsea", "state": "VT", "country": "US", "coord": {"lon": -72.447601, "lat": 43.989792}}, {"id": 5234827, "name": "Chester", "state": "VT", "country": "US", "coord": {"lon": -72.595093, "lat": 43.262852}}, {"id": 5234861, "name": "Chittenden County", "state": "VT", "country": "US", "coord": {"lon": -73.049568, "lat": 44.45005}}, {"id": 5235024, "name": "Colchester", "state": "VT", "country": "US", "coord": {"lon": -73.147911, "lat": 44.543941}}, {"id": 5235519, "name": "Dover", "state": "VT", "country": "US", "coord": {"lon": -72.803993, "lat": 42.943691}}, {"id": 5235663, "name": "East Brookfield", "state": "VT", "country": "US", "coord": {"lon": -72.571487, "lat": 44.027561}}, {"id": 5235681, "name": "East Clarendon", "state": "VT", "country": "US", "coord": {"lon": -72.938988, "lat": 43.524792}}, {"id": 5235775, "name": "East Richford", "state": "VT", "country": "US", "coord": {"lon": -72.58596, "lat": 45.011162}}, {"id": 5235919, "name": "Enosburg Falls", "state": "VT", "country": "US", "coord": {"lon": -72.806519, "lat": 44.90699}}, {"id": 5235952, "name": "Essex Junction", "state": "VT", "country": "US", "coord": {"lon": -73.110962, "lat": 44.490608}}, {"id": 5236019, "name": "Fair Haven", "state": "VT", "country": "US", "coord": {"lon": -73.265671, "lat": 43.594791}}, {"id": 5236027, "name": "Fairlee", "state": "VT", "country": "US", "coord": {"lon": -72.143417, "lat": 43.90757}}, {"id": 5236279, "name": "Franklin County", "state": "VT", "country": "US", "coord": {"lon": -72.866249, "lat": 44.850052}}, {"id": 5236698, "name": "Guildhall", "state": "VT", "country": "US", "coord": {"lon": -71.559807, "lat": 44.56506}}, {"id": 5236818, "name": "Hardwick", "state": "VT", "country": "US", "coord": {"lon": -72.368156, "lat": 44.50478}}, {"id": 5237056, "name": "Hinesburg", "state": "VT", "country": "US", "coord": {"lon": -73.11068, "lat": 44.32922}}, {"id": 5237276, "name": "Hyde Park", "state": "VT", "country": "US", "coord": {"lon": -72.616508, "lat": 44.593941}}, {"id": 5237445, "name": "Jay", "state": "VT", "country": "US", "coord": {"lon": -72.43705, "lat": 44.947552}}, {"id": 5237476, "name": "Jericho", "state": "VT", "country": "US", "coord": {"lon": -72.997627, "lat": 44.503941}}, {"id": 5237538, "name": "Johnson", "state": "VT", "country": "US", "coord": {"lon": -72.680397, "lat": 44.635609}}, {"id": 5238190, "name": "Lyndon", "state": "VT", "country": "US", "coord": {"lon": -72.010933, "lat": 44.514221}}, {"id": 5238203, "name": "Lyndonville", "state": "VT", "country": "US", "coord": {"lon": -72.003151, "lat": 44.533669}}, {"id": 5238321, "name": "Manchester Center", "state": "VT", "country": "US", "coord": {"lon": -73.057053, "lat": 43.177021}}, {"id": 5238499, "name": "Middlebury (village)", "state": "VT", "country": "US", "coord": {"lon": -73.167343, "lat": 44.015339}}, {"id": 5238609, "name": "Milton", "state": "VT", "country": "US", "coord": {"lon": -73.110413, "lat": 44.639771}}, {"id": 5238685, "name": "Montpelier", "state": "VT", "country": "US", "coord": {"lon": -72.575394, "lat": 44.260059}}, {"id": 5238755, "name": "Morristown", "state": "VT", "country": "US", "coord": {"lon": -72.623734, "lat": 44.55727}}, {"id": 5238763, "name": "Morrisville", "state": "VT", "country": "US", "coord": {"lon": -72.59845, "lat": 44.561722}}, {"id": 5239058, "name": "Newport", "state": "VT", "country": "US", "coord": {"lon": -72.205101, "lat": 44.93644}}, {"id": 5239071, "name": "Newfane", "state": "VT", "country": "US", "coord": {"lon": -72.65593, "lat": 42.985641}}, {"id": 5239101, "name": "North Bennington", "state": "VT", "country": "US", "coord": {"lon": -73.242607, "lat": 42.930359}}, {"id": 5239188, "name": "North Hero", "state": "VT", "country": "US", "coord": {"lon": -73.289299, "lat": 44.817539}}, {"id": 5239235, "name": "North Rupert", "state": "VT", "country": "US", "coord": {"lon": -73.14566, "lat": 43.299519}}, {"id": 5239281, "name": "Northfield", "state": "VT", "country": "US", "coord": {"lon": -72.656502, "lat": 44.151169}}, {"id": 5239504, "name": "Orange County", "state": "VT", "country": "US", "coord": {"lon": -72.449539, "lat": 44.000622}}, {"id": 5239520, "name": "Orleans County", "state": "VT", "country": "US", "coord": {"lon": -72.23288, "lat": 44.816711}}, {"id": 5239982, "name": "Poultney", "state": "VT", "country": "US", "coord": {"lon": -73.236221, "lat": 43.51701}}, {"id": 5240140, "name": "Randolph", "state": "VT", "country": "US", "coord": {"lon": -72.665939, "lat": 43.925072}}, {"id": 5240267, "name": "Richford", "state": "VT", "country": "US", "coord": {"lon": -72.671242, "lat": 44.99699}}, {"id": 5240399, "name": "Rockingham", "state": "VT", "country": "US", "coord": {"lon": -72.488983, "lat": 43.18758}}, {"id": 5240509, "name": "Rutland", "state": "VT", "country": "US", "coord": {"lon": -72.97261, "lat": 43.610619}}, {"id": 5240516, "name": "Rutland County", "state": "VT", "country": "US", "coord": {"lon": -73.01622, "lat": 43.61673}}, {"id": 5240569, "name": "Saint Albans", "state": "VT", "country": "US", "coord": {"lon": -73.083191, "lat": 44.810879}}, {"id": 5240656, "name": "Saint Johnsbury", "state": "VT", "country": "US", "coord": {"lon": -72.015091, "lat": 44.41922}}, {"id": 5241035, "name": "Sheldon Junction", "state": "VT", "country": "US", "coord": {"lon": -72.947632, "lat": 44.901711}}, {"id": 5241132, "name": "Simpsonville", "state": "VT", "country": "US", "coord": {"lon": -72.649818, "lat": 43.072578}}, {"id": 5241223, "name": "South Barre", "state": "VT", "country": "US", "coord": {"lon": -72.505661, "lat": 44.17701}}, {"id": 5241248, "name": "South Burlington", "state": "VT", "country": "US", "coord": {"lon": -73.170959, "lat": 44.466991}}, {"id": 5241423, "name": "Springfield", "state": "VT", "country": "US", "coord": {"lon": -72.482307, "lat": 43.298409}}, {"id": 5241643, "name": "Stratton", "state": "VT", "country": "US", "coord": {"lon": -72.910927, "lat": 43.042858}}, {"id": 5241770, "name": "Swanton", "state": "VT", "country": "US", "coord": {"lon": -73.124298, "lat": 44.918098}}, {"id": 5242022, "name": "Tolman Corner", "state": "VT", "country": "US", "coord": {"lon": -72.30677, "lat": 44.567551}}, {"id": 5242224, "name": "Vergennes", "state": "VT", "country": "US", "coord": {"lon": -73.254013, "lat": 44.167278}}, {"id": 5242283, "name": "Vermont", "state": "VT", "country": "US", "coord": {"lon": -72.749832, "lat": 44.00034}}, {"id": 5242428, "name": "Waitsfield", "state": "VT", "country": "US", "coord": {"lon": -72.824837, "lat": 44.19006}}, {"id": 5242529, "name": "Washington County", "state": "VT", "country": "US", "coord": {"lon": -72.616219, "lat": 44.11673}}, {"id": 5242565, "name": "Waterbury", "state": "VT", "country": "US", "coord": {"lon": -72.756233, "lat": 44.33783}}, {"id": 5242657, "name": "West Brattleboro", "state": "VT", "country": "US", "coord": {"lon": -72.603149, "lat": 42.855919}}, {"id": 5242764, "name": "West Rutland", "state": "VT", "country": "US", "coord": {"lon": -73.045113, "lat": 43.593121}}, {"id": 5242810, "name": "Westminster", "state": "VT", "country": "US", "coord": {"lon": -72.458702, "lat": 43.06786}}, {"id": 5242889, "name": "White River Junction", "state": "VT", "country": "US", "coord": {"lon": -72.31926, "lat": 43.64896}}, {"id": 5242952, "name": "Wilder", "state": "VT", "country": "US", "coord": {"lon": -72.308701, "lat": 43.672852}}, {"id": 5242994, "name": "Williamstown", "state": "VT", "country": "US", "coord": {"lon": -72.541489, "lat": 44.121731}}, {"id": 5243008, "name": "Williston", "state": "VT", "country": "US", "coord": {"lon": -73.068176, "lat": 44.43755}}, {"id": 5243051, "name": "Windham County", "state": "VT", "country": "US", "coord": {"lon": -72.732872, "lat": 42.98341}}, {"id": 5243059, "name": "Windsor", "state": "VT", "country": "US", "coord": {"lon": -72.384811, "lat": 43.48035}}, {"id": 5243062, "name": "Windsor County", "state": "VT", "country": "US", "coord": {"lon": -72.566208, "lat": 43.550072}}, {"id": 5243081, "name": "Winooski", "state": "VT", "country": "US", "coord": {"lon": -73.185677, "lat": 44.49144}}, {"id": 5243145, "name": "Woodstock", "state": "VT", "country": "US", "coord": {"lon": -72.518433, "lat": 43.624241}}, {"id": 5243517, "name": "Abbotsford", "state": "WI", "country": "US", "coord": {"lon": -90.315971, "lat": 44.946362}}, {"id": 5243553, "name": "Adams", "state": "WI", "country": "US", "coord": {"lon": -89.818176, "lat": 43.956081}}, {"id": 5243653, "name": "Albany", "state": "WI", "country": "US", "coord": {"lon": -89.437057, "lat": 42.707779}}, {"id": 5243712, "name": "Algoma", "state": "WI", "country": "US", "coord": {"lon": -87.432587, "lat": 44.608891}}, {"id": 5243770, "name": "Allouez", "state": "WI", "country": "US", "coord": {"lon": -88.016212, "lat": 44.477489}}, {"id": 5243778, "name": "Alma", "state": "WI", "country": "US", "coord": {"lon": -91.914879, "lat": 44.319969}}, {"id": 5243819, "name": "Altoona", "state": "WI", "country": "US", "coord": {"lon": -91.443207, "lat": 44.80468}}, {"id": 5243872, "name": "Amery", "state": "WI", "country": "US", "coord": {"lon": -92.362137, "lat": 45.306911}}, {"id": 5243883, "name": "Amherst", "state": "WI", "country": "US", "coord": {"lon": -89.284843, "lat": 44.450809}}, {"id": 5243968, "name": "Angelo", "state": "WI", "country": "US", "coord": {"lon": -90.777908, "lat": 43.970798}}, {"id": 5244010, "name": "Antigo", "state": "WI", "country": "US", "coord": {"lon": -89.152344, "lat": 45.14024}}, {"id": 5244080, "name": "Appleton", "state": "WI", "country": "US", "coord": {"lon": -88.415382, "lat": 44.261929}}, {"id": 5244109, "name": "Arcadia", "state": "WI", "country": "US", "coord": {"lon": -91.501541, "lat": 44.252739}}, {"id": 5244247, "name": "Ashland", "state": "WI", "country": "US", "coord": {"lon": -90.883797, "lat": 46.592442}}, {"id": 5244257, "name": "Ashland Junction", "state": "WI", "country": "US", "coord": {"lon": -90.971298, "lat": 46.57383}}, {"id": 5244267, "name": "Ashwaubenon", "state": "WI", "country": "US", "coord": {"lon": -88.070099, "lat": 44.482208}}, {"id": 5244312, "name": "Athens", "state": "WI", "country": "US", "coord": {"lon": -90.07402, "lat": 45.03302}}, {"id": 5244365, "name": "Augusta", "state": "WI", "country": "US", "coord": {"lon": -91.119881, "lat": 44.680241}}, {"id": 5244557, "name": "Bakerville", "state": "WI", "country": "US", "coord": {"lon": -90.218193, "lat": 44.62719}}, {"id": 5244570, "name": "Baldwin", "state": "WI", "country": "US", "coord": {"lon": -92.374359, "lat": 44.966629}}, {"id": 5244607, "name": "Balsam Lake", "state": "WI", "country": "US", "coord": {"lon": -92.454643, "lat": 45.452179}}, {"id": 5244626, "name": "Bangor", "state": "WI", "country": "US", "coord": {"lon": -90.99041, "lat": 43.893021}}, {"id": 5244638, "name": "Baraboo", "state": "WI", "country": "US", "coord": {"lon": -89.744293, "lat": 43.471088}}, {"id": 5244703, "name": "Barneveld", "state": "WI", "country": "US", "coord": {"lon": -89.895401, "lat": 43.015549}}, {"id": 5244738, "name": "Barron", "state": "WI", "country": "US", "coord": {"lon": -91.84906, "lat": 45.401348}}, {"id": 5244967, "name": "Bayfield County", "state": "WI", "country": "US", "coord": {"lon": -91.150192, "lat": 46.549938}}, {"id": 5244980, "name": "Bayside", "state": "WI", "country": "US", "coord": {"lon": -87.900642, "lat": 43.180561}}, {"id": 5245193, "name": "Beaver Dam", "state": "WI", "country": "US", "coord": {"lon": -88.837334, "lat": 43.457771}}, {"id": 5245308, "name": "Belcrest", "state": "WI", "country": "US", "coord": {"lon": -89.096222, "lat": 42.541401}}, {"id": 5245314, "name": "Belgium", "state": "WI", "country": "US", "coord": {"lon": -87.850372, "lat": 43.499722}}, {"id": 5245354, "name": "Belleville", "state": "WI", "country": "US", "coord": {"lon": -89.538177, "lat": 42.859718}}, {"id": 5245359, "name": "Bellevue", "state": "WI", "country": "US", "coord": {"lon": -87.920097, "lat": 44.44416}}, {"id": 5245387, "name": "Beloit", "state": "WI", "country": "US", "coord": {"lon": -89.031776, "lat": 42.50835}}, {"id": 5245497, "name": "Berlin", "state": "WI", "country": "US", "coord": {"lon": -88.943451, "lat": 43.96804}}, {"id": 5245729, "name": "Big Bend", "state": "WI", "country": "US", "coord": {"lon": -88.206757, "lat": 42.881401}}, {"id": 5246049, "name": "Black Creek", "state": "WI", "country": "US", "coord": {"lon": -88.450661, "lat": 44.477489}}, {"id": 5246060, "name": "Black Earth", "state": "WI", "country": "US", "coord": {"lon": -89.746788, "lat": 43.137218}}, {"id": 5246099, "name": "Black River", "state": "WI", "country": "US", "coord": {"lon": -92.147423, "lat": 46.56216}}, {"id": 5246105, "name": "Black River Falls", "state": "WI", "country": "US", "coord": {"lon": -90.851532, "lat": 44.294682}}, {"id": 5246172, "name": "Blair", "state": "WI", "country": "US", "coord": {"lon": -91.235161, "lat": 44.294399}}, {"id": 5246228, "name": "Bloomer", "state": "WI", "country": "US", "coord": {"lon": -91.48877, "lat": 45.100239}}, {"id": 5246401, "name": "Bohners Lake", "state": "WI", "country": "US", "coord": {"lon": -88.280373, "lat": 42.62307}}, {"id": 5246437, "name": "Bonduel", "state": "WI", "country": "US", "coord": {"lon": -88.444817, "lat": 44.740269}}, {"id": 5246505, "name": "Borth", "state": "WI", "country": "US", "coord": {"lon": -88.89595, "lat": 44.091091}}, {"id": 5246509, "name": "Boscobel", "state": "WI", "country": "US", "coord": {"lon": -90.705399, "lat": 43.13443}}, {"id": 5246565, "name": "Boyceville", "state": "WI", "country": "US", "coord": {"lon": -92.041008, "lat": 45.043571}}, {"id": 5246709, "name": "Brice Prairie", "state": "WI", "country": "US", "coord": {"lon": -91.299858, "lat": 43.938568}}, {"id": 5246766, "name": "Brillion", "state": "WI", "country": "US", "coord": {"lon": -88.06427, "lat": 44.177212}}, {"id": 5246785, "name": "Bristol", "state": "WI", "country": "US", "coord": {"lon": -88.049248, "lat": 42.55891}}, {"id": 5246832, "name": "Brodhead", "state": "WI", "country": "US", "coord": {"lon": -89.376228, "lat": 42.61834}}, {"id": 5246835, "name": "Brookfield", "state": "WI", "country": "US", "coord": {"lon": -88.106483, "lat": 43.06057}}, {"id": 5246849, "name": "Brooklyn", "state": "WI", "country": "US", "coord": {"lon": -89.370399, "lat": 42.853611}}, {"id": 5246898, "name": "Brown County", "state": "WI", "country": "US", "coord": {"lon": -87.966766, "lat": 44.46666}}, {"id": 5246917, "name": "Brown Deer", "state": "WI", "country": "US", "coord": {"lon": -87.964531, "lat": 43.163342}}, {"id": 5246937, "name": "Browns Lake", "state": "WI", "country": "US", "coord": {"lon": -88.231201, "lat": 42.69252}}, {"id": 5247014, "name": "Brushville", "state": "WI", "country": "US", "coord": {"lon": -88.995949, "lat": 44.169979}}, {"id": 5247088, "name": "Buena Park", "state": "WI", "country": "US", "coord": {"lon": -88.220917, "lat": 42.792789}}, {"id": 5247107, "name": "Buffalo City", "state": "WI", "country": "US", "coord": {"lon": -91.864319, "lat": 44.230518}}, {"id": 5247214, "name": "Burlington", "state": "WI", "country": "US", "coord": {"lon": -88.276199, "lat": 42.67807}}, {"id": 5247307, "name": "Butler", "state": "WI", "country": "US", "coord": {"lon": -88.069527, "lat": 43.105839}}, {"id": 5247387, "name": "Cadott", "state": "WI", "country": "US", "coord": {"lon": -91.150703, "lat": 44.948021}}, {"id": 5247415, "name": "Caledonia", "state": "WI", "country": "US", "coord": {"lon": -87.924248, "lat": 42.8078}}, {"id": 5247444, "name": "Calumet County", "state": "WI", "country": "US", "coord": {"lon": -88.200104, "lat": 44.083321}}, {"id": 5247533, "name": "Cambridge", "state": "WI", "country": "US", "coord": {"lon": -89.016502, "lat": 43.003609}}, {"id": 5247547, "name": "Cameron", "state": "WI", "country": "US", "coord": {"lon": -91.744057, "lat": 45.408569}}, {"id": 5247648, "name": "Camp Lake", "state": "WI", "country": "US", "coord": {"lon": -88.1437, "lat": 42.53474}}, {"id": 5247758, "name": "Campbellsport", "state": "WI", "country": "US", "coord": {"lon": -88.278992, "lat": 43.597771}}, {"id": 5247945, "name": "Cashton", "state": "WI", "country": "US", "coord": {"lon": -90.779297, "lat": 43.741909}}, {"id": 5248102, "name": "Cedar Grove", "state": "WI", "country": "US", "coord": {"lon": -87.823418, "lat": 43.569721}}, {"id": 5248171, "name": "Cedarburg", "state": "WI", "country": "US", "coord": {"lon": -87.987587, "lat": 43.296669}}, {"id": 5248277, "name": "Chaffey", "state": "WI", "country": "US", "coord": {"lon": -92.163528, "lat": 46.39827}}, {"id": 5248307, "name": "Champion", "state": "WI", "country": "US", "coord": {"lon": -87.794258, "lat": 44.589161}}, {"id": 5248417, "name": "Chetek", "state": "WI", "country": "US", "coord": {"lon": -91.651001, "lat": 45.314129}}, {"id": 5248469, "name": "Chilton", "state": "WI", "country": "US", "coord": {"lon": -88.16288, "lat": 44.028881}}, {"id": 5248507, "name": "Chippewa County", "state": "WI", "country": "US", "coord": {"lon": -91.266823, "lat": 45.066631}}, {"id": 5248511, "name": "Chippewa Falls", "state": "WI", "country": "US", "coord": {"lon": -91.392929, "lat": 44.936909}}, {"id": 5248812, "name": "Clark County", "state": "WI", "country": "US", "coord": {"lon": -90.633476, "lat": 44.733299}}, {"id": 5248897, "name": "Clear Lake", "state": "WI", "country": "US", "coord": {"lon": -92.271301, "lat": 45.251911}}, {"id": 5248933, "name": "Cleveland", "state": "WI", "country": "US", "coord": {"lon": -87.747307, "lat": 43.914989}}, {"id": 5248969, "name": "Clinton", "state": "WI", "country": "US", "coord": {"lon": -88.865112, "lat": 42.557789}}, {"id": 5248985, "name": "Clintonville", "state": "WI", "country": "US", "coord": {"lon": -88.762321, "lat": 44.620529}}, {"id": 5249095, "name": "Colby", "state": "WI", "country": "US", "coord": {"lon": -90.315689, "lat": 44.909969}}, {"id": 5249106, "name": "Cold Spring", "state": "WI", "country": "US", "coord": {"lon": -88.774269, "lat": 42.890839}}, {"id": 5249152, "name": "Colfax", "state": "WI", "country": "US", "coord": {"lon": -91.727119, "lat": 44.997459}}, {"id": 5249193, "name": "Columbia County", "state": "WI", "country": "US", "coord": {"lon": -89.33345, "lat": 43.466648}}, {"id": 5249205, "name": "Columbus", "state": "WI", "country": "US", "coord": {"lon": -89.015388, "lat": 43.338051}}, {"id": 5249224, "name": "Combined Locks", "state": "WI", "country": "US", "coord": {"lon": -88.31427, "lat": 44.26582}}, {"id": 5249259, "name": "Como", "state": "WI", "country": "US", "coord": {"lon": -88.482323, "lat": 42.61224}}, {"id": 5249461, "name": "Cornell", "state": "WI", "country": "US", "coord": {"lon": -91.149307, "lat": 45.167191}}, {"id": 5249503, "name": "Cottage Grove", "state": "WI", "country": "US", "coord": {"lon": -89.199562, "lat": 43.076111}}, {"id": 5249670, "name": "Crandon", "state": "WI", "country": "US", "coord": {"lon": -88.902893, "lat": 45.571911}}, {"id": 5249701, "name": "Crawford County", "state": "WI", "country": "US", "coord": {"lon": -90.916786, "lat": 43.250542}}, {"id": 5249741, "name": "Crivitz", "state": "WI", "country": "US", "coord": {"lon": -88.007607, "lat": 45.232479}}, {"id": 5249778, "name": "Cross Plains", "state": "WI", "country": "US", "coord": {"lon": -89.655678, "lat": 43.114441}}, {"id": 5249868, "name": "Cuba City", "state": "WI", "country": "US", "coord": {"lon": -90.429848, "lat": 42.605549}}, {"id": 5249871, "name": "Cudahy", "state": "WI", "country": "US", "coord": {"lon": -87.861473, "lat": 42.95974}}, {"id": 5249896, "name": "Cumberland", "state": "WI", "country": "US", "coord": {"lon": -92.019348, "lat": 45.532181}}, {"id": 5250074, "name": "Dane County", "state": "WI", "country": "US", "coord": {"lon": -89.433449, "lat": 43.066662}}, {"id": 5250104, "name": "Darien", "state": "WI", "country": "US", "coord": {"lon": -88.707603, "lat": 42.601681}}, {"id": 5250121, "name": "Darlington", "state": "WI", "country": "US", "coord": {"lon": -90.11763, "lat": 42.68306}}, {"id": 5250188, "name": "De Forest", "state": "WI", "country": "US", "coord": {"lon": -89.343727, "lat": 43.247768}}, {"id": 5250201, "name": "De Pere", "state": "WI", "country": "US", "coord": {"lon": -88.060379, "lat": 44.448879}}, {"id": 5250368, "name": "Deerfield", "state": "WI", "country": "US", "coord": {"lon": -89.075668, "lat": 43.051941}}, {"id": 5250393, "name": "Delafield", "state": "WI", "country": "US", "coord": {"lon": -88.403709, "lat": 43.060841}}, {"id": 5250399, "name": "Delavan", "state": "WI", "country": "US", "coord": {"lon": -88.643707, "lat": 42.633072}}, {"id": 5250402, "name": "Delavan Lake", "state": "WI", "country": "US", "coord": {"lon": -88.632599, "lat": 42.584179}}, {"id": 5250470, "name": "Denmark", "state": "WI", "country": "US", "coord": {"lon": -87.827316, "lat": 44.347771}}, {"id": 5250593, "name": "Dickeyville", "state": "WI", "country": "US", "coord": {"lon": -90.592072, "lat": 42.62722}}, {"id": 5250703, "name": "Dodgeville", "state": "WI", "country": "US", "coord": {"lon": -90.130119, "lat": 42.96027}}, {"id": 5250710, "name": "Dodge County", "state": "WI", "country": "US", "coord": {"lon": -88.700104, "lat": 43.41666}}, {"id": 5250768, "name": "Door County", "state": "WI", "country": "US", "coord": {"lon": -87.300102, "lat": 44.91666}}, {"id": 5250808, "name": "Dorns Faro Springs Beach", "state": "WI", "country": "US", "coord": {"lon": -88.319267, "lat": 44.12249}}, {"id": 5250831, "name": "Douglas County", "state": "WI", "country": "US", "coord": {"lon": -91.900192, "lat": 46.43327}}, {"id": 5250847, "name": "Dousman", "state": "WI", "country": "US", "coord": {"lon": -88.472603, "lat": 43.014179}}, {"id": 5251010, "name": "Dunbarton", "state": "WI", "country": "US", "coord": {"lon": -90.133179, "lat": 42.561668}}, {"id": 5251040, "name": "Dunn County", "state": "WI", "country": "US", "coord": {"lon": -91.883507, "lat": 44.949959}}, {"id": 5251056, "name": "Durand", "state": "WI", "country": "US", "coord": {"lon": -91.965729, "lat": 44.62635}}, {"id": 5251122, "name": "Eagle", "state": "WI", "country": "US", "coord": {"lon": -88.474258, "lat": 42.879459}}, {"id": 5251145, "name": "Eagle Lake", "state": "WI", "country": "US", "coord": {"lon": -88.128143, "lat": 42.706959}}, {"id": 5251171, "name": "Eagle River", "state": "WI", "country": "US", "coord": {"lon": -89.244301, "lat": 45.917179}}, {"id": 5251321, "name": "East Krok", "state": "WI", "country": "US", "coord": {"lon": -87.60231, "lat": 44.42889}}, {"id": 5251390, "name": "East Troy", "state": "WI", "country": "US", "coord": {"lon": -88.405098, "lat": 42.78529}}, {"id": 5251436, "name": "Eau Claire", "state": "WI", "country": "US", "coord": {"lon": -91.498489, "lat": 44.811352}}, {"id": 5251439, "name": "Eau Claire County", "state": "WI", "country": "US", "coord": {"lon": -91.300163, "lat": 44.733292}}, {"id": 5251521, "name": "Edgar", "state": "WI", "country": "US", "coord": {"lon": -89.963463, "lat": 44.927189}}, {"id": 5251524, "name": "Edgerton", "state": "WI", "country": "US", "coord": {"lon": -89.067612, "lat": 42.835281}}, {"id": 5251671, "name": "Eleva", "state": "WI", "country": "US", "coord": {"lon": -91.470161, "lat": 44.575802}}, {"id": 5251729, "name": "Elkhorn", "state": "WI", "country": "US", "coord": {"lon": -88.54454, "lat": 42.672791}}, {"id": 5251764, "name": "Ellsworth", "state": "WI", "country": "US", "coord": {"lon": -92.487411, "lat": 44.732189}}, {"id": 5251784, "name": "Elm Grove", "state": "WI", "country": "US", "coord": {"lon": -88.078979, "lat": 43.043072}}, {"id": 5251866, "name": "Elroy", "state": "WI", "country": "US", "coord": {"lon": -90.272346, "lat": 43.740799}}, {"id": 5251909, "name": "Emerald Grove", "state": "WI", "country": "US", "coord": {"lon": -88.880661, "lat": 42.65612}}, {"id": 5252182, "name": "Evansville", "state": "WI", "country": "US", "coord": {"lon": -89.299278, "lat": 42.780281}}, {"id": 5252203, "name": "Evergreen", "state": "WI", "country": "US", "coord": {"lon": -89.637619, "lat": 44.842468}}, {"id": 5252463, "name": "Fall Creek", "state": "WI", "country": "US", "coord": {"lon": -91.2771, "lat": 44.763569}}, {"id": 5252474, "name": "Fall River", "state": "WI", "country": "US", "coord": {"lon": -89.045113, "lat": 43.38443}}, {"id": 5252610, "name": "Fennimore", "state": "WI", "country": "US", "coord": {"lon": -90.655403, "lat": 42.983601}}, {"id": 5253219, "name": "Fitchburg", "state": "WI", "country": "US", "coord": {"lon": -89.469841, "lat": 42.960831}}, {"id": 5253305, "name": "Florence", "state": "WI", "country": "US", "coord": {"lon": -88.251801, "lat": 45.92218}}, {"id": 5253352, "name": "Fond du Lac", "state": "WI", "country": "US", "coord": {"lon": -88.438828, "lat": 43.775002}}, {"id": 5253356, "name": "Fond du Lac County", "state": "WI", "country": "US", "coord": {"lon": -88.466766, "lat": 43.750542}}, {"id": 5253369, "name": "Fontana", "state": "WI", "country": "US", "coord": {"lon": -88.575104, "lat": 42.551411}}, {"id": 5253498, "name": "Fort Atkinson", "state": "WI", "country": "US", "coord": {"lon": -88.837051, "lat": 42.92889}}, {"id": 5253638, "name": "Fox Lake", "state": "WI", "country": "US", "coord": {"lon": -88.906502, "lat": 43.56554}}, {"id": 5253662, "name": "Fox Point", "state": "WI", "country": "US", "coord": {"lon": -87.901749, "lat": 43.157509}}, {"id": 5253710, "name": "Franklin", "state": "WI", "country": "US", "coord": {"lon": -88.038422, "lat": 42.88863}}, {"id": 5253762, "name": "Franksville", "state": "WI", "country": "US", "coord": {"lon": -87.913406, "lat": 42.760021}}, {"id": 5253772, "name": "Frederic", "state": "WI", "country": "US", "coord": {"lon": -92.46714, "lat": 45.659119}}, {"id": 5253778, "name": "Fredonia", "state": "WI", "country": "US", "coord": {"lon": -87.950653, "lat": 43.470558}}, {"id": 5253845, "name": "French Island", "state": "WI", "country": "US", "coord": {"lon": -91.260422, "lat": 43.858299}}, {"id": 5253884, "name": "Friendship", "state": "WI", "country": "US", "coord": {"lon": -89.816788, "lat": 43.970531}}, {"id": 5253998, "name": "Galesville", "state": "WI", "country": "US", "coord": {"lon": -91.349037, "lat": 44.081631}}, {"id": 5254150, "name": "Genoa City", "state": "WI", "country": "US", "coord": {"lon": -88.328148, "lat": 42.498348}}, {"id": 5254218, "name": "Germantown", "state": "WI", "country": "US", "coord": {"lon": -88.110367, "lat": 43.228619}}, {"id": 5254298, "name": "Gillett", "state": "WI", "country": "US", "coord": {"lon": -88.30732, "lat": 44.889992}}, {"id": 5254404, "name": "Glendale", "state": "WI", "country": "US", "coord": {"lon": -87.935638, "lat": 43.135288}}, {"id": 5254435, "name": "Glenwood City", "state": "WI", "country": "US", "coord": {"lon": -92.172409, "lat": 45.058571}}, {"id": 5254739, "name": "Grafton", "state": "WI", "country": "US", "coord": {"lon": -87.953423, "lat": 43.319729}}, {"id": 5254880, "name": "Grantsburg", "state": "WI", "country": "US", "coord": {"lon": -92.682701, "lat": 45.77634}}, {"id": 5254962, "name": "Green Bay", "state": "WI", "country": "US", "coord": {"lon": -88.019829, "lat": 44.519161}}, {"id": 5255004, "name": "Green Lake", "state": "WI", "country": "US", "coord": {"lon": -88.960114, "lat": 43.844151}}, {"id": 5255015, "name": "Green Lake County", "state": "WI", "country": "US", "coord": {"lon": -89.033447, "lat": 43.79998}}, {"id": 5255057, "name": "Greendale", "state": "WI", "country": "US", "coord": {"lon": -87.995918, "lat": 42.940571}}, {"id": 5255068, "name": "Greenfield", "state": "WI", "country": "US", "coord": {"lon": -88.012589, "lat": 42.961399}}, {"id": 5255099, "name": "Greenville", "state": "WI", "country": "US", "coord": {"lon": -88.536499, "lat": 44.300259}}, {"id": 5255102, "name": "Greenwood", "state": "WI", "country": "US", "coord": {"lon": -90.599312, "lat": 44.770241}}, {"id": 5255320, "name": "Hales Corners", "state": "WI", "country": "US", "coord": {"lon": -88.048698, "lat": 42.937519}}, {"id": 5255427, "name": "Hammond", "state": "WI", "country": "US", "coord": {"lon": -92.435753, "lat": 44.978859}}, {"id": 5255628, "name": "Hartford", "state": "WI", "country": "US", "coord": {"lon": -88.37899, "lat": 43.31778}}, {"id": 5255640, "name": "Hartland", "state": "WI", "country": "US", "coord": {"lon": -88.342041, "lat": 43.105011}}, {"id": 5255882, "name": "Hayward", "state": "WI", "country": "US", "coord": {"lon": -91.484619, "lat": 46.013008}}, {"id": 5255902, "name": "Hazel Green", "state": "WI", "country": "US", "coord": {"lon": -90.43457, "lat": 42.53278}}, {"id": 5255985, "name": "Helenville", "state": "WI", "country": "US", "coord": {"lon": -88.699547, "lat": 43.011951}}, {"id": 5256281, "name": "Hilbert", "state": "WI", "country": "US", "coord": {"lon": -88.163986, "lat": 44.14027}}, {"id": 5256376, "name": "Hillsboro", "state": "WI", "country": "US", "coord": {"lon": -90.344017, "lat": 43.652199}}, {"id": 5256613, "name": "Holmen", "state": "WI", "country": "US", "coord": {"lon": -91.256248, "lat": 43.963299}}, {"id": 5256908, "name": "Horicon", "state": "WI", "country": "US", "coord": {"lon": -88.63121, "lat": 43.451382}}, {"id": 5257002, "name": "Hortonville", "state": "WI", "country": "US", "coord": {"lon": -88.638161, "lat": 44.334702}}, {"id": 5257029, "name": "Howard", "state": "WI", "country": "US", "coord": {"lon": -88.088158, "lat": 44.543598}}, {"id": 5257064, "name": "Howards Grove", "state": "WI", "country": "US", "coord": {"lon": -87.820091, "lat": 43.833881}}, {"id": 5257080, "name": "Hudson", "state": "WI", "country": "US", "coord": {"lon": -92.756866, "lat": 44.974689}}, {"id": 5257163, "name": "Hurley", "state": "WI", "country": "US", "coord": {"lon": -90.186562, "lat": 46.449669}}, {"id": 5257183, "name": "Hustisford", "state": "WI", "country": "US", "coord": {"lon": -88.600662, "lat": 43.346111}}, {"id": 5257353, "name": "Independence", "state": "WI", "country": "US", "coord": {"lon": -91.420433, "lat": 44.356911}}, {"id": 5257499, "name": "Iola", "state": "WI", "country": "US", "coord": {"lon": -89.130669, "lat": 44.50803}}, {"id": 5257570, "name": "Irvine", "state": "WI", "country": "US", "coord": {"lon": -91.419884, "lat": 44.925522}}, {"id": 5257623, "name": "Island Park", "state": "WI", "country": "US", "coord": {"lon": -88.80233, "lat": 44.022758}}, {"id": 5257643, "name": "Ives", "state": "WI", "country": "US", "coord": {"lon": -87.805351, "lat": 42.77002}}, {"id": 5257646, "name": "Ixonia", "state": "WI", "country": "US", "coord": {"lon": -88.597321, "lat": 43.14389}}, {"id": 5257669, "name": "Jackson", "state": "WI", "country": "US", "coord": {"lon": -88.166763, "lat": 43.323891}}, {"id": 5257754, "name": "Janesville", "state": "WI", "country": "US", "coord": {"lon": -89.018723, "lat": 42.682789}}, {"id": 5257784, "name": "Jefferson", "state": "WI", "country": "US", "coord": {"lon": -88.807327, "lat": 43.005562}}, {"id": 5257788, "name": "Jefferson County", "state": "WI", "country": "US", "coord": {"lon": -88.766769, "lat": 43.03334}}, {"id": 5257996, "name": "Johnson Creek", "state": "WI", "country": "US", "coord": {"lon": -88.774269, "lat": 43.076111}}, {"id": 5258066, "name": "Johnstown Center", "state": "WI", "country": "US", "coord": {"lon": -88.839546, "lat": 42.69585}}, {"id": 5258115, "name": "Jordan", "state": "WI", "country": "US", "coord": {"lon": -89.505119, "lat": 44.574692}}, {"id": 5258190, "name": "Juneau", "state": "WI", "country": "US", "coord": {"lon": -88.705101, "lat": 43.405548}}, {"id": 5258296, "name": "Kaukauna", "state": "WI", "country": "US", "coord": {"lon": -88.272049, "lat": 44.278042}}, {"id": 5258330, "name": "Kellners Corners", "state": "WI", "country": "US", "coord": {"lon": -87.709534, "lat": 44.12611}}, {"id": 5258393, "name": "Kenosha", "state": "WI", "country": "US", "coord": {"lon": -87.82119, "lat": 42.58474}}, {"id": 5258396, "name": "Kenosha County", "state": "WI", "country": "US", "coord": {"lon": -88.050079, "lat": 42.566689}}, {"id": 5258448, "name": "Keshena", "state": "WI", "country": "US", "coord": {"lon": -88.63372, "lat": 44.883869}}, {"id": 5258480, "name": "Kewaskum", "state": "WI", "country": "US", "coord": {"lon": -88.228989, "lat": 43.520828}}, {"id": 5258490, "name": "Kewaunee", "state": "WI", "country": "US", "coord": {"lon": -87.503143, "lat": 44.458328}}, {"id": 5258491, "name": "Kewaunee County", "state": "WI", "country": "US", "coord": {"lon": -87.633423, "lat": 44.516659}}, {"id": 5258525, "name": "Kiel", "state": "WI", "country": "US", "coord": {"lon": -88.035652, "lat": 43.912491}}, {"id": 5258551, "name": "Kilbournville", "state": "WI", "country": "US", "coord": {"lon": -87.952301, "lat": 42.8078}}, {"id": 5258575, "name": "Kimberly", "state": "WI", "country": "US", "coord": {"lon": -88.338997, "lat": 44.272209}}, {"id": 5258592, "name": "King", "state": "WI", "country": "US", "coord": {"lon": -89.141777, "lat": 44.337479}}, {"id": 5258735, "name": "Klondike", "state": "WI", "country": "US", "coord": {"lon": -88.11953, "lat": 42.590019}}, {"id": 5258769, "name": "Knellsville", "state": "WI", "country": "US", "coord": {"lon": -87.870918, "lat": 43.414169}}, {"id": 5258824, "name": "Kohler", "state": "WI", "country": "US", "coord": {"lon": -88.02343, "lat": 43.496391}}, {"id": 5258916, "name": "Kronenwetter", "state": "WI", "country": "US", "coord": {"lon": -89.590401, "lat": 44.822189}}, {"id": 5258957, "name": "La Crosse", "state": "WI", "country": "US", "coord": {"lon": -91.239578, "lat": 43.801361}}, {"id": 5258961, "name": "La Crosse County", "state": "WI", "country": "US", "coord": {"lon": -91.100128, "lat": 43.750519}}, {"id": 5259036, "name": "Lac du Flambeau", "state": "WI", "country": "US", "coord": {"lon": -89.892097, "lat": 45.969669}}, {"id": 5259048, "name": "Ladysmith", "state": "WI", "country": "US", "coord": {"lon": -91.104042, "lat": 45.46302}}, {"id": 5259061, "name": "Lafayette County", "state": "WI", "country": "US", "coord": {"lon": -90.133461, "lat": 42.666672}}, {"id": 5259140, "name": "Lake Delton", "state": "WI", "country": "US", "coord": {"lon": -89.793739, "lat": 43.601089}}, {"id": 5259169, "name": "Lake Geneva", "state": "WI", "country": "US", "coord": {"lon": -88.433434, "lat": 42.591679}}, {"id": 5259182, "name": "Lake Hallie", "state": "WI", "country": "US", "coord": {"lon": -91.440712, "lat": 44.87579}}, {"id": 5259196, "name": "Lake Koshkonong", "state": "WI", "country": "US", "coord": {"lon": -88.919548, "lat": 42.909729}}, {"id": 5259218, "name": "Lake Mills", "state": "WI", "country": "US", "coord": {"lon": -88.911774, "lat": 43.08139}}, {"id": 5259229, "name": "Lake Nebagamon", "state": "WI", "country": "US", "coord": {"lon": -91.699913, "lat": 46.514938}}, {"id": 5259260, "name": "Lake Ripley", "state": "WI", "country": "US", "coord": {"lon": -88.986221, "lat": 43.005829}}, {"id": 5259304, "name": "Lake Wazeecha", "state": "WI", "country": "US", "coord": {"lon": -89.756508, "lat": 44.371078}}, {"id": 5259313, "name": "Lake Wisconsin", "state": "WI", "country": "US", "coord": {"lon": -89.575684, "lat": 43.3736}}, {"id": 5259317, "name": "Lake Wissota", "state": "WI", "country": "US", "coord": {"lon": -91.300987, "lat": 44.92635}}, {"id": 5259448, "name": "Lancaster", "state": "WI", "country": "US", "coord": {"lon": -90.710678, "lat": 42.847488}}, {"id": 5259487, "name": "Langlade County", "state": "WI", "country": "US", "coord": {"lon": -89.05011, "lat": 45.250519}}, {"id": 5259502, "name": "Lannon", "state": "WI", "country": "US", "coord": {"lon": -88.166199, "lat": 43.146118}}, {"id": 5260262, "name": "Little Chute", "state": "WI", "country": "US", "coord": {"lon": -88.318443, "lat": 44.279991}}, {"id": 5260521, "name": "Little Round Lake", "state": "WI", "country": "US", "coord": {"lon": -91.36795, "lat": 45.964951}}, {"id": 5260694, "name": "Lodi", "state": "WI", "country": "US", "coord": {"lon": -89.526512, "lat": 43.313881}}, {"id": 5260732, "name": "Lomira", "state": "WI", "country": "US", "coord": {"lon": -88.44371, "lat": 43.591381}}, {"id": 5261218, "name": "Loyal", "state": "WI", "country": "US", "coord": {"lon": -90.495972, "lat": 44.736912}}, {"id": 5261245, "name": "Luck", "state": "WI", "country": "US", "coord": {"lon": -92.482697, "lat": 45.576069}}, {"id": 5261340, "name": "Luxemburg", "state": "WI", "country": "US", "coord": {"lon": -87.703979, "lat": 44.538609}}, {"id": 5261457, "name": "Madison", "state": "WI", "country": "US", "coord": {"lon": -89.40123, "lat": 43.073051}}, {"id": 5261556, "name": "Manawa", "state": "WI", "country": "US", "coord": {"lon": -88.91983, "lat": 44.464432}}, {"id": 5261585, "name": "Manitowoc", "state": "WI", "country": "US", "coord": {"lon": -87.657578, "lat": 44.088612}}, {"id": 5261587, "name": "Manitowoc County", "state": "WI", "country": "US", "coord": {"lon": -87.800087, "lat": 44.066662}}, {"id": 5261638, "name": "Maple Bluff", "state": "WI", "country": "US", "coord": {"lon": -89.379562, "lat": 43.118328}}, {"id": 5261788, "name": "Marathon", "state": "WI", "country": "US", "coord": {"lon": -89.840401, "lat": 44.929131}}, {"id": 5261790, "name": "Marathon County", "state": "WI", "country": "US", "coord": {"lon": -89.766792, "lat": 44.899971}}, {"id": 5261852, "name": "Marinette", "state": "WI", "country": "US", "coord": {"lon": -87.630661, "lat": 45.099979}}, {"id": 5261856, "name": "Marinette County", "state": "WI", "country": "US", "coord": {"lon": -88.06678, "lat": 45.366638}}, {"id": 5261872, "name": "Marion", "state": "WI", "country": "US", "coord": {"lon": -88.889267, "lat": 44.670811}}, {"id": 5261891, "name": "Markesan", "state": "WI", "country": "US", "coord": {"lon": -88.990112, "lat": 43.707199}}, {"id": 5261952, "name": "Marshall", "state": "WI", "country": "US", "coord": {"lon": -89.06678, "lat": 43.168331}}, {"id": 5261969, "name": "Marshfield", "state": "WI", "country": "US", "coord": {"lon": -90.171799, "lat": 44.66885}}, {"id": 5262113, "name": "Mauston", "state": "WI", "country": "US", "coord": {"lon": -90.077347, "lat": 43.797192}}, {"id": 5262137, "name": "Mayville", "state": "WI", "country": "US", "coord": {"lon": -88.544823, "lat": 43.49416}}, {"id": 5262150, "name": "Mazomanie", "state": "WI", "country": "US", "coord": {"lon": -89.794853, "lat": 43.176659}}, {"id": 5262262, "name": "McFarland", "state": "WI", "country": "US", "coord": {"lon": -89.289841, "lat": 43.012501}}, {"id": 5262308, "name": "McKinley", "state": "WI", "country": "US", "coord": {"lon": -92.176582, "lat": 45.571339}}, {"id": 5262475, "name": "Medford", "state": "WI", "country": "US", "coord": {"lon": -90.340141, "lat": 45.13858}}, {"id": 5262596, "name": "Menasha", "state": "WI", "country": "US", "coord": {"lon": -88.446503, "lat": 44.202209}}, {"id": 5262630, "name": "Menomonee Falls", "state": "WI", "country": "US", "coord": {"lon": -88.11731, "lat": 43.178902}}, {"id": 5262634, "name": "Menomonie", "state": "WI", "country": "US", "coord": {"lon": -91.919342, "lat": 44.875519}}, {"id": 5262649, "name": "Mequon", "state": "WI", "country": "US", "coord": {"lon": -87.984528, "lat": 43.236401}}, {"id": 5262680, "name": "Merrill", "state": "WI", "country": "US", "coord": {"lon": -89.683456, "lat": 45.180519}}, {"id": 5262708, "name": "Merton", "state": "WI", "country": "US", "coord": {"lon": -88.306763, "lat": 43.146671}}, {"id": 5262838, "name": "Middleton", "state": "WI", "country": "US", "coord": {"lon": -89.504288, "lat": 43.097221}}, {"id": 5263023, "name": "Milton", "state": "WI", "country": "US", "coord": {"lon": -88.944, "lat": 42.775558}}, {"id": 5263045, "name": "Milwaukee", "state": "WI", "country": "US", "coord": {"lon": -87.906471, "lat": 43.038898}}, {"id": 5263058, "name": "Milwaukee County", "state": "WI", "country": "US", "coord": {"lon": -87.966751, "lat": 43.000568}}, {"id": 5263113, "name": "Mineral Point", "state": "WI", "country": "US", "coord": {"lon": -90.179848, "lat": 42.860001}}, {"id": 5263167, "name": "Minong", "state": "WI", "country": "US", "coord": {"lon": -91.824913, "lat": 46.099388}}, {"id": 5263207, "name": "Mishicot", "state": "WI", "country": "US", "coord": {"lon": -87.64119, "lat": 44.239159}}, {"id": 5263301, "name": "Mondovi", "state": "WI", "country": "US", "coord": {"lon": -91.67099, "lat": 44.567741}}, {"id": 5263323, "name": "Monona", "state": "WI", "country": "US", "coord": {"lon": -89.334007, "lat": 43.062222}}, {"id": 5263331, "name": "Monroe", "state": "WI", "country": "US", "coord": {"lon": -89.638451, "lat": 42.60112}}, {"id": 5263335, "name": "Monroe County", "state": "WI", "country": "US", "coord": {"lon": -90.616798, "lat": 43.9333}}, {"id": 5263366, "name": "Montello", "state": "WI", "country": "US", "coord": {"lon": -89.319839, "lat": 43.79137}}, {"id": 5263389, "name": "Monticello", "state": "WI", "country": "US", "coord": {"lon": -89.594841, "lat": 42.74556}}, {"id": 5263580, "name": "Mosinee", "state": "WI", "country": "US", "coord": {"lon": -89.703178, "lat": 44.793018}}, {"id": 5263667, "name": "Mount Horeb", "state": "WI", "country": "US", "coord": {"lon": -89.738457, "lat": 43.00861}}, {"id": 5263965, "name": "Mukwonago", "state": "WI", "country": "US", "coord": {"lon": -88.333427, "lat": 42.86668}}, {"id": 5264038, "name": "Muscoda", "state": "WI", "country": "US", "coord": {"lon": -90.443176, "lat": 43.18499}}, {"id": 5264049, "name": "Muskego", "state": "WI", "country": "US", "coord": {"lon": -88.138977, "lat": 42.905849}}, {"id": 5264097, "name": "Myra", "state": "WI", "country": "US", "coord": {"lon": -88.09565, "lat": 43.415829}}, {"id": 5264158, "name": "Nashotah", "state": "WI", "country": "US", "coord": {"lon": -88.402321, "lat": 43.09779}}, {"id": 5264223, "name": "Neenah", "state": "WI", "country": "US", "coord": {"lon": -88.462608, "lat": 44.185822}}, {"id": 5264241, "name": "Neillsville", "state": "WI", "country": "US", "coord": {"lon": -90.596252, "lat": 44.559959}}, {"id": 5264253, "name": "Nekoosa", "state": "WI", "country": "US", "coord": {"lon": -89.904289, "lat": 44.312462}}, {"id": 5264381, "name": "New Berlin", "state": "WI", "country": "US", "coord": {"lon": -88.108421, "lat": 42.976398}}, {"id": 5264412, "name": "New Glarus", "state": "WI", "country": "US", "coord": {"lon": -89.635117, "lat": 42.814449}}, {"id": 5264423, "name": "New Holstein", "state": "WI", "country": "US", "coord": {"lon": -88.084259, "lat": 43.949989}}, {"id": 5264447, "name": "New Lisbon", "state": "WI", "country": "US", "coord": {"lon": -90.165413, "lat": 43.879139}}, {"id": 5264455, "name": "New London", "state": "WI", "country": "US", "coord": {"lon": -88.73983, "lat": 44.392761}}, {"id": 5264475, "name": "New Richmond", "state": "WI", "country": "US", "coord": {"lon": -92.536591, "lat": 45.12302}}, {"id": 5264522, "name": "Newburg", "state": "WI", "country": "US", "coord": {"lon": -88.046478, "lat": 43.431671}}, {"id": 5264569, "name": "Niagara", "state": "WI", "country": "US", "coord": {"lon": -87.99485, "lat": 45.771351}}, {"id": 5264814, "name": "North Fond du Lac", "state": "WI", "country": "US", "coord": {"lon": -88.483437, "lat": 43.811378}}, {"id": 5264862, "name": "North Hudson", "state": "WI", "country": "US", "coord": {"lon": -92.756866, "lat": 44.993019}}, {"id": 5264870, "name": "North La Crosse", "state": "WI", "country": "US", "coord": {"lon": -91.248192, "lat": 43.846352}}, {"id": 5264924, "name": "North Prairie", "state": "WI", "country": "US", "coord": {"lon": -88.405373, "lat": 42.93446}}, {"id": 5265228, "name": "Oak Creek", "state": "WI", "country": "US", "coord": {"lon": -87.863136, "lat": 42.885849}}, {"id": 5265322, "name": "Oak Knoll", "state": "WI", "country": "US", "coord": {"lon": -88.337868, "lat": 42.868622}}, {"id": 5265404, "name": "Oakfield", "state": "WI", "country": "US", "coord": {"lon": -88.546501, "lat": 43.6861}}, {"id": 5265499, "name": "Oconomowoc", "state": "WI", "country": "US", "coord": {"lon": -88.499268, "lat": 43.111671}}, {"id": 5265515, "name": "Oconto", "state": "WI", "country": "US", "coord": {"lon": -87.864548, "lat": 44.887211}}, {"id": 5265518, "name": "Oconto County", "state": "WI", "country": "US", "coord": {"lon": -88.183434, "lat": 45.000542}}, {"id": 5265522, "name": "Oconto Falls", "state": "WI", "country": "US", "coord": {"lon": -88.142883, "lat": 44.873878}}, {"id": 5265566, "name": "Ogema", "state": "WI", "country": "US", "coord": {"lon": -90.298203, "lat": 45.443581}}, {"id": 5265585, "name": "Okauchee Lake", "state": "WI", "country": "US", "coord": {"lon": -88.440651, "lat": 43.123341}}, {"id": 5265692, "name": "Omro", "state": "WI", "country": "US", "coord": {"lon": -88.744278, "lat": 44.039429}}, {"id": 5265702, "name": "Onalaska", "state": "WI", "country": "US", "coord": {"lon": -91.235138, "lat": 43.884411}}, {"id": 5265724, "name": "Oneida", "state": "WI", "country": "US", "coord": {"lon": -88.182877, "lat": 44.4986}}, {"id": 5265752, "name": "Oostburg", "state": "WI", "country": "US", "coord": {"lon": -87.794533, "lat": 43.622768}}, {"id": 5265785, "name": "Oregon", "state": "WI", "country": "US", "coord": {"lon": -89.38456, "lat": 42.926109}}, {"id": 5265792, "name": "Orfordville", "state": "WI", "country": "US", "coord": {"lon": -89.253166, "lat": 42.62751}}, {"id": 5265824, "name": "Osceola", "state": "WI", "country": "US", "coord": {"lon": -92.704933, "lat": 45.320518}}, {"id": 5265838, "name": "Oshkosh", "state": "WI", "country": "US", "coord": {"lon": -88.54261, "lat": 44.024712}}, {"id": 5265857, "name": "Osseo", "state": "WI", "country": "US", "coord": {"lon": -91.227379, "lat": 44.572182}}, {"id": 5266044, "name": "Outagamie County", "state": "WI", "country": "US", "coord": {"lon": -88.466766, "lat": 44.416649}}, {"id": 5266102, "name": "Ozaukee County", "state": "WI", "country": "US", "coord": {"lon": -87.950089, "lat": 43.383339}}, {"id": 5266129, "name": "Paddock Lake", "state": "WI", "country": "US", "coord": {"lon": -88.105087, "lat": 42.577518}}, {"id": 5266156, "name": "Palmyra", "state": "WI", "country": "US", "coord": {"lon": -88.586212, "lat": 42.877789}}, {"id": 5266199, "name": "Pardeeville", "state": "WI", "country": "US", "coord": {"lon": -89.300117, "lat": 43.537762}}, {"id": 5266230, "name": "Park Falls", "state": "WI", "country": "US", "coord": {"lon": -90.441551, "lat": 45.934399}}, {"id": 5266251, "name": "Park Ridge", "state": "WI", "country": "US", "coord": {"lon": -89.545952, "lat": 44.519409}}, {"id": 5266483, "name": "Pell Lake", "state": "WI", "country": "US", "coord": {"lon": -88.350929, "lat": 42.538071}}, {"id": 5266653, "name": "Peshtigo", "state": "WI", "country": "US", "coord": {"lon": -87.749268, "lat": 45.054428}}, {"id": 5266731, "name": "Pewaukee", "state": "WI", "country": "US", "coord": {"lon": -88.2612, "lat": 43.08057}}, {"id": 5266764, "name": "Phillips", "state": "WI", "country": "US", "coord": {"lon": -90.400429, "lat": 45.696629}}, {"id": 5266780, "name": "Phlox", "state": "WI", "country": "US", "coord": {"lon": -89.014282, "lat": 45.051079}}, {"id": 5267180, "name": "Pinehurst", "state": "WI", "country": "US", "coord": {"lon": -91.462662, "lat": 44.858292}}, {"id": 5267332, "name": "Platteville", "state": "WI", "country": "US", "coord": {"lon": -90.478462, "lat": 42.734161}}, {"id": 5267403, "name": "Pleasant Prairie", "state": "WI", "country": "US", "coord": {"lon": -87.933411, "lat": 42.553082}}, {"id": 5267537, "name": "Plover", "state": "WI", "country": "US", "coord": {"lon": -89.544006, "lat": 44.45636}}, {"id": 5267585, "name": "Plymouth", "state": "WI", "country": "US", "coord": {"lon": -87.977043, "lat": 43.748611}}, {"id": 5267654, "name": "Polk County", "state": "WI", "country": "US", "coord": {"lon": -92.416862, "lat": 45.449959}}, {"id": 5267769, "name": "Port Edwards", "state": "WI", "country": "US", "coord": {"lon": -89.865402, "lat": 44.3508}}, {"id": 5267776, "name": "Port Washington", "state": "WI", "country": "US", "coord": {"lon": -87.875641, "lat": 43.387218}}, {"id": 5267785, "name": "Portage", "state": "WI", "country": "US", "coord": {"lon": -89.462624, "lat": 43.53915}}, {"id": 5267787, "name": "Portage County", "state": "WI", "country": "US", "coord": {"lon": -89.500671, "lat": 44.46664}}, {"id": 5267881, "name": "Potter Lake", "state": "WI", "country": "US", "coord": {"lon": -88.348984, "lat": 42.821678}}, {"id": 5267912, "name": "Powers Lake", "state": "WI", "country": "US", "coord": {"lon": -88.29454, "lat": 42.553631}}, {"id": 5267923, "name": "Poynette", "state": "WI", "country": "US", "coord": {"lon": -89.402901, "lat": 43.390259}}, {"id": 5268002, "name": "Prairie du Chien", "state": "WI", "country": "US", "coord": {"lon": -91.141243, "lat": 43.051651}}, {"id": 5268010, "name": "Prairie du Sac", "state": "WI", "country": "US", "coord": {"lon": -89.724007, "lat": 43.28693}}, {"id": 5268045, "name": "Prescott", "state": "WI", "country": "US", "coord": {"lon": -92.802147, "lat": 44.748859}}, {"id": 5268067, "name": "Price County", "state": "WI", "country": "US", "coord": {"lon": -90.350151, "lat": 45.683289}}, {"id": 5268096, "name": "Princeton", "state": "WI", "country": "US", "coord": {"lon": -89.12178, "lat": 43.850811}}, {"id": 5268148, "name": "Pulaski", "state": "WI", "country": "US", "coord": {"lon": -88.242599, "lat": 44.672218}}, {"id": 5268222, "name": "Queenstown", "state": "WI", "country": "US", "coord": {"lon": -90.2882, "lat": 45.35191}}, {"id": 5268249, "name": "Racine", "state": "WI", "country": "US", "coord": {"lon": -87.782852, "lat": 42.726131}}, {"id": 5268253, "name": "Racine County", "state": "WI", "country": "US", "coord": {"lon": -88.075089, "lat": 42.749458}}, {"id": 5268354, "name": "Randolph", "state": "WI", "country": "US", "coord": {"lon": -89.006783, "lat": 43.53915}}, {"id": 5268368, "name": "Random Lake", "state": "WI", "country": "US", "coord": {"lon": -87.961761, "lat": 43.552219}}, {"id": 5268438, "name": "Raymond", "state": "WI", "country": "US", "coord": {"lon": -88.012581, "lat": 42.80085}}, {"id": 5268544, "name": "Redgranite", "state": "WI", "country": "US", "coord": {"lon": -89.09845, "lat": 44.04192}}, {"id": 5268570, "name": "Reedsburg", "state": "WI", "country": "US", "coord": {"lon": -90.002632, "lat": 43.532478}}, {"id": 5268583, "name": "Reedsville", "state": "WI", "country": "US", "coord": {"lon": -87.956757, "lat": 44.153599}}, {"id": 5268720, "name": "Rhinelander", "state": "WI", "country": "US", "coord": {"lon": -89.412079, "lat": 45.63662}}, {"id": 5268742, "name": "Rib Mountain", "state": "WI", "country": "US", "coord": {"lon": -89.6754, "lat": 44.91275}}, {"id": 5268798, "name": "Rice Lake", "state": "WI", "country": "US", "coord": {"lon": -91.738228, "lat": 45.506069}}, {"id": 5268838, "name": "Richfield", "state": "WI", "country": "US", "coord": {"lon": -88.193977, "lat": 43.256119}}, {"id": 5268850, "name": "Richland Center", "state": "WI", "country": "US", "coord": {"lon": -90.386787, "lat": 43.334709}}, {"id": 5268955, "name": "Ripon", "state": "WI", "country": "US", "coord": {"lon": -88.835938, "lat": 43.842201}}, {"id": 5268977, "name": "Rio", "state": "WI", "country": "US", "coord": {"lon": -89.239838, "lat": 43.447762}}, {"id": 5268986, "name": "River Falls", "state": "WI", "country": "US", "coord": {"lon": -92.62381, "lat": 44.861359}}, {"id": 5269003, "name": "River Hills", "state": "WI", "country": "US", "coord": {"lon": -87.924248, "lat": 43.174179}}, {"id": 5269165, "name": "Roberts", "state": "WI", "country": "US", "coord": {"lon": -92.55603, "lat": 44.98386}}, {"id": 5269196, "name": "Rochester", "state": "WI", "country": "US", "coord": {"lon": -88.224258, "lat": 42.741409}}, {"id": 5269209, "name": "Rock County", "state": "WI", "country": "US", "coord": {"lon": -89.06678, "lat": 42.666679}}, {"id": 5269294, "name": "Rock Springs", "state": "WI", "country": "US", "coord": {"lon": -89.919006, "lat": 43.492481}}, {"id": 5269539, "name": "Rosendale", "state": "WI", "country": "US", "coord": {"lon": -88.674828, "lat": 43.807758}}, {"id": 5269583, "name": "Rothschild", "state": "WI", "country": "US", "coord": {"lon": -89.620117, "lat": 44.887192}}, {"id": 5270199, "name": "Saint Croix County", "state": "WI", "country": "US", "coord": {"lon": -92.433533, "lat": 45.049969}}, {"id": 5270204, "name": "Saint Croix Falls", "state": "WI", "country": "US", "coord": {"lon": -92.639648, "lat": 45.409962}}, {"id": 5270249, "name": "Saint Francis", "state": "WI", "country": "US", "coord": {"lon": -87.877579, "lat": 42.967522}}, {"id": 5271704, "name": "Saint Peter", "state": "WI", "country": "US", "coord": {"lon": -88.341492, "lat": 43.83638}}, {"id": 5271991, "name": "Salem", "state": "WI", "country": "US", "coord": {"lon": -88.110924, "lat": 42.554741}}, {"id": 5272227, "name": "Sauk City", "state": "WI", "country": "US", "coord": {"lon": -89.722069, "lat": 43.270821}}, {"id": 5272232, "name": "Sauk County", "state": "WI", "country": "US", "coord": {"lon": -89.950127, "lat": 43.449982}}, {"id": 5272249, "name": "Saukville", "state": "WI", "country": "US", "coord": {"lon": -87.940651, "lat": 43.381672}}, {"id": 5272378, "name": "Schofield", "state": "WI", "country": "US", "coord": {"lon": -89.604568, "lat": 44.909691}}, {"id": 5272775, "name": "Seymour", "state": "WI", "country": "US", "coord": {"lon": -91.431267, "lat": 44.82663}}, {"id": 5272776, "name": "Seymour", "state": "WI", "country": "US", "coord": {"lon": -88.330383, "lat": 44.514992}}, {"id": 5272851, "name": "Sharon", "state": "WI", "country": "US", "coord": {"lon": -88.728989, "lat": 42.502522}}, {"id": 5272873, "name": "Shawano", "state": "WI", "country": "US", "coord": {"lon": -88.608994, "lat": 44.782211}}, {"id": 5272893, "name": "Sheboygan", "state": "WI", "country": "US", "coord": {"lon": -87.714531, "lat": 43.750832}}, {"id": 5272899, "name": "Sheboygan County", "state": "WI", "country": "US", "coord": {"lon": -87.933434, "lat": 43.73333}}, {"id": 5272907, "name": "Sheboygan Falls", "state": "WI", "country": "US", "coord": {"lon": -87.822128, "lat": 43.731972}}, {"id": 5272949, "name": "Shell Lake", "state": "WI", "country": "US", "coord": {"lon": -91.925453, "lat": 45.739391}}, {"id": 5272964, "name": "Shelby", "state": "WI", "country": "US", "coord": {"lon": -91.160973, "lat": 43.769131}}, {"id": 5273018, "name": "Sherwood", "state": "WI", "country": "US", "coord": {"lon": -88.259827, "lat": 44.173599}}, {"id": 5273084, "name": "Shorewood", "state": "WI", "country": "US", "coord": {"lon": -87.887581, "lat": 43.08918}}, {"id": 5273087, "name": "Shorewood Hills", "state": "WI", "country": "US", "coord": {"lon": -89.445679, "lat": 43.077499}}, {"id": 5273110, "name": "Shullsburg", "state": "WI", "country": "US", "coord": {"lon": -90.230957, "lat": 42.573341}}, {"id": 5273134, "name": "Sidney", "state": "WI", "country": "US", "coord": {"lon": -90.638748, "lat": 44.552738}}, {"id": 5273204, "name": "Silver Lake", "state": "WI", "country": "US", "coord": {"lon": -88.165642, "lat": 42.546131}}, {"id": 5273224, "name": "Silver Lake", "state": "WI", "country": "US", "coord": {"lon": -89.226227, "lat": 44.05526}}, {"id": 5273324, "name": "Siren", "state": "WI", "country": "US", "coord": {"lon": -92.381027, "lat": 45.785782}}, {"id": 5273439, "name": "Slinger", "state": "WI", "country": "US", "coord": {"lon": -88.286209, "lat": 43.333611}}, {"id": 5273614, "name": "Somers", "state": "WI", "country": "US", "coord": {"lon": -87.910362, "lat": 42.640301}}, {"id": 5273620, "name": "Somerset", "state": "WI", "country": "US", "coord": {"lon": -92.673538, "lat": 45.124409}}, {"id": 5273812, "name": "South Milwaukee", "state": "WI", "country": "US", "coord": {"lon": -87.860641, "lat": 42.910568}}, {"id": 5273875, "name": "South Superior", "state": "WI", "country": "US", "coord": {"lon": -92.095192, "lat": 46.66938}}, {"id": 5273927, "name": "Sparta", "state": "WI", "country": "US", "coord": {"lon": -90.812912, "lat": 43.94413}}, {"id": 5273956, "name": "Spencer", "state": "WI", "country": "US", "coord": {"lon": -90.296799, "lat": 44.75774}}, {"id": 5274034, "name": "Spooner", "state": "WI", "country": "US", "coord": {"lon": -91.889343, "lat": 45.822449}}, {"id": 5274183, "name": "Spring Green", "state": "WI", "country": "US", "coord": {"lon": -90.067902, "lat": 43.17527}}, {"id": 5274288, "name": "Spring Valley", "state": "WI", "country": "US", "coord": {"lon": -92.2388, "lat": 44.845242}}, {"id": 5274473, "name": "Stanley", "state": "WI", "country": "US", "coord": {"lon": -90.93708, "lat": 44.959969}}, {"id": 5274592, "name": "Steinthal", "state": "WI", "country": "US", "coord": {"lon": -88.002319, "lat": 43.982491}}, {"id": 5274644, "name": "Stevens Point", "state": "WI", "country": "US", "coord": {"lon": -89.574562, "lat": 44.523579}}, {"id": 5274787, "name": "Stoughton", "state": "WI", "country": "US", "coord": {"lon": -89.217888, "lat": 42.91695}}, {"id": 5274807, "name": "Stratford", "state": "WI", "country": "US", "coord": {"lon": -90.0793, "lat": 44.801079}}, {"id": 5274842, "name": "Strum", "state": "WI", "country": "US", "coord": {"lon": -91.392662, "lat": 44.54969}}, {"id": 5274867, "name": "Sturgeon Bay", "state": "WI", "country": "US", "coord": {"lon": -87.377037, "lat": 44.83416}}, {"id": 5274885, "name": "Sturtevant", "state": "WI", "country": "US", "coord": {"lon": -87.894524, "lat": 42.698071}}, {"id": 5274887, "name": "Suamico", "state": "WI", "country": "US", "coord": {"lon": -88.039268, "lat": 44.631939}}, {"id": 5275020, "name": "Sun Prairie", "state": "WI", "country": "US", "coord": {"lon": -89.21373, "lat": 43.183601}}, {"id": 5275191, "name": "Superior", "state": "WI", "country": "US", "coord": {"lon": -92.10408, "lat": 46.720772}}, {"id": 5275222, "name": "Sussex", "state": "WI", "country": "US", "coord": {"lon": -88.222038, "lat": 43.1339}}, {"id": 5275391, "name": "Tainter Lake", "state": "WI", "country": "US", "coord": {"lon": -91.847679, "lat": 44.989128}}, {"id": 5275451, "name": "Taylor County", "state": "WI", "country": "US", "coord": {"lon": -90.516808, "lat": 45.21664}}, {"id": 5275589, "name": "Theresa", "state": "WI", "country": "US", "coord": {"lon": -88.45121, "lat": 43.51722}}, {"id": 5275601, "name": "Thiensville", "state": "WI", "country": "US", "coord": {"lon": -87.978699, "lat": 43.237511}}, {"id": 5275704, "name": "Thorp", "state": "WI", "country": "US", "coord": {"lon": -90.799858, "lat": 44.961079}}, {"id": 5275760, "name": "Tichigan", "state": "WI", "country": "US", "coord": {"lon": -88.197594, "lat": 42.828899}}, {"id": 5275871, "name": "Tomah", "state": "WI", "country": "US", "coord": {"lon": -90.504021, "lat": 43.97858}}, {"id": 5275884, "name": "Tomahawk", "state": "WI", "country": "US", "coord": {"lon": -89.729858, "lat": 45.471081}}, {"id": 5276084, "name": "Trempealeau", "state": "WI", "country": "US", "coord": {"lon": -91.442093, "lat": 44.00552}}, {"id": 5276086, "name": "Trempealeau County", "state": "WI", "country": "US", "coord": {"lon": -91.350159, "lat": 44.316631}}, {"id": 5276435, "name": "Turtle Lake", "state": "WI", "country": "US", "coord": {"lon": -92.14241, "lat": 45.394402}}, {"id": 5276542, "name": "Twin Lakes", "state": "WI", "country": "US", "coord": {"lon": -88.248154, "lat": 42.531132}}, {"id": 5276609, "name": "Two Rivers", "state": "WI", "country": "US", "coord": {"lon": -87.569252, "lat": 44.153881}}, {"id": 5276720, "name": "Union Grove", "state": "WI", "country": "US", "coord": {"lon": -88.051468, "lat": 42.688068}}, {"id": 5277142, "name": "Verona", "state": "WI", "country": "US", "coord": {"lon": -89.53318, "lat": 42.990829}}, {"id": 5277276, "name": "Viroqua", "state": "WI", "country": "US", "coord": {"lon": -90.888741, "lat": 43.556919}}, {"id": 5277716, "name": "Wales", "state": "WI", "country": "US", "coord": {"lon": -88.376762, "lat": 43.004452}}, {"id": 5277773, "name": "Walworth County", "state": "WI", "country": "US", "coord": {"lon": -88.533432, "lat": 42.666679}}, {"id": 5277801, "name": "Walworth", "state": "WI", "country": "US", "coord": {"lon": -88.599548, "lat": 42.531132}}, {"id": 5277856, "name": "Washburn", "state": "WI", "country": "US", "coord": {"lon": -90.894913, "lat": 46.673271}}, {"id": 5277858, "name": "Washburn County", "state": "WI", "country": "US", "coord": {"lon": -91.783508, "lat": 45.899948}}, {"id": 5277887, "name": "Washington County", "state": "WI", "country": "US", "coord": {"lon": -88.233429, "lat": 43.366669}}, {"id": 5277989, "name": "Waterloo", "state": "WI", "country": "US", "coord": {"lon": -88.988441, "lat": 43.18388}}, {"id": 5278003, "name": "Waterford", "state": "WI", "country": "US", "coord": {"lon": -88.214256, "lat": 42.763069}}, {"id": 5278005, "name": "Watertown", "state": "WI", "country": "US", "coord": {"lon": -88.728989, "lat": 43.194721}}, {"id": 5278052, "name": "Waukesha", "state": "WI", "country": "US", "coord": {"lon": -88.231483, "lat": 43.011681}}, {"id": 5278054, "name": "Waukesha County", "state": "WI", "country": "US", "coord": {"lon": -88.300087, "lat": 43.03334}}, {"id": 5278073, "name": "Waunakee", "state": "WI", "country": "US", "coord": {"lon": -89.455673, "lat": 43.19194}}, {"id": 5278083, "name": "Waupaca", "state": "WI", "country": "US", "coord": {"lon": -89.085953, "lat": 44.358028}}, {"id": 5278089, "name": "Waupaca County", "state": "WI", "country": "US", "coord": {"lon": -88.983437, "lat": 44.466648}}, {"id": 5278106, "name": "Waupun", "state": "WI", "country": "US", "coord": {"lon": -88.729553, "lat": 43.63332}}, {"id": 5278120, "name": "Wausau", "state": "WI", "country": "US", "coord": {"lon": -89.630119, "lat": 44.959141}}, {"id": 5278131, "name": "Wausau Junction", "state": "WI", "country": "US", "coord": {"lon": -89.608727, "lat": 44.941078}}, {"id": 5278147, "name": "Waushara County", "state": "WI", "country": "US", "coord": {"lon": -89.250671, "lat": 44.116638}}, {"id": 5278148, "name": "Wautoma", "state": "WI", "country": "US", "coord": {"lon": -89.287903, "lat": 44.074699}}, {"id": 5278159, "name": "Wauwatosa", "state": "WI", "country": "US", "coord": {"lon": -88.007591, "lat": 43.049461}}, {"id": 5278411, "name": "West Baraboo", "state": "WI", "country": "US", "coord": {"lon": -89.770401, "lat": 43.47443}}, {"id": 5278420, "name": "West Allis", "state": "WI", "country": "US", "coord": {"lon": -88.007027, "lat": 43.016682}}, {"id": 5278422, "name": "West Bend", "state": "WI", "country": "US", "coord": {"lon": -88.183434, "lat": 43.425282}}, {"id": 5278580, "name": "West Milwaukee", "state": "WI", "country": "US", "coord": {"lon": -87.972588, "lat": 43.012508}}, {"id": 5278608, "name": "West Salem", "state": "WI", "country": "US", "coord": {"lon": -91.081253, "lat": 43.899132}}, {"id": 5278652, "name": "Westby", "state": "WI", "country": "US", "coord": {"lon": -90.854301, "lat": 43.656921}}, {"id": 5278669, "name": "Westfield", "state": "WI", "country": "US", "coord": {"lon": -89.493462, "lat": 43.883591}}, {"id": 5278693, "name": "Weston", "state": "WI", "country": "US", "coord": {"lon": -89.547623, "lat": 44.8908}}, {"id": 5278723, "name": "Weyauwega", "state": "WI", "country": "US", "coord": {"lon": -88.933723, "lat": 44.321369}}, {"id": 5278897, "name": "Whitefish Bay", "state": "WI", "country": "US", "coord": {"lon": -87.900093, "lat": 43.113338}}, {"id": 5278914, "name": "Whitehall", "state": "WI", "country": "US", "coord": {"lon": -91.316551, "lat": 44.367458}}, {"id": 5278931, "name": "Whitewater", "state": "WI", "country": "US", "coord": {"lon": -88.73233, "lat": 42.833618}}, {"id": 5278948, "name": "Whiting", "state": "WI", "country": "US", "coord": {"lon": -89.558731, "lat": 44.49358}}, {"id": 5279098, "name": "Williams Bay", "state": "WI", "country": "US", "coord": {"lon": -88.540932, "lat": 42.578072}}, {"id": 5279285, "name": "Wind Lake", "state": "WI", "country": "US", "coord": {"lon": -88.158699, "lat": 42.82946}}, {"id": 5279291, "name": "Wind Point", "state": "WI", "country": "US", "coord": {"lon": -87.76619, "lat": 42.784458}}, {"id": 5279311, "name": "Windsor", "state": "WI", "country": "US", "coord": {"lon": -89.341507, "lat": 43.21833}}, {"id": 5279356, "name": "Winneconne", "state": "WI", "country": "US", "coord": {"lon": -88.712608, "lat": 44.110821}}, {"id": 5279387, "name": "Winnebago County", "state": "WI", "country": "US", "coord": {"lon": -88.650108, "lat": 44.06665}}, {"id": 5279422, "name": "Wisconsin Dells", "state": "WI", "country": "US", "coord": {"lon": -89.770958, "lat": 43.62748}}, {"id": 5279436, "name": "Wisconsin Rapids", "state": "WI", "country": "US", "coord": {"lon": -89.817352, "lat": 44.383579}}, {"id": 5279468, "name": "Wisconsin", "state": "WI", "country": "US", "coord": {"lon": -90.000412, "lat": 44.50024}}, {"id": 5279483, "name": "Wittenberg", "state": "WI", "country": "US", "coord": {"lon": -89.169563, "lat": 44.827202}}, {"id": 5279557, "name": "Wood County", "state": "WI", "country": "US", "coord": {"lon": -90.050133, "lat": 44.449959}}, {"id": 5279598, "name": "Woodbridge Trailer Court", "state": "WI", "country": "US", "coord": {"lon": -92.555481, "lat": 45.129688}}, {"id": 5279715, "name": "Woodville", "state": "WI", "country": "US", "coord": {"lon": -92.291298, "lat": 44.953018}}, {"id": 5279748, "name": "Woodworth", "state": "WI", "country": "US", "coord": {"lon": -88.00119, "lat": 42.558071}}, {"id": 5279757, "name": "Wrightstown", "state": "WI", "country": "US", "coord": {"lon": -88.16288, "lat": 44.325821}}, {"id": 5280076, "name": "Benwood", "state": "WV", "country": "US", "coord": {"lon": -80.734253, "lat": 40.018131}}, {"id": 5280084, "name": "Bethany", "state": "WV", "country": "US", "coord": {"lon": -80.55674, "lat": 40.205631}}, {"id": 5280087, "name": "Bethlehem", "state": "WV", "country": "US", "coord": {"lon": -80.690643, "lat": 40.043961}}, {"id": 5280161, "name": "Chester", "state": "WV", "country": "US", "coord": {"lon": -80.562851, "lat": 40.613121}}, {"id": 5280285, "name": "Follansbee", "state": "WV", "country": "US", "coord": {"lon": -80.595909, "lat": 40.327572}}, {"id": 5280351, "name": "Hancock County", "state": "WV", "country": "US", "coord": {"lon": -80.56646, "lat": 40.500622}}, {"id": 5280378, "name": "Hooverson Heights", "state": "WV", "country": "US", "coord": {"lon": -80.577568, "lat": 40.324791}}, {"id": 5280523, "name": "New Cumberland", "state": "WV", "country": "US", "coord": {"lon": -80.606743, "lat": 40.496731}}, {"id": 5280534, "name": "Newell", "state": "WV", "country": "US", "coord": {"lon": -80.60424, "lat": 40.618401}}, {"id": 5280563, "name": "Ohio County", "state": "WV", "country": "US", "coord": {"lon": -80.616463, "lat": 40.100071}}, {"id": 5280753, "name": "Triadelphia", "state": "WV", "country": "US", "coord": {"lon": -80.62841, "lat": 40.05257}}, {"id": 5280814, "name": "Weirton", "state": "WV", "country": "US", "coord": {"lon": -80.589523, "lat": 40.418961}}, {"id": 5280822, "name": "Weirton Heights", "state": "WV", "country": "US", "coord": {"lon": -80.539238, "lat": 40.408401}}, {"id": 5280835, "name": "Wellsburg", "state": "WV", "country": "US", "coord": {"lon": -80.60952, "lat": 40.272011}}, {"id": 5280846, "name": "West Liberty", "state": "WV", "country": "US", "coord": {"lon": -80.593689, "lat": 40.169788}}, {"id": 5280854, "name": "Wheeling", "state": "WV", "country": "US", "coord": {"lon": -80.720909, "lat": 40.063961}}, {"id": 5280920, "name": "Baltic", "state": "CT", "country": "US", "coord": {"lon": -72.084518, "lat": 41.617039}}, {"id": 5280935, "name": "Newtown", "state": "CT", "country": "US", "coord": {"lon": -73.303452, "lat": 41.413979}}, {"id": 5280975, "name": "Three Rivers", "state": "MA", "country": "US", "coord": {"lon": -72.360641, "lat": 42.181198}}, {"id": 5281007, "name": "South Duxbury", "state": "MA", "country": "US", "coord": {"lon": -70.682808, "lat": 42.023159}}, {"id": 5281020, "name": "Groton", "state": "MA", "country": "US", "coord": {"lon": -71.574509, "lat": 42.611198}}, {"id": 5281031, "name": "Sheffield", "state": "MA", "country": "US", "coord": {"lon": -73.35511, "lat": 42.110371}}, {"id": 5281055, "name": "Carmel", "state": "ME", "country": "US", "coord": {"lon": -69.051147, "lat": 44.797569}}, {"id": 5281077, "name": "Phillips", "state": "ME", "country": "US", "coord": {"lon": -70.339508, "lat": 44.823109}}, {"id": 5281094, "name": "West Kennebunk", "state": "ME", "country": "US", "coord": {"lon": -70.581444, "lat": 43.408699}}, {"id": 5281144, "name": "Nowthen", "state": "MN", "country": "US", "coord": {"lon": -93.47023, "lat": 45.328018}}, {"id": 5281166, "name": "Castleton", "state": "VT", "country": "US", "coord": {"lon": -73.179832, "lat": 43.610619}}, {"id": 5281189, "name": "Air City", "state": "NY", "country": "US", "coord": {"lon": -75.422401, "lat": 43.22007}}, {"id": 5281340, "name": "Kohler", "state": "WI", "country": "US", "coord": {"lon": -87.781754, "lat": 43.739159}}, {"id": 5281505, "name": "Allyn Point", "state": "CT", "country": "US", "coord": {"lon": -72.07869, "lat": 41.441761}}, {"id": 5281551, "name": "Ansonia", "state": "CT", "country": "US", "coord": {"lon": -73.079002, "lat": 41.34621}}, {"id": 5282297, "name": "Bethel", "state": "CT", "country": "US", "coord": {"lon": -73.414009, "lat": 41.371208}}, {"id": 5282550, "name": "Blue Hills", "state": "CT", "country": "US", "coord": {"lon": -72.697594, "lat": 41.812881}}, {"id": 5282804, "name": "Bridgeport", "state": "CT", "country": "US", "coord": {"lon": -73.204826, "lat": 41.167042}}, {"id": 5282835, "name": "Bristol", "state": "CT", "country": "US", "coord": {"lon": -72.949272, "lat": 41.671761}}, {"id": 5282868, "name": "East Windsor", "state": "CT", "country": "US", "coord": {"lon": -72.54509, "lat": 41.912319}}, {"id": 5283054, "name": "Branford", "state": "CT", "country": "US", "coord": {"lon": -72.815102, "lat": 41.279541}}, {"id": 5283149, "name": "Byram", "state": "CT", "country": "US", "coord": {"lon": -73.65374, "lat": 41.004261}}, {"id": 5283386, "name": "Canaan", "state": "CT", "country": "US", "coord": {"lon": -73.329277, "lat": 42.027309}}, {"id": 5283461, "name": "Canton Valley", "state": "CT", "country": "US", "coord": {"lon": -72.891769, "lat": 41.834259}}, {"id": 5283837, "name": "Cheshire", "state": "CT", "country": "US", "coord": {"lon": -72.900658, "lat": 41.498989}}, {"id": 5284202, "name": "Clinton", "state": "CT", "country": "US", "coord": {"lon": -72.527588, "lat": 41.278709}}, {"id": 5284283, "name": "Colchester", "state": "CT", "country": "US", "coord": {"lon": -72.332031, "lat": 41.575649}}, {"id": 5284335, "name": "Collinsville", "state": "CT", "country": "US", "coord": {"lon": -72.920097, "lat": 41.812881}}, {"id": 5284580, "name": "Holbrook", "state": "AZ", "country": "US", "coord": {"lon": -110.15818, "lat": 34.902248}}, {"id": 5284678, "name": "Tonopah", "state": "AZ", "country": "US", "coord": {"lon": -112.937119, "lat": 33.493649}}, {"id": 5284756, "name": "Fillmore", "state": "CA", "country": "US", "coord": {"lon": -118.918152, "lat": 34.399158}}, {"id": 5284905, "name": "Bisbee", "state": "AZ", "country": "US", "coord": {"lon": -109.928413, "lat": 31.448151}}, {"id": 5285018, "name": "Middletown", "state": "CA", "country": "US", "coord": {"lon": -122.61499, "lat": 38.752399}}, {"id": 5285039, "name": "Black Bear Spring", "state": "AZ", "country": "US", "coord": {"lon": -110.288139, "lat": 31.386209}}, {"id": 5285131, "name": "Black Canyon City", "state": "AZ", "country": "US", "coord": {"lon": -112.150711, "lat": 34.070869}}, {"id": 5285182, "name": "South Taft", "state": "CA", "country": "US", "coord": {"lon": -119.45623, "lat": 35.134689}}, {"id": 5285214, "name": "Vine Hill", "state": "CA", "country": "US", "coord": {"lon": -122.096077, "lat": 38.00853}}, {"id": 5285334, "name": "Koen", "state": "CO", "country": "US", "coord": {"lon": -102.346863, "lat": 38.0714}}, {"id": 5285480, "name": "Dighton", "state": "KS", "country": "US", "coord": {"lon": -100.467079, "lat": 38.48196}}, {"id": 5285666, "name": "Mora", "state": "NM", "country": "US", "coord": {"lon": -105.330009, "lat": 35.974201}}, {"id": 5285857, "name": "Blackwater", "state": "AZ", "country": "US", "coord": {"lon": -111.582626, "lat": 33.03117}}, {"id": 5286072, "name": "Mona", "state": "UT", "country": "US", "coord": {"lon": -111.855492, "lat": 39.816071}}, {"id": 5287262, "name": "Buckeye", "state": "AZ", "country": "US", "coord": {"lon": -112.583778, "lat": 33.370319}}, {"id": 5287565, "name": "Bullhead City", "state": "AZ", "country": "US", "coord": {"lon": -114.568298, "lat": 35.147781}}, {"id": 5287938, "name": "Bylas", "state": "AZ", "country": "US", "coord": {"lon": -110.120041, "lat": 33.134281}}, {"id": 5288063, "name": "Cactus Flat", "state": "AZ", "country": "US", "coord": {"lon": -109.716187, "lat": 32.7584}}, {"id": 5288261, "name": "Camp Verde", "state": "AZ", "country": "US", "coord": {"lon": -111.854317, "lat": 34.563641}}, {"id": 5288439, "name": "Canyon Day", "state": "AZ", "country": "US", "coord": {"lon": -110.026489, "lat": 33.784771}}, {"id": 5288523, "name": "Carefree", "state": "AZ", "country": "US", "coord": {"lon": -111.918198, "lat": 33.822262}}, {"id": 5288629, "name": "Casa Blanca", "state": "AZ", "country": "US", "coord": {"lon": -111.888191, "lat": 33.120331}}, {"id": 5288636, "name": "Casa Grande", "state": "AZ", "country": "US", "coord": {"lon": -111.757347, "lat": 32.879501}}, {"id": 5288661, "name": "Casas Adobes", "state": "AZ", "country": "US", "coord": {"lon": -110.995102, "lat": 32.32341}}, {"id": 5288663, "name": "Cascabel", "state": "AZ", "country": "US", "coord": {"lon": -110.379517, "lat": 32.291458}}, {"id": 5288784, "name": "Catalina", "state": "AZ", "country": "US", "coord": {"lon": -110.921112, "lat": 32.505562}}, {"id": 5288786, "name": "Catalina Foothills", "state": "AZ", "country": "US", "coord": {"lon": -110.918701, "lat": 32.297852}}, {"id": 5288856, "name": "Cave Creek", "state": "", "country": "US", "coord": {"lon": -111.950699, "lat": 33.83337}}, {"id": 5288858, "name": "Cave Creek", "state": "AZ", "country": "US", "coord": {"lon": -111.950829, "lat": 33.833328}}, {"id": 5289282, "name": "Chandler", "state": "AZ", "country": "US", "coord": {"lon": -111.841248, "lat": 33.30616}}, {"id": 5289626, "name": "Chinle", "state": "AZ", "country": "US", "coord": {"lon": -109.552612, "lat": 36.154449}}, {"id": 5289658, "name": "Chino Valley", "state": "AZ", "country": "US", "coord": {"lon": -112.453781, "lat": 34.757519}}, {"id": 5289812, "name": "Cibecue", "state": "AZ", "country": "US", "coord": {"lon": -110.48539, "lat": 34.044769}}, {"id": 5289863, "name": "Cienega Springs", "state": "AZ", "country": "US", "coord": {"lon": -114.22467, "lat": 34.188629}}, {"id": 5289961, "name": "Citrus Park", "state": "AZ", "country": "US", "coord": {"lon": -112.444328, "lat": 33.548649}}, {"id": 5290007, "name": "Clarkdale", "state": "AZ", "country": "US", "coord": {"lon": -112.057938, "lat": 34.77113}}, {"id": 5290051, "name": "Claypool", "state": "AZ", "country": "US", "coord": {"lon": -110.842613, "lat": 33.411171}}, {"id": 5290059, "name": "Clear Creek", "state": "AZ", "country": "US", "coord": {"lon": -111.818481, "lat": 34.521969}}, {"id": 5290124, "name": "Clifton", "state": "AZ", "country": "US", "coord": {"lon": -109.296181, "lat": 33.0509}}, {"id": 5290270, "name": "Cochise County", "state": "AZ", "country": "US", "coord": {"lon": -109.742287, "lat": 31.93203}}, {"id": 5290307, "name": "Coconino County", "state": "AZ", "country": "US", "coord": {"lon": -112.134064, "lat": 36.083321}}, {"id": 5290463, "name": "Colorado City", "state": "AZ", "country": "US", "coord": {"lon": -112.975769, "lat": 36.990261}}, {"id": 5290551, "name": "Conger", "state": "AZ", "country": "US", "coord": {"lon": -112.658218, "lat": 33.3731}}, {"id": 5290559, "name": "Congress", "state": "AZ", "country": "US", "coord": {"lon": -112.850739, "lat": 34.162529}}, {"id": 5290663, "name": "Coolidge", "state": "AZ", "country": "US", "coord": {"lon": -111.517616, "lat": 32.97784}}, {"id": 5290834, "name": "Cordes Lakes", "state": "AZ", "country": "US", "coord": {"lon": -112.103493, "lat": 34.307812}}, {"id": 5290912, "name": "Cornville", "state": "AZ", "country": "US", "coord": {"lon": -111.921539, "lat": 34.7178}}, {"id": 5290925, "name": "Corona de Tucson", "state": "AZ", "country": "US", "coord": {"lon": -110.775642, "lat": 31.965361}}, {"id": 5291014, "name": "Cosnino", "state": "AZ", "country": "US", "coord": {"lon": -111.474876, "lat": 35.20557}}, {"id": 5291033, "name": "Cottonwood", "state": "AZ", "country": "US", "coord": {"lon": -112.00988, "lat": 34.739189}}, {"id": 5292505, "name": "Desert Hills", "state": "AZ", "country": "US", "coord": {"lon": -114.372459, "lat": 34.553902}}, {"id": 5292672, "name": "Diamond Point Summer Homes", "state": "AZ", "country": "US", "coord": {"lon": -111.190407, "lat": 34.329762}}, {"id": 5292715, "name": "Dilkon", "state": "AZ", "country": "US", "coord": {"lon": -110.320679, "lat": 35.385288}}, {"id": 5292912, "name": "Dolan Springs", "state": "AZ", "country": "US", "coord": {"lon": -114.273293, "lat": 35.591942}}, {"id": 5293012, "name": "Double Adobe", "state": "AZ", "country": "US", "coord": {"lon": -109.690071, "lat": 31.46677}}, {"id": 5293083, "name": "Douglas", "state": "AZ", "country": "US", "coord": {"lon": -109.545341, "lat": 31.344549}}, {"id": 5293183, "name": "Drexel Heights", "state": "AZ", "country": "US", "coord": {"lon": -111.028427, "lat": 32.14119}}, {"id": 5293569, "name": "Eagar", "state": "AZ", "country": "US", "coord": {"lon": -109.291481, "lat": 34.11116}}, {"id": 5293685, "name": "East Flagstaff", "state": "AZ", "country": "US", "coord": {"lon": -111.61322, "lat": 35.211399}}, {"id": 5293796, "name": "East Sahuarita", "state": "AZ", "country": "US", "coord": {"lon": -110.928421, "lat": 31.94286}}, {"id": 5293951, "name": "Ehrenberg", "state": "AZ", "country": "US", "coord": {"lon": -114.52523, "lat": 33.604191}}, {"id": 5293996, "name": "El Mirage", "state": "AZ", "country": "US", "coord": {"lon": -112.3246, "lat": 33.613091}}, {"id": 5294167, "name": "Eloy", "state": "AZ", "country": "US", "coord": {"lon": -111.55484, "lat": 32.755901}}, {"id": 5294698, "name": "First Mesa", "state": "AZ", "country": "US", "coord": {"lon": -110.381523, "lat": 35.83667}}, {"id": 5294810, "name": "Flagstaff", "state": "AZ", "country": "US", "coord": {"lon": -111.651268, "lat": 35.198071}}, {"id": 5294902, "name": "Florence", "state": "AZ", "country": "US", "coord": {"lon": -111.387337, "lat": 33.031448}}, {"id": 5294937, "name": "Flowing Wells", "state": "AZ", "country": "US", "coord": {"lon": -111.009819, "lat": 32.293961}}, {"id": 5295093, "name": "Fort Defiance", "state": "AZ", "country": "US", "coord": {"lon": -109.076477, "lat": 35.744461}}, {"id": 5295143, "name": "Fortuna Foothills", "state": "AZ", "country": "US", "coord": {"lon": -114.411888, "lat": 32.657829}}, {"id": 5295177, "name": "Fountain Hills", "state": "AZ", "country": "US", "coord": {"lon": -111.717361, "lat": 33.61171}}, {"id": 5295349, "name": "Fredonia", "state": "AZ", "country": "US", "coord": {"lon": -112.526588, "lat": 36.945541}}, {"id": 5295579, "name": "Gallups", "state": "AZ", "country": "US", "coord": {"lon": -111.186523, "lat": 34.078651}}, {"id": 5295585, "name": "Ganado", "state": "AZ", "country": "US", "coord": {"lon": -109.542053, "lat": 35.711399}}, {"id": 5295796, "name": "Germann", "state": "AZ", "country": "US", "coord": {"lon": -111.669296, "lat": 33.278111}}, {"id": 5295860, "name": "Gila Bend", "state": "AZ", "country": "US", "coord": {"lon": -112.716827, "lat": 32.947819}}, {"id": 5295877, "name": "Gila County", "state": "AZ", "country": "US", "coord": {"lon": -110.517326, "lat": 33.51672}}, {"id": 5295903, "name": "Gilbert", "state": "AZ", "country": "US", "coord": {"lon": -111.789032, "lat": 33.352829}}, {"id": 5295985, "name": "Glendale", "state": "AZ", "country": "US", "coord": {"lon": -112.185989, "lat": 33.538651}}, {"id": 5296013, "name": "Globe", "state": "AZ", "country": "US", "coord": {"lon": -110.786499, "lat": 33.394218}}, {"id": 5296106, "name": "Gold Camp", "state": "AZ", "country": "US", "coord": {"lon": -111.304291, "lat": 33.293671}}, {"id": 5296189, "name": "Golden Valley", "state": "AZ", "country": "US", "coord": {"lon": -114.223007, "lat": 35.223331}}, {"id": 5296266, "name": "Goodyear", "state": "AZ", "country": "US", "coord": {"lon": -112.358208, "lat": 33.435322}}, {"id": 5296391, "name": "Grand Canyon", "state": "AZ", "country": "US", "coord": {"lon": -112.139343, "lat": 36.054428}}, {"id": 5296409, "name": "Grand Canyon Village", "state": "AZ", "country": "US", "coord": {"lon": -112.15406, "lat": 36.046371}}, {"id": 5296477, "name": "Granite Dells", "state": "AZ", "country": "US", "coord": {"lon": -112.412392, "lat": 34.605862}}, {"id": 5296802, "name": "Green Valley", "state": "AZ", "country": "US", "coord": {"lon": -110.993698, "lat": 31.85425}}, {"id": 5296962, "name": "Guadalupe", "state": "AZ", "country": "US", "coord": {"lon": -111.962921, "lat": 33.37088}}, {"id": 5297410, "name": "Harrington Place", "state": "AZ", "country": "US", "coord": {"lon": -110.546738, "lat": 32.04258}}, {"id": 5298887, "name": "Houck", "state": "AZ", "country": "US", "coord": {"lon": -109.207039, "lat": 35.283081}}, {"id": 5298978, "name": "Huachuca City", "state": "AZ", "country": "US", "coord": {"lon": -110.333969, "lat": 31.627871}}, {"id": 5300182, "name": "Joseph City", "state": "AZ", "country": "US", "coord": {"lon": -110.334007, "lat": 34.95586}}, {"id": 5300735, "name": "Kachina Village", "state": "AZ", "country": "US", "coord": {"lon": -111.692657, "lat": 35.096958}}, {"id": 5300756, "name": "Kaibito", "state": "AZ", "country": "US", "coord": {"lon": -111.07431, "lat": 36.597221}}, {"id": 5300830, "name": "Kayenta", "state": "AZ", "country": "US", "coord": {"lon": -110.254578, "lat": 36.727779}}, {"id": 5300854, "name": "Kearny", "state": "AZ", "country": "US", "coord": {"lon": -110.910667, "lat": 33.057011}}, {"id": 5301067, "name": "Kingman", "state": "AZ", "country": "US", "coord": {"lon": -114.053009, "lat": 35.189442}}, {"id": 5301232, "name": "Kohls Ranch", "state": "AZ", "country": "US", "coord": {"lon": -111.094299, "lat": 34.32531}}, {"id": 5301242, "name": "Komatke", "state": "AZ", "country": "US", "coord": {"lon": -112.17543, "lat": 33.293381}}, {"id": 5301388, "name": "Lake Havasu City", "state": "AZ", "country": "US", "coord": {"lon": -114.322449, "lat": 34.483898}}, {"id": 5301407, "name": "Lake Montezuma", "state": "AZ", "country": "US", "coord": {"lon": -111.777931, "lat": 34.63224}}, {"id": 5301442, "name": "Lake of the Woods", "state": "AZ", "country": "US", "coord": {"lon": -109.989548, "lat": 34.163929}}, {"id": 5301692, "name": "LeChee", "state": "AZ", "country": "US", "coord": {"lon": -110.752907, "lat": 35.032242}}, {"id": 5301878, "name": "Liberty", "state": "AZ", "country": "US", "coord": {"lon": -112.486832, "lat": 33.377541}}, {"id": 5301981, "name": "Linden", "state": "AZ", "country": "US", "coord": {"lon": -110.157059, "lat": 34.285042}}, {"id": 5302052, "name": "Litchfield Junction", "state": "AZ", "country": "US", "coord": {"lon": -112.362663, "lat": 33.422539}}, {"id": 5302053, "name": "Litchfield Park", "state": "AZ", "country": "US", "coord": {"lon": -112.357941, "lat": 33.49337}}, {"id": 5302611, "name": "Lone Butte Ranch", "state": "AZ", "country": "US", "coord": {"lon": -112.047089, "lat": 33.232552}}, {"id": 5303304, "name": "Lukachukai", "state": "AZ", "country": "US", "coord": {"lon": -109.228706, "lat": 36.41695}}, {"id": 5303587, "name": "Mammoth", "state": "AZ", "country": "US", "coord": {"lon": -110.640648, "lat": 32.722569}}, {"id": 5303643, "name": "Many Farms", "state": "AZ", "country": "US", "coord": {"lon": -109.617889, "lat": 36.352779}}, {"id": 5303705, "name": "Marana", "state": "AZ", "country": "US", "coord": {"lon": -111.22538, "lat": 32.436741}}, {"id": 5303752, "name": "Maricopa", "state": "AZ", "country": "US", "coord": {"lon": -112.047638, "lat": 33.058109}}, {"id": 5303754, "name": "Maricopa County", "state": "AZ", "country": "US", "coord": {"lon": -112.500717, "lat": 33.500038}}, {"id": 5304060, "name": "Mayer", "state": "AZ", "country": "US", "coord": {"lon": -112.236267, "lat": 34.397812}}, {"id": 5304306, "name": "Meadview", "state": "AZ", "country": "US", "coord": {"lon": -114.068291, "lat": 36.002209}}, {"id": 5304391, "name": "Mesa", "state": "AZ", "country": "US", "coord": {"lon": -111.822639, "lat": 33.422272}}, {"id": 5304488, "name": "Mescal", "state": "AZ", "country": "US", "coord": {"lon": -110.435349, "lat": 31.99008}}, {"id": 5304640, "name": "Miami", "state": "AZ", "country": "US", "coord": {"lon": -110.868721, "lat": 33.39922}}, {"id": 5304873, "name": "Miles Manor", "state": "AZ", "country": "US", "coord": {"lon": -110.339798, "lat": 31.55843}}, {"id": 5305191, "name": "Moenkopi", "state": "AZ", "country": "US", "coord": {"lon": -111.222359, "lat": 36.111099}}, {"id": 5305206, "name": "Mohave County", "state": "AZ", "country": "US", "coord": {"lon": -113.767448, "lat": 36.083321}}, {"id": 5305210, "name": "Mohave Crossing", "state": "AZ", "country": "US", "coord": {"lon": -114.58886, "lat": 35.333328}}, {"id": 5305230, "name": "Mohave Valley", "state": "AZ", "country": "US", "coord": {"lon": -114.588852, "lat": 34.93306}}, {"id": 5305503, "name": "Morenci", "state": "AZ", "country": "US", "coord": {"lon": -109.365349, "lat": 33.078671}}, {"id": 5305714, "name": "Mountainaire", "state": "AZ", "country": "US", "coord": {"lon": -111.665993, "lat": 35.085289}}, {"id": 5306112, "name": "Naco", "state": "AZ", "country": "US", "coord": {"lon": -109.948128, "lat": 31.335381}}, {"id": 5306233, "name": "Navajo County", "state": "AZ", "country": "US", "coord": {"lon": -110.813187, "lat": 36.9375}}, {"id": 5306372, "name": "Nelson", "state": "AZ", "country": "US", "coord": {"lon": -113.320213, "lat": 35.51416}}, {"id": 5306523, "name": "New River", "state": "AZ", "country": "US", "coord": {"lon": -112.135986, "lat": 33.915871}}, {"id": 5306611, "name": "Nogales", "state": "AZ", "country": "US", "coord": {"lon": -110.93425, "lat": 31.34038}}, {"id": 5307460, "name": "Oracle", "state": "AZ", "country": "US", "coord": {"lon": -110.770927, "lat": 32.610909}}, {"id": 5307464, "name": "Oracle Junction", "state": "AZ", "country": "US", "coord": {"lon": -110.933441, "lat": 32.555069}}, {"id": 5307540, "name": "Oro Valley", "state": "AZ", "country": "US", "coord": {"lon": -110.966492, "lat": 32.390911}}, {"id": 5307778, "name": "Page", "state": "AZ", "country": "US", "coord": {"lon": -111.455833, "lat": 36.914719}}, {"id": 5308049, "name": "Paradise Valley", "state": "AZ", "country": "US", "coord": {"lon": -111.94265, "lat": 33.531151}}, {"id": 5308116, "name": "Parker", "state": "AZ", "country": "US", "coord": {"lon": -114.289124, "lat": 34.150021}}, {"id": 5308164, "name": "Parks", "state": "AZ", "country": "US", "coord": {"lon": -111.948769, "lat": 35.260571}}, {"id": 5308281, "name": "Paulden", "state": "AZ", "country": "US", "coord": {"lon": -112.468231, "lat": 34.885578}}, {"id": 5308305, "name": "Payson", "state": "AZ", "country": "US", "coord": {"lon": -111.325142, "lat": 34.230869}}, {"id": 5308335, "name": "Peach Springs", "state": "AZ", "country": "US", "coord": {"lon": -113.425491, "lat": 35.52916}}, {"id": 5308480, "name": "Peoria", "state": "AZ", "country": "US", "coord": {"lon": -112.237381, "lat": 33.580601}}, {"id": 5308497, "name": "Peridot", "state": "AZ", "country": "US", "coord": {"lon": -110.455383, "lat": 33.310341}}, {"id": 5308655, "name": "Phoenix", "state": "AZ", "country": "US", "coord": {"lon": -112.074043, "lat": 33.44838}}, {"id": 5308778, "name": "Picture Rocks", "state": "AZ", "country": "US", "coord": {"lon": -111.246208, "lat": 32.345909}}, {"id": 5308867, "name": "Pima", "state": "AZ", "country": "US", "coord": {"lon": -109.827583, "lat": 32.896179}}, {"id": 5308878, "name": "Pima County", "state": "AZ", "country": "US", "coord": {"lon": -112.003464, "lat": 32.000351}}, {"id": 5308916, "name": "Pinal County", "state": "AZ", "country": "US", "coord": {"lon": -111.517349, "lat": 33.000622}}, {"id": 5308938, "name": "Pine", "state": "AZ", "country": "US", "coord": {"lon": -111.455139, "lat": 34.384472}}, {"id": 5309082, "name": "Pine Tank", "state": "AZ", "country": "US", "coord": {"lon": -112.066002, "lat": 35.241959}}, {"id": 5309135, "name": "Pinetop-Lakeside", "state": "AZ", "country": "US", "coord": {"lon": -109.960381, "lat": 34.14254}}, {"id": 5309291, "name": "Pirtleville", "state": "AZ", "country": "US", "coord": {"lon": -109.561729, "lat": 31.35705}}, {"id": 5309479, "name": "Poland Junction", "state": "AZ", "country": "US", "coord": {"lon": -112.269333, "lat": 34.450859}}, {"id": 5309842, "name": "Prescott", "state": "AZ", "country": "US", "coord": {"lon": -112.468498, "lat": 34.54002}}, {"id": 5309858, "name": "Prescott Valley", "state": "AZ", "country": "US", "coord": {"lon": -112.325249, "lat": 34.589409}}, {"id": 5310183, "name": "Quartzsite", "state": "AZ", "country": "US", "coord": {"lon": -114.22995, "lat": 33.66391}}, {"id": 5310193, "name": "Queen Creek", "state": "AZ", "country": "US", "coord": {"lon": -111.6343, "lat": 33.248661}}, {"id": 5311414, "name": "Rio Verde", "state": "AZ", "country": "US", "coord": {"lon": -111.67569, "lat": 33.722542}}, {"id": 5311433, "name": "Rio Rico", "state": "AZ", "country": "US", "coord": {"lon": -110.976479, "lat": 31.471479}}, {"id": 5312393, "name": "Sacaton", "state": "AZ", "country": "US", "coord": {"lon": -111.739304, "lat": 33.076721}}, {"id": 5312476, "name": "Safford", "state": "AZ", "country": "US", "coord": {"lon": -109.707581, "lat": 32.83395}}, {"id": 5312544, "name": "Sahuarita", "state": "AZ", "country": "US", "coord": {"lon": -110.95565, "lat": 31.957581}}, {"id": 5312572, "name": "Saint David", "state": "AZ", "country": "US", "coord": {"lon": -110.214241, "lat": 31.904249}}, {"id": 5312595, "name": "Saint Johns", "state": "AZ", "country": "US", "coord": {"lon": -109.360931, "lat": 34.505871}}, {"id": 5312634, "name": "Saint Michaels", "state": "AZ", "country": "US", "coord": {"lon": -109.09565, "lat": 35.644741}}, {"id": 5312677, "name": "Salome", "state": "AZ", "country": "US", "coord": {"lon": -113.614647, "lat": 33.781139}}, {"id": 5312844, "name": "San Carlos", "state": "AZ", "country": "US", "coord": {"lon": -110.453163, "lat": 33.345329}}, {"id": 5312845, "name": "San Carlos", "state": "AZ", "country": "US", "coord": {"lon": -111.8507, "lat": 33.345879}}, {"id": 5312913, "name": "San Luis", "state": "AZ", "country": "US", "coord": {"lon": -114.782181, "lat": 32.487}}, {"id": 5312933, "name": "San Manuel", "state": "AZ", "country": "US", "coord": {"lon": -110.630928, "lat": 32.599789}}, {"id": 5313135, "name": "Santa Cruz County", "state": "AZ", "country": "US", "coord": {"lon": -110.583969, "lat": 31.583429}}, {"id": 5313457, "name": "Scottsdale", "state": "AZ", "country": "US", "coord": {"lon": -111.899033, "lat": 33.509209}}, {"id": 5313667, "name": "Sedona", "state": "AZ", "country": "US", "coord": {"lon": -111.760986, "lat": 34.86974}}, {"id": 5313737, "name": "Sells", "state": "AZ", "country": "US", "coord": {"lon": -111.881233, "lat": 31.91202}}, {"id": 5314245, "name": "Show Low", "state": "AZ", "country": "US", "coord": {"lon": -110.029831, "lat": 34.254211}}, {"id": 5314328, "name": "Sierra Vista", "state": "AZ", "country": "US", "coord": {"lon": -110.303688, "lat": 31.554541}}, {"id": 5314943, "name": "Snowflake", "state": "AZ", "country": "US", "coord": {"lon": -110.078453, "lat": 34.513371}}, {"id": 5315062, "name": "Somerton", "state": "AZ", "country": "US", "coord": {"lon": -114.709679, "lat": 32.596439}}, {"id": 5315313, "name": "South Tucson", "state": "AZ", "country": "US", "coord": {"lon": -110.968422, "lat": 32.19952}}, {"id": 5315517, "name": "Spring Valley", "state": "AZ", "country": "US", "coord": {"lon": -112.15905, "lat": 34.345032}}, {"id": 5315525, "name": "Springerville", "state": "AZ", "country": "US", "coord": {"lon": -109.285919, "lat": 34.133381}}, {"id": 5315713, "name": "Star Valley", "state": "AZ", "country": "US", "coord": {"lon": -111.258469, "lat": 34.255039}}, {"id": 5316172, "name": "Summit", "state": "AZ", "country": "US", "coord": {"lon": -110.951477, "lat": 32.06702}}, {"id": 5316201, "name": "Sun City", "state": "AZ", "country": "US", "coord": {"lon": -112.27182, "lat": 33.597542}}, {"id": 5316205, "name": "Sun City West", "state": "AZ", "country": "US", "coord": {"lon": -112.34127, "lat": 33.66198}}, {"id": 5316209, "name": "Sun Lakes", "state": "AZ", "country": "US", "coord": {"lon": -111.87542, "lat": 33.211159}}, {"id": 5316215, "name": "Sun Valley", "state": "AZ", "country": "US", "coord": {"lon": -111.261253, "lat": 34.2542}}, {"id": 5316335, "name": "Sunset City (historical)", "state": "AZ", "country": "US", "coord": {"lon": -110.653473, "lat": 35.04446}}, {"id": 5316405, "name": "Superior", "state": "AZ", "country": "US", "coord": {"lon": -111.09623, "lat": 33.293941}}, {"id": 5316428, "name": "Surprise", "state": "AZ", "country": "US", "coord": {"lon": -112.333221, "lat": 33.630589}}, {"id": 5316540, "name": "Swift Trail Junction", "state": "AZ", "country": "US", "coord": {"lon": -109.713966, "lat": 32.72979}}, {"id": 5316890, "name": "Tanque Verde", "state": "AZ", "country": "US", "coord": {"lon": -110.737312, "lat": 32.25174}}, {"id": 5316960, "name": "Taylor", "state": "AZ", "country": "US", "coord": {"lon": -110.091232, "lat": 34.465038}}, {"id": 5317058, "name": "Tempe", "state": "AZ", "country": "US", "coord": {"lon": -111.909309, "lat": 33.414768}}, {"id": 5317071, "name": "Tempe Junction", "state": "AZ", "country": "US", "coord": {"lon": -111.943481, "lat": 33.414211}}, {"id": 5317170, "name": "Thatcher", "state": "AZ", "country": "US", "coord": {"lon": -109.759247, "lat": 32.849232}}, {"id": 5317377, "name": "Three Points", "state": "AZ", "country": "US", "coord": {"lon": -111.313713, "lat": 32.07674}}, {"id": 5317663, "name": "Tolleson", "state": "AZ", "country": "US", "coord": {"lon": -112.259323, "lat": 33.450039}}, {"id": 5317714, "name": "Tombstone", "state": "AZ", "country": "US", "coord": {"lon": -110.067581, "lat": 31.71287}}, {"id": 5317749, "name": "Tonto Basin", "state": "AZ", "country": "US", "coord": {"lon": -111.294579, "lat": 33.831711}}, {"id": 5317867, "name": "Tortolita", "state": "AZ", "country": "US", "coord": {"lon": -111.017319, "lat": 32.410351}}, {"id": 5318279, "name": "Tuba City", "state": "AZ", "country": "US", "coord": {"lon": -111.239861, "lat": 36.134991}}, {"id": 5318288, "name": "Tubac", "state": "AZ", "country": "US", "coord": {"lon": -111.045921, "lat": 31.612591}}, {"id": 5318313, "name": "Tucson", "state": "AZ", "country": "US", "coord": {"lon": -110.926483, "lat": 32.221741}}, {"id": 5318320, "name": "Tucson Estates", "state": "AZ", "country": "US", "coord": {"lon": -111.090927, "lat": 32.18758}}, {"id": 5319311, "name": "Vail", "state": "AZ", "country": "US", "coord": {"lon": -110.712029, "lat": 32.047859}}, {"id": 5319409, "name": "Vanar", "state": "AZ", "country": "US", "coord": {"lon": -109.095062, "lat": 32.241192}}, {"id": 5319417, "name": "Vandenberg Village", "state": "AZ", "country": "US", "coord": {"lon": -110.867867, "lat": 32.180359}}, {"id": 5320055, "name": "Webb", "state": "AZ", "country": "US", "coord": {"lon": -112.367104, "lat": 33.55254}}, {"id": 5320160, "name": "Wellton", "state": "AZ", "country": "US", "coord": {"lon": -114.146881, "lat": 32.672829}}, {"id": 5320513, "name": "Whetstone", "state": "AZ", "country": "US", "coord": {"lon": -110.342018, "lat": 31.95731}}, {"id": 5320655, "name": "White Mountain Lake", "state": "AZ", "country": "US", "coord": {"lon": -109.997887, "lat": 34.348652}}, {"id": 5320800, "name": "Whiteriver", "state": "AZ", "country": "US", "coord": {"lon": -109.964272, "lat": 33.83699}}, {"id": 5320871, "name": "Wickenburg", "state": "AZ", "country": "US", "coord": {"lon": -112.729622, "lat": 33.968639}}, {"id": 5321088, "name": "Willcox", "state": "AZ", "country": "US", "coord": {"lon": -109.832008, "lat": 32.25285}}, {"id": 5321098, "name": "Williams", "state": "AZ", "country": "US", "coord": {"lon": -112.191002, "lat": 35.249458}}, {"id": 5321135, "name": "Williamson", "state": "AZ", "country": "US", "coord": {"lon": -112.541008, "lat": 34.690022}}, {"id": 5321321, "name": "Willow Valley", "state": "AZ", "country": "US", "coord": {"lon": -114.606628, "lat": 34.911949}}, {"id": 5321390, "name": "Window Rock", "state": "AZ", "country": "US", "coord": {"lon": -109.052589, "lat": 35.680569}}, {"id": 5321473, "name": "Winslow", "state": "AZ", "country": "US", "coord": {"lon": -110.697357, "lat": 35.024189}}, {"id": 5321860, "name": "Yavapai County", "state": "AZ", "country": "US", "coord": {"lon": -112.375717, "lat": 34.508362}}, {"id": 5322021, "name": "Young", "state": "AZ", "country": "US", "coord": {"lon": -110.963737, "lat": 34.101429}}, {"id": 5322027, "name": "Youngtown", "state": "AZ", "country": "US", "coord": {"lon": -112.30294, "lat": 33.593929}}, {"id": 5322053, "name": "Yuma", "state": "AZ", "country": "US", "coord": {"lon": -114.624397, "lat": 32.725319}}, {"id": 5322057, "name": "Yuma County", "state": "AZ", "country": "US", "coord": {"lon": -113.767433, "lat": 32.751438}}, {"id": 5322317, "name": "Acton", "state": "CA", "country": "US", "coord": {"lon": -118.196739, "lat": 34.46999}}, {"id": 5322400, "name": "Adelanto", "state": "CA", "country": "US", "coord": {"lon": -117.409218, "lat": 34.582771}}, {"id": 5322551, "name": "Agoura", "state": "CA", "country": "US", "coord": {"lon": -118.737869, "lat": 34.143059}}, {"id": 5322553, "name": "Agoura Hills", "state": "CA", "country": "US", "coord": {"lon": -118.774529, "lat": 34.136391}}, {"id": 5322591, "name": "Agua Dulce", "state": "CA", "country": "US", "coord": {"lon": -118.32563, "lat": 34.49638}}, {"id": 5322636, "name": "Aguanga", "state": "CA", "country": "US", "coord": {"lon": -116.865021, "lat": 33.44281}}, {"id": 5322652, "name": "Ahwahnee", "state": "CA", "country": "US", "coord": {"lon": -119.726273, "lat": 37.365501}}, {"id": 5322737, "name": "Alameda", "state": "CA", "country": "US", "coord": {"lon": -122.241638, "lat": 37.765209}}, {"id": 5322745, "name": "Alameda County", "state": "CA", "country": "US", "coord": {"lon": -121.884399, "lat": 37.59993}}, {"id": 5322794, "name": "Alamo", "state": "CA", "country": "US", "coord": {"lon": -122.032181, "lat": 37.850201}}, {"id": 5322850, "name": "Albany", "state": "CA", "country": "US", "coord": {"lon": -122.297752, "lat": 37.886871}}, {"id": 5323012, "name": "Alessandro", "state": "CA", "country": "US", "coord": {"lon": -117.270317, "lat": 33.886131}}, {"id": 5323060, "name": "Alhambra", "state": "CA", "country": "US", "coord": {"lon": -118.127007, "lat": 34.095291}}, {"id": 5323111, "name": "Alicia", "state": "CA", "country": "US", "coord": {"lon": -121.581627, "lat": 39.102669}}, {"id": 5323121, "name": "Alisal", "state": "CA", "country": "US", "coord": {"lon": -121.617722, "lat": 36.679131}}, {"id": 5323163, "name": "Aliso Viejo", "state": "CA", "country": "US", "coord": {"lon": -117.727119, "lat": 33.565041}}, {"id": 5323266, "name": "Allendale", "state": "CA", "country": "US", "coord": {"lon": -121.943024, "lat": 38.44463}}, {"id": 5323371, "name": "Alondra Park", "state": "CA", "country": "US", "coord": {"lon": -118.33091, "lat": 33.889462}}, {"id": 5323376, "name": "Alpaugh", "state": "CA", "country": "US", "coord": {"lon": -119.487343, "lat": 35.88773}}, {"id": 5323401, "name": "Alpine", "state": "CA", "country": "US", "coord": {"lon": -116.766411, "lat": 32.835049}}, {"id": 5323414, "name": "Alpine County", "state": "CA", "country": "US", "coord": {"lon": -119.80101, "lat": 38.599911}}, {"id": 5323499, "name": "Alta Sierra", "state": "CA", "country": "US", "coord": {"lon": -118.54953, "lat": 35.729118}}, {"id": 5323500, "name": "Alta Sierra", "state": "CA", "country": "US", "coord": {"lon": -121.053841, "lat": 39.14156}}, {"id": 5323525, "name": "Altadena", "state": "CA", "country": "US", "coord": {"lon": -118.13118, "lat": 34.189732}}, {"id": 5323566, "name": "Alum Rock", "state": "CA", "country": "US", "coord": {"lon": -121.827179, "lat": 37.366051}}, {"id": 5323622, "name": "Amador County", "state": "CA", "country": "US", "coord": {"lon": -120.651039, "lat": 38.449909}}, {"id": 5323631, "name": "Alviso", "state": "CA", "country": "US", "coord": {"lon": -121.975243, "lat": 37.426048}}, {"id": 5323694, "name": "American Canyon", "state": "CA", "country": "US", "coord": {"lon": -122.260803, "lat": 38.174919}}, {"id": 5323781, "name": "Amesti", "state": "CA", "country": "US", "coord": {"lon": -121.779121, "lat": 36.963558}}, {"id": 5323810, "name": "Anaheim", "state": "CA", "country": "US", "coord": {"lon": -117.914497, "lat": 33.835289}}, {"id": 5324004, "name": "Angels Camp", "state": "CA", "country": "US", "coord": {"lon": -120.53965, "lat": 38.06826}}, {"id": 5324040, "name": "Angwin", "state": "CA", "country": "US", "coord": {"lon": -122.449982, "lat": 38.575741}}, {"id": 5324046, "name": "Anita", "state": "CA", "country": "US", "coord": {"lon": -121.97831, "lat": 39.810719}}, {"id": 5324105, "name": "Antelope", "state": "CA", "country": "US", "coord": {"lon": -121.329948, "lat": 38.708241}}, {"id": 5324107, "name": "Antelope Acres", "state": "CA", "country": "US", "coord": {"lon": -118.28952, "lat": 34.754429}}, {"id": 5324200, "name": "Antioch", "state": "CA", "country": "US", "coord": {"lon": -121.805794, "lat": 38.004921}}, {"id": 5324249, "name": "Anza", "state": "CA", "country": "US", "coord": {"lon": -116.67363, "lat": 33.555031}}, {"id": 5324363, "name": "Apple Valley", "state": "CA", "country": "US", "coord": {"lon": -117.185883, "lat": 34.500832}}, {"id": 5324400, "name": "Aptos", "state": "CA", "country": "US", "coord": {"lon": -121.899399, "lat": 36.977169}}, {"id": 5324457, "name": "Arbuckle", "state": "CA", "country": "US", "coord": {"lon": -122.057747, "lat": 39.017399}}, {"id": 5324477, "name": "Arcadia", "state": "CA", "country": "US", "coord": {"lon": -118.035339, "lat": 34.139729}}, {"id": 5324666, "name": "Armona", "state": "CA", "country": "US", "coord": {"lon": -119.708458, "lat": 36.315781}}, {"id": 5324698, "name": "Arnold", "state": "CA", "country": "US", "coord": {"lon": -120.351028, "lat": 38.25547}}, {"id": 5324722, "name": "Aromas", "state": "CA", "country": "US", "coord": {"lon": -121.642998, "lat": 36.888561}}, {"id": 5324802, "name": "Arroyo Grande", "state": "CA", "country": "US", "coord": {"lon": -120.590729, "lat": 35.118591}}, {"id": 5324862, "name": "Artesia", "state": "CA", "country": "US", "coord": {"lon": -118.083122, "lat": 33.865849}}, {"id": 5324903, "name": "Arvin", "state": "CA", "country": "US", "coord": {"lon": -118.82843, "lat": 35.209129}}, {"id": 5325011, "name": "Ashland", "state": "CA", "country": "US", "coord": {"lon": -122.113853, "lat": 37.694649}}, {"id": 5325059, "name": "Aspen Valley", "state": "CA", "country": "US", "coord": {"lon": -119.771294, "lat": 37.827419}}, {"id": 5325111, "name": "Atascadero", "state": "CA", "country": "US", "coord": {"lon": -120.670731, "lat": 35.489422}}, {"id": 5325147, "name": "Atherton", "state": "CA", "country": "US", "coord": {"lon": -122.197739, "lat": 37.46133}}, {"id": 5325187, "name": "Atwater", "state": "CA", "country": "US", "coord": {"lon": -120.609077, "lat": 37.347721}}, {"id": 5325211, "name": "Auberry", "state": "CA", "country": "US", "coord": {"lon": -119.485413, "lat": 37.08078}}, {"id": 5325223, "name": "Auburn", "state": "CA", "country": "US", "coord": {"lon": -121.076889, "lat": 38.896568}}, {"id": 5325230, "name": "Auburn Lake Trails", "state": "CA", "country": "US", "coord": {"lon": -120.952438, "lat": 38.914341}}, {"id": 5325256, "name": "August", "state": "CA", "country": "US", "coord": {"lon": -121.262169, "lat": 37.978809}}, {"id": 5325305, "name": "Avalon", "state": "CA", "country": "US", "coord": {"lon": -118.32785, "lat": 33.342812}}, {"id": 5325327, "name": "Avenal", "state": "CA", "country": "US", "coord": {"lon": -120.129028, "lat": 36.00412}}, {"id": 5325369, "name": "Avocado", "state": "CA", "country": "US", "coord": {"lon": -119.404022, "lat": 36.789391}}, {"id": 5325371, "name": "Avila Beach", "state": "CA", "country": "US", "coord": {"lon": -120.731842, "lat": 35.179981}}, {"id": 5325372, "name": "Avocado Heights", "state": "CA", "country": "US", "coord": {"lon": -117.99118, "lat": 34.036121}}, {"id": 5325423, "name": "Azusa", "state": "CA", "country": "US", "coord": {"lon": -117.907562, "lat": 34.133621}}, {"id": 5325738, "name": "Bakersfield", "state": "CA", "country": "US", "coord": {"lon": -119.018707, "lat": 35.373291}}, {"id": 5325866, "name": "Baldwin Park", "state": "CA", "country": "US", "coord": {"lon": -117.960899, "lat": 34.085289}}, {"id": 5325943, "name": "Ballou", "state": "CA", "country": "US", "coord": {"lon": -117.607002, "lat": 34.049179}}, {"id": 5326032, "name": "Banning", "state": "CA", "country": "US", "coord": {"lon": -116.876411, "lat": 33.925571}}, {"id": 5326297, "name": "Barstow", "state": "CA", "country": "US", "coord": {"lon": -117.02282, "lat": 34.89859}}, {"id": 5326305, "name": "Barstow Heights", "state": "CA", "country": "US", "coord": {"lon": -117.056152, "lat": 34.869709}}, {"id": 5326526, "name": "Baumberg", "state": "CA", "country": "US", "coord": {"lon": -122.100243, "lat": 37.62077}}, {"id": 5326561, "name": "Bay Point", "state": "CA", "country": "US", "coord": {"lon": -121.961632, "lat": 38.029091}}, {"id": 5326563, "name": "Bay Point", "state": "", "country": "US", "coord": {"lon": -121.94194, "lat": 38.02676}}, {"id": 5326968, "name": "Bear Valley", "state": "CA", "country": "US", "coord": {"lon": -120.039909, "lat": 38.46463}}, {"id": 5327003, "name": "Bear Valley Springs", "state": "CA", "country": "US", "coord": {"lon": -118.628418, "lat": 35.15913}}, {"id": 5327098, "name": "Beaumont", "state": "CA", "country": "US", "coord": {"lon": -116.977249, "lat": 33.929459}}, {"id": 5327298, "name": "Bell", "state": "CA", "country": "US", "coord": {"lon": -118.187019, "lat": 33.977509}}, {"id": 5327319, "name": "Bell Gardens", "state": "CA", "country": "US", "coord": {"lon": -118.151459, "lat": 33.96529}}, {"id": 5327341, "name": "Bell Mountain", "state": "CA", "country": "US", "coord": {"lon": -117.206993, "lat": 34.624161}}, {"id": 5327422, "name": "Bellflower", "state": "CA", "country": "US", "coord": {"lon": -118.117012, "lat": 33.88168}}, {"id": 5327455, "name": "Belmont", "state": "CA", "country": "US", "coord": {"lon": -122.275803, "lat": 37.52021}}, {"id": 5327489, "name": "Belvedere", "state": "CA", "country": "US", "coord": {"lon": -118.169243, "lat": 34.040569}}, {"id": 5327490, "name": "Belvedere", "state": "CA", "country": "US", "coord": {"lon": -122.464417, "lat": 37.8727}}, {"id": 5327522, "name": "Ben Lomond", "state": "CA", "country": "US", "coord": {"lon": -122.086349, "lat": 37.089111}}, {"id": 5327550, "name": "Benicia", "state": "CA", "country": "US", "coord": {"lon": -122.158577, "lat": 38.049358}}, {"id": 5327684, "name": "Berkeley", "state": "CA", "country": "US", "coord": {"lon": -122.272751, "lat": 37.87159}}, {"id": 5327717, "name": "Bermuda Dunes", "state": "CA", "country": "US", "coord": {"lon": -116.289177, "lat": 33.742802}}, {"id": 5327760, "name": "Berry Creek", "state": "CA", "country": "US", "coord": {"lon": -121.403297, "lat": 39.645161}}, {"id": 5327951, "name": "Bethel Island", "state": "CA", "country": "US", "coord": {"lon": -121.640511, "lat": 38.014919}}, {"id": 5328041, "name": "Beverly Hills", "state": "CA", "country": "US", "coord": {"lon": -118.40036, "lat": 34.07362}}, {"id": 5328152, "name": "Big Bear City", "state": "CA", "country": "US", "coord": {"lon": -116.845032, "lat": 34.26112}}, {"id": 5328163, "name": "Big Bear Lake", "state": "CA", "country": "US", "coord": {"lon": -116.911423, "lat": 34.2439}}, {"id": 5328426, "name": "Big Pine", "state": "CA", "country": "US", "coord": {"lon": -118.289551, "lat": 37.164928}}, {"id": 5328486, "name": "Big River", "state": "CA", "country": "US", "coord": {"lon": -114.361343, "lat": 34.140018}}, {"id": 5328629, "name": "Biggs", "state": "CA", "country": "US", "coord": {"lon": -121.712753, "lat": 39.412392}}, {"id": 5328724, "name": "Biola", "state": "CA", "country": "US", "coord": {"lon": -120.016273, "lat": 36.80217}}, {"id": 5328808, "name": "Bishop", "state": "CA", "country": "US", "coord": {"lon": -118.395111, "lat": 37.363541}}, {"id": 5329204, "name": "Blackhawk", "state": "CA", "country": "US", "coord": {"lon": -121.907738, "lat": 37.820759}}, {"id": 5329408, "name": "Bloomington", "state": "CA", "country": "US", "coord": {"lon": -117.395882, "lat": 34.07029}}, {"id": 5329649, "name": "Blythe", "state": "CA", "country": "US", "coord": {"lon": -114.596352, "lat": 33.610298}}, {"id": 5329735, "name": "Bodega Bay", "state": "CA", "country": "US", "coord": {"lon": -123.048058, "lat": 38.333248}}, {"id": 5329754, "name": "Bodfish", "state": "CA", "country": "US", "coord": {"lon": -118.492027, "lat": 35.588009}}, {"id": 5329830, "name": "Bolinas", "state": "CA", "country": "US", "coord": {"lon": -122.686371, "lat": 37.90937}}, {"id": 5329953, "name": "Bonita", "state": "CA", "country": "US", "coord": {"lon": -120.201828, "lat": 36.95245}}, {"id": 5329954, "name": "Bonita", "state": "CA", "country": "US", "coord": {"lon": -117.030029, "lat": 32.657829}}, {"id": 5330003, "name": "Bonny Doon", "state": "CA", "country": "US", "coord": {"lon": -122.15052, "lat": 37.041618}}, {"id": 5330008, "name": "Bonsall", "state": "CA", "country": "US", "coord": {"lon": -117.225594, "lat": 33.288921}}, {"id": 5330040, "name": "Boonville", "state": "CA", "country": "US", "coord": {"lon": -123.366119, "lat": 39.009071}}, {"id": 5330056, "name": "Bootjack", "state": "CA", "country": "US", "coord": {"lon": -119.886559, "lat": 37.464939}}, {"id": 5330106, "name": "Boron", "state": "CA", "country": "US", "coord": {"lon": -117.64978, "lat": 34.99942}}, {"id": 5330118, "name": "Boronda", "state": "CA", "country": "US", "coord": {"lon": -121.67495, "lat": 36.698849}}, {"id": 5330143, "name": "Borrego Springs", "state": "CA", "country": "US", "coord": {"lon": -116.375008, "lat": 33.255871}}, {"id": 5330167, "name": "Bostonia", "state": "CA", "country": "US", "coord": {"lon": -116.936417, "lat": 32.807549}}, {"id": 5330222, "name": "Boulder Creek", "state": "CA", "country": "US", "coord": {"lon": -122.122192, "lat": 37.12606}}, {"id": 5330427, "name": "Boyes Hot Springs", "state": "CA", "country": "US", "coord": {"lon": -122.481934, "lat": 38.313801}}, {"id": 5330443, "name": "Bradbury", "state": "CA", "country": "US", "coord": {"lon": -117.970901, "lat": 34.14695}}, {"id": 5330567, "name": "Brawley", "state": "CA", "country": "US", "coord": {"lon": -115.530273, "lat": 32.978661}}, {"id": 5330582, "name": "Brea", "state": "CA", "country": "US", "coord": {"lon": -117.900063, "lat": 33.916679}}, {"id": 5330591, "name": "Brea Chem", "state": "CA", "country": "US", "coord": {"lon": -117.869232, "lat": 33.916962}}, {"id": 5330642, "name": "Brentwood", "state": "CA", "country": "US", "coord": {"lon": -121.725769, "lat": 37.926868}}, {"id": 5330736, "name": "Bridgeport", "state": "CA", "country": "US", "coord": {"lon": -119.23127, "lat": 38.255749}}, {"id": 5330810, "name": "Brisbane", "state": "CA", "country": "US", "coord": {"lon": -122.399971, "lat": 37.680771}}, {"id": 5330854, "name": "Broadmoor", "state": "CA", "country": "US", "coord": {"lon": -122.48275, "lat": 37.6866}}, {"id": 5330938, "name": "Brookdale", "state": "CA", "country": "US", "coord": {"lon": -122.106079, "lat": 37.106339}}, {"id": 5330943, "name": "Brookfield Village", "state": "CA", "country": "US", "coord": {"lon": -122.186081, "lat": 37.73521}}, {"id": 5330993, "name": "Brooktrails", "state": "CA", "country": "US", "coord": {"lon": -123.385292, "lat": 39.443771}}, {"id": 5331154, "name": "Bruceville", "state": "CA", "country": "US", "coord": {"lon": -121.417168, "lat": 38.335751}}, {"id": 5331568, "name": "Buellton", "state": "CA", "country": "US", "coord": {"lon": -120.19265, "lat": 34.613602}}, {"id": 5331575, "name": "Buena Park", "state": "CA", "country": "US", "coord": {"lon": -117.998123, "lat": 33.867512}}, {"id": 5331587, "name": "Buena Vista", "state": "CA", "country": "US", "coord": {"lon": -121.916618, "lat": 37.321331}}, {"id": 5331835, "name": "Burbank", "state": "CA", "country": "US", "coord": {"lon": -118.308968, "lat": 34.18084}}, {"id": 5331836, "name": "Burbank", "state": "CA", "country": "US", "coord": {"lon": -121.931618, "lat": 37.32328}}, {"id": 5331874, "name": "Burdell", "state": "CA", "country": "US", "coord": {"lon": -122.565262, "lat": 38.15797}}, {"id": 5331919, "name": "Burling (historical)", "state": "CA", "country": "US", "coord": {"lon": -119.34317, "lat": 36.183842}}, {"id": 5331920, "name": "Burlingame", "state": "CA", "country": "US", "coord": {"lon": -122.366081, "lat": 37.584099}}, {"id": 5332191, "name": "Butte County", "state": "CA", "country": "US", "coord": {"lon": -121.567749, "lat": 39.649879}}, {"id": 5332251, "name": "Buttonwillow", "state": "CA", "country": "US", "coord": {"lon": -119.469559, "lat": 35.40052}}, {"id": 5332307, "name": "Byron", "state": "CA", "country": "US", "coord": {"lon": -121.638008, "lat": 37.867149}}, {"id": 5332318, "name": "Bystrom", "state": "CA", "country": "US", "coord": {"lon": -120.985771, "lat": 37.620762}}, {"id": 5332374, "name": "Cabazon", "state": "CA", "country": "US", "coord": {"lon": -116.787239, "lat": 33.917519}}, {"id": 5332593, "name": "Calabasas", "state": "CA", "country": "US", "coord": {"lon": -118.63842, "lat": 34.15778}}, {"id": 5332628, "name": "Calaveras County", "state": "CA", "country": "US", "coord": {"lon": -120.584373, "lat": 38.166592}}, {"id": 5332698, "name": "Calexico", "state": "CA", "country": "US", "coord": {"lon": -115.498878, "lat": 32.678951}}]