[{"id": 4239423, "name": "Gillespie", "state": "IL", "country": "US", "coord": {"lon": -89.819542, "lat": 39.129768}}, {"id": 4239465, "name": "Glen Carbon", "state": "IL", "country": "US", "coord": {"lon": -89.983162, "lat": 38.748379}}, {"id": 4239483, "name": "Girard", "state": "IL", "country": "US", "coord": {"lon": -89.78093, "lat": 39.446442}}, {"id": 4239509, "name": "Godfrey", "state": "IL", "country": "US", "coord": {"lon": -90.186783, "lat": 38.955601}}, {"id": 4239519, "name": "Golconda", "state": "IL", "country": "US", "coord": {"lon": -88.486427, "lat": 37.367271}}, {"id": 4239597, "name": "Goreville", "state": "IL", "country": "US", "coord": {"lon": -88.97229, "lat": 37.554501}}, {"id": 4239702, "name": "Grandview", "state": "IL", "country": "US", "coord": {"lon": -89.618713, "lat": 39.816441}}, {"id": 4239714, "name": "Granite City", "state": "IL", "country": "US", "coord": {"lon": -90.14872, "lat": 38.701439}}, {"id": 4239773, "name": "Grayville", "state": "IL", "country": "US", "coord": {"lon": -87.993637, "lat": 38.257549}}, {"id": 4239836, "name": "Greene County", "state": "IL", "country": "US", "coord": {"lon": -90.400124, "lat": 39.350052}}, {"id": 4239840, "name": "Greenfield", "state": "IL", "country": "US", "coord": {"lon": -90.212608, "lat": 39.343658}}, {"id": 4239858, "name": "Greenup", "state": "IL", "country": "US", "coord": {"lon": -88.163368, "lat": 39.247822}}, {"id": 4239867, "name": "Greenville", "state": "IL", "country": "US", "coord": {"lon": -89.413139, "lat": 38.892269}}, {"id": 4239932, "name": "Griggsville", "state": "IL", "country": "US", "coord": {"lon": -90.724571, "lat": 39.708939}}, {"id": 4240209, "name": "Hardin", "state": "IL", "country": "US", "coord": {"lon": -90.617897, "lat": 39.156712}}, {"id": 4240284, "name": "Harrisburg", "state": "IL", "country": "US", "coord": {"lon": -88.540611, "lat": 37.73838}}, {"id": 4240306, "name": "Harristown", "state": "IL", "country": "US", "coord": {"lon": -89.083969, "lat": 39.853931}}, {"id": 4240319, "name": "Hartford", "state": "IL", "country": "US", "coord": {"lon": -90.09594, "lat": 38.833382}}, {"id": 4240540, "name": "Herrin", "state": "IL", "country": "US", "coord": {"lon": -89.027573, "lat": 37.803108}}, {"id": 4240679, "name": "Highland", "state": "IL", "country": "US", "coord": {"lon": -89.671204, "lat": 38.739491}}, {"id": 4240782, "name": "Hillsboro", "state": "IL", "country": "US", "coord": {"lon": -89.493698, "lat": 39.16116}}, {"id": 4240857, "name": "Holiday Shores", "state": "IL", "country": "US", "coord": {"lon": -89.940659, "lat": 38.921989}}, {"id": 4241354, "name": "Ina", "state": "IL", "country": "US", "coord": {"lon": -88.903961, "lat": 38.151161}}, {"id": 4241687, "name": "Jackson County", "state": "IL", "country": "US", "coord": {"lon": -89.35009, "lat": 37.76672}}, {"id": 4241691, "name": "Jackson", "state": "IL", "country": "US", "coord": {"lon": -87.650299, "lat": 38.721161}}, {"id": 4241704, "name": "Jacksonville", "state": "IL", "country": "US", "coord": {"lon": -90.229012, "lat": 39.73394}}, {"id": 4241773, "name": "Jefferson County", "state": "IL", "country": "US", "coord": {"lon": -88.933403, "lat": 38.300049}}, {"id": 4241810, "name": "Jerome", "state": "IL", "country": "US", "coord": {"lon": -89.680656, "lat": 39.767551}}, {"id": 4241818, "name": "Jersey County", "state": "IL", "country": "US", "coord": {"lon": -90.350113, "lat": 39.066711}}, {"id": 4241822, "name": "Jerseyville", "state": "IL", "country": "US", "coord": {"lon": -90.328453, "lat": 39.120049}}, {"id": 4241842, "name": "Jewett", "state": "IL", "country": "US", "coord": {"lon": -88.245872, "lat": 39.207821}}, {"id": 4241934, "name": "Johnston City", "state": "IL", "country": "US", "coord": {"lon": -88.927567, "lat": 37.82061}}, {"id": 4241992, "name": "Jonesboro", "state": "IL", "country": "US", "coord": {"lon": -89.268143, "lat": 37.451721}}, {"id": 4242242, "name": "Kincaid", "state": "IL", "country": "US", "coord": {"lon": -89.414543, "lat": 39.588661}}, {"id": 4242361, "name": "Klondike", "state": "IL", "country": "US", "coord": {"lon": -89.231743, "lat": 37.062832}}, {"id": 4242425, "name": "La Clede", "state": "IL", "country": "US", "coord": {"lon": -88.715332, "lat": 38.879768}}, {"id": 4242758, "name": "Lawrence County", "state": "IL", "country": "US", "coord": {"lon": -87.71669, "lat": 38.70005}}, {"id": 4242769, "name": "Lawrenceville", "state": "IL", "country": "US", "coord": {"lon": -87.681686, "lat": 38.72921}}, {"id": 4242790, "name": "Lebanon", "state": "IL", "country": "US", "coord": {"lon": -89.80732, "lat": 38.603939}}, {"id": 4242842, "name": "Leland Grove", "state": "IL", "country": "US", "coord": {"lon": -89.679268, "lat": 39.777}}, {"id": 4243131, "name": "Litchfield", "state": "IL", "country": "US", "coord": {"lon": -89.654259, "lat": 39.175331}}, {"id": 4243455, "name": "Long Creek", "state": "IL", "country": "US", "coord": {"lon": -88.847572, "lat": 39.811981}}, {"id": 4243551, "name": "Louisville", "state": "IL", "country": "US", "coord": {"lon": -88.502548, "lat": 38.77227}}, {"id": 4243574, "name": "Lovington", "state": "IL", "country": "US", "coord": {"lon": -88.632561, "lat": 39.715591}}, {"id": 4243612, "name": "Loxa", "state": "IL", "country": "US", "coord": {"lon": -88.267273, "lat": 39.497261}}, {"id": 4243717, "name": "Macon", "state": "IL", "country": "US", "coord": {"lon": -88.997017, "lat": 39.712818}}, {"id": 4243719, "name": "Macon County", "state": "IL", "country": "US", "coord": {"lon": -88.966751, "lat": 39.866699}}, {"id": 4243740, "name": "Madison", "state": "IL", "country": "US", "coord": {"lon": -90.157051, "lat": 38.682549}}, {"id": 4243743, "name": "Madison County", "state": "IL", "country": "US", "coord": {"lon": -89.900101, "lat": 38.833382}}, {"id": 4243899, "name": "Marion", "state": "IL", "country": "US", "coord": {"lon": -88.933128, "lat": 37.73061}}, {"id": 4243907, "name": "Marion County", "state": "IL", "country": "US", "coord": {"lon": -88.933388, "lat": 38.650051}}, {"id": 4243918, "name": "Marissa", "state": "IL", "country": "US", "coord": {"lon": -89.750099, "lat": 38.25005}}, {"id": 4243951, "name": "Marshall", "state": "IL", "country": "US", "coord": {"lon": -87.693642, "lat": 39.39143}}, {"id": 4244005, "name": "Martinsville", "state": "IL", "country": "US", "coord": {"lon": -87.881981, "lat": 39.33559}}, {"id": 4244026, "name": "Maryville", "state": "IL", "country": "US", "coord": {"lon": -89.955933, "lat": 38.72366}}, {"id": 4244031, "name": "Mascoutah", "state": "IL", "country": "US", "coord": {"lon": -89.793152, "lat": 38.49033}}, {"id": 4244065, "name": "Massac County", "state": "IL", "country": "US", "coord": {"lon": -88.733391, "lat": 37.233391}}, {"id": 4244099, "name": "Mattoon", "state": "IL", "country": "US", "coord": {"lon": -88.372833, "lat": 39.483089}}, {"id": 4244307, "name": "McLeansboro", "state": "IL", "country": "US", "coord": {"lon": -88.535606, "lat": 38.09338}}, {"id": 4244418, "name": "Meredosia", "state": "IL", "country": "US", "coord": {"lon": -90.55957, "lat": 39.831161}}, {"id": 4244462, "name": "Metropolis", "state": "IL", "country": "US", "coord": {"lon": -88.732002, "lat": 37.151169}}, {"id": 4244637, "name": "Millstadt", "state": "IL", "country": "US", "coord": {"lon": -90.091782, "lat": 38.461441}}, {"id": 4244696, "name": "Mitchell", "state": "IL", "country": "US", "coord": {"lon": -90.085381, "lat": 38.76199}}, {"id": 4244840, "name": "Morgan County", "state": "IL", "country": "US", "coord": {"lon": -90.216789, "lat": 39.716709}}, {"id": 4244880, "name": "Morrisonville", "state": "IL", "country": "US", "coord": {"lon": -89.45565, "lat": 39.420052}}, {"id": 4244928, "name": "Mound City", "state": "IL", "country": "US", "coord": {"lon": -89.162567, "lat": 37.085331}}, {"id": 4244967, "name": "Mount Carmel", "state": "IL", "country": "US", "coord": {"lon": -87.761421, "lat": 38.410881}}, {"id": 4245045, "name": "Mount Olive", "state": "IL", "country": "US", "coord": {"lon": -89.72731, "lat": 39.072269}}, {"id": 4245136, "name": "Mount Sterling", "state": "IL", "country": "US", "coord": {"lon": -90.763458, "lat": 39.98727}}, {"id": 4245152, "name": "Mount Vernon", "state": "IL", "country": "US", "coord": {"lon": -88.903122, "lat": 38.317268}}, {"id": 4245174, "name": "Mount Zion", "state": "IL", "country": "US", "coord": {"lon": -88.874237, "lat": 39.771431}}, {"id": 4245258, "name": "Moweaqua", "state": "IL", "country": "US", "coord": {"lon": -89.018967, "lat": 39.62476}}, {"id": 4245336, "name": "Murphysboro", "state": "IL", "country": "US", "coord": {"lon": -89.335091, "lat": 37.7645}}, {"id": 4245376, "name": "Nashville", "state": "IL", "country": "US", "coord": {"lon": -89.380638, "lat": 38.343658}}, {"id": 4245443, "name": "Neoga", "state": "IL", "country": "US", "coord": {"lon": -88.452827, "lat": 39.319481}}, {"id": 4245463, "name": "New Athens", "state": "IL", "country": "US", "coord": {"lon": -89.877052, "lat": 38.326439}}, {"id": 4245474, "name": "New Baden", "state": "IL", "country": "US", "coord": {"lon": -89.700653, "lat": 38.535049}}, {"id": 4245481, "name": "New Berlin", "state": "IL", "country": "US", "coord": {"lon": -89.91066, "lat": 39.72533}}, {"id": 4245592, "name": "New Liberty", "state": "IL", "country": "US", "coord": {"lon": -88.447823, "lat": 37.122002}}, {"id": 4245744, "name": "Nokomis", "state": "IL", "country": "US", "coord": {"lon": -89.28508, "lat": 39.301159}}, {"id": 4245780, "name": "Norris City", "state": "IL", "country": "US", "coord": {"lon": -88.329208, "lat": 37.981159}}, {"id": 4245926, "name": "O'Fallon", "state": "IL", "country": "US", "coord": {"lon": -89.911209, "lat": 38.59227}}, {"id": 4246124, "name": "Oakwood Heights", "state": "IL", "country": "US", "coord": {"lon": -90.068443, "lat": 38.88171}}, {"id": 4246130, "name": "Oblong", "state": "IL", "country": "US", "coord": {"lon": -87.90892, "lat": 39.001991}}, {"id": 4246147, "name": "Odin", "state": "IL", "country": "US", "coord": {"lon": -89.052292, "lat": 38.617271}}, {"id": 4246180, "name": "Okawville", "state": "IL", "country": "US", "coord": {"lon": -89.550369, "lat": 38.434219}}, {"id": 4246382, "name": "Olney", "state": "IL", "country": "US", "coord": {"lon": -88.08532, "lat": 38.730881}}, {"id": 4246560, "name": "Palestine", "state": "IL", "country": "US", "coord": {"lon": -87.612801, "lat": 39.003651}}, {"id": 4246595, "name": "Pana", "state": "IL", "country": "US", "coord": {"lon": -89.080078, "lat": 39.388931}}, {"id": 4246659, "name": "Paris", "state": "IL", "country": "US", "coord": {"lon": -87.696136, "lat": 39.611149}}, {"id": 4246757, "name": "Pawnee", "state": "IL", "country": "US", "coord": {"lon": -89.580368, "lat": 39.591721}}, {"id": 4246765, "name": "Payson", "state": "IL", "country": "US", "coord": {"lon": -91.242371, "lat": 39.81699}}, {"id": 4246953, "name": "Pike County", "state": "IL", "country": "US", "coord": {"lon": -90.816803, "lat": 39.600052}}, {"id": 4246983, "name": "Pinckneyville", "state": "IL", "country": "US", "coord": {"lon": -89.382027, "lat": 38.08033}}, {"id": 4247060, "name": "Pittsfield", "state": "IL", "country": "US", "coord": {"lon": -90.80513, "lat": 39.60783}}, {"id": 4247379, "name": "Pontoon Beach", "state": "IL", "country": "US", "coord": {"lon": -90.080383, "lat": 38.73172}}, {"id": 4247387, "name": "Pope County", "state": "IL", "country": "US", "coord": {"lon": -88.566711, "lat": 37.416721}}, {"id": 4247672, "name": "Pureton", "state": "IL", "country": "US", "coord": {"lon": -88.224487, "lat": 38.730598}}, {"id": 4247703, "name": "Quincy", "state": "IL", "country": "US", "coord": {"lon": -91.409866, "lat": 39.9356}}, {"id": 4247770, "name": "Raleigh", "state": "IL", "country": "US", "coord": {"lon": -88.531998, "lat": 37.826988}}, {"id": 4247779, "name": "Ramsey", "state": "IL", "country": "US", "coord": {"lon": -89.108681, "lat": 39.144489}}, {"id": 4247802, "name": "Randolph County", "state": "IL", "country": "US", "coord": {"lon": -89.850098, "lat": 38.066719}}, {"id": 4247860, "name": "Raymond", "state": "IL", "country": "US", "coord": {"lon": -89.572037, "lat": 39.319489}}, {"id": 4247880, "name": "Red Bud", "state": "IL", "country": "US", "coord": {"lon": -89.99427, "lat": 38.21172}}, {"id": 4248062, "name": "Richland County", "state": "IL", "country": "US", "coord": {"lon": -88.100037, "lat": 38.716709}}, {"id": 4248205, "name": "Riverton", "state": "IL", "country": "US", "coord": {"lon": -89.539543, "lat": 39.844219}}, {"id": 4248256, "name": "Robinson", "state": "IL", "country": "US", "coord": {"lon": -87.739189, "lat": 39.005322}}, {"id": 4248284, "name": "Rochester", "state": "IL", "country": "US", "coord": {"lon": -89.531761, "lat": 39.749489}}, {"id": 4248420, "name": "Roodhouse", "state": "IL", "country": "US", "coord": {"lon": -90.371513, "lat": 39.48394}}, {"id": 4248480, "name": "Rosewood Heights", "state": "IL", "country": "US", "coord": {"lon": -90.084831, "lat": 38.887829}}, {"id": 4248482, "name": "Rosiclare", "state": "IL", "country": "US", "coord": {"lon": -88.346153, "lat": 37.42366}}, {"id": 4248509, "name": "Round Knob", "state": "IL", "country": "US", "coord": {"lon": -88.737549, "lat": 37.24728}}, {"id": 4248546, "name": "Roxana", "state": "IL", "country": "US", "coord": {"lon": -90.076218, "lat": 38.848381}}, {"id": 4248562, "name": "Royalton", "state": "IL", "country": "US", "coord": {"lon": -89.114517, "lat": 37.876991}}, {"id": 4248751, "name": "Saint Clair County", "state": "IL", "country": "US", "coord": {"lon": -89.916771, "lat": 38.550049}}, {"id": 4248788, "name": "Saint Elmo", "state": "IL", "country": "US", "coord": {"lon": -88.848106, "lat": 39.027271}}, {"id": 4248819, "name": "Saint Jacob", "state": "IL", "country": "US", "coord": {"lon": -89.76815, "lat": 38.71394}}, {"id": 4249286, "name": "Salem", "state": "IL", "country": "US", "coord": {"lon": -88.945618, "lat": 38.626991}}, {"id": 4249341, "name": "Saline County", "state": "IL", "country": "US", "coord": {"lon": -88.550049, "lat": 37.766708}}, {"id": 4249437, "name": "Sandoval", "state": "IL", "country": "US", "coord": {"lon": -89.114227, "lat": 38.615601}}, {"id": 4249472, "name": "Sangamon County", "state": "IL", "country": "US", "coord": {"lon": -89.650101, "lat": 39.76672}}, {"id": 4249516, "name": "Savage (historical)", "state": "IL", "country": "US", "coord": {"lon": -90.210953, "lat": 39.781441}}, {"id": 4249704, "name": "Sesser", "state": "IL", "country": "US", "coord": {"lon": -89.050346, "lat": 38.091721}}, {"id": 4249830, "name": "Shawneetown", "state": "IL", "country": "US", "coord": {"lon": -88.186699, "lat": 37.7131}}, {"id": 4249857, "name": "Shelbyville", "state": "IL", "country": "US", "coord": {"lon": -88.79007, "lat": 39.406429}}, {"id": 4249885, "name": "Sherman", "state": "IL", "country": "US", "coord": {"lon": -89.60482, "lat": 39.893661}}, {"id": 4249910, "name": "Shiloh", "state": "IL", "country": "US", "coord": {"lon": -89.897324, "lat": 38.56144}}, {"id": 4250209, "name": "Smithton", "state": "IL", "country": "US", "coord": {"lon": -89.99205, "lat": 38.408661}}, {"id": 4250334, "name": "South Jacksonville", "state": "IL", "country": "US", "coord": {"lon": -90.22818, "lat": 39.70866}}, {"id": 4250399, "name": "South Roxana", "state": "IL", "country": "US", "coord": {"lon": -90.062881, "lat": 38.829491}}, {"id": 4250404, "name": "Southern View", "state": "IL", "country": "US", "coord": {"lon": -89.653709, "lat": 39.757271}}, {"id": 4250476, "name": "Sparta", "state": "IL", "country": "US", "coord": {"lon": -89.701767, "lat": 38.123112}}, {"id": 4250542, "name": "Springfield", "state": "IL", "country": "US", "coord": {"lon": -89.643707, "lat": 39.80172}}, {"id": 4250608, "name": "Staunton", "state": "IL", "country": "US", "coord": {"lon": -89.791206, "lat": 39.012272}}, {"id": 4250627, "name": "Steeleville", "state": "IL", "country": "US", "coord": {"lon": -89.658432, "lat": 38.007271}}, {"id": 4250862, "name": "Sullivan", "state": "IL", "country": "US", "coord": {"lon": -88.607841, "lat": 39.59948}}, {"id": 4250895, "name": "Summersville", "state": "IL", "country": "US", "coord": {"lon": -88.867012, "lat": 38.327831}}, {"id": 4250909, "name": "Sumner", "state": "IL", "country": "US", "coord": {"lon": -87.86142, "lat": 38.716991}}, {"id": 4251003, "name": "Swansea", "state": "IL", "country": "US", "coord": {"lon": -89.988991, "lat": 38.533939}}, {"id": 4251141, "name": "Taylorville", "state": "IL", "country": "US", "coord": {"lon": -89.294533, "lat": 39.548939}}, {"id": 4251185, "name": "Teutopolis", "state": "IL", "country": "US", "coord": {"lon": -88.471992, "lat": 39.133099}}, {"id": 4251330, "name": "Toledo", "state": "IL", "country": "US", "coord": {"lon": -88.243652, "lat": 39.273651}}, {"id": 4251341, "name": "Tolono", "state": "IL", "country": "US", "coord": {"lon": -88.258942, "lat": 39.986141}}, {"id": 4251347, "name": "Toms Prairie", "state": "IL", "country": "US", "coord": {"lon": -88.258652, "lat": 38.407829}}, {"id": 4251413, "name": "Trenton", "state": "IL", "country": "US", "coord": {"lon": -89.682037, "lat": 38.605598}}, {"id": 4251513, "name": "Troy", "state": "IL", "country": "US", "coord": {"lon": -89.883148, "lat": 38.72921}}, {"id": 4251593, "name": "Tuscola", "state": "IL", "country": "US", "coord": {"lon": -88.283096, "lat": 39.799198}}, {"id": 4251841, "name": "Upper Alton", "state": "IL", "country": "US", "coord": {"lon": -90.150658, "lat": 38.911442}}, {"id": 4251900, "name": "Valmeyer", "state": "IL", "country": "US", "coord": {"lon": -90.276512, "lat": 38.305611}}, {"id": 4251917, "name": "Vandalia", "state": "IL", "country": "US", "coord": {"lon": -89.093681, "lat": 38.960602}}, {"id": 4251958, "name": "Venice", "state": "IL", "country": "US", "coord": {"lon": -90.16983, "lat": 38.672272}}, {"id": 4252025, "name": "Vienna", "state": "IL", "country": "US", "coord": {"lon": -88.897842, "lat": 37.415329}}, {"id": 4252041, "name": "Villa Grove", "state": "IL", "country": "US", "coord": {"lon": -88.16227, "lat": 39.862808}}, {"id": 4252060, "name": "Virden", "state": "IL", "country": "US", "coord": {"lon": -89.767868, "lat": 39.500889}}, {"id": 4252071, "name": "Virginia", "state": "IL", "country": "US", "coord": {"lon": -90.212341, "lat": 39.95116}}, {"id": 4252425, "name": "Wamac", "state": "IL", "country": "US", "coord": {"lon": -89.140633, "lat": 38.508942}}, {"id": 4252469, "name": "Warrensburg", "state": "IL", "country": "US", "coord": {"lon": -89.062027, "lat": 39.932819}}, {"id": 4252512, "name": "Washington Park", "state": "IL", "country": "US", "coord": {"lon": -90.092888, "lat": 38.635052}}, {"id": 4252548, "name": "Waterloo", "state": "IL", "country": "US", "coord": {"lon": -90.149834, "lat": 38.335892}}, {"id": 4252603, "name": "Wayne City", "state": "IL", "country": "US", "coord": {"lon": -88.58783, "lat": 38.345329}}, {"id": 4252607, "name": "Wayne County", "state": "IL", "country": "US", "coord": {"lon": -88.41671, "lat": 38.43338}}, {"id": 4252616, "name": "Waverly", "state": "IL", "country": "US", "coord": {"lon": -89.952881, "lat": 39.591721}}, {"id": 4252812, "name": "West Frankfort", "state": "IL", "country": "US", "coord": {"lon": -88.931458, "lat": 37.897831}}, {"id": 4252955, "name": "White County", "state": "IL", "country": "US", "coord": {"lon": -88.166702, "lat": 38.083382}}, {"id": 4252975, "name": "White Hall", "state": "IL", "country": "US", "coord": {"lon": -90.403183, "lat": 39.436989}}, {"id": 4253173, "name": "Williamson County", "state": "IL", "country": "US", "coord": {"lon": -88.933403, "lat": 37.733379}}, {"id": 4253179, "name": "Williamsville", "state": "IL", "country": "US", "coord": {"lon": -89.548714, "lat": 39.95422}}, {"id": 4253268, "name": "Winchester", "state": "IL", "country": "US", "coord": {"lon": -90.456238, "lat": 39.629768}}, {"id": 4253280, "name": "Windsor", "state": "IL", "country": "US", "coord": {"lon": -88.59478, "lat": 39.440868}}, {"id": 4253387, "name": "Wood River", "state": "IL", "country": "US", "coord": {"lon": -90.09761, "lat": 38.86116}}, {"id": 4253472, "name": "Worden", "state": "IL", "country": "US", "coord": {"lon": -89.838989, "lat": 38.931438}}, {"id": 4253591, "name": "Zeigler", "state": "IL", "country": "US", "coord": {"lon": -89.052017, "lat": 37.89949}}, {"id": 4254010, "name": "Austin", "state": "IN", "country": "US", "coord": {"lon": -85.808029, "lat": 38.758389}}, {"id": 4254021, "name": "Avon", "state": "IN", "country": "US", "coord": {"lon": -86.399719, "lat": 39.762821}}, {"id": 4254124, "name": "Bargersville", "state": "IN", "country": "US", "coord": {"lon": -86.16777, "lat": 39.520882}}, {"id": 4254165, "name": "Bartholomew County", "state": "IN", "country": "US", "coord": {"lon": -85.921379, "lat": 39.201439}}, {"id": 4254185, "name": "Batesville", "state": "IN", "country": "US", "coord": {"lon": -85.222183, "lat": 39.300049}}, {"id": 4254282, "name": "Bedford", "state": "IN", "country": "US", "coord": {"lon": -86.487213, "lat": 38.86116}}, {"id": 4254304, "name": "Beech Grove", "state": "IN", "country": "US", "coord": {"lon": -86.089981, "lat": 39.721989}}, {"id": 4254515, "name": "Bicknell", "state": "IN", "country": "US", "coord": {"lon": -87.307793, "lat": 38.774212}}, {"id": 4254612, "name": "Birdseye", "state": "IN", "country": "US", "coord": {"lon": -86.695824, "lat": 38.316719}}, {"id": 4254671, "name": "Bloomfield", "state": "IN", "country": "US", "coord": {"lon": -86.937508, "lat": 39.026989}}, {"id": 4254679, "name": "Bloomington", "state": "IN", "country": "US", "coord": {"lon": -86.52639, "lat": 39.165321}}, {"id": 4254797, "name": "Boonville", "state": "IN", "country": "US", "coord": {"lon": -87.27417, "lat": 38.04921}}, {"id": 4254884, "name": "Brazil", "state": "IN", "country": "US", "coord": {"lon": -87.125023, "lat": 39.523651}}, {"id": 4254942, "name": "Bridgeport", "state": "IN", "country": "US", "coord": {"lon": -86.317207, "lat": 39.732269}}, {"id": 4254944, "name": "Bright", "state": "IN", "country": "US", "coord": {"lon": -84.856056, "lat": 39.218391}}, {"id": 4254985, "name": "Brooklyn", "state": "IN", "country": "US", "coord": {"lon": -86.369164, "lat": 39.539211}}, {"id": 4254999, "name": "Brookville", "state": "IN", "country": "US", "coord": {"lon": -85.012741, "lat": 39.423111}}, {"id": 4255056, "name": "Brownsburg", "state": "IN", "country": "US", "coord": {"lon": -86.397774, "lat": 39.84338}}, {"id": 4255063, "name": "Brownstown", "state": "IN", "country": "US", "coord": {"lon": -86.041924, "lat": 38.878941}}, {"id": 4255151, "name": "Bud", "state": "IN", "country": "US", "coord": {"lon": -86.175819, "lat": 39.446991}}, {"id": 4255339, "name": "Cambridge City", "state": "IN", "country": "US", "coord": {"lon": -85.171631, "lat": 39.81255}}, {"id": 4255457, "name": "Cannelton", "state": "IN", "country": "US", "coord": {"lon": -86.744431, "lat": 37.911442}}, {"id": 4255466, "name": "Carmel", "state": "IN", "country": "US", "coord": {"lon": -86.118042, "lat": 39.978371}}, {"id": 4255557, "name": "Cayuga", "state": "IN", "country": "US", "coord": {"lon": -87.45974, "lat": 39.94865}}, {"id": 4255627, "name": "Centerville", "state": "IN", "country": "US", "coord": {"lon": -84.996353, "lat": 39.817822}}, {"id": 4255673, "name": "Chandler", "state": "IN", "country": "US", "coord": {"lon": -87.368057, "lat": 38.04171}}, {"id": 4255704, "name": "Charlestown", "state": "IN", "country": "US", "coord": {"lon": -85.670242, "lat": 38.453121}}, {"id": 4255800, "name": "Circleville", "state": "IN", "country": "US", "coord": {"lon": -85.43914, "lat": 39.600319}}, {"id": 4255818, "name": "Clark County", "state": "IN", "country": "US", "coord": {"lon": -85.761353, "lat": 38.483398}}, {"id": 4255836, "name": "Clarksville", "state": "IN", "country": "US", "coord": {"lon": -85.759956, "lat": 38.296741}}, {"id": 4255841, "name": "Clay City", "state": "IN", "country": "US", "coord": {"lon": -87.112793, "lat": 39.276711}}, {"id": 4255843, "name": "Clay County", "state": "IN", "country": "US", "coord": {"lon": -87.07724, "lat": 39.416988}}, {"id": 4255897, "name": "Clermont", "state": "IN", "country": "US", "coord": {"lon": -86.322487, "lat": 39.809769}}, {"id": 4255937, "name": "Clinton", "state": "IN", "country": "US", "coord": {"lon": -87.398071, "lat": 39.656979}}, {"id": 4255948, "name": "Cloverdale", "state": "IN", "country": "US", "coord": {"lon": -86.7939, "lat": 39.514771}}, {"id": 4256038, "name": "Columbus", "state": "IN", "country": "US", "coord": {"lon": -85.921379, "lat": 39.201439}}, {"id": 4256085, "name": "Connersville", "state": "IN", "country": "US", "coord": {"lon": -85.141068, "lat": 39.641159}}, {"id": 4256170, "name": "Cortland", "state": "IN", "country": "US", "coord": {"lon": -85.964149, "lat": 38.97311}}, {"id": 4256184, "name": "Corydon", "state": "IN", "country": "US", "coord": {"lon": -86.121918, "lat": 38.212009}}, {"id": 4256223, "name": "Country Squire Lakes", "state": "IN", "country": "US", "coord": {"lon": -85.698578, "lat": 39.034779}}, {"id": 4256339, "name": "Crothersville", "state": "IN", "country": "US", "coord": {"lon": -85.841637, "lat": 38.80061}}, {"id": 4256384, "name": "Cumberland", "state": "IN", "country": "US", "coord": {"lon": -85.957199, "lat": 39.77615}}, {"id": 4256426, "name": "Dale", "state": "IN", "country": "US", "coord": {"lon": -86.989998, "lat": 38.168941}}, {"id": 4256447, "name": "Danville", "state": "IN", "country": "US", "coord": {"lon": -86.52639, "lat": 39.760601}}, {"id": 4256460, "name": "Darmstadt", "state": "IN", "country": "US", "coord": {"lon": -87.578911, "lat": 38.099209}}, {"id": 4256645, "name": "Dillsboro", "state": "IN", "country": "US", "coord": {"lon": -85.058838, "lat": 39.01783}}, {"id": 4256808, "name": "Dubois County", "state": "IN", "country": "US", "coord": {"lon": -86.889717, "lat": 38.346439}}, {"id": 4257043, "name": "Edinburgh", "state": "IN", "country": "US", "coord": {"lon": -85.96666, "lat": 39.354221}}, {"id": 4257110, "name": "Ellettsville", "state": "IN", "country": "US", "coord": {"lon": -86.625, "lat": 39.233929}}, {"id": 4257173, "name": "English", "state": "IN", "country": "US", "coord": {"lon": -86.464149, "lat": 38.334499}}, {"id": 4257202, "name": "Erskine Station", "state": "IN", "country": "US", "coord": {"lon": -87.54113, "lat": 38.040878}}, {"id": 4257227, "name": "Evansville", "state": "IN", "country": "US", "coord": {"lon": -87.555847, "lat": 37.974758}}, {"id": 4257305, "name": "Fairview Park", "state": "IN", "country": "US", "coord": {"lon": -87.417519, "lat": 39.680309}}, {"id": 4257390, "name": "Fayette County", "state": "IN", "country": "US", "coord": {"lon": -85.25135, "lat": 39.751438}}, {"id": 4257396, "name": "Farmersburg", "state": "IN", "country": "US", "coord": {"lon": -87.381958, "lat": 39.24865}}, {"id": 4257415, "name": "Ferdinand", "state": "IN", "country": "US", "coord": {"lon": -86.862221, "lat": 38.223942}}, {"id": 4257494, "name": "Fishers", "state": "IN", "country": "US", "coord": {"lon": -86.01387, "lat": 39.955589}}, {"id": 4257528, "name": "Flat Rock Park", "state": "IN", "country": "US", "coord": {"lon": -85.91555, "lat": 39.252831}}, {"id": 4257565, "name": "Floyd County", "state": "IN", "country": "US", "coord": {"lon": -85.873581, "lat": 38.324509}}, {"id": 4257617, "name": "Fort Branch", "state": "IN", "country": "US", "coord": {"lon": -87.581131, "lat": 38.25116}}, {"id": 4257630, "name": "Fortville", "state": "IN", "country": "US", "coord": {"lon": -85.848038, "lat": 39.932259}}, {"id": 4257682, "name": "Francisco", "state": "IN", "country": "US", "coord": {"lon": -87.445297, "lat": 38.332272}}, {"id": 4257700, "name": "Franklin County", "state": "IN", "country": "US", "coord": {"lon": -85.012741, "lat": 39.423111}}, {"id": 4257770, "name": "French Lick", "state": "IN", "country": "US", "coord": {"lon": -86.619987, "lat": 38.548939}}, {"id": 4257835, "name": "Galena", "state": "IN", "country": "US", "coord": {"lon": -85.941643, "lat": 38.35173}}, {"id": 4257880, "name": "Gatchel", "state": "IN", "country": "US", "coord": {"lon": -86.650543, "lat": 38.04673}}, {"id": 4257898, "name": "Geneva", "state": "IN", "country": "US", "coord": {"lon": -85.719978, "lat": 39.39172}}, {"id": 4257913, "name": "Georgetown", "state": "IN", "country": "US", "coord": {"lon": -85.975517, "lat": 38.29451}}, {"id": 4257948, "name": "Gibson County", "state": "IN", "country": "US", "coord": {"lon": -87.56752, "lat": 38.35532}}, {"id": 4258273, "name": "Greencastle", "state": "IN", "country": "US", "coord": {"lon": -86.864731, "lat": 39.644489}}, {"id": 4258277, "name": "Greendale", "state": "IN", "country": "US", "coord": {"lon": -84.86412, "lat": 39.11256}}, {"id": 4258285, "name": "Greenfield", "state": "IN", "country": "US", "coord": {"lon": -85.769417, "lat": 39.785042}}, {"id": 4258302, "name": "Greensburg", "state": "IN", "country": "US", "coord": {"lon": -85.483582, "lat": 39.337269}}, {"id": 4258313, "name": "Greenwood", "state": "IN", "country": "US", "coord": {"lon": -86.106651, "lat": 39.613659}}, {"id": 4258413, "name": "Hagerstown", "state": "IN", "country": "US", "coord": {"lon": -85.161629, "lat": 39.91116}}, {"id": 4258477, "name": "Hancock County", "state": "IN", "country": "US", "coord": {"lon": -85.769417, "lat": 39.785042}}, {"id": 4258510, "name": "Hanover", "state": "IN", "country": "US", "coord": {"lon": -85.473572, "lat": 38.71423}}, {"id": 4258664, "name": "Haubstadt", "state": "IN", "country": "US", "coord": {"lon": -87.574188, "lat": 38.20504}}, {"id": 4258778, "name": "Hendricks County", "state": "IN", "country": "US", "coord": {"lon": -86.52639, "lat": 39.760601}}, {"id": 4258792, "name": "Henry County", "state": "IN", "country": "US", "coord": {"lon": -85.370247, "lat": 39.92894}}, {"id": 4258799, "name": "Henryville", "state": "IN", "country": "US", "coord": {"lon": -85.767738, "lat": 38.541729}}, {"id": 4258848, "name": "Hickory Island", "state": "IN", "country": "US", "coord": {"lon": -87.239464, "lat": 39.329479}}, {"id": 4258871, "name": "Hidden Valley", "state": "IN", "country": "US", "coord": {"lon": -84.84301, "lat": 39.162281}}, {"id": 4258909, "name": "Highland", "state": "IN", "country": "US", "coord": {"lon": -87.573067, "lat": 38.039761}}, {"id": 4259115, "name": "Hope", "state": "IN", "country": "US", "coord": {"lon": -85.77137, "lat": 39.30394}}, {"id": 4259271, "name": "Huntingburg", "state": "IN", "country": "US", "coord": {"lon": -86.955002, "lat": 38.298939}}, {"id": 4259418, "name": "Indianapolis", "state": "IN", "country": "US", "coord": {"lon": -86.158043, "lat": 39.768379}}, {"id": 4259436, "name": "Ingalls", "state": "IN", "country": "US", "coord": {"lon": -85.80526, "lat": 39.956989}}, {"id": 4259572, "name": "Jackson County", "state": "IN", "country": "US", "coord": {"lon": -86.041924, "lat": 38.878941}}, {"id": 4259639, "name": "Jasonville", "state": "IN", "country": "US", "coord": {"lon": -87.199181, "lat": 39.163101}}, {"id": 4259640, "name": "Jasper", "state": "IN", "country": "US", "coord": {"lon": -86.931107, "lat": 38.391441}}, {"id": 4259671, "name": "Jeffersonville", "state": "IN", "country": "US", "coord": {"lon": -85.737183, "lat": 38.277569}}, {"id": 4259727, "name": "Johnson County", "state": "IN", "country": "US", "coord": {"lon": -86.054993, "lat": 39.48061}}, {"id": 4259925, "name": "Kirby", "state": "IN", "country": "US", "coord": {"lon": -86.610001, "lat": 39.136711}}, {"id": 4259960, "name": "Knightstown", "state": "IN", "country": "US", "coord": {"lon": -85.52636, "lat": 39.795601}}, {"id": 4259986, "name": "Knox County", "state": "IN", "country": "US", "coord": {"lon": -87.415573, "lat": 38.759491}}, {"id": 4260210, "name": "Lawrence", "state": "IN", "country": "US", "coord": {"lon": -86.025261, "lat": 39.83865}}, {"id": 4260223, "name": "Lawrenceburg", "state": "IN", "country": "US", "coord": {"lon": -84.849953, "lat": 39.090889}}, {"id": 4260329, "name": "Liberty", "state": "IN", "country": "US", "coord": {"lon": -84.931068, "lat": 39.635601}}, {"id": 4260453, "name": "Linton", "state": "IN", "country": "US", "coord": {"lon": -87.165848, "lat": 39.034771}}, {"id": 4260619, "name": "Little York", "state": "IN", "country": "US", "coord": {"lon": -85.904968, "lat": 38.702839}}, {"id": 4260711, "name": "Loogootee", "state": "IN", "country": "US", "coord": {"lon": -86.914169, "lat": 38.676991}}, {"id": 4260768, "name": "Lowell", "state": "", "country": "US", "coord": {"lon": -85.946381, "lat": 39.253109}}, {"id": 4260853, "name": "Madison", "state": "IN", "country": "US", "coord": {"lon": -85.379959, "lat": 38.735889}}, {"id": 4260977, "name": "Marion County", "state": "IN", "country": "US", "coord": {"lon": -86.15554, "lat": 39.768379}}, {"id": 4261020, "name": "Martin County", "state": "IN", "country": "US", "coord": {"lon": -86.791107, "lat": 38.666439}}, {"id": 4261032, "name": "Martinsville", "state": "IN", "country": "US", "coord": {"lon": -86.428329, "lat": 39.42783}}, {"id": 4261132, "name": "McCordsville", "state": "IN", "country": "US", "coord": {"lon": -85.92276, "lat": 39.9081}}, {"id": 4261231, "name": "Melody Hill", "state": "IN", "country": "US", "coord": {"lon": -87.515846, "lat": 38.02615}}, {"id": 4261283, "name": "Meridian Hills", "state": "IN", "country": "US", "coord": {"lon": -86.157211, "lat": 39.890041}}, {"id": 4261349, "name": "Middlebury", "state": "IN", "country": "US", "coord": {"lon": -87.118896, "lat": 39.26421}}, {"id": 4261361, "name": "Milan", "state": "IN", "country": "US", "coord": {"lon": -85.131348, "lat": 39.12117}}, {"id": 4261486, "name": "Mitchell", "state": "IN", "country": "US", "coord": {"lon": -86.473602, "lat": 38.73283}}, {"id": 4261526, "name": "Monroe County", "state": "IN", "country": "US", "coord": {"lon": -86.52639, "lat": 39.165321}}, {"id": 4261539, "name": "Monrovia", "state": "IN", "country": "US", "coord": {"lon": -86.482224, "lat": 39.578941}}, {"id": 4261552, "name": "Montezuma", "state": "IN", "country": "US", "coord": {"lon": -87.37085, "lat": 39.79282}}, {"id": 4261585, "name": "Mooresville", "state": "IN", "country": "US", "coord": {"lon": -86.374161, "lat": 39.61282}}, {"id": 4261628, "name": "Morristown", "state": "IN", "country": "US", "coord": {"lon": -85.698593, "lat": 39.673382}}, {"id": 4261650, "name": "Mound Haven", "state": "IN", "country": "US", "coord": {"lon": -84.978287, "lat": 39.383942}}, {"id": 4261657, "name": "Mount Auburn", "state": "IN", "country": "US", "coord": {"lon": -85.8936, "lat": 39.392551}}, {"id": 4261772, "name": "Mount Pleasant", "state": "IN", "country": "US", "coord": {"lon": -86.89222, "lat": 38.652}}, {"id": 4261837, "name": "Mount Vernon", "state": "IN", "country": "US", "coord": {"lon": -87.895027, "lat": 37.93227}}, {"id": 4261983, "name": "Nashville", "state": "IN", "country": "US", "coord": {"lon": -86.251099, "lat": 39.207272}}, {"id": 4261996, "name": "Navilleton", "state": "IN", "country": "US", "coord": {"lon": -85.938583, "lat": 38.381729}}, {"id": 4262045, "name": "New Albany", "state": "IN", "country": "US", "coord": {"lon": -85.824127, "lat": 38.285622}}, {"id": 4262072, "name": "New Castle", "state": "IN", "country": "US", "coord": {"lon": -85.370247, "lat": 39.92894}}, {"id": 4262130, "name": "New Palestine", "state": "IN", "country": "US", "coord": {"lon": -85.889153, "lat": 39.721989}}, {"id": 4262159, "name": "New Whiteland", "state": "IN", "country": "US", "coord": {"lon": -86.095261, "lat": 39.558102}}, {"id": 4262171, "name": "Newburgh", "state": "IN", "country": "US", "coord": {"lon": -87.405289, "lat": 37.944489}}, {"id": 4262177, "name": "Newport", "state": "IN", "country": "US", "coord": {"lon": -87.40863, "lat": 39.884201}}, {"id": 4262293, "name": "North Madison", "state": "IN", "country": "US", "coord": {"lon": -85.396622, "lat": 38.767841}}, {"id": 4262311, "name": "North Terre Haute", "state": "IN", "country": "US", "coord": {"lon": -87.360298, "lat": 39.527809}}, {"id": 4262318, "name": "North Vernon", "state": "IN", "country": "US", "coord": {"lon": -85.623581, "lat": 39.006161}}, {"id": 4262406, "name": "Oak Park", "state": "IN", "country": "US", "coord": {"lon": -85.69635, "lat": 38.305618}}, {"id": 4262425, "name": "Oakland City", "state": "IN", "country": "US", "coord": {"lon": -87.345009, "lat": 38.338661}}, {"id": 4262451, "name": "Odon", "state": "IN", "country": "US", "coord": {"lon": -86.991402, "lat": 38.842831}}, {"id": 4262583, "name": "Oolitic", "state": "IN", "country": "US", "coord": {"lon": -86.525269, "lat": 38.900879}}, {"id": 4262618, "name": "Orleans", "state": "IN", "country": "US", "coord": {"lon": -86.45166, "lat": 38.66172}}, {"id": 4262640, "name": "Osgood", "state": "IN", "country": "US", "coord": {"lon": -85.291634, "lat": 39.129219}}, {"id": 4262708, "name": "Owensville", "state": "IN", "country": "US", "coord": {"lon": -87.687798, "lat": 38.271992}}, {"id": 4262762, "name": "Paoli", "state": "IN", "country": "US", "coord": {"lon": -86.468323, "lat": 38.556171}}, {"id": 4262901, "name": "Pendleton", "state": "IN", "country": "US", "coord": {"lon": -85.746643, "lat": 39.99754}}, {"id": 4262934, "name": "Perry County", "state": "IN", "country": "US", "coord": {"lon": -86.583321, "lat": 38.103951}}, {"id": 4262968, "name": "Petersburg", "state": "IN", "country": "US", "coord": {"lon": -87.278618, "lat": 38.491989}}, {"id": 4263024, "name": "Pike County", "state": "IN", "country": "US", "coord": {"lon": -87.212791, "lat": 38.382271}}, {"id": 4263105, "name": "Pittsboro", "state": "IN", "country": "US", "coord": {"lon": -86.466942, "lat": 39.86393}}, {"id": 4263108, "name": "Plainfield", "state": "IN", "country": "US", "coord": {"lon": -86.399437, "lat": 39.704208}}, {"id": 4263307, "name": "Poseyville", "state": "IN", "country": "US", "coord": {"lon": -87.783081, "lat": 38.17004}}, {"id": 4263391, "name": "Princes Lakes", "state": "IN", "country": "US", "coord": {"lon": -86.098053, "lat": 39.353661}}, {"id": 4263396, "name": "Princeton", "state": "IN", "country": "US", "coord": {"lon": -87.56752, "lat": 38.35532}}, {"id": 4263408, "name": "Providence", "state": "IN", "country": "US", "coord": {"lon": -86.176659, "lat": 39.490879}}, {"id": 4263628, "name": "Reo", "state": "IN", "country": "US", "coord": {"lon": -87.109444, "lat": 37.90144}}, {"id": 4263635, "name": "Retreat", "state": "IN", "country": "US", "coord": {"lon": -85.85331, "lat": 38.824501}}, {"id": 4263681, "name": "Richmond", "state": "IN", "country": "US", "coord": {"lon": -84.890244, "lat": 39.828941}}, {"id": 4263736, "name": "Rising Sun", "state": "IN", "country": "US", "coord": {"lon": -84.853844, "lat": 38.949501}}, {"id": 4263848, "name": "Rockport", "state": "IN", "country": "US", "coord": {"lon": -87.2789, "lat": 39.880871}}, {"id": 4263850, "name": "Rockville", "state": "IN", "country": "US", "coord": {"lon": -87.229179, "lat": 39.762539}}, {"id": 4263856, "name": "Rockport", "state": "IN", "country": "US", "coord": {"lon": -87.049438, "lat": 37.88311}}, {"id": 4263953, "name": "Rush County", "state": "IN", "country": "US", "coord": {"lon": -85.446358, "lat": 39.609211}}, {"id": 4263965, "name": "Rushville", "state": "IN", "country": "US", "coord": {"lon": -85.446358, "lat": 39.609211}}, {"id": 4264243, "name": "Saint Paul", "state": "IN", "country": "US", "coord": {"lon": -85.628311, "lat": 39.428101}}, {"id": 4264334, "name": "Salem", "state": "IN", "country": "US", "coord": {"lon": -86.101089, "lat": 38.60561}}, {"id": 4264454, "name": "Sandytown", "state": "IN", "country": "US", "coord": {"lon": -87.446129, "lat": 39.68198}}, {"id": 4264457, "name": "Santa Claus", "state": "IN", "country": "US", "coord": {"lon": -86.914162, "lat": 38.120049}}, {"id": 4264540, "name": "Scott County", "state": "IN", "country": "US", "coord": {"lon": -85.770248, "lat": 38.685612}}, {"id": 4264555, "name": "Scottsburg", "state": "IN", "country": "US", "coord": {"lon": -85.770248, "lat": 38.685612}}, {"id": 4264592, "name": "Seelyville", "state": "IN", "country": "US", "coord": {"lon": -87.267242, "lat": 39.491982}}, {"id": 4264598, "name": "Sellersburg", "state": "IN", "country": "US", "coord": {"lon": -85.754959, "lat": 38.398121}}, {"id": 4264617, "name": "Seymour", "state": "IN", "country": "US", "coord": {"lon": -85.890251, "lat": 38.959221}}, {"id": 4264684, "name": "Shelby County", "state": "IN", "country": "US", "coord": {"lon": -85.776917, "lat": 39.521439}}, {"id": 4264688, "name": "Shelbyville", "state": "IN", "country": "US", "coord": {"lon": -85.776917, "lat": 39.521439}}, {"id": 4264696, "name": "Shelburn", "state": "IN", "country": "US", "coord": {"lon": -87.393631, "lat": 39.178371}}, {"id": 4264771, "name": "Shoals", "state": "IN", "country": "US", "coord": {"lon": -86.791107, "lat": 38.666439}}, {"id": 4265103, "name": "Southport", "state": "IN", "country": "US", "coord": {"lon": -86.127762, "lat": 39.665051}}, {"id": 4265146, "name": "Speedway", "state": "IN", "country": "US", "coord": {"lon": -86.267212, "lat": 39.802269}}, {"id": 4265147, "name": "Spencer", "state": "IN", "country": "US", "coord": {"lon": -86.762512, "lat": 39.286709}}, {"id": 4265152, "name": "Spencer County", "state": "IN", "country": "US", "coord": {"lon": -87.036392, "lat": 38.014771}}, {"id": 4265507, "name": "Sullivan", "state": "IN", "country": "US", "coord": {"lon": -87.405853, "lat": 39.095322}}, {"id": 4265554, "name": "Sunman", "state": "IN", "country": "US", "coord": {"lon": -85.094681, "lat": 39.237}}, {"id": 4265589, "name": "Swalls", "state": "IN", "country": "US", "coord": {"lon": -87.28891, "lat": 39.46032}}, {"id": 4265717, "name": "Tell City", "state": "IN", "country": "US", "coord": {"lon": -86.767769, "lat": 37.951439}}, {"id": 4265737, "name": "Terre Haute", "state": "IN", "country": "US", "coord": {"lon": -87.41391, "lat": 39.466702}}, {"id": 4265912, "name": "Trafalgar", "state": "IN", "country": "US", "coord": {"lon": -86.150818, "lat": 39.416161}}, {"id": 4266235, "name": "Vanderburgh County", "state": "IN", "country": "US", "coord": {"lon": -87.550568, "lat": 38.082821}}, {"id": 4266252, "name": "Vermillion County", "state": "IN", "country": "US", "coord": {"lon": -87.40863, "lat": 39.884201}}, {"id": 4266266, "name": "Versailles", "state": "IN", "country": "US", "coord": {"lon": -85.2519, "lat": 39.071999}}, {"id": 4266278, "name": "Vevay", "state": "IN", "country": "US", "coord": {"lon": -85.067169, "lat": 38.747841}}, {"id": 4266295, "name": "Vigo County", "state": "IN", "country": "US", "coord": {"lon": -87.41391, "lat": 39.466702}}, {"id": 4266307, "name": "Vincennes", "state": "IN", "country": "US", "coord": {"lon": -87.528633, "lat": 38.677269}}, {"id": 4266573, "name": "Warren Park", "state": "IN", "country": "US", "coord": {"lon": -86.050262, "lat": 39.78199}}, {"id": 4266586, "name": "Washington", "state": "IN", "country": "US", "coord": {"lon": -87.172791, "lat": 38.659222}}, {"id": 4266588, "name": "Washington County", "state": "IN", "country": "US", "coord": {"lon": -86.099983, "lat": 38.60561}}, {"id": 4266643, "name": "Waterloo", "state": "IN", "country": "US", "coord": {"lon": -86.197487, "lat": 39.56255}}, {"id": 4266673, "name": "Wayne County", "state": "IN", "country": "US", "coord": {"lon": -84.996353, "lat": 39.817822}}, {"id": 4266844, "name": "West Terre Haute", "state": "IN", "country": "US", "coord": {"lon": -87.45002, "lat": 39.465038}}, {"id": 4266871, "name": "Westport", "state": "IN", "country": "US", "coord": {"lon": -85.573029, "lat": 39.175892}}, {"id": 4266960, "name": "Whiteland", "state": "IN", "country": "US", "coord": {"lon": -86.079712, "lat": 39.550049}}, {"id": 4266965, "name": "Whitestown", "state": "IN", "country": "US", "coord": {"lon": -86.345833, "lat": 39.997261}}, {"id": 4267074, "name": "Willisville", "state": "IN", "country": "US", "coord": {"lon": -87.29557, "lat": 38.450878}}, {"id": 4267235, "name": "Worthington", "state": "IN", "country": "US", "coord": {"lon": -86.979446, "lat": 39.125038}}, {"id": 4267336, "name": "Zionsville", "state": "IN", "country": "US", "coord": {"lon": -86.26194, "lat": 39.950871}}, {"id": 4267354, "name": "Abilene", "state": "KS", "country": "US", "coord": {"lon": -97.213913, "lat": 38.917221}}, {"id": 4267387, "name": "Adamsville", "state": "KS", "country": "US", "coord": {"lon": -97.17643, "lat": 37.173359}}, {"id": 4267427, "name": "Akron", "state": "KS", "country": "US", "coord": {"lon": -97.015038, "lat": 37.351688}}, {"id": 4267513, "name": "Alma", "state": "KS", "country": "US", "coord": {"lon": -96.289162, "lat": 39.01667}}, {"id": 4267531, "name": "Altamont", "state": "KS", "country": "US", "coord": {"lon": -95.297188, "lat": 37.190338}}, {"id": 4267566, "name": "Anchorway", "state": "KS", "country": "US", "coord": {"lon": -98.8162, "lat": 38.3489}}, {"id": 4267572, "name": "Anderson County", "state": "KS", "country": "US", "coord": {"lon": -95.283592, "lat": 38.20002}}, {"id": 4267594, "name": "Andover", "state": "KS", "country": "US", "coord": {"lon": -97.136429, "lat": 37.713902}}, {"id": 4267605, "name": "Anthony", "state": "KS", "country": "US", "coord": {"lon": -98.031174, "lat": 37.153358}}, {"id": 4267661, "name": "Arkansas City", "state": "KS", "country": "US", "coord": {"lon": -97.038368, "lat": 37.06197}}, {"id": 4267669, "name": "Arma", "state": "KS", "country": "US", "coord": {"lon": -94.700241, "lat": 37.543941}}, {"id": 4267710, "name": "Ashland", "state": "KS", "country": "US", "coord": {"lon": -99.765678, "lat": 37.188641}}, {"id": 4267733, "name": "Atchison", "state": "KS", "country": "US", "coord": {"lon": -95.121643, "lat": 39.563049}}, {"id": 4267767, "name": "Auburn", "state": "KS", "country": "US", "coord": {"lon": -95.816101, "lat": 38.906109}}, {"id": 4267773, "name": "Augusta", "state": "KS", "country": "US", "coord": {"lon": -96.9767, "lat": 37.68668}}, {"id": 4267795, "name": "Avian", "state": "KS", "country": "US", "coord": {"lon": -95.601639, "lat": 37.095909}}, {"id": 4267866, "name": "Baldwin City", "state": "KS", "country": "US", "coord": {"lon": -95.186363, "lat": 38.775009}}, {"id": 4267902, "name": "Barber County", "state": "KS", "country": "US", "coord": {"lon": -98.683701, "lat": 37.23336}}, {"id": 4267938, "name": "Barton County", "state": "KS", "country": "US", "coord": {"lon": -98.767029, "lat": 38.466679}}, {"id": 4267944, "name": "Basehor", "state": "KS", "country": "US", "coord": {"lon": -94.938583, "lat": 39.14167}}, {"id": 4267978, "name": "Baxter Springs", "state": "KS", "country": "US", "coord": {"lon": -94.735497, "lat": 37.023682}}, {"id": 4268079, "name": "Bellaire", "state": "KS", "country": "US", "coord": {"lon": -97.266991, "lat": 37.762508}}, {"id": 4268081, "name": "Belle Plaine", "state": "KS", "country": "US", "coord": {"lon": -97.281158, "lat": 37.393909}}, {"id": 4268091, "name": "Belleville", "state": "KS", "country": "US", "coord": {"lon": -97.632538, "lat": 39.824451}}, {"id": 4268119, "name": "Beloit", "state": "KS", "country": "US", "coord": {"lon": -98.106163, "lat": 39.45612}}, {"id": 4268388, "name": "Blake", "state": "KS", "country": "US", "coord": {"lon": -95.757202, "lat": 37.167568}}, {"id": 4268455, "name": "Blue Rapids", "state": "KS", "country": "US", "coord": {"lon": -96.659737, "lat": 39.681938}}, {"id": 4268521, "name": "Bonner Springs", "state": "KS", "country": "US", "coord": {"lon": -94.883583, "lat": 39.059731}}, {"id": 4268552, "name": "Bourbon County", "state": "KS", "country": "US", "coord": {"lon": -94.850243, "lat": 37.85004}}, {"id": 4268807, "name": "Buhler", "state": "KS", "country": "US", "coord": {"lon": -97.77005, "lat": 38.134449}}, {"id": 4268854, "name": "Burlington", "state": "KS", "country": "US", "coord": {"lon": -95.74276, "lat": 38.194469}}, {"id": 4268899, "name": "Butler County", "state": "KS", "country": "US", "coord": {"lon": -96.833641, "lat": 37.783352}}, {"id": 4268940, "name": "Caldwell", "state": "KS", "country": "US", "coord": {"lon": -97.606987, "lat": 37.032249}}, {"id": 4269043, "name": "Caney", "state": "KS", "country": "US", "coord": {"lon": -95.935257, "lat": 37.011459}}, {"id": 4269076, "name": "Carbondale", "state": "KS", "country": "US", "coord": {"lon": -95.689148, "lat": 38.818619}}, {"id": 4269392, "name": "Chanute", "state": "KS", "country": "US", "coord": {"lon": -95.457199, "lat": 37.679211}}, {"id": 4269401, "name": "Chapman", "state": "KS", "country": "US", "coord": {"lon": -97.022507, "lat": 38.972221}}, {"id": 4269447, "name": "Cheney", "state": "KS", "country": "US", "coord": {"lon": -97.782547, "lat": 37.630009}}, {"id": 4269483, "name": "Cherryvale", "state": "KS", "country": "US", "coord": {"lon": -95.552483, "lat": 37.27034}}, {"id": 4269493, "name": "Chetopa", "state": "KS", "country": "US", "coord": {"lon": -95.089958, "lat": 37.037289}}, {"id": 4269615, "name": "Clare", "state": "KS", "country": "US", "coord": {"lon": -94.871353, "lat": 38.82695}}, {"id": 4269641, "name": "Clay Center", "state": "KS", "country": "US", "coord": {"lon": -96.771141, "lat": 37.519459}}, {"id": 4269642, "name": "Clay Center", "state": "KS", "country": "US", "coord": {"lon": -97.124741, "lat": 39.376942}}, {"id": 4269690, "name": "Clearwater", "state": "KS", "country": "US", "coord": {"lon": -97.504494, "lat": 37.5028}}, {"id": 4269744, "name": "Cloud County", "state": "KS", "country": "US", "coord": {"lon": -97.650322, "lat": 39.48333}}, {"id": 4269789, "name": "Coffeyville", "state": "KS", "country": "US", "coord": {"lon": -95.616371, "lat": 37.0373}}, {"id": 4269802, "name": "Coldwater", "state": "KS", "country": "US", "coord": {"lon": -99.326782, "lat": 37.268909}}, {"id": 4269841, "name": "Columbus", "state": "KS", "country": "US", "coord": {"lon": -94.844116, "lat": 37.169231}}, {"id": 4269847, "name": "Colwich", "state": "KS", "country": "US", "coord": {"lon": -97.536438, "lat": 37.779179}}, {"id": 4269872, "name": "Concordia", "state": "KS", "country": "US", "coord": {"lon": -97.662537, "lat": 39.570839}}, {"id": 4269887, "name": "Conway Springs", "state": "KS", "country": "US", "coord": {"lon": -97.642273, "lat": 37.390301}}, {"id": 4269896, "name": "Cookville", "state": "KS", "country": "US", "coord": {"lon": -95.592201, "lat": 37.82032}}, {"id": 4269988, "name": "Cottonwood Falls", "state": "KS", "country": "US", "coord": {"lon": -96.542778, "lat": 38.372238}}, {"id": 4270001, "name": "Council Grove", "state": "KS", "country": "US", "coord": {"lon": -96.491951, "lat": 38.661121}}, {"id": 4270053, "name": "Cowley County", "state": "KS", "country": "US", "coord": {"lon": -96.833641, "lat": 37.23336}}, {"id": 4270088, "name": "Crawford County", "state": "KS", "country": "US", "coord": {"lon": -94.850243, "lat": 37.51672}}, {"id": 4270124, "name": "Crisfield", "state": "KS", "country": "US", "coord": {"lon": -98.311462, "lat": 37.172249}}, {"id": 4270269, "name": "De Soto", "state": "KS", "country": "US", "coord": {"lon": -94.968582, "lat": 38.979172}}, {"id": 4270356, "name": "Derby", "state": "KS", "country": "US", "coord": {"lon": -97.268929, "lat": 37.54557}}, {"id": 4270436, "name": "Doniphan County", "state": "KS", "country": "US", "coord": {"lon": -95.11692, "lat": 39.799999}}, {"id": 4270450, "name": "Douglas County", "state": "KS", "country": "US", "coord": {"lon": -95.233582, "lat": 38.866669}}, {"id": 4270460, "name": "Douglass", "state": "KS", "country": "US", "coord": {"lon": -97.01281, "lat": 37.519459}}, {"id": 4270472, "name": "Downs", "state": "KS", "country": "US", "coord": {"lon": -98.542007, "lat": 39.498619}}, {"id": 4270819, "name": "Edgerton", "state": "KS", "country": "US", "coord": {"lon": -95.008018, "lat": 38.764729}}, {"id": 4270847, "name": "Edwardsville", "state": "KS", "country": "US", "coord": {"lon": -94.819679, "lat": 39.061119}}, {"id": 4270863, "name": "El Dorado", "state": "KS", "country": "US", "coord": {"lon": -96.862251, "lat": 37.817242}}, {"id": 4270929, "name": "Ellinwood", "state": "KS", "country": "US", "coord": {"lon": -98.58091, "lat": 38.355572}}, {"id": 4270936, "name": "Ellis", "state": "KS", "country": "US", "coord": {"lon": -99.560669, "lat": 38.938068}}, {"id": 4270937, "name": "Ellis County", "state": "KS", "country": "US", "coord": {"lon": -99.317047, "lat": 38.916679}}, {"id": 4270945, "name": "Ellsworth", "state": "KS", "country": "US", "coord": {"lon": -98.228111, "lat": 38.73056}}, {"id": 4270946, "name": "Ellsworth County", "state": "KS", "country": "US", "coord": {"lon": -98.200333, "lat": 38.700008}}, {"id": 4270994, "name": "Elm Mills", "state": "KS", "country": "US", "coord": {"lon": -98.687027, "lat": 37.43391}}, {"id": 4271035, "name": "Elwood", "state": "KS", "country": "US", "coord": {"lon": -94.872467, "lat": 39.75555}}, {"id": 4271086, "name": "Emporia", "state": "KS", "country": "US", "coord": {"lon": -96.181664, "lat": 38.4039}}, {"id": 4271131, "name": "Erie", "state": "KS", "country": "US", "coord": {"lon": -95.243309, "lat": 37.568111}}, {"id": 4271159, "name": "Eureka", "state": "KS", "country": "US", "coord": {"lon": -96.289169, "lat": 37.823921}}, {"id": 4271170, "name": "Eureka Lake", "state": "KS", "country": "US", "coord": {"lon": -96.639168, "lat": 39.151939}}, {"id": 4271196, "name": "Eudora", "state": "KS", "country": "US", "coord": {"lon": -95.098579, "lat": 38.94334}}, {"id": 4271358, "name": "Fairway", "state": "KS", "country": "US", "coord": {"lon": -94.631897, "lat": 39.022228}}, {"id": 4271650, "name": "Ford County", "state": "KS", "country": "US", "coord": {"lon": -99.900414, "lat": 37.70002}}, {"id": 4271690, "name": "Fort Scott", "state": "KS", "country": "US", "coord": {"lon": -94.708298, "lat": 37.83976}}, {"id": 4271796, "name": "Fredonia", "state": "KS", "country": "US", "coord": {"lon": -95.826653, "lat": 37.533939}}, {"id": 4271901, "name": "Galena", "state": "KS", "country": "US", "coord": {"lon": -94.639671, "lat": 37.075901}}, {"id": 4271918, "name": "Frontenac", "state": "KS", "country": "US", "coord": {"lon": -94.689133, "lat": 37.455601}}, {"id": 4271935, "name": "Gardner", "state": "KS", "country": "US", "coord": {"lon": -94.927193, "lat": 38.810841}}, {"id": 4271974, "name": "Garnett", "state": "KS", "country": "US", "coord": {"lon": -95.24192, "lat": 38.280579}}, {"id": 4272003, "name": "Geary County", "state": "KS", "country": "US", "coord": {"lon": -96.666946, "lat": 38.997219}}, {"id": 4272061, "name": "Girard", "state": "KS", "country": "US", "coord": {"lon": -94.83802, "lat": 37.511162}}, {"id": 4272133, "name": "Goddard", "state": "KS", "country": "US", "coord": {"lon": -97.575333, "lat": 37.65974}}, {"id": 4272234, "name": "Graham County", "state": "KS", "country": "US", "coord": {"lon": -99.883728, "lat": 39.35001}}, {"id": 4272273, "name": "Grandview Plaza", "state": "KS", "country": "US", "coord": {"lon": -96.789169, "lat": 39.02916}}, {"id": 4272340, "name": "Great Bend", "state": "KS", "country": "US", "coord": {"lon": -98.764809, "lat": 38.36446}}, {"id": 4272411, "name": "Greensburg", "state": "KS", "country": "US", "coord": {"lon": -99.29261, "lat": 37.602798}}, {"id": 4272558, "name": "Halstead", "state": "KS", "country": "US", "coord": {"lon": -97.508652, "lat": 38.0014}}, {"id": 4272660, "name": "Harper", "state": "KS", "country": "US", "coord": {"lon": -98.025887, "lat": 37.28669}}, {"id": 4272662, "name": "Harper County", "state": "KS", "country": "US", "coord": {"lon": -98.083672, "lat": 37.20002}}, {"id": 4272705, "name": "Harvey County", "state": "KS", "country": "US", "coord": {"lon": -97.433647, "lat": 38.050011}}, {"id": 4272727, "name": "Haven", "state": "KS", "country": "US", "coord": {"lon": -97.782829, "lat": 37.898899}}, {"id": 4272782, "name": "Hays", "state": "KS", "country": "US", "coord": {"lon": -99.326767, "lat": 38.879181}}, {"id": 4272788, "name": "Haysville", "state": "KS", "country": "US", "coord": {"lon": -97.352272, "lat": 37.564461}}, {"id": 4272840, "name": "Herington", "state": "KS", "country": "US", "coord": {"lon": -96.942513, "lat": 38.67112}}, {"id": 4272861, "name": "Hesston", "state": "KS", "country": "US", "coord": {"lon": -97.431427, "lat": 38.13834}}, {"id": 4272873, "name": "Hiawatha", "state": "KS", "country": "US", "coord": {"lon": -95.53582, "lat": 39.852501}}, {"id": 4272914, "name": "Highland", "state": "KS", "country": "US", "coord": {"lon": -95.269699, "lat": 39.859718}}, {"id": 4272980, "name": "Hill City", "state": "KS", "country": "US", "coord": {"lon": -99.842056, "lat": 39.364731}}, {"id": 4273003, "name": "Hillsboro", "state": "KS", "country": "US", "coord": {"lon": -97.204468, "lat": 38.351959}}, {"id": 4273066, "name": "Hoisington", "state": "KS", "country": "US", "coord": {"lon": -98.778137, "lat": 38.51807}}, {"id": 4273096, "name": "Holton", "state": "KS", "country": "US", "coord": {"lon": -95.736366, "lat": 39.465271}}, {"id": 4273134, "name": "Homer", "state": "KS", "country": "US", "coord": {"lon": -98.797577, "lat": 38.869461}}, {"id": 4273211, "name": "Horton", "state": "KS", "country": "US", "coord": {"lon": -95.526367, "lat": 39.660561}}, {"id": 4273226, "name": "Howard", "state": "KS", "country": "US", "coord": {"lon": -96.263611, "lat": 37.47031}}, {"id": 4273255, "name": "Humboldt", "state": "KS", "country": "US", "coord": {"lon": -95.436928, "lat": 37.8106}}, {"id": 4273299, "name": "Hutchinson", "state": "KS", "country": "US", "coord": {"lon": -97.929771, "lat": 38.060841}}, {"id": 4273359, "name": "Independence", "state": "KS", "country": "US", "coord": {"lon": -95.708313, "lat": 37.224239}}, {"id": 4273430, "name": "Inman", "state": "KS", "country": "US", "coord": {"lon": -97.773376, "lat": 38.231949}}, {"id": 4273441, "name": "Iola", "state": "KS", "country": "US", "coord": {"lon": -95.399979, "lat": 37.92448}}, {"id": 4273497, "name": "Iuka", "state": "KS", "country": "US", "coord": {"lon": -98.735092, "lat": 37.729179}}, {"id": 4273616, "name": "Jetmore", "state": "KS", "country": "US", "coord": {"lon": -99.893463, "lat": 38.084461}}, {"id": 4273638, "name": "Johnson County", "state": "KS", "country": "US", "coord": {"lon": -94.866913, "lat": 38.866669}}, {"id": 4273680, "name": "Junction City", "state": "KS", "country": "US", "coord": {"lon": -96.831398, "lat": 39.02861}}, {"id": 4273837, "name": "Kansas City", "state": "KS", "country": "US", "coord": {"lon": -94.627457, "lat": 39.11417}}, {"id": 4273857, "name": "Kansas", "state": "KS", "country": "US", "coord": {"lon": -98.500633, "lat": 38.50029}}, {"id": 4273881, "name": "Kechi", "state": "KS", "country": "US", "coord": {"lon": -97.279488, "lat": 37.795849}}, {"id": 4273978, "name": "Kingman", "state": "KS", "country": "US", "coord": {"lon": -98.11367, "lat": 37.645851}}, {"id": 4273993, "name": "Kinsley", "state": "KS", "country": "US", "coord": {"lon": -99.409843, "lat": 37.923069}}, {"id": 4273999, "name": "Kiowa", "state": "KS", "country": "US", "coord": {"lon": -98.485352, "lat": 37.01725}}, {"id": 4274067, "name": "La Crosse", "state": "KS", "country": "US", "coord": {"lon": -99.308723, "lat": 38.531399}}, {"id": 4274070, "name": "La Cygne", "state": "KS", "country": "US", "coord": {"lon": -94.761353, "lat": 38.350021}}, {"id": 4274224, "name": "Langdon", "state": "KS", "country": "US", "coord": {"lon": -94.705513, "lat": 37.353111}}, {"id": 4274236, "name": "Lansing", "state": "KS", "country": "US", "coord": {"lon": -94.900238, "lat": 39.248611}}, {"id": 4274249, "name": "Larned", "state": "KS", "country": "US", "coord": {"lon": -99.098709, "lat": 38.180569}}, {"id": 4274264, "name": "Latham", "state": "KS", "country": "US", "coord": {"lon": -96.641968, "lat": 37.536129}}, {"id": 4274277, "name": "Lawrence", "state": "KS", "country": "US", "coord": {"lon": -95.235252, "lat": 38.971668}}, {"id": 4274305, "name": "Leavenworth", "state": "KS", "country": "US", "coord": {"lon": -94.922462, "lat": 39.311111}}, {"id": 4274307, "name": "Leavenworth County", "state": "KS", "country": "US", "coord": {"lon": -95.033577, "lat": 39.23333}}, {"id": 4274317, "name": "Leawood", "state": "KS", "country": "US", "coord": {"lon": -94.616898, "lat": 38.966671}}, {"id": 4274356, "name": "Lenexa", "state": "KS", "country": "US", "coord": {"lon": -94.733566, "lat": 38.953621}}, {"id": 4274450, "name": "Lincoln", "state": "KS", "country": "US", "coord": {"lon": -98.144768, "lat": 39.04084}}, {"id": 4274532, "name": "Lindsborg", "state": "KS", "country": "US", "coord": {"lon": -97.674477, "lat": 38.57362}}, {"id": 4274735, "name": "Lone Oak", "state": "KS", "country": "US", "coord": {"lon": -94.741913, "lat": 37.436989}}, {"id": 4274828, "name": "Louisburg", "state": "KS", "country": "US", "coord": {"lon": -94.680794, "lat": 38.619461}}, {"id": 4274906, "name": "Lyndon", "state": "KS", "country": "US", "coord": {"lon": -95.684433, "lat": 38.610008}}, {"id": 4274916, "name": "Lyon County", "state": "KS", "country": "US", "coord": {"lon": -96.150269, "lat": 38.450008}}, {"id": 4274927, "name": "Lyons", "state": "KS", "country": "US", "coord": {"lon": -98.201729, "lat": 38.345009}}, {"id": 4274980, "name": "Maize", "state": "KS", "country": "US", "coord": {"lon": -97.46727, "lat": 37.779179}}, {"id": 4274994, "name": "Manhattan", "state": "KS", "country": "US", "coord": {"lon": -96.571671, "lat": 39.183609}}, {"id": 4275004, "name": "Mankato", "state": "KS", "country": "US", "coord": {"lon": -98.210052, "lat": 39.787231}}, {"id": 4275070, "name": "Marion", "state": "KS", "country": "US", "coord": {"lon": -97.017242, "lat": 38.348351}}, {"id": 4275144, "name": "Marysville", "state": "KS", "country": "US", "coord": {"lon": -96.64724, "lat": 39.84111}}, {"id": 4275261, "name": "McPherson", "state": "KS", "country": "US", "coord": {"lon": -97.664207, "lat": 38.370838}}, {"id": 4275266, "name": "McPherson County", "state": "KS", "country": "US", "coord": {"lon": -97.666992, "lat": 38.400009}}, {"id": 4275315, "name": "Medicine Lodge", "state": "KS", "country": "US", "coord": {"lon": -98.58036, "lat": 37.281132}}, {"id": 4275393, "name": "Merriam", "state": "KS", "country": "US", "coord": {"lon": -94.693573, "lat": 39.023621}}, {"id": 4275480, "name": "Midland", "state": "KS", "country": "US", "coord": {"lon": -95.242188, "lat": 39.028332}}, {"id": 4275586, "name": "Minneapolis", "state": "KS", "country": "US", "coord": {"lon": -97.706703, "lat": 39.121941}}, {"id": 4275600, "name": "Mission", "state": "KS", "country": "US", "coord": {"lon": -94.655792, "lat": 39.027779}}, {"id": 4275614, "name": "Mission Hills", "state": "KS", "country": "US", "coord": {"lon": -94.616898, "lat": 39.01778}}, {"id": 4275684, "name": "Montgomery County", "state": "KS", "country": "US", "coord": {"lon": -95.733589, "lat": 37.200069}}, {"id": 4275718, "name": "Morehead", "state": "KS", "country": "US", "coord": {"lon": -95.507759, "lat": 37.384232}}, {"id": 4275755, "name": "Morse", "state": "KS", "country": "US", "coord": {"lon": -94.723846, "lat": 38.850288}}, {"id": 4275784, "name": "Mound City", "state": "KS", "country": "US", "coord": {"lon": -94.813568, "lat": 38.142811}}, {"id": 4275803, "name": "Moundridge", "state": "KS", "country": "US", "coord": {"lon": -97.519211, "lat": 38.20306}}, {"id": 4276017, "name": "Mulvane", "state": "KS", "country": "US", "coord": {"lon": -97.243927, "lat": 37.474461}}, {"id": 4276128, "name": "Neodesha", "state": "KS", "country": "US", "coord": {"lon": -95.68026, "lat": 37.418388}}, {"id": 4276136, "name": "Neosho County", "state": "KS", "country": "US", "coord": {"lon": -95.283592, "lat": 37.566719}}, {"id": 4276166, "name": "Ness City", "state": "KS", "country": "US", "coord": {"lon": -99.906509, "lat": 38.452789}}, {"id": 4276248, "name": "Newton", "state": "KS", "country": "US", "coord": {"lon": -97.345039, "lat": 38.04668}}, {"id": 4276265, "name": "Nickerson", "state": "KS", "country": "US", "coord": {"lon": -98.083672, "lat": 38.147228}}, {"id": 4276386, "name": "North Newton", "state": "KS", "country": "US", "coord": {"lon": -97.345589, "lat": 38.072231}}, {"id": 4276452, "name": "Norton", "state": "KS", "country": "US", "coord": {"lon": -99.89151, "lat": 39.833889}}, {"id": 4276543, "name": "Oakland", "state": "KS", "country": "US", "coord": {"lon": -95.636368, "lat": 39.066669}}, {"id": 4276568, "name": "Obeeville", "state": "KS", "country": "US", "coord": {"lon": -97.848938, "lat": 38.05751}}, {"id": 4276588, "name": "Ogden", "state": "KS", "country": "US", "coord": {"lon": -96.706123, "lat": 39.111111}}, {"id": 4276614, "name": "Olathe", "state": "KS", "country": "US", "coord": {"lon": -94.81913, "lat": 38.881401}}, {"id": 4276747, "name": "Osage City", "state": "KS", "country": "US", "coord": {"lon": -95.825821, "lat": 38.6339}}, {"id": 4276772, "name": "Osawatomie", "state": "KS", "country": "US", "coord": {"lon": -94.950523, "lat": 38.497238}}, {"id": 4276781, "name": "Osborne", "state": "KS", "country": "US", "coord": {"lon": -98.694794, "lat": 39.4389}}, {"id": 4276786, "name": "Osborne County", "state": "KS", "country": "US", "coord": {"lon": -98.783691, "lat": 39.35001}}, {"id": 4276792, "name": "Oskaloosa", "state": "KS", "country": "US", "coord": {"lon": -95.312752, "lat": 39.215279}}, {"id": 4276800, "name": "Oswego", "state": "KS", "country": "US", "coord": {"lon": -95.109962, "lat": 37.167568}}, {"id": 4276816, "name": "Ottawa", "state": "KS", "country": "US", "coord": {"lon": -95.267754, "lat": 38.61557}}, {"id": 4276871, "name": "Overbrook", "state": "KS", "country": "US", "coord": {"lon": -95.557198, "lat": 38.78056}}, {"id": 4276873, "name": "Overland Park", "state": "KS", "country": "US", "coord": {"lon": -94.670792, "lat": 38.982231}}, {"id": 4276893, "name": "Oxford", "state": "KS", "country": "US", "coord": {"lon": -97.16893, "lat": 37.274189}}, {"id": 4276956, "name": "Paola", "state": "KS", "country": "US", "coord": {"lon": -94.879128, "lat": 38.572239}}, {"id": 4276974, "name": "Park City", "state": "KS", "country": "US", "coord": {"lon": -97.318382, "lat": 37.800011}}, {"id": 4277011, "name": "Parsons", "state": "KS", "country": "US", "coord": {"lon": -95.261078, "lat": 37.34034}}, {"id": 4277071, "name": "Paxico", "state": "KS", "country": "US", "coord": {"lon": -96.166382, "lat": 39.069439}}, {"id": 4277079, "name": "Peabody", "state": "KS", "country": "US", "coord": {"lon": -97.106697, "lat": 38.16946}}, {"id": 4277173, "name": "Phillips County", "state": "KS", "country": "US", "coord": {"lon": -99.35038, "lat": 39.800011}}, {"id": 4277177, "name": "Phillipsburg", "state": "KS", "country": "US", "coord": {"lon": -99.32399, "lat": 39.756119}}, {"id": 4277241, "name": "Pittsburg", "state": "KS", "country": "US", "coord": {"lon": -94.704964, "lat": 37.410881}}, {"id": 4277260, "name": "Plainville", "state": "KS", "country": "US", "coord": {"lon": -99.298157, "lat": 39.23473}}, {"id": 4277481, "name": "Pleasanton", "state": "KS", "country": "US", "coord": {"lon": -94.711349, "lat": 38.177811}}, {"id": 4277718, "name": "Prairie Village", "state": "KS", "country": "US", "coord": {"lon": -94.633568, "lat": 38.991669}}, {"id": 4277733, "name": "Pratt County", "state": "KS", "country": "US", "coord": {"lon": -98.733704, "lat": 37.650021}}, {"id": 4277752, "name": "Pratt", "state": "KS", "country": "US", "coord": {"lon": -98.737587, "lat": 37.643909}}, {"id": 4277773, "name": "Prospect", "state": "KS", "country": "US", "coord": {"lon": -97.446991, "lat": 37.63446}}, {"id": 4277972, "name": "Reno County", "state": "KS", "country": "US", "coord": {"lon": -98.083672, "lat": 37.950008}}, {"id": 4278061, "name": "Riley County", "state": "KS", "country": "US", "coord": {"lon": -96.700287, "lat": 39.333328}}, {"id": 4278272, "name": "Roeland Park", "state": "KS", "country": "US", "coord": {"lon": -94.632179, "lat": 39.03751}}, {"id": 4278301, "name": "Ronald", "state": "KS", "country": "US", "coord": {"lon": -94.804413, "lat": 37.79171}}, {"id": 4278340, "name": "Rose Hill", "state": "KS", "country": "US", "coord": {"lon": -97.13504, "lat": 37.55835}}, {"id": 4278393, "name": "Rossville", "state": "KS", "country": "US", "coord": {"lon": -95.95166, "lat": 39.136108}}, {"id": 4278471, "name": "Russell", "state": "KS", "country": "US", "coord": {"lon": -98.85981, "lat": 38.89529}}, {"id": 4278472, "name": "Russell County", "state": "KS", "country": "US", "coord": {"lon": -98.767021, "lat": 38.916679}}, {"id": 4278489, "name": "Sabetha", "state": "KS", "country": "US", "coord": {"lon": -95.800819, "lat": 39.902222}}, {"id": 4278621, "name": "Saint John", "state": "KS", "country": "US", "coord": {"lon": -98.760094, "lat": 38.002239}}, {"id": 4278741, "name": "Saint Marys", "state": "KS", "country": "US", "coord": {"lon": -96.071098, "lat": 39.19416}}, {"id": 4278742, "name": "Saint Marys", "state": "KS", "country": "US", "coord": {"lon": -97.640053, "lat": 37.70668}}, {"id": 4278890, "name": "Salina", "state": "KS", "country": "US", "coord": {"lon": -97.61142, "lat": 38.840279}}, {"id": 4278895, "name": "Saline County", "state": "KS", "country": "US", "coord": {"lon": -97.666977, "lat": 38.78334}}, {"id": 4279149, "name": "Sedan", "state": "KS", "country": "US", "coord": {"lon": -96.186943, "lat": 37.12672}}, {"id": 4279154, "name": "Sedgwick", "state": "KS", "country": "US", "coord": {"lon": -97.422539, "lat": 37.916679}}, {"id": 4279155, "name": "Sedgwick County", "state": "KS", "country": "US", "coord": {"lon": -97.450317, "lat": 37.716679}}, {"id": 4279170, "name": "Seneca", "state": "KS", "country": "US", "coord": {"lon": -96.064171, "lat": 39.83416}}, {"id": 4279247, "name": "Shawnee", "state": "KS", "country": "US", "coord": {"lon": -94.720238, "lat": 39.041672}}, {"id": 4279253, "name": "Shawnee County", "state": "KS", "country": "US", "coord": {"lon": -95.76693, "lat": 39.049999}}, {"id": 4279397, "name": "Silver Lake", "state": "KS", "country": "US", "coord": {"lon": -95.858597, "lat": 39.104172}}, {"id": 4279474, "name": "Smith Center", "state": "KS", "country": "US", "coord": {"lon": -98.785072, "lat": 39.779179}}, {"id": 4279540, "name": "Solomon", "state": "KS", "country": "US", "coord": {"lon": -97.37114, "lat": 38.919441}}, {"id": 4279645, "name": "South Hutchinson", "state": "KS", "country": "US", "coord": {"lon": -97.940331, "lat": 38.028069}}, {"id": 4279847, "name": "Spring Hill", "state": "KS", "country": "US", "coord": {"lon": -94.825523, "lat": 38.743061}}, {"id": 4279901, "name": "Stafford", "state": "KS", "country": "US", "coord": {"lon": -98.600639, "lat": 37.962238}}, {"id": 4279983, "name": "Sterling", "state": "KS", "country": "US", "coord": {"lon": -98.207008, "lat": 38.210011}}, {"id": 4280143, "name": "Sumner County", "state": "KS", "country": "US", "coord": {"lon": -97.483658, "lat": 37.23336}}, {"id": 4280502, "name": "Tonganoxie", "state": "KS", "country": "US", "coord": {"lon": -95.087753, "lat": 39.109718}}, {"id": 4280531, "name": "Towanda", "state": "KS", "country": "US", "coord": {"lon": -96.999763, "lat": 37.79752}}, {"id": 4280539, "name": "Topeka", "state": "KS", "country": "US", "coord": {"lon": -95.67804, "lat": 39.048328}}, {"id": 4280618, "name": "Tresham", "state": "KS", "country": "US", "coord": {"lon": -97.049759, "lat": 37.170029}}, {"id": 4280660, "name": "Troy", "state": "KS", "country": "US", "coord": {"lon": -95.089973, "lat": 39.783051}}, {"id": 4280910, "name": "Valley Center", "state": "KS", "country": "US", "coord": {"lon": -97.373383, "lat": 37.834728}}, {"id": 4280917, "name": "Valley Falls", "state": "KS", "country": "US", "coord": {"lon": -95.460251, "lat": 39.34333}}, {"id": 4281010, "name": "Victoria", "state": "KS", "country": "US", "coord": {"lon": -99.147598, "lat": 38.852791}}, {"id": 4281083, "name": "WaKeeney", "state": "KS", "country": "US", "coord": {"lon": -99.87957, "lat": 39.025009}}, {"id": 4281087, "name": "Wabaunsee County", "state": "KS", "country": "US", "coord": {"lon": -95.996101, "lat": 39.129169}}, {"id": 4281227, "name": "Wamego", "state": "KS", "country": "US", "coord": {"lon": -96.305, "lat": 39.201939}}, {"id": 4281253, "name": "Washington", "state": "KS", "country": "US", "coord": {"lon": -97.050858, "lat": 39.818062}}, {"id": 4281323, "name": "Wathena", "state": "KS", "country": "US", "coord": {"lon": -94.949692, "lat": 39.759159}}, {"id": 4281386, "name": "Wellington", "state": "KS", "country": "US", "coord": {"lon": -97.371712, "lat": 37.265301}}, {"id": 4281412, "name": "Wellsville", "state": "KS", "country": "US", "coord": {"lon": -95.081642, "lat": 38.718342}}, {"id": 4281614, "name": "Westmoreland", "state": "KS", "country": "US", "coord": {"lon": -96.413612, "lat": 39.39389}}, {"id": 4281621, "name": "Westphalia", "state": "KS", "country": "US", "coord": {"lon": -95.490257, "lat": 38.181969}}, {"id": 4281639, "name": "Westwood", "state": "KS", "country": "US", "coord": {"lon": -94.616898, "lat": 39.040562}}, {"id": 4281730, "name": "Wichita", "state": "KS", "country": "US", "coord": {"lon": -97.33754, "lat": 37.692242}}, {"id": 4281897, "name": "Winfield", "state": "KS", "country": "US", "coord": {"lon": -96.99559, "lat": 37.23975}}, {"id": 4282006, "name": "Woodson County", "state": "KS", "country": "US", "coord": {"lon": -95.733597, "lat": 37.883369}}, {"id": 4282035, "name": "Wyandotte County", "state": "KS", "country": "US", "coord": {"lon": -94.716904, "lat": 39.116669}}, {"id": 4282061, "name": "Yates Center", "state": "KS", "country": "US", "coord": {"lon": -95.733322, "lat": 37.881149}}, {"id": 4282211, "name": "Adair County", "state": "KY", "country": "US", "coord": {"lon": -85.299957, "lat": 37.11673}}, {"id": 4282305, "name": "Albany", "state": "KY", "country": "US", "coord": {"lon": -85.134682, "lat": 36.690899}}, {"id": 4282342, "name": "Alexandria", "state": "KY", "country": "US", "coord": {"lon": -84.387993, "lat": 38.959511}}, {"id": 4282435, "name": "Alphoretta", "state": "KY", "country": "US", "coord": {"lon": -82.764328, "lat": 37.563148}}, {"id": 4282497, "name": "Anchorage", "state": "KY", "country": "US", "coord": {"lon": -85.53302, "lat": 38.266739}}, {"id": 4282553, "name": "Anna", "state": "KY", "country": "US", "coord": {"lon": -86.423042, "lat": 37.116428}}, {"id": 4282563, "name": "Annville", "state": "KY", "country": "US", "coord": {"lon": -83.970482, "lat": 37.319248}}, {"id": 4282658, "name": "Arlington", "state": "KY", "country": "US", "coord": {"lon": -84.307709, "lat": 37.760639}}, {"id": 4282757, "name": "Ashland", "state": "KY", "country": "US", "coord": {"lon": -82.637939, "lat": 38.478409}}, {"id": 4282812, "name": "Auburn", "state": "KY", "country": "US", "coord": {"lon": -86.710274, "lat": 36.864208}}, {"id": 4282818, "name": "Audubon Park", "state": "KY", "country": "US", "coord": {"lon": -85.725243, "lat": 38.20396}}, {"id": 4282836, "name": "Augusta", "state": "KY", "country": "US", "coord": {"lon": -84.007057, "lat": 38.77169}}, {"id": 4283067, "name": "Ballard County", "state": "KY", "country": "US", "coord": {"lon": -89.000618, "lat": 37.050049}}, {"id": 4283127, "name": "Barbourmeade", "state": "KY", "country": "US", "coord": {"lon": -85.603287, "lat": 38.297291}}, {"id": 4283128, "name": "Barbourville", "state": "KY", "country": "US", "coord": {"lon": -83.888809, "lat": 36.866482}}, {"id": 4283133, "name": "Bardstown", "state": "KY", "country": "US", "coord": {"lon": -85.466904, "lat": 37.809231}}, {"id": 4283138, "name": "Bardwell", "state": "KY", "country": "US", "coord": {"lon": -89.009789, "lat": 36.870609}}, {"id": 4283268, "name": "Barren County", "state": "KY", "country": "US", "coord": {"lon": -85.949982, "lat": 36.95005}}, {"id": 4283541, "name": "Beattyville", "state": "KY", "country": "US", "coord": {"lon": -83.706863, "lat": 37.571751}}, {"id": 4283557, "name": "Beaver Dam", "state": "KY", "country": "US", "coord": {"lon": -86.875832, "lat": 37.401989}}, {"id": 4283606, "name": "Bedford", "state": "KY", "country": "US", "coord": {"lon": -85.317734, "lat": 38.59256}}, {"id": 4283760, "name": "Beechwood Village", "state": "KY", "country": "US", "coord": {"lon": -85.631348, "lat": 38.254791}}, {"id": 4283845, "name": "Bellevue", "state": "KY", "country": "US", "coord": {"lon": -84.478828, "lat": 39.106449}}, {"id": 4283953, "name": "Benton", "state": "KY", "country": "US", "coord": {"lon": -88.350319, "lat": 36.857281}}, {"id": 4283974, "name": "Berea", "state": "KY", "country": "US", "coord": {"lon": -84.296318, "lat": 37.568691}}, {"id": 4285190, "name": "Booneville", "state": "KY", "country": "US", "coord": {"lon": -83.674911, "lat": 37.4762}}, {"id": 4285268, "name": "Bowling Green", "state": "KY", "country": "US", "coord": {"lon": -86.443604, "lat": 36.990318}}, {"id": 4285302, "name": "Boyd County", "state": "KY", "country": "US", "coord": {"lon": -82.68322, "lat": 38.366749}}, {"id": 4285317, "name": "Boyle County", "state": "KY", "country": "US", "coord": {"lon": -84.866623, "lat": 37.633411}}, {"id": 4285380, "name": "Brandenburg", "state": "KY", "country": "US", "coord": {"lon": -86.169411, "lat": 37.998959}}, {"id": 4285427, "name": "Breckinridge Center", "state": "KY", "country": "US", "coord": {"lon": -87.863083, "lat": 37.682819}}, {"id": 4285573, "name": "Brodhead", "state": "KY", "country": "US", "coord": {"lon": -84.413834, "lat": 37.404251}}, {"id": 4285588, "name": "Brooks", "state": "KY", "country": "US", "coord": {"lon": -85.709679, "lat": 38.06118}}, {"id": 4285607, "name": "Brooksville", "state": "KY", "country": "US", "coord": {"lon": -84.065758, "lat": 38.682571}}, {"id": 4285708, "name": "Brownsville", "state": "KY", "country": "US", "coord": {"lon": -86.267754, "lat": 37.192551}}, {"id": 4286037, "name": "Buckner", "state": "KY", "country": "US", "coord": {"lon": -85.439957, "lat": 38.383678}}, {"id": 4286054, "name": "Buechel", "state": "KY", "country": "US", "coord": {"lon": -85.651901, "lat": 38.195068}}, {"id": 4286280, "name": "Burkesville", "state": "KY", "country": "US", "coord": {"lon": -85.370522, "lat": 36.79034}}, {"id": 4286281, "name": "Burlington", "state": "KY", "country": "US", "coord": {"lon": -84.724113, "lat": 39.027561}}, {"id": 4286479, "name": "Cadiz", "state": "KY", "country": "US", "coord": {"lon": -87.835297, "lat": 36.865051}}, {"id": 4286519, "name": "Calhoun", "state": "KY", "country": "US", "coord": {"lon": -87.258331, "lat": 37.53894}}, {"id": 4286549, "name": "Calloway County", "state": "KY", "country": "US", "coord": {"lon": -88.266701, "lat": 36.633389}}, {"id": 4286581, "name": "Calvert City", "state": "KY", "country": "US", "coord": {"lon": -88.350037, "lat": 37.03339}}, {"id": 4286590, "name": "Camargo", "state": "KY", "country": "US", "coord": {"lon": -83.887703, "lat": 37.994251}}, {"id": 4286705, "name": "Campbell County", "state": "KY", "country": "US", "coord": {"lon": -84.38327, "lat": 38.950062}}, {"id": 4286717, "name": "Campbellsville", "state": "KY", "country": "US", "coord": {"lon": -85.341911, "lat": 37.343399}}, {"id": 4286728, "name": "Campton", "state": "KY", "country": "US", "coord": {"lon": -83.547409, "lat": 37.734249}}, {"id": 4286981, "name": "Carlisle", "state": "KY", "country": "US", "coord": {"lon": -84.027428, "lat": 38.312019}}, {"id": 4287048, "name": "Carroll County", "state": "KY", "country": "US", "coord": {"lon": -85.116623, "lat": 38.650059}}, {"id": 4287050, "name": "Carrollton", "state": "KY", "country": "US", "coord": {"lon": -85.179398, "lat": 38.680901}}, {"id": 4287192, "name": "Catlettsburg", "state": "KY", "country": "US", "coord": {"lon": -82.600441, "lat": 38.4048}}, {"id": 4287235, "name": "Cave City", "state": "KY", "country": "US", "coord": {"lon": -85.956917, "lat": 37.136719}}, {"id": 4287450, "name": "Central City", "state": "KY", "country": "US", "coord": {"lon": -87.123329, "lat": 37.29393}}, {"id": 4287749, "name": "Christian County", "state": "KY", "country": "US", "coord": {"lon": -87.483337, "lat": 36.883381}}, {"id": 4287837, "name": "Clark County", "state": "KY", "country": "US", "coord": {"lon": -84.266602, "lat": 37.98341}}, {"id": 4287872, "name": "Claryville", "state": "KY", "country": "US", "coord": {"lon": -84.395493, "lat": 38.919231}}, {"id": 4287874, "name": "Clay", "state": "KY", "country": "US", "coord": {"lon": -87.820023, "lat": 37.476711}}, {"id": 4287881, "name": "Clay City", "state": "KY", "country": "US", "coord": {"lon": -83.918533, "lat": 37.859249}}, {"id": 4288062, "name": "Clinton", "state": "KY", "country": "US", "coord": {"lon": -88.993401, "lat": 36.667278}}, {"id": 4288101, "name": "Cloverport", "state": "KY", "country": "US", "coord": {"lon": -86.632759, "lat": 37.833389}}, {"id": 4288140, "name": "Coal Run Village", "state": "KY", "country": "US", "coord": {"lon": -82.558487, "lat": 37.513161}}, {"id": 4288230, "name": "Cold Spring", "state": "KY", "country": "US", "coord": {"lon": -84.439941, "lat": 39.021729}}, {"id": 4288250, "name": "Coldstream", "state": "KY", "country": "US", "coord": {"lon": -85.523849, "lat": 38.314789}}, {"id": 4288366, "name": "Columbia", "state": "KY", "country": "US", "coord": {"lon": -85.306351, "lat": 37.10284}}, {"id": 4288656, "name": "Corbin", "state": "KY", "country": "US", "coord": {"lon": -84.096878, "lat": 36.9487}}, {"id": 4288809, "name": "Covington", "state": "KY", "country": "US", "coord": {"lon": -84.508553, "lat": 39.083672}}, {"id": 4289028, "name": "Crescent Springs", "state": "KY", "country": "US", "coord": {"lon": -84.581612, "lat": 39.051449}}, {"id": 4289040, "name": "Crestview Hills", "state": "KY", "country": "US", "coord": {"lon": -84.584938, "lat": 39.027279}}, {"id": 4289042, "name": "Crestwood", "state": "KY", "country": "US", "coord": {"lon": -85.472458, "lat": 38.324242}}, {"id": 4289072, "name": "Crittenden", "state": "KY", "country": "US", "coord": {"lon": -84.605217, "lat": 38.782841}}, {"id": 4289232, "name": "Cumberland", "state": "KY", "country": "US", "coord": {"lon": -82.988503, "lat": 36.978149}}, {"id": 4289323, "name": "Cynthiana", "state": "KY", "country": "US", "coord": {"lon": -84.294098, "lat": 38.39035}}, {"id": 4289445, "name": "Danville", "state": "KY", "country": "US", "coord": {"lon": -84.772171, "lat": 37.64563}}, {"id": 4289518, "name": "Daviess County", "state": "KY", "country": "US", "coord": {"lon": -87.116661, "lat": 37.70005}}, {"id": 4289570, "name": "Davis Hill", "state": "KY", "country": "US", "coord": {"lon": -84.836617, "lat": 37.648689}}, {"id": 4289606, "name": "Dawson Springs", "state": "KY", "country": "US", "coord": {"lon": -87.692513, "lat": 37.167271}}, {"id": 4289629, "name": "Dayton", "state": "KY", "country": "US", "coord": {"lon": -84.472717, "lat": 39.112839}}, {"id": 4289966, "name": "Dixon", "state": "KY", "country": "US", "coord": {"lon": -87.690292, "lat": 37.517818}}, {"id": 4290181, "name": "Douglass Hills", "state": "KY", "country": "US", "coord": {"lon": -85.552742, "lat": 38.23785}}, {"id": 4290421, "name": "Dry Ridge", "state": "KY", "country": "US", "coord": {"lon": -84.589943, "lat": 38.682011}}, {"id": 4290554, "name": "Dunleary", "state": "KY", "country": "US", "coord": {"lon": -82.366257, "lat": 37.318161}}, {"id": 4290651, "name": "Dykes", "state": "KY", "country": "US", "coord": {"lon": -84.435768, "lat": 37.068138}}, {"id": 4290685, "name": "Earlington", "state": "KY", "country": "US", "coord": {"lon": -87.51194, "lat": 37.274212}}, {"id": 4290809, "name": "Eastland Park", "state": "KY", "country": "US", "coord": {"lon": -86.438316, "lat": 36.959492}}, {"id": 4290859, "name": "Eddyville", "state": "KY", "country": "US", "coord": {"lon": -88.080299, "lat": 37.094501}}, {"id": 4290873, "name": "Edgewood", "state": "KY", "country": "US", "coord": {"lon": -84.581886, "lat": 39.018669}}, {"id": 4290886, "name": "Edmonton", "state": "KY", "country": "US", "coord": {"lon": -85.61219, "lat": 36.980061}}, {"id": 4290988, "name": "Elizabethtown", "state": "KY", "country": "US", "coord": {"lon": -85.859131, "lat": 37.693951}}, {"id": 4291056, "name": "Elkfork", "state": "KY", "country": "US", "coord": {"lon": -83.13295, "lat": 37.964809}}, {"id": 4291079, "name": "Elkton", "state": "KY", "country": "US", "coord": {"lon": -87.154167, "lat": 36.81004}}, {"id": 4291156, "name": "Elsmere", "state": "KY", "country": "US", "coord": {"lon": -84.604668, "lat": 39.012562}}, {"id": 4291181, "name": "Eminence", "state": "KY", "country": "US", "coord": {"lon": -85.180511, "lat": 38.370071}}, {"id": 4291255, "name": "Erlanger", "state": "KY", "country": "US", "coord": {"lon": -84.600777, "lat": 39.016731}}, {"id": 4291373, "name": "Fairdale", "state": "KY", "country": "US", "coord": {"lon": -85.75885, "lat": 38.105068}}, {"id": 4291501, "name": "Falmouth", "state": "KY", "country": "US", "coord": {"lon": -84.330208, "lat": 38.676739}}, {"id": 4291564, "name": "Fayette County", "state": "KY", "country": "US", "coord": {"lon": -84.449944, "lat": 38.050079}}, {"id": 4291620, "name": "Fern Creek", "state": "KY", "country": "US", "coord": {"lon": -85.587738, "lat": 38.15979}}, {"id": 4291884, "name": "Flatwoods", "state": "KY", "country": "US", "coord": {"lon": -82.71711, "lat": 38.522579}}, {"id": 4291905, "name": "Flemingsburg", "state": "KY", "country": "US", "coord": {"lon": -83.73381, "lat": 38.422298}}, {"id": 4291945, "name": "Florence", "state": "KY", "country": "US", "coord": {"lon": -84.62661, "lat": 38.998951}}, {"id": 4291960, "name": "Floyd County", "state": "KY", "country": "US", "coord": {"lon": -82.750443, "lat": 37.550098}}, {"id": 4292067, "name": "Fort Mitchell", "state": "KY", "country": "US", "coord": {"lon": -84.54744, "lat": 39.059502}}, {"id": 4292071, "name": "Fort Thomas", "state": "KY", "country": "US", "coord": {"lon": -84.447159, "lat": 39.075062}}, {"id": 4292072, "name": "Fort Wright", "state": "KY", "country": "US", "coord": {"lon": -84.534111, "lat": 39.051731}}, {"id": 4292182, "name": "Francisville", "state": "KY", "country": "US", "coord": {"lon": -84.724388, "lat": 39.105061}}, {"id": 4292188, "name": "Frankfort", "state": "KY", "country": "US", "coord": {"lon": -84.873283, "lat": 38.200909}}, {"id": 4292193, "name": "Franklin", "state": "KY", "country": "US", "coord": {"lon": -86.577217, "lat": 36.72226}}, {"id": 4292202, "name": "Franklin County", "state": "KY", "country": "US", "coord": {"lon": -84.866623, "lat": 38.233398}}, {"id": 4292308, "name": "Frenchburg", "state": "KY", "country": "US", "coord": {"lon": -83.625748, "lat": 37.95092}}, {"id": 4292424, "name": "Fulton", "state": "KY", "country": "US", "coord": {"lon": -88.874229, "lat": 36.50423}}, {"id": 4292454, "name": "Future City", "state": "KY", "country": "US", "coord": {"lon": -88.80172, "lat": 37.06255}}, {"id": 4292686, "name": "Georgetown", "state": "KY", "country": "US", "coord": {"lon": -84.55883, "lat": 38.209801}}, {"id": 4292826, "name": "Glasgow", "state": "KY", "country": "US", "coord": {"lon": -85.911919, "lat": 36.99588}}, {"id": 4293148, "name": "Grant County", "state": "KY", "country": "US", "coord": {"lon": -84.64994, "lat": 38.65007}}, {"id": 4293284, "name": "Graymoor-Devondale", "state": "KY", "country": "US", "coord": {"lon": -85.623016, "lat": 38.273129}}, {"id": 4293311, "name": "Grayson", "state": "KY", "country": "US", "coord": {"lon": -82.948502, "lat": 38.332581}}, {"id": 4293382, "name": "Green Hill", "state": "KY", "country": "US", "coord": {"lon": -83.965477, "lat": 37.296478}}, {"id": 4293470, "name": "Greensburg", "state": "KY", "country": "US", "coord": {"lon": -85.498848, "lat": 37.260891}}, {"id": 4293473, "name": "Greenup", "state": "KY", "country": "US", "coord": {"lon": -82.83017, "lat": 38.573132}}, {"id": 4293477, "name": "Greenville", "state": "KY", "country": "US", "coord": {"lon": -87.178886, "lat": 37.201149}}, {"id": 4293704, "name": "Guthrie", "state": "KY", "country": "US", "coord": {"lon": -87.166389, "lat": 36.64838}}, {"id": 4293895, "name": "Hamim", "state": "KY", "country": "US", "coord": {"lon": -83.313789, "lat": 38.127579}}, {"id": 4294031, "name": "Hardin County", "state": "KY", "country": "US", "coord": {"lon": -85.966629, "lat": 37.700062}}, {"id": 4294044, "name": "Hardinsburg", "state": "KY", "country": "US", "coord": {"lon": -86.460533, "lat": 37.78006}}, {"id": 4294072, "name": "Harlan", "state": "KY", "country": "US", "coord": {"lon": -83.321854, "lat": 36.84314}}, {"id": 4294180, "name": "Harrodsburg", "state": "KY", "country": "US", "coord": {"lon": -84.843292, "lat": 37.762299}}, {"id": 4294195, "name": "Hartford", "state": "KY", "country": "US", "coord": {"lon": -86.909157, "lat": 37.45116}}, {"id": 4294267, "name": "Hawesville", "state": "KY", "country": "US", "coord": {"lon": -86.75499, "lat": 37.900059}}, {"id": 4294349, "name": "Hazard", "state": "KY", "country": "US", "coord": {"lon": -83.19323, "lat": 37.249538}}, {"id": 4294425, "name": "Hebron", "state": "KY", "country": "US", "coord": {"lon": -84.701057, "lat": 39.065891}}, {"id": 4294433, "name": "Hebron Estates", "state": "KY", "country": "US", "coord": {"lon": -85.666069, "lat": 38.049511}}, {"id": 4294494, "name": "Henderson", "state": "KY", "country": "US", "coord": {"lon": -87.590012, "lat": 37.836151}}, {"id": 4294512, "name": "Henderson County", "state": "KY", "country": "US", "coord": {"lon": -87.566681, "lat": 37.783379}}, {"id": 4294526, "name": "Hendron", "state": "KY", "country": "US", "coord": {"lon": -88.629219, "lat": 37.039501}}, {"id": 4294625, "name": "Hickman", "state": "KY", "country": "US", "coord": {"lon": -89.18618, "lat": 36.571171}}, {"id": 4294771, "name": "Highland Park", "state": "KY", "country": "US", "coord": {"lon": -85.753021, "lat": 38.184509}}, {"id": 4294788, "name": "Highland Heights", "state": "KY", "country": "US", "coord": {"lon": -84.451889, "lat": 39.033119}}, {"id": 4294799, "name": "Highview", "state": "KY", "country": "US", "coord": {"lon": -85.62413, "lat": 38.142849}}, {"id": 4294858, "name": "Hillview", "state": "KY", "country": "US", "coord": {"lon": -85.685509, "lat": 38.06979}}, {"id": 4294872, "name": "Hindman", "state": "KY", "country": "US", "coord": {"lon": -82.980438, "lat": 37.33593}}, {"id": 4294937, "name": "Hodgenville", "state": "KY", "country": "US", "coord": {"lon": -85.73996, "lat": 37.573952}}, {"id": 4295247, "name": "Hopkins County", "state": "KY", "country": "US", "coord": {"lon": -87.550003, "lat": 37.333382}}, {"id": 4295251, "name": "Hopkinsville", "state": "KY", "country": "US", "coord": {"lon": -87.488617, "lat": 36.865601}}, {"id": 4295288, "name": "Horse Cave", "state": "KY", "country": "US", "coord": {"lon": -85.906921, "lat": 37.179501}}, {"id": 4295443, "name": "Howardstown", "state": "KY", "country": "US", "coord": {"lon": -85.591911, "lat": 37.572281}}, {"id": 4295686, "name": "Hurstbourne Acres", "state": "KY", "country": "US", "coord": {"lon": -85.589127, "lat": 38.22118}}, {"id": 4295689, "name": "Hurstbourne", "state": "KY", "country": "US", "coord": {"lon": -85.588287, "lat": 38.238129}}, {"id": 4295712, "name": "Hyden", "state": "KY", "country": "US", "coord": {"lon": -83.373238, "lat": 37.160931}}, {"id": 4295776, "name": "Independence", "state": "KY", "country": "US", "coord": {"lon": -84.544113, "lat": 38.943119}}, {"id": 4295852, "name": "Indian Hills", "state": "KY", "country": "US", "coord": {"lon": -85.662743, "lat": 38.272572}}, {"id": 4295856, "name": "Indian Hills Cherokee Section", "state": "KY", "country": "US", "coord": {"lon": -85.649963, "lat": 38.27951}}, {"id": 4295878, "name": "Inez", "state": "KY", "country": "US", "coord": {"lon": -82.538757, "lat": 37.866482}}, {"id": 4295928, "name": "Irad", "state": "KY", "country": "US", "coord": {"lon": -82.738487, "lat": 38.09203}}, {"id": 4295954, "name": "Irvine", "state": "KY", "country": "US", "coord": {"lon": -83.973808, "lat": 37.700642}}, {"id": 4295960, "name": "Irvington", "state": "KY", "country": "US", "coord": {"lon": -86.283859, "lat": 37.880341}}, {"id": 4296081, "name": "Jackson", "state": "KY", "country": "US", "coord": {"lon": -83.383507, "lat": 37.55315}}, {"id": 4296082, "name": "Jackson", "state": "KY", "country": "US", "coord": {"lon": -84.870789, "lat": 37.825081}}, {"id": 4296106, "name": "Jackson County", "state": "KY", "country": "US", "coord": {"lon": -84.000481, "lat": 37.416752}}, {"id": 4296173, "name": "Jamestown", "state": "KY", "country": "US", "coord": {"lon": -85.063011, "lat": 36.984791}}, {"id": 4296212, "name": "Jefferson County", "state": "KY", "country": "US", "coord": {"lon": -85.649963, "lat": 38.183399}}, {"id": 4296218, "name": "Jeffersontown", "state": "KY", "country": "US", "coord": {"lon": -85.5644, "lat": 38.194241}}, {"id": 4296219, "name": "Jeffersonville", "state": "KY", "country": "US", "coord": {"lon": -83.841858, "lat": 37.97369}}, {"id": 4296229, "name": "Jenkins", "state": "KY", "country": "US", "coord": {"lon": -82.630989, "lat": 37.173439}}, {"id": 4296292, "name": "Jessamine County", "state": "KY", "country": "US", "coord": {"lon": -84.566612, "lat": 37.866749}}, {"id": 4296734, "name": "Junction City", "state": "KY", "country": "US", "coord": {"lon": -84.793839, "lat": 37.586739}}, {"id": 4296777, "name": "Kavanaugh", "state": "KY", "country": "US", "coord": {"lon": -82.586823, "lat": 38.253422}}, {"id": 4296902, "name": "Kenton County", "state": "KY", "country": "US", "coord": {"lon": -84.533279, "lat": 38.950062}}, {"id": 4297062, "name": "Kingsley", "state": "KY", "country": "US", "coord": {"lon": -85.671913, "lat": 38.220901}}, {"id": 4297236, "name": "La Center", "state": "KY", "country": "US", "coord": {"lon": -88.973679, "lat": 37.076721}}, {"id": 4297238, "name": "La Grange", "state": "KY", "country": "US", "coord": {"lon": -85.378853, "lat": 38.40757}}, {"id": 4297318, "name": "Lakeside Park", "state": "KY", "country": "US", "coord": {"lon": -84.569107, "lat": 39.035622}}, {"id": 4297354, "name": "Lancaster", "state": "KY", "country": "US", "coord": {"lon": -84.578003, "lat": 37.619518}}, {"id": 4297576, "name": "Lawrence County", "state": "KY", "country": "US", "coord": {"lon": -82.766548, "lat": 38.066761}}, {"id": 4297581, "name": "Lawrenceburg", "state": "KY", "country": "US", "coord": {"lon": -84.896622, "lat": 38.0373}}, {"id": 4297653, "name": "Lebanon", "state": "KY", "country": "US", "coord": {"lon": -85.252739, "lat": 37.56979}}, {"id": 4297664, "name": "Lebanon Junction", "state": "KY", "country": "US", "coord": {"lon": -85.731903, "lat": 37.834511}}, {"id": 4297673, "name": "Ledbetter", "state": "KY", "country": "US", "coord": {"lon": -88.47699, "lat": 37.047562}}, {"id": 4297882, "name": "Leitchfield", "state": "KY", "country": "US", "coord": {"lon": -86.293861, "lat": 37.480049}}, {"id": 4297909, "name": "Letcher County", "state": "KY", "country": "US", "coord": {"lon": -82.866547, "lat": 37.13343}}, {"id": 4297955, "name": "Lewis County", "state": "KY", "country": "US", "coord": {"lon": -83.483238, "lat": 38.533409}}, {"id": 4297979, "name": "Lewisport", "state": "KY", "country": "US", "coord": {"lon": -86.902206, "lat": 37.937}}, {"id": 4297983, "name": "Lexington", "state": "KY", "country": "US", "coord": {"lon": -84.477722, "lat": 37.988689}}, {"id": 4297999, "name": "Lexington-Fayette", "state": "KY", "country": "US", "coord": {"lon": -84.458549, "lat": 38.049801}}, {"id": 4298003, "name": "Liberty", "state": "KY", "country": "US", "coord": {"lon": -84.9394, "lat": 37.318409}}, {"id": 4298005, "name": "Liberty", "state": "KY", "country": "US", "coord": {"lon": -87.19278, "lat": 36.8881}}, {"id": 4298558, "name": "Little Georgetown", "state": "KY", "country": "US", "coord": {"lon": -84.615784, "lat": 38.02647}}, {"id": 4298805, "name": "Livermore", "state": "KY", "country": "US", "coord": {"lon": -87.131943, "lat": 37.493099}}, {"id": 4298960, "name": "London", "state": "KY", "country": "US", "coord": {"lon": -84.08326, "lat": 37.128979}}, {"id": 4299275, "name": "Louisa", "state": "KY", "country": "US", "coord": {"lon": -82.60321, "lat": 38.11425}}, {"id": 4299276, "name": "Louisville", "state": "KY", "country": "US", "coord": {"lon": -85.759407, "lat": 38.254238}}, {"id": 4299510, "name": "Loyall", "state": "KY", "country": "US", "coord": {"lon": -83.354073, "lat": 36.852032}}, {"id": 4299531, "name": "Ludlow", "state": "KY", "country": "US", "coord": {"lon": -84.54744, "lat": 39.09256}}, {"id": 4299562, "name": "Lyndon", "state": "KY", "country": "US", "coord": {"lon": -85.601631, "lat": 38.256741}}, {"id": 4299665, "name": "Madison County", "state": "KY", "country": "US", "coord": {"lon": -84.299927, "lat": 37.73341}}, {"id": 4299670, "name": "Madisonville", "state": "KY", "country": "US", "coord": {"lon": -87.498894, "lat": 37.328098}}, {"id": 4299741, "name": "Manchester", "state": "KY", "country": "US", "coord": {"lon": -83.761864, "lat": 37.153702}}, {"id": 4299842, "name": "Marion", "state": "KY", "country": "US", "coord": {"lon": -88.081131, "lat": 37.332829}}, {"id": 4300012, "name": "Mason County", "state": "KY", "country": "US", "coord": {"lon": -83.799919, "lat": 38.583408}}, {"id": 4300024, "name": "Masonville", "state": "KY", "country": "US", "coord": {"lon": -87.034721, "lat": 37.675049}}, {"id": 4300026, "name": "Massac", "state": "KY", "country": "US", "coord": {"lon": -88.730614, "lat": 37.01672}}, {"id": 4300105, "name": "Mayfield", "state": "KY", "country": "US", "coord": {"lon": -88.636719, "lat": 36.741718}}, {"id": 4300152, "name": "Maysville", "state": "KY", "country": "US", "coord": {"lon": -83.744362, "lat": 38.64119}}, {"id": 4300244, "name": "McCracken County", "state": "KY", "country": "US", "coord": {"lon": -88.70005, "lat": 37.05006}}, {"id": 4300339, "name": "McKee", "state": "KY", "country": "US", "coord": {"lon": -83.997978, "lat": 37.430359}}, {"id": 4300717, "name": "Middlesboro", "state": "KY", "country": "US", "coord": {"lon": -83.716583, "lat": 36.608421}}, {"id": 4300725, "name": "Middletown", "state": "KY", "country": "US", "coord": {"lon": -85.538849, "lat": 38.24535}}, {"id": 4300739, "name": "Midway", "state": "KY", "country": "US", "coord": {"lon": -84.68383, "lat": 38.150909}}, {"id": 4301094, "name": "Heritage Creek", "state": "KY", "country": "US", "coord": {"lon": -85.719681, "lat": 38.12368}}, {"id": 4301224, "name": "Monticello", "state": "KY", "country": "US", "coord": {"lon": -84.849113, "lat": 36.829788}}, {"id": 4301229, "name": "Monticello", "state": "KY", "country": "US", "coord": {"lon": -84.550217, "lat": 37.992298}}, {"id": 4301307, "name": "Morehead", "state": "KY", "country": "US", "coord": {"lon": -83.432678, "lat": 38.183971}}, {"id": 4301317, "name": "Morehead", "state": "KY", "country": "US", "coord": {"lon": -87.176376, "lat": 37.271149}}, {"id": 4301345, "name": "Morganfield", "state": "KY", "country": "US", "coord": {"lon": -87.916687, "lat": 37.68338}}, {"id": 4301349, "name": "Morgantown", "state": "KY", "country": "US", "coord": {"lon": -86.683601, "lat": 37.225601}}, {"id": 4301603, "name": "Mount Olivet", "state": "KY", "country": "US", "coord": {"lon": -84.036873, "lat": 38.53146}}, {"id": 4301683, "name": "Mount Sterling", "state": "KY", "country": "US", "coord": {"lon": -83.94326, "lat": 38.056469}}, {"id": 4301702, "name": "Mount Vernon", "state": "KY", "country": "US", "coord": {"lon": -84.495216, "lat": 38.025631}}, {"id": 4301703, "name": "Mount Vernon", "state": "KY", "country": "US", "coord": {"lon": -84.340492, "lat": 37.352859}}, {"id": 4301732, "name": "Mount Washington", "state": "KY", "country": "US", "coord": {"lon": -85.545792, "lat": 38.05006}}, {"id": 4302012, "name": "Munfordville", "state": "KY", "country": "US", "coord": {"lon": -85.891083, "lat": 37.272282}}, {"id": 4302035, "name": "Murray", "state": "KY", "country": "US", "coord": {"lon": -88.314758, "lat": 36.610329}}, {"id": 4302277, "name": "Nelson County", "state": "KY", "country": "US", "coord": {"lon": -85.466629, "lat": 37.80006}}, {"id": 4302338, "name": "New Castle", "state": "KY", "country": "US", "coord": {"lon": -85.169678, "lat": 38.433399}}, {"id": 4302504, "name": "Newburg", "state": "KY", "country": "US", "coord": {"lon": -85.659683, "lat": 38.160069}}, {"id": 4302529, "name": "Newport", "state": "KY", "country": "US", "coord": {"lon": -84.495781, "lat": 39.09145}}, {"id": 4302561, "name": "Nicholasville", "state": "KY", "country": "US", "coord": {"lon": -84.572998, "lat": 37.88063}}, {"id": 4302681, "name": "North Corbin", "state": "KY", "country": "US", "coord": {"lon": -84.093262, "lat": 36.96064}}, {"id": 4302761, "name": "Northfield", "state": "KY", "country": "US", "coord": {"lon": -85.641068, "lat": 38.28701}}, {"id": 4302778, "name": "Nortonville", "state": "KY", "country": "US", "coord": {"lon": -87.452782, "lat": 37.19088}}, {"id": 4302827, "name": "Oak Grove", "state": "KY", "country": "US", "coord": {"lon": -87.442787, "lat": 36.665051}}, {"id": 4302828, "name": "Oak Grove", "state": "KY", "country": "US", "coord": {"lon": -86.754707, "lat": 37.344212}}, {"id": 4302910, "name": "Oakbrook", "state": "KY", "country": "US", "coord": {"lon": -84.685219, "lat": 38.999779}}, {"id": 4302988, "name": "Oil City", "state": "KY", "country": "US", "coord": {"lon": -85.983032, "lat": 37.033379}}, {"id": 4303012, "name": "Okolona", "state": "KY", "country": "US", "coord": {"lon": -85.687737, "lat": 38.141178}}, {"id": 4303152, "name": "Old Washington", "state": "KY", "country": "US", "coord": {"lon": -83.808533, "lat": 38.61591}}, {"id": 4303194, "name": "Olive Hill", "state": "KY", "country": "US", "coord": {"lon": -83.174072, "lat": 38.300079}}, {"id": 4303297, "name": "Orchard Grass Hills", "state": "KY", "country": "US", "coord": {"lon": -85.521347, "lat": 38.323681}}, {"id": 4303436, "name": "Owensboro", "state": "KY", "country": "US", "coord": {"lon": -87.113327, "lat": 37.77422}}, {"id": 4303439, "name": "Owenton", "state": "KY", "country": "US", "coord": {"lon": -84.841888, "lat": 38.536461}}, {"id": 4303441, "name": "Owingsville", "state": "KY", "country": "US", "coord": {"lon": -83.764076, "lat": 38.144798}}, {"id": 4303543, "name": "Paintsville", "state": "KY", "country": "US", "coord": {"lon": -82.807114, "lat": 37.814541}}, {"id": 4303595, "name": "Park Hills", "state": "KY", "country": "US", "coord": {"lon": -84.532173, "lat": 39.071449}}, {"id": 4303602, "name": "Paris", "state": "KY", "country": "US", "coord": {"lon": -84.252991, "lat": 38.209801}}, {"id": 4303951, "name": "Perry County", "state": "KY", "country": "US", "coord": {"lon": -83.199898, "lat": 37.250648}}, {"id": 4304058, "name": "Pewee Valley", "state": "KY", "country": "US", "coord": {"lon": -85.487457, "lat": 38.310619}}, {"id": 4304226, "name": "Pike County", "state": "KY", "country": "US", "coord": {"lon": -82.349869, "lat": 37.46677}}, {"id": 4304232, "name": "Pikeville", "state": "KY", "country": "US", "coord": {"lon": -82.518761, "lat": 37.479271}}, {"id": 4304361, "name": "Pine Knot", "state": "KY", "country": "US", "coord": {"lon": -84.438553, "lat": 36.650909}}, {"id": 4304396, "name": "Pineville", "state": "KY", "country": "US", "coord": {"lon": -83.694923, "lat": 36.762032}}, {"id": 4304448, "name": "Pioneer Village", "state": "KY", "country": "US", "coord": {"lon": -85.677742, "lat": 38.060619}}, {"id": 4304523, "name": "Plano", "state": "KY", "country": "US", "coord": {"lon": -86.41832, "lat": 36.880322}}, {"id": 4304713, "name": "Pleasure Ridge Park", "state": "KY", "country": "US", "coord": {"lon": -85.858299, "lat": 38.145351}}, {"id": 4305121, "name": "Powell County", "state": "KY", "country": "US", "coord": {"lon": -83.816582, "lat": 37.83342}}, {"id": 4305208, "name": "Prestonville", "state": "KY", "country": "US", "coord": {"lon": -85.190231, "lat": 38.679779}}, {"id": 4305210, "name": "Prestonsburg", "state": "KY", "country": "US", "coord": {"lon": -82.771553, "lat": 37.665649}}, {"id": 4305266, "name": "Princeton", "state": "KY", "country": "US", "coord": {"lon": -87.881958, "lat": 37.109219}}, {"id": 4305287, "name": "Prospect", "state": "KY", "country": "US", "coord": {"lon": -85.615517, "lat": 38.34507}}, {"id": 4305294, "name": "Providence", "state": "KY", "country": "US", "coord": {"lon": -85.221069, "lat": 38.574509}}, {"id": 4305295, "name": "Providence", "state": "KY", "country": "US", "coord": {"lon": -87.762787, "lat": 37.397541}}, {"id": 4305364, "name": "Pulaski County", "state": "KY", "country": "US", "coord": {"lon": -84.599937, "lat": 37.116741}}, {"id": 4305500, "name": "Raceland", "state": "KY", "country": "US", "coord": {"lon": -82.7285, "lat": 38.540081}}, {"id": 4305504, "name": "Radcliff", "state": "KY", "country": "US", "coord": {"lon": -85.949127, "lat": 37.840351}}, {"id": 4305805, "name": "Reidland", "state": "KY", "country": "US", "coord": {"lon": -88.531433, "lat": 37.017559}}, {"id": 4305974, "name": "Richmond", "state": "KY", "country": "US", "coord": {"lon": -84.294647, "lat": 37.74786}}, {"id": 4306693, "name": "Rome", "state": "KY", "country": "US", "coord": {"lon": -87.180832, "lat": 37.721161}}, {"id": 4306757, "name": "Rose Terrace", "state": "KY", "country": "US", "coord": {"lon": -85.977188, "lat": 37.895069}}, {"id": 4306972, "name": "Russell", "state": "KY", "country": "US", "coord": {"lon": -82.697662, "lat": 38.5173}}, {"id": 4307012, "name": "Russell Springs", "state": "KY", "country": "US", "coord": {"lon": -85.08857, "lat": 37.056179}}, {"id": 4307025, "name": "Russellville", "state": "KY", "country": "US", "coord": {"lon": -86.887222, "lat": 36.845322}}, {"id": 4307052, "name": "Ryland Heights", "state": "KY", "country": "US", "coord": {"lon": -84.462997, "lat": 38.957561}}, {"id": 4307238, "name": "Saint Matthews", "state": "KY", "country": "US", "coord": {"lon": -85.655792, "lat": 38.25285}}, {"id": 4307275, "name": "Saint Regis Park", "state": "KY", "country": "US", "coord": {"lon": -85.616631, "lat": 38.226742}}, {"id": 4307447, "name": "Salyersville", "state": "KY", "country": "US", "coord": {"lon": -83.068779, "lat": 37.75259}}, {"id": 4307616, "name": "Sandy Hook", "state": "KY", "country": "US", "coord": {"lon": -83.126282, "lat": 38.086472}}, {"id": 4307808, "name": "Scott County", "state": "KY", "country": "US", "coord": {"lon": -84.566612, "lat": 38.300072}}, {"id": 4307837, "name": "Scottsville", "state": "KY", "country": "US", "coord": {"lon": -86.190536, "lat": 36.75338}}, {"id": 4307879, "name": "Sebree", "state": "KY", "country": "US", "coord": {"lon": -87.528618, "lat": 37.606991}}, {"id": 4308122, "name": "Shelbyville", "state": "KY", "country": "US", "coord": {"lon": -85.223572, "lat": 38.212009}}, {"id": 4308163, "name": "Shepherdsville", "state": "KY", "country": "US", "coord": {"lon": -85.71579, "lat": 37.9884}}, {"id": 4308225, "name": "Shively", "state": "KY", "country": "US", "coord": {"lon": -85.822739, "lat": 38.200069}}, {"id": 4308401, "name": "Silver Grove", "state": "KY", "country": "US", "coord": {"lon": -84.390221, "lat": 39.034512}}, {"id": 4308453, "name": "Simpsonville", "state": "KY", "country": "US", "coord": {"lon": -85.355232, "lat": 38.222569}}, {"id": 4308633, "name": "Slater", "state": "KY", "country": "US", "coord": {"lon": -88.989227, "lat": 37.016441}}, {"id": 4308835, "name": "Smithland", "state": "KY", "country": "US", "coord": {"lon": -88.403374, "lat": 37.138939}}, {"id": 4308922, "name": "Somerset", "state": "KY", "country": "US", "coord": {"lon": -84.604111, "lat": 37.092018}}, {"id": 4309076, "name": "South Shore", "state": "KY", "country": "US", "coord": {"lon": -82.958229, "lat": 38.720909}}, {"id": 4309097, "name": "Southgate", "state": "KY", "country": "US", "coord": {"lon": -84.472717, "lat": 39.071999}}, {"id": 4309140, "name": "Sparksville", "state": "KY", "country": "US", "coord": {"lon": -85.401909, "lat": 37.008389}}, {"id": 4309329, "name": "Springfield", "state": "KY", "country": "US", "coord": {"lon": -85.222183, "lat": 37.685341}}, {"id": 4309414, "name": "Saint Dennis", "state": "KY", "country": "US", "coord": {"lon": -85.845802, "lat": 38.1884}}, {"id": 4309487, "name": "Stanford", "state": "KY", "country": "US", "coord": {"lon": -84.661888, "lat": 37.531189}}, {"id": 4309498, "name": "Stanton", "state": "KY", "country": "US", "coord": {"lon": -83.858253, "lat": 37.845638}}, {"id": 4309559, "name": "Stearns", "state": "KY", "country": "US", "coord": {"lon": -84.47744, "lat": 36.698971}}, {"id": 4310030, "name": "Sturgis", "state": "KY", "country": "US", "coord": {"lon": -87.98391, "lat": 37.546711}}, {"id": 4310411, "name": "Sylvania", "state": "KY", "country": "US", "coord": {"lon": -85.87413, "lat": 38.157009}}, {"id": 4310616, "name": "Taylor Mill", "state": "KY", "country": "US", "coord": {"lon": -84.49633, "lat": 38.997559}}, {"id": 4310638, "name": "Taylorsville", "state": "KY", "country": "US", "coord": {"lon": -85.342453, "lat": 38.031731}}, {"id": 4310988, "name": "Todd County", "state": "KY", "country": "US", "coord": {"lon": -87.133331, "lat": 36.766708}}, {"id": 4311035, "name": "Tompkinsville", "state": "KY", "country": "US", "coord": {"lon": -85.691643, "lat": 36.702278}}, {"id": 4311646, "name": "Union", "state": "KY", "country": "US", "coord": {"lon": -84.680496, "lat": 38.9459}}, {"id": 4311722, "name": "Uniontown", "state": "KY", "country": "US", "coord": {"lon": -87.93058, "lat": 37.775318}}, {"id": 4311953, "name": "Van", "state": "KY", "country": "US", "coord": {"lon": -82.873489, "lat": 37.151489}}, {"id": 4311959, "name": "Van Lear", "state": "KY", "country": "US", "coord": {"lon": -82.757942, "lat": 37.77121}}, {"id": 4311963, "name": "Valley Station", "state": "KY", "country": "US", "coord": {"lon": -85.870239, "lat": 38.111179}}, {"id": 4311976, "name": "Vanceburg", "state": "KY", "country": "US", "coord": {"lon": -83.318802, "lat": 38.599239}}, {"id": 4311983, "name": "Vandetta", "state": "KY", "country": "US", "coord": {"lon": -87.425278, "lat": 37.451431}}, {"id": 4312051, "name": "Verona", "state": "KY", "country": "US", "coord": {"lon": -84.660782, "lat": 38.818401}}, {"id": 4312057, "name": "Versailles", "state": "KY", "country": "US", "coord": {"lon": -84.72995, "lat": 38.052582}}, {"id": 4312088, "name": "Villa Hills", "state": "KY", "country": "US", "coord": {"lon": -84.593002, "lat": 39.063389}}, {"id": 4312096, "name": "Vine Grove", "state": "KY", "country": "US", "coord": {"lon": -85.981354, "lat": 37.81007}}, {"id": 4312671, "name": "Walton", "state": "KY", "country": "US", "coord": {"lon": -84.610222, "lat": 38.875622}}, {"id": 4312732, "name": "Warren County", "state": "KY", "country": "US", "coord": {"lon": -86.399986, "lat": 36.983379}}, {"id": 4312734, "name": "Warsaw", "state": "KY", "country": "US", "coord": {"lon": -84.901619, "lat": 38.783401}}, {"id": 4312983, "name": "West Buechel", "state": "KY", "country": "US", "coord": {"lon": -85.663292, "lat": 38.19701}}, {"id": 4313038, "name": "West Liberty", "state": "KY", "country": "US", "coord": {"lon": -83.259621, "lat": 37.921478}}, {"id": 4313093, "name": "Westwood", "state": "KY", "country": "US", "coord": {"lon": -82.669884, "lat": 38.483139}}, {"id": 4313346, "name": "Whitesburg", "state": "KY", "country": "US", "coord": {"lon": -82.826828, "lat": 37.118431}}, {"id": 4313358, "name": "Whitley City", "state": "KY", "country": "US", "coord": {"lon": -84.47049, "lat": 36.723412}}, {"id": 4313395, "name": "Wickliffe", "state": "KY", "country": "US", "coord": {"lon": -89.089233, "lat": 36.964779}}, {"id": 4313448, "name": "Wilder", "state": "KY", "country": "US", "coord": {"lon": -84.486893, "lat": 39.05645}}, {"id": 4313563, "name": "Williamsburg", "state": "KY", "country": "US", "coord": {"lon": -84.15966, "lat": 36.74342}}, {"id": 4313572, "name": "Williamstown", "state": "KY", "country": "US", "coord": {"lon": -84.560501, "lat": 38.638119}}, {"id": 4313628, "name": "Wilmore", "state": "KY", "country": "US", "coord": {"lon": -84.661613, "lat": 37.862019}}, {"id": 4313697, "name": "Winchester", "state": "KY", "country": "US", "coord": {"lon": -84.179649, "lat": 37.990082}}, {"id": 4313719, "name": "Windy Hills", "state": "KY", "country": "US", "coord": {"lon": -85.634407, "lat": 38.27396}}, {"id": 4314044, "name": "Worthington", "state": "KY", "country": "US", "coord": {"lon": -82.724327, "lat": 38.548409}}, {"id": 4314047, "name": "Worthington Hills", "state": "KY", "country": "US", "coord": {"lon": -85.526901, "lat": 38.30896}}, {"id": 4314051, "name": "Worthington", "state": "KY", "country": "US", "coord": {"lon": -85.56163, "lat": 38.31562}}, {"id": 4314295, "name": "Abbeville", "state": "LA", "country": "US", "coord": {"lon": -92.134293, "lat": 29.974649}}, {"id": 4314388, "name": "Abita Springs", "state": "LA", "country": "US", "coord": {"lon": -90.037582, "lat": 30.478531}}, {"id": 4314409, "name": "Addis", "state": "LA", "country": "US", "coord": {"lon": -91.265388, "lat": 30.3538}}, {"id": 4314498, "name": "Albany", "state": "LA", "country": "US", "coord": {"lon": -90.582314, "lat": 30.50436}}, {"id": 4314550, "name": "Alexandria", "state": "LA", "country": "US", "coord": {"lon": -92.445137, "lat": 31.311291}}, {"id": 4314607, "name": "Allen Parish", "state": "LA", "country": "US", "coord": {"lon": -92.800148, "lat": 30.6502}}, {"id": 4314712, "name": "Ama", "state": "LA", "country": "US", "coord": {"lon": -90.296471, "lat": 29.95215}}, {"id": 4314724, "name": "Amelia", "state": "LA", "country": "US", "coord": {"lon": -91.102043, "lat": 29.666321}}, {"id": 4314744, "name": "Amite", "state": "LA", "country": "US", "coord": {"lon": -90.50898, "lat": 30.72657}}, {"id": 4314956, "name": "Arabi", "state": "LA", "country": "US", "coord": {"lon": -90.005348, "lat": 29.95437}}, {"id": 4314969, "name": "Arcadia", "state": "LA", "country": "US", "coord": {"lon": -92.920158, "lat": 32.549042}}, {"id": 4315034, "name": "Arnaudville", "state": "LA", "country": "US", "coord": {"lon": -91.931511, "lat": 30.397699}}, {"id": 4315067, "name": "Ascension Parish", "state": "LA", "country": "US", "coord": {"lon": -90.900101, "lat": 30.21686}}, {"id": 4315225, "name": "Avondale", "state": "LA", "country": "US", "coord": {"lon": -90.20369, "lat": 29.912979}}, {"id": 4315312, "name": "Baker", "state": "LA", "country": "US", "coord": {"lon": -91.168159, "lat": 30.58824}}, {"id": 4315342, "name": "Baldwin", "state": "LA", "country": "US", "coord": {"lon": -91.544281, "lat": 29.83798}}, {"id": 4315350, "name": "Ball", "state": "LA", "country": "US", "coord": {"lon": -92.411797, "lat": 31.415461}}, {"id": 4315392, "name": "Banks Springs", "state": "LA", "country": "US", "coord": {"lon": -92.092911, "lat": 32.0821}}, {"id": 4315422, "name": "Barataria", "state": "LA", "country": "US", "coord": {"lon": -90.123688, "lat": 29.72327}}, {"id": 4315514, "name": "Basile", "state": "LA", "country": "US", "coord": {"lon": -92.59597, "lat": 30.485201}}, {"id": 4315535, "name": "Bastrop", "state": "LA", "country": "US", "coord": {"lon": -91.872353, "lat": 32.756248}}, {"id": 4315588, "name": "Baton Rouge", "state": "LA", "country": "US", "coord": {"lon": -91.154549, "lat": 30.45075}}, {"id": 4315611, "name": "Bawcomville", "state": "LA", "country": "US", "coord": {"lon": -92.167358, "lat": 32.470421}}, {"id": 4315768, "name": "Bayou Cane", "state": "LA", "country": "US", "coord": {"lon": -90.751198, "lat": 29.6241}}, {"id": 4315845, "name": "Bayou Gauche", "state": "LA", "country": "US", "coord": {"lon": -90.413139, "lat": 29.78743}}, {"id": 4315955, "name": "Bayou Vista", "state": "LA", "country": "US", "coord": {"lon": -91.270943, "lat": 29.68965}}, {"id": 4316112, "name": "Beauregard Parish", "state": "LA", "country": "US", "coord": {"lon": -93.333504, "lat": 30.6502}}, {"id": 4316180, "name": "Bedford", "state": "LA", "country": "US", "coord": {"lon": -91.015106, "lat": 32.240978}}, {"id": 4316316, "name": "Bellaire", "state": "LA", "country": "US", "coord": {"lon": -93.673233, "lat": 32.487381}}, {"id": 4316329, "name": "Belle Chasse", "state": "LA", "country": "US", "coord": {"lon": -89.990631, "lat": 29.854931}}, {"id": 4316362, "name": "Belle Rose", "state": "LA", "country": "US", "coord": {"lon": -91.041489, "lat": 30.05048}}, {"id": 4316471, "name": "Benton", "state": "LA", "country": "US", "coord": {"lon": -93.741852, "lat": 32.69487}}, {"id": 4316497, "name": "Bernice", "state": "LA", "country": "US", "coord": {"lon": -92.657928, "lat": 32.82209}}, {"id": 4316523, "name": "Berwick", "state": "LA", "country": "US", "coord": {"lon": -91.218987, "lat": 29.694651}}, {"id": 4316721, "name": "Bienville Parish", "state": "LA", "country": "US", "coord": {"lon": -93.050163, "lat": 32.366821}}, {"id": 4317201, "name": "Blanchard", "state": "LA", "country": "US", "coord": {"lon": -93.892677, "lat": 32.580978}}, {"id": 4317412, "name": "Bogalusa", "state": "LA", "country": "US", "coord": {"lon": -89.848686, "lat": 30.791019}}, {"id": 4317639, "name": "Bossier City", "state": "LA", "country": "US", "coord": {"lon": -93.732117, "lat": 32.515991}}, {"id": 4317649, "name": "Bossier Parish", "state": "LA", "country": "US", "coord": {"lon": -93.600182, "lat": 32.63348}}, {"id": 4317656, "name": "Boston", "state": "LA", "country": "US", "coord": {"lon": -92.055679, "lat": 29.883261}}, {"id": 4317709, "name": "Bourg", "state": "LA", "country": "US", "coord": {"lon": -90.60231, "lat": 29.553551}}, {"id": 4317718, "name": "Boutte", "state": "LA", "country": "US", "coord": {"lon": -90.388138, "lat": 29.90243}}, {"id": 4317734, "name": "Boyce", "state": "LA", "country": "US", "coord": {"lon": -92.669312, "lat": 31.390459}}, {"id": 4317801, "name": "Breaux Bridge", "state": "LA", "country": "US", "coord": {"lon": -91.899277, "lat": 30.273529}}, {"id": 4317864, "name": "Bridge City", "state": "LA", "country": "US", "coord": {"lon": -90.170067, "lat": 29.93326}}, {"id": 4317985, "name": "Broussard", "state": "LA", "country": "US", "coord": {"lon": -91.961227, "lat": 30.14715}}, {"id": 4318037, "name": "Brownsfield", "state": "LA", "country": "US", "coord": {"lon": -91.120659, "lat": 30.546579}}, {"id": 4318055, "name": "Brownsville", "state": "LA", "country": "US", "coord": {"lon": -92.154297, "lat": 32.487091}}, {"id": 4318163, "name": "Brusly", "state": "LA", "country": "US", "coord": {"lon": -91.253723, "lat": 30.39436}}, {"id": 4318320, "name": "Bunkie", "state": "LA", "country": "US", "coord": {"lon": -92.182632, "lat": 30.953251}}]