[{"id": 3120181, "name": "Jaramillo Quemado", "state": "", "country": "ES", "coord": {"lon": -3.35868, "lat": 42.085678}}, {"id": 3120182, "name": "Jaramillo de la Fuente", "state": "", "country": "ES", "coord": {"lon": -3.31239, "lat": 42.114719}}, {"id": 3120186, "name": "Jara\u00edz de la Vera", "state": "", "country": "ES", "coord": {"lon": -5.75426, "lat": 40.060051}}, {"id": 3120188, "name": "Jaraba", "state": "", "country": "ES", "coord": {"lon": -1.8844, "lat": 41.19083}}, {"id": 3120195, "name": "Jambrina", "state": "", "country": "ES", "coord": {"lon": -5.66411, "lat": 41.39196}}, {"id": 3120196, "name": "Jal\u00f3n de Cameros", "state": "", "country": "ES", "coord": {"lon": -2.49004, "lat": 42.21804}}, {"id": 3120206, "name": "Jafre", "state": "", "country": "ES", "coord": {"lon": 3.01062, "lat": 42.07254}}, {"id": 3120209, "name": "Jadraque", "state": "", "country": "ES", "coord": {"lon": -2.92468, "lat": 40.924541}}, {"id": 3120211, "name": "Jaca", "state": "", "country": "ES", "coord": {"lon": -0.54987, "lat": 42.568981}}, {"id": 3120214, "name": "Jabares de los Oteros", "state": "", "country": "ES", "coord": {"lon": -5.51135, "lat": 42.413071}}, {"id": 3120215, "name": "Jabaloyas", "state": "", "country": "ES", "coord": {"lon": -1.40886, "lat": 40.240101}}, {"id": 3120221, "name": "Izurtza", "state": "", "country": "ES", "coord": {"lon": -2.63333, "lat": 43.150002}}, {"id": 3120234, "name": "Izarra", "state": "", "country": "ES", "coord": {"lon": -2.90257, "lat": 42.95409}}, {"id": 3120240, "name": "Izagre", "state": "", "country": "ES", "coord": {"lon": -5.25727, "lat": 42.224098}}, {"id": 3120242, "name": "Itza", "state": "", "country": "ES", "coord": {"lon": -1.7294, "lat": 42.836639}}, {"id": 3120248, "name": "Iturmendi", "state": "", "country": "ES", "coord": {"lon": -2.11916, "lat": 42.889931}}, {"id": 3120250, "name": "Iturgoyen", "state": "", "country": "ES", "coord": {"lon": -1.95436, "lat": 42.776131}}, {"id": 3120251, "name": "Ituren", "state": "", "country": "ES", "coord": {"lon": -1.72063, "lat": 43.132381}}, {"id": 3120252, "name": "Ituero y Lama", "state": "", "country": "ES", "coord": {"lon": -4.37917, "lat": 40.800659}}, {"id": 3120254, "name": "Ituero de Azaba", "state": "", "country": "ES", "coord": {"lon": -6.69272, "lat": 40.484871}}, {"id": 3120257, "name": "Itero Seco", "state": "", "country": "ES", "coord": {"lon": -4.5573, "lat": 42.461681}}, {"id": 3120258, "name": "Itero del Castillo", "state": "", "country": "ES", "coord": {"lon": -4.24441, "lat": 42.289879}}, {"id": 3120259, "name": "Itero de la Vega", "state": "", "country": "ES", "coord": {"lon": -4.25677, "lat": 42.28804}}, {"id": 3120263, "name": "Isuerre", "state": "", "country": "ES", "coord": {"lon": -1.054, "lat": 42.487289}}, {"id": 3120270, "name": "Isona", "state": "", "country": "ES", "coord": {"lon": 1.04618, "lat": 42.11758}}, {"id": 3120272, "name": "Is\u00f2vol", "state": "", "country": "ES", "coord": {"lon": 1.81807, "lat": 42.377628}}, {"id": 3120275, "name": "Islares", "state": "", "country": "ES", "coord": {"lon": -3.29988, "lat": 43.404419}}, {"id": 3120288, "name": "Iscar", "state": "", "country": "ES", "coord": {"lon": -4.53348, "lat": 41.361172}}, {"id": 3120289, "name": "Itsasondo", "state": "", "country": "ES", "coord": {"lon": -2.16464, "lat": 43.069092}}, {"id": 3120292, "name": "Isar", "state": "", "country": "ES", "coord": {"lon": -3.9304, "lat": 42.361401}}, {"id": 3120296, "name": "Iruz", "state": "", "country": "ES", "coord": {"lon": -3.93563, "lat": 43.26825}}, {"id": 3120298, "name": "Irurtzun", "state": "", "country": "ES", "coord": {"lon": -1.83333, "lat": 42.916672}}, {"id": 3120301, "name": "Irurita", "state": "", "country": "ES", "coord": {"lon": -1.54758, "lat": 43.131241}}, {"id": 3120302, "name": "Irura", "state": "", "country": "ES", "coord": {"lon": -2.06746, "lat": 43.166512}}, {"id": 3120304, "name": "Irun", "state": "", "country": "ES", "coord": {"lon": -1.78938, "lat": 43.339039}}, {"id": 3120307, "name": "Irueste", "state": "", "country": "ES", "coord": {"lon": -2.89072, "lat": 40.612061}}, {"id": 3120310, "name": "Iruelos", "state": "", "country": "ES", "coord": {"lon": -6.32808, "lat": 41.14135}}, {"id": 3120323, "name": "Irixoa", "state": "", "country": "ES", "coord": {"lon": -8.05916, "lat": 43.284698}}, {"id": 3120325, "name": "Iri\u00e9pal", "state": "", "country": "ES", "coord": {"lon": -3.12055, "lat": 40.63858}}, {"id": 3120328, "name": "Irgo", "state": "", "country": "ES", "coord": {"lon": 0.77238, "lat": 42.444962}}, {"id": 3120334, "name": "Irauregi", "state": "", "country": "ES", "coord": {"lon": -2.98794, "lat": 43.247581}}, {"id": 3120336, "name": "Ira\u00f1eta", "state": "", "country": "ES", "coord": {"lon": -1.94595, "lat": 42.922871}}, {"id": 3120343, "name": "Ipi\u00f1aburu", "state": "", "country": "ES", "coord": {"lon": -2.74732, "lat": 43.069809}}, {"id": 3120348, "name": "I\u00f1urrieta", "state": "", "country": "ES", "coord": {"lon": -2.57808, "lat": 42.970661}}, {"id": 3120371, "name": "Ini\u00e9stola", "state": "", "country": "ES", "coord": {"lon": -2.37063, "lat": 40.993999}}, {"id": 3120372, "name": "Inicio", "state": "", "country": "ES", "coord": {"lon": -5.96282, "lat": 42.755871}}, {"id": 3120392, "name": "O Incio", "state": "", "country": "ES", "coord": {"lon": -7.35, "lat": 42.633331}}, {"id": 3120396, "name": "San Jorge", "state": "", "country": "ES", "coord": {"lon": -8.31667, "lat": 43.316669}}, {"id": 3120401, "name": "Im\u00f3n", "state": "", "country": "ES", "coord": {"lon": -2.73483, "lat": 41.160992}}, {"id": 3120403, "name": "Im\u00e1rcoain", "state": "", "country": "ES", "coord": {"lon": -1.61516, "lat": 42.737492}}, {"id": 3120407, "name": "Illueca", "state": "", "country": "ES", "coord": {"lon": -1.62747, "lat": 41.538181}}, {"id": 3120410, "name": "Illescas", "state": "", "country": "ES", "coord": {"lon": -3.84704, "lat": 40.122131}}, {"id": 3120412, "name": "Illas", "state": "", "country": "ES", "coord": {"lon": -5.975, "lat": 43.497162}}, {"id": 3120413, "name": "Illano", "state": "", "country": "ES", "coord": {"lon": -6.8656, "lat": 43.333851}}, {"id": 3120414, "name": "Illana", "state": "", "country": "ES", "coord": {"lon": -2.90889, "lat": 40.184422}}, {"id": 3120417, "name": "Ilche", "state": "", "country": "ES", "coord": {"lon": 0.05728, "lat": 41.95702}}, {"id": 3120422, "name": "Ilarduia", "state": "", "country": "ES", "coord": {"lon": -2.28567, "lat": 42.872189}}, {"id": 3120423, "name": "Ig\u00fazquiza", "state": "", "country": "ES", "coord": {"lon": -2.08551, "lat": 42.645451}}, {"id": 3120427, "name": "Ig\u00fce\u00f1a", "state": "", "country": "ES", "coord": {"lon": -6.27738, "lat": 42.728531}}, {"id": 3120430, "name": "Igeldo", "state": "", "country": "ES", "coord": {"lon": -2.03643, "lat": 43.308819}}, {"id": 3120431, "name": "Igualada", "state": "", "country": "ES", "coord": {"lon": 1.6172, "lat": 41.580978}}, {"id": 3120432, "name": "Igri\u00e9s", "state": "", "country": "ES", "coord": {"lon": -0.43201, "lat": 42.214432}}, {"id": 3120434, "name": "Igoa", "state": "", "country": "ES", "coord": {"lon": -1.78588, "lat": 43.031818}}, {"id": 3120435, "name": "Iglesias", "state": "", "country": "ES", "coord": {"lon": -3.98932, "lat": 42.298069}}, {"id": 3120436, "name": "Iglesiarrubia", "state": "", "country": "ES", "coord": {"lon": -3.84701, "lat": 41.973831}}, {"id": 3120443, "name": "Iglesia", "state": "", "country": "ES", "coord": {"lon": -8.45437, "lat": 42.340672}}, {"id": 3120445, "name": "Igea", "state": "", "country": "ES", "coord": {"lon": -2.01094, "lat": 42.067768}}, {"id": 3120451, "name": "Idocin", "state": "", "country": "ES", "coord": {"lon": -1.47008, "lat": 42.68898}}, {"id": 3120453, "name": "Idiazabal", "state": "", "country": "ES", "coord": {"lon": -2.23356, "lat": 43.01189}}, {"id": 3120461, "name": "Ikaztegieta", "state": "", "country": "ES", "coord": {"lon": -2.12373, "lat": 43.09444}}, {"id": 3120462, "name": "Ibrillos", "state": "", "country": "ES", "coord": {"lon": -3.08238, "lat": 42.454311}}, {"id": 3120466, "name": "Ivorra", "state": "", "country": "ES", "coord": {"lon": 1.4, "lat": 41.76667}}, {"id": 3120469, "name": "Ibiricu", "state": "", "country": "ES", "coord": {"lon": -2.02303, "lat": 42.74651}}, {"id": 3120470, "name": "Ibio", "state": "", "country": "ES", "coord": {"lon": -4.17698, "lat": 43.312778}}, {"id": 3120472, "name": "Ibieca", "state": "", "country": "ES", "coord": {"lon": -0.20856, "lat": 42.160789}}, {"id": 3120474, "name": "\u00cdbero", "state": "", "country": "ES", "coord": {"lon": -1.77506, "lat": 42.802879}}, {"id": 3120476, "name": "Ibeas de Juarros", "state": "", "country": "ES", "coord": {"lon": -3.53519, "lat": 42.330879}}, {"id": 3120477, "name": "Ibdes", "state": "", "country": "ES", "coord": {"lon": -1.83333, "lat": 41.216671}}, {"id": 3120478, "name": "Ivars d'Urgell", "state": "", "country": "ES", "coord": {"lon": 1, "lat": 41.683331}}, {"id": 3120480, "name": "Ibarruri", "state": "", "country": "ES", "coord": {"lon": -2.66667, "lat": 43.25}}, {"id": 3120482, "name": "Ibarrangelu", "state": "", "country": "ES", "coord": {"lon": -2.63423, "lat": 43.39027}}, {"id": 3120485, "name": "Ibarra", "state": "", "country": "ES", "coord": {"lon": -2.06487, "lat": 43.131271}}, {"id": 3120487, "name": "Ibarra", "state": "", "country": "ES", "coord": {"lon": -2.56591, "lat": 43.049809}}, {"id": 3120493, "name": "Husillos", "state": "", "country": "ES", "coord": {"lon": -4.52709, "lat": 42.090542}}, {"id": 3120494, "name": "Hurtumpascual", "state": "", "country": "ES", "coord": {"lon": -5.11379, "lat": 40.692001}}, {"id": 3120495, "name": "Hurones", "state": "", "country": "ES", "coord": {"lon": -3.61588, "lat": 42.405708}}, {"id": 3120497, "name": "Humoso", "state": "", "country": "ES", "coord": {"lon": -7.0654, "lat": 42.134411}}, {"id": 3120498, "name": "Humienta", "state": "", "country": "ES", "coord": {"lon": -3.67986, "lat": 42.227001}}, {"id": 3120499, "name": "H\u00famera", "state": "", "country": "ES", "coord": {"lon": -3.78282, "lat": 40.429111}}, {"id": 3120501, "name": "Humanes de Madrid", "state": "", "country": "ES", "coord": {"lon": -3.83062, "lat": 40.250381}}, {"id": 3120502, "name": "Humanes", "state": "", "country": "ES", "coord": {"lon": -3.15257, "lat": 40.825981}}, {"id": 3120503, "name": "Humada", "state": "", "country": "ES", "coord": {"lon": -4.08333, "lat": 42.666672}}, {"id": 3120506, "name": "Hueva", "state": "", "country": "ES", "coord": {"lon": -2.96039, "lat": 40.462212}}, {"id": 3120511, "name": "Huete", "state": "", "country": "ES", "coord": {"lon": -2.69026, "lat": 40.14526}}, {"id": 3120513, "name": "Provincia de Huesca", "state": "", "country": "ES", "coord": {"lon": -0.16667, "lat": 42.166672}}, {"id": 3120514, "name": "Huesca", "state": "", "country": "ES", "coord": {"lon": -0.4087, "lat": 42.13615}}, {"id": 3120515, "name": "Huesa del Com\u00fan", "state": "", "country": "ES", "coord": {"lon": -0.91882, "lat": 41.010529}}, {"id": 3120517, "name": "Huerto", "state": "", "country": "ES", "coord": {"lon": -0.16684, "lat": 41.931278}}, {"id": 3120525, "name": "Huertahernando", "state": "", "country": "ES", "coord": {"lon": -2.28697, "lat": 40.823479}}, {"id": 3120527, "name": "Huerta del Rey", "state": "", "country": "ES", "coord": {"lon": -3.34755, "lat": 41.8391}}, {"id": 3120529, "name": "Huerta del Marquesado", "state": "", "country": "ES", "coord": {"lon": -1.68333, "lat": 40.150002}}, {"id": 3120530, "name": "Huerta de Arriba", "state": "", "country": "ES", "coord": {"lon": -3.08212, "lat": 42.116718}}, {"id": 3120535, "name": "Huerta", "state": "", "country": "ES", "coord": {"lon": -5.46769, "lat": 40.96843}}, {"id": 3120537, "name": "Huerrios", "state": "", "country": "ES", "coord": {"lon": -0.45741, "lat": 42.143581}}, {"id": 3120541, "name": "Hu\u00e9rmeces del Cerro", "state": "", "country": "ES", "coord": {"lon": -2.79711, "lat": 41.053322}}, {"id": 3120542, "name": "Hu\u00e9rmeces", "state": "", "country": "ES", "coord": {"lon": -3.77072, "lat": 42.522499}}, {"id": 3120543, "name": "Hu\u00e9rguina", "state": "", "country": "ES", "coord": {"lon": -1.6, "lat": 40.033329}}, {"id": 3120549, "name": "Huerga de Frailes", "state": "", "country": "ES", "coord": {"lon": -5.84673, "lat": 42.389851}}, {"id": 3120553, "name": "Hu\u00e9rcanos", "state": "", "country": "ES", "coord": {"lon": -2.69589, "lat": 42.428001}}, {"id": 3120555, "name": "Huelves", "state": "", "country": "ES", "coord": {"lon": -2.88444, "lat": 40.04282}}, {"id": 3120558, "name": "Hu\u00e9lamo", "state": "", "country": "ES", "coord": {"lon": -1.80957, "lat": 40.276581}}, {"id": 3120559, "name": "Hu\u00e9laga", "state": "", "country": "ES", "coord": {"lon": -6.61568, "lat": 40.05582}}, {"id": 3120563, "name": "Huecas", "state": "", "country": "ES", "coord": {"lon": -4.19541, "lat": 40.012299}}, {"id": 3120567, "name": "Huarte-Uharte", "state": "", "country": "ES", "coord": {"lon": -1.59087, "lat": 42.830349}}, {"id": 3120572, "name": "Hoz de Jaca", "state": "", "country": "ES", "coord": {"lon": -0.3065, "lat": 42.690449}}, {"id": 3120573, "name": "Hoz de Barbastro", "state": "", "country": "ES", "coord": {"lon": 0.13297, "lat": 42.140209}}, {"id": 3120578, "name": "Hozabejas", "state": "", "country": "ES", "coord": {"lon": -3.53223, "lat": 42.72958}}, {"id": 3120596, "name": "Hoyos de Miguel Mu\u00f1oz", "state": "", "country": "ES", "coord": {"lon": -5.06713, "lat": 40.392368}}, {"id": 3120598, "name": "Hoyos del Espino", "state": "", "country": "ES", "coord": {"lon": -5.17505, "lat": 40.356232}}, {"id": 3120599, "name": "Hoyos del Collado", "state": "", "country": "ES", "coord": {"lon": -5.20027, "lat": 40.359451}}, {"id": 3120603, "name": "Hoyos", "state": "", "country": "ES", "coord": {"lon": -6.72092, "lat": 40.171539}}, {"id": 3120604, "name": "Hoyorredondo", "state": "", "country": "ES", "coord": {"lon": -5.41097, "lat": 40.4627}}, {"id": 3120605, "name": "Hoyo de Manzanares", "state": "", "country": "ES", "coord": {"lon": -3.90733, "lat": 40.62265}}, {"id": 3120608, "name": "Hoyocasero", "state": "", "country": "ES", "coord": {"lon": -4.97455, "lat": 40.398899}}, {"id": 3120613, "name": "Hoyales de Roa", "state": "", "country": "ES", "coord": {"lon": -3.86202, "lat": 41.658932}}, {"id": 3120616, "name": "Hostalric", "state": "", "country": "ES", "coord": {"lon": 2.63333, "lat": 41.75}}, {"id": 3120619, "name": "L'Hospitalet de Llobregat", "state": "", "country": "ES", "coord": {"lon": 2.10028, "lat": 41.359669}}, {"id": 3120621, "name": "Hospital de \u00d3rbigo", "state": "", "country": "ES", "coord": {"lon": -5.88636, "lat": 42.463539}}, {"id": 3120631, "name": "Hortig\u00fcela", "state": "", "country": "ES", "coord": {"lon": -3.42578, "lat": 42.06842}}, {"id": 3120636, "name": "Horta de Sant Joan", "state": "", "country": "ES", "coord": {"lon": 0.31667, "lat": 40.950001}}, {"id": 3120642, "name": "Hornos de Moncalvillo", "state": "", "country": "ES", "coord": {"lon": -2.5855, "lat": 42.391979}}, {"id": 3120645, "name": "Hornillos del Camino", "state": "", "country": "ES", "coord": {"lon": -3.9256, "lat": 42.338631}}, {"id": 3120646, "name": "Hornillos de Cerrato", "state": "", "country": "ES", "coord": {"lon": -4.27207, "lat": 41.98772}}, {"id": 3120647, "name": "Hornillos de Cameros", "state": "", "country": "ES", "coord": {"lon": -2.4196, "lat": 42.210011}}, {"id": 3120659, "name": "Horna", "state": "", "country": "ES", "coord": {"lon": -3.57347, "lat": 42.928398}}, {"id": 3120661, "name": "Hormilleja", "state": "", "country": "ES", "coord": {"lon": -2.73155, "lat": 42.45628}}, {"id": 3120662, "name": "Hormilla", "state": "", "country": "ES", "coord": {"lon": -2.77447, "lat": 42.438278}}, {"id": 3120665, "name": "Hormigos", "state": "", "country": "ES", "coord": {"lon": -4.44473, "lat": 40.097778}}, {"id": 3120672, "name": "Horche", "state": "", "country": "ES", "coord": {"lon": -3.0611, "lat": 40.563992}}, {"id": 3120673, "name": "Horcajuelo de la Sierra", "state": "", "country": "ES", "coord": {"lon": -3.5464, "lat": 41.060188}}, {"id": 3120678, "name": "Horcajo de Montemayor", "state": "", "country": "ES", "coord": {"lon": -5.89427, "lat": 40.422642}}, {"id": 3120679, "name": "Horcajo de las Torres", "state": "", "country": "ES", "coord": {"lon": -5.09092, "lat": 41.064968}}, {"id": 3120680, "name": "Horcajo de la Sierra", "state": "", "country": "ES", "coord": {"lon": -3.58534, "lat": 41.06723}}, {"id": 3120690, "name": "Hontoria de Valdearados", "state": "", "country": "ES", "coord": {"lon": -3.51983, "lat": 41.744881}}, {"id": 3120691, "name": "Hontoria del Pinar", "state": "", "country": "ES", "coord": {"lon": -3.16245, "lat": 41.848381}}, {"id": 3120692, "name": "Hontoria de la Cantera", "state": "", "country": "ES", "coord": {"lon": -3.64251, "lat": 42.188789}}, {"id": 3120693, "name": "Hontoria de Cerrato", "state": "", "country": "ES", "coord": {"lon": -4.44209, "lat": 41.91061}}, {"id": 3120697, "name": "Hontoba", "state": "", "country": "ES", "coord": {"lon": -3.03858, "lat": 40.453861}}, {"id": 3120701, "name": "Hontangas", "state": "", "country": "ES", "coord": {"lon": -3.7955, "lat": 41.582161}}, {"id": 3120702, "name": "Hontanas", "state": "", "country": "ES", "coord": {"lon": -4.04529, "lat": 42.313122}}, {"id": 3120703, "name": "Hontanares de Eresma", "state": "", "country": "ES", "coord": {"lon": -4.20439, "lat": 40.982719}}, {"id": 3120710, "name": "Hontalbilla", "state": "", "country": "ES", "coord": {"lon": -4.12149, "lat": 41.34552}}, {"id": 3120711, "name": "Honrubia de la Cuesta", "state": "", "country": "ES", "coord": {"lon": -3.70454, "lat": 41.509979}}, {"id": 3120728, "name": "Hombrados", "state": "", "country": "ES", "coord": {"lon": -1.68558, "lat": 40.801182}}, {"id": 3120741, "name": "Hita", "state": "", "country": "ES", "coord": {"lon": -3.0454, "lat": 40.821491}}, {"id": 3120744, "name": "Hinojosa de San Vicente", "state": "", "country": "ES", "coord": {"lon": -4.72269, "lat": 40.10463}}, {"id": 3120745, "name": "Hinojosa del Campo", "state": "", "country": "ES", "coord": {"lon": -2.09946, "lat": 41.738441}}, {"id": 3120747, "name": "Hinojosa de Jarque", "state": "", "country": "ES", "coord": {"lon": -0.78542, "lat": 40.690498}}, {"id": 3120748, "name": "Hinojosa de Duero", "state": "", "country": "ES", "coord": {"lon": -6.79529, "lat": 40.98674}}, {"id": 3120758, "name": "Ixona / Hijona", "state": "", "country": "ES", "coord": {"lon": -2.5469, "lat": 42.815601}}, {"id": 3120759, "name": "Hijes", "state": "", "country": "ES", "coord": {"lon": -2.99989, "lat": 41.251389}}, {"id": 3120763, "name": "H\u00edjar", "state": "", "country": "ES", "coord": {"lon": -0.45112, "lat": 41.17429}}, {"id": 3120764, "name": "Higuera de las Due\u00f1as", "state": "", "country": "ES", "coord": {"lon": -4.60361, "lat": 40.239029}}, {"id": 3120771, "name": "Hiendelaencina", "state": "", "country": "ES", "coord": {"lon": -3.00337, "lat": 41.083729}}, {"id": 3120773, "name": "Herv\u00edas", "state": "", "country": "ES", "coord": {"lon": -2.88714, "lat": 42.447811}}, {"id": 3120776, "name": "Herv\u00e1s", "state": "", "country": "ES", "coord": {"lon": -5.8672, "lat": 40.270809}}, {"id": 3120777, "name": "Herr\u00edn de Campos", "state": "", "country": "ES", "coord": {"lon": -4.95239, "lat": 42.12476}}, {"id": 3120780, "name": "Herreros de Suso", "state": "", "country": "ES", "coord": {"lon": -5.03892, "lat": 40.803612}}, {"id": 3120789, "name": "Herrer\u00eda", "state": "", "country": "ES", "coord": {"lon": -1.96014, "lat": 40.888149}}, {"id": 3120791, "name": "Herrera de Valdeca\u00f1as", "state": "", "country": "ES", "coord": {"lon": -4.20004, "lat": 42.048279}}, {"id": 3120792, "name": "Herrera de Soria", "state": "", "country": "ES", "coord": {"lon": -3.01243, "lat": 41.762691}}, {"id": 3120793, "name": "Herrera de Pisuerga", "state": "", "country": "ES", "coord": {"lon": -4.33034, "lat": 42.594921}}, {"id": 3120794, "name": "Herrera de los Navarros", "state": "", "country": "ES", "coord": {"lon": -1.08271, "lat": 41.210239}}, {"id": 3120796, "name": "Herrera de Duero", "state": "", "country": "ES", "coord": {"lon": -4.65405, "lat": 41.564121}}, {"id": 3120803, "name": "Herram\u00e9lluri", "state": "", "country": "ES", "coord": {"lon": -3.01954, "lat": 42.502949}}, {"id": 3120808, "name": "Hernialde", "state": "", "country": "ES", "coord": {"lon": -2.08521, "lat": 43.154461}}, {"id": 3120809, "name": "Hernansancho", "state": "", "country": "ES", "coord": {"lon": -4.73045, "lat": 40.857529}}, {"id": 3120810, "name": "Hern\u00e1n-P\u00e9rez", "state": "", "country": "ES", "coord": {"lon": -6.4648, "lat": 40.21246}}, {"id": 3120811, "name": "Hernani", "state": "", "country": "ES", "coord": {"lon": -1.97615, "lat": 43.266151}}, {"id": 3120814, "name": "Hermua", "state": "", "country": "ES", "coord": {"lon": -2.4781, "lat": 42.91721}}, {"id": 3120817, "name": "Hermosa", "state": "", "country": "ES", "coord": {"lon": -3.73232, "lat": 43.36245}}, {"id": 3120818, "name": "Hermisende", "state": "", "country": "ES", "coord": {"lon": -6.89616, "lat": 41.968979}}, {"id": 3120826, "name": "H\u00e9rmedes de Cerrato", "state": "", "country": "ES", "coord": {"lon": -4.17361, "lat": 41.819721}}, {"id": 3120830, "name": "Her\u00edas", "state": "", "country": "ES", "coord": {"lon": -5.81667, "lat": 43.099998}}, {"id": 3120832, "name": "Herguijuela del Campo", "state": "", "country": "ES", "coord": {"lon": -5.86398, "lat": 40.63102}}, {"id": 3120833, "name": "Herguijuela de la Sierra", "state": "", "country": "ES", "coord": {"lon": -6.07445, "lat": 40.445358}}, {"id": 3120834, "name": "Herguijuela de Ciudad Rodrigo", "state": "", "country": "ES", "coord": {"lon": -6.52075, "lat": 40.458599}}, {"id": 3120838, "name": "Herce", "state": "", "country": "ES", "coord": {"lon": -2.16488, "lat": 42.21423}}, {"id": 3120840, "name": "Herbosa", "state": "", "country": "ES", "coord": {"lon": -3.9016, "lat": 42.974602}}, {"id": 3120845, "name": "Herb\u00e9s", "state": "", "country": "ES", "coord": {"lon": -0.00441, "lat": 40.721001}}, {"id": 3120848, "name": "Heras", "state": "", "country": "ES", "coord": {"lon": -3.76792, "lat": 43.395378}}, {"id": 3120852, "name": "Henche", "state": "", "country": "ES", "coord": {"lon": -2.70746, "lat": 40.714741}}, {"id": 3120859, "name": "Helguera", "state": "", "country": "ES", "coord": {"lon": -4.09977, "lat": 43.350449}}, {"id": 3120860, "name": "Helguera", "state": "", "country": "ES", "coord": {"lon": -3.43335, "lat": 43.29678}}, {"id": 3120867, "name": "Echo", "state": "", "country": "ES", "coord": {"lon": -0.75016, "lat": 42.738441}}, {"id": 3120868, "name": "Hazas de Cesto", "state": "", "country": "ES", "coord": {"lon": -3.58916, "lat": 43.39653}}, {"id": 3120871, "name": "Haza", "state": "", "country": "ES", "coord": {"lon": -3.81667, "lat": 41.616669}}, {"id": 3120874, "name": "Haro", "state": "", "country": "ES", "coord": {"lon": -2.8476, "lat": 42.57634}}, {"id": 3120885, "name": "Hacinas", "state": "", "country": "ES", "coord": {"lon": -3.28709, "lat": 41.985142}}, {"id": 3120888, "name": "Guzparras", "state": "", "country": "ES", "coord": {"lon": -3.8586, "lat": 43.18475}}, {"id": 3120889, "name": "Guzm\u00e1n", "state": "", "country": "ES", "coord": {"lon": -3.99623, "lat": 41.756451}}, {"id": 3120893, "name": "Gutierre-Mu\u00f1oz", "state": "", "country": "ES", "coord": {"lon": -4.63839, "lat": 40.982948}}, {"id": 3120895, "name": "Gusendos de los Oteros", "state": "", "country": "ES", "coord": {"lon": -5.43088, "lat": 42.378181}}, {"id": 3120898, "name": "Gurrea de G\u00e1llego", "state": "", "country": "ES", "coord": {"lon": -0.7615, "lat": 42.015411}}, {"id": 3120903, "name": "Gunt\u00edn", "state": "", "country": "ES", "coord": {"lon": -7.69259, "lat": 42.88702}}, {"id": 3120906, "name": "Gunt\u00edn", "state": "", "country": "ES", "coord": {"lon": -7.75562, "lat": 41.97879}}, {"id": 3120923, "name": "Guiz\u00e1n", "state": "", "country": "ES", "coord": {"lon": -8.61667, "lat": 42.216671}}, {"id": 3120928, "name": "Guitiriz", "state": "", "country": "ES", "coord": {"lon": -7.89656, "lat": 43.18169}}, {"id": 3120931, "name": "Guisando", "state": "", "country": "ES", "coord": {"lon": -5.1395, "lat": 40.222252}}, {"id": 3120933, "name": "Gu\u00edsamo", "state": "", "country": "ES", "coord": {"lon": -8.26667, "lat": 43.299999}}, {"id": 3120934, "name": "Guirguillano", "state": "", "country": "ES", "coord": {"lon": -1.87798, "lat": 42.717251}}, {"id": 3120935, "name": "Gipuzkoa", "state": "", "country": "ES", "coord": {"lon": -2.16667, "lat": 43.166672}}, {"id": 3120944, "name": "Guimer\u00e0", "state": "", "country": "ES", "coord": {"lon": 1.18528, "lat": 41.564499}}, {"id": 3120951, "name": "Guils de Cerdanya", "state": "", "country": "ES", "coord": {"lon": 1.88012, "lat": 42.447399}}, {"id": 3120954, "name": "Guill\u00e9n", "state": "", "country": "ES", "coord": {"lon": -7.15658, "lat": 42.820621}}, {"id": 3120963, "name": "Guijuelo", "state": "", "country": "ES", "coord": {"lon": -5.67067, "lat": 40.557571}}, {"id": 3120966, "name": "Guijo de Santa B\u00e1rbara", "state": "", "country": "ES", "coord": {"lon": -5.65414, "lat": 40.154099}}, {"id": 3120967, "name": "Guijo de Granadilla", "state": "", "country": "ES", "coord": {"lon": -6.16339, "lat": 40.193508}}, {"id": 3120968, "name": "Guijo de Galisteo", "state": "", "country": "ES", "coord": {"lon": -6.41007, "lat": 40.093819}}, {"id": 3120969, "name": "Guijo de Coria", "state": "", "country": "ES", "coord": {"lon": -6.46383, "lat": 40.100979}}, {"id": 3120970, "name": "Guijo de \u00c1vila", "state": "", "country": "ES", "coord": {"lon": -5.6397, "lat": 40.530781}}, {"id": 3120985, "name": "Getaria", "state": "", "country": "ES", "coord": {"lon": -2.20444, "lat": 43.303261}}, {"id": 3120989, "name": "Gernika-Lumo", "state": "", "country": "ES", "coord": {"lon": -2.68333, "lat": 43.316669}}, {"id": 3120993, "name": "Guerendi\u00e1in", "state": "", "country": "ES", "coord": {"lon": -1.67605, "lat": 42.97007}}, {"id": 3120996, "name": "Gerediaga", "state": "", "country": "ES", "coord": {"lon": -2.6, "lat": 43.166672}}, {"id": 3120998, "name": "G\u00fce\u00f1es", "state": "", "country": "ES", "coord": {"lon": -3.08333, "lat": 43.216671}}, {"id": 3121001, "name": "G\u00fcemes", "state": "", "country": "ES", "coord": {"lon": -3.63529, "lat": 43.455929}}, {"id": 3121002, "name": "Guembe", "state": "", "country": "ES", "coord": {"lon": -1.90767, "lat": 42.782299}}, {"id": 3121007, "name": "Getxo", "state": "", "country": "ES", "coord": {"lon": -3.01146, "lat": 43.356892}}, {"id": 3121014, "name": "G\u00fadar", "state": "", "country": "ES", "coord": {"lon": -0.72048, "lat": 40.441071}}, {"id": 3121015, "name": "Guaza de Campos", "state": "", "country": "ES", "coord": {"lon": -4.90949, "lat": 42.133652}}, {"id": 3121021, "name": "Guasa", "state": "", "country": "ES", "coord": {"lon": -0.51275, "lat": 42.56768}}, {"id": 3121024, "name": "Guarnizo", "state": "", "country": "ES", "coord": {"lon": -3.8274, "lat": 43.398392}}, {"id": 3121029, "name": "Guardo", "state": "", "country": "ES", "coord": {"lon": -4.84823, "lat": 42.789661}}, {"id": 3121030, "name": "Guardiola de Bergued\u00e0", "state": "", "country": "ES", "coord": {"lon": 1.87716, "lat": 42.234901}}, {"id": 3121032, "name": "Sant Salvador de Guardiola", "state": "", "country": "ES", "coord": {"lon": 1.76667, "lat": 41.683331}}, {"id": 3121037, "name": "Guardamino", "state": "", "country": "ES", "coord": {"lon": -3.4447, "lat": 43.260609}}, {"id": 3121044, "name": "Gualta", "state": "", "country": "ES", "coord": {"lon": 3.10312, "lat": 42.02953}}, {"id": 3121051, "name": "Guadramiro", "state": "", "country": "ES", "coord": {"lon": -6.49369, "lat": 41.017029}}, {"id": 3121058, "name": "Guadarrama", "state": "", "country": "ES", "coord": {"lon": -4.08949, "lat": 40.672699}}, {"id": 3121065, "name": "Guadalix de la Sierra", "state": "", "country": "ES", "coord": {"lon": -3.69347, "lat": 40.784962}}, {"id": 3121068, "name": "Guadalaviar", "state": "", "country": "ES", "coord": {"lon": -1.71803, "lat": 40.388241}}, {"id": 3121069, "name": "Provincia de Guadalajara", "state": "", "country": "ES", "coord": {"lon": -2.5, "lat": 40.833328}}, {"id": 3121070, "name": "Guadalajara", "state": "", "country": "ES", "coord": {"lon": -3.16667, "lat": 40.633331}}, {"id": 3121076, "name": "Grulleros", "state": "", "country": "ES", "coord": {"lon": -5.54967, "lat": 42.502682}}, {"id": 3121078, "name": "O Grove", "state": "", "country": "ES", "coord": {"lon": -8.86502, "lat": 42.494438}}, {"id": 3121099, "name": "Grisuela del P\u00e1ramo", "state": "", "country": "ES", "coord": {"lon": -5.78507, "lat": 42.413319}}, {"id": 3121101, "name": "Gris\u00e9n", "state": "", "country": "ES", "coord": {"lon": -1.1626, "lat": 41.745239}}, {"id": 3121102, "name": "Grisel", "state": "", "country": "ES", "coord": {"lon": -1.72794, "lat": 41.87109}}, {"id": 3121103, "name": "Grisale\u00f1a", "state": "", "country": "ES", "coord": {"lon": -3.26416, "lat": 42.591221}}, {"id": 3121105, "name": "Gri\u00f1\u00f3n", "state": "", "country": "ES", "coord": {"lon": -3.85482, "lat": 40.21249}}, {"id": 3121107, "name": "Grillero", "state": "", "country": "ES", "coord": {"lon": -5.76667, "lat": 43.200001}}, {"id": 3121108, "name": "Grijota", "state": "", "country": "ES", "coord": {"lon": -4.58309, "lat": 42.052891}}, {"id": 3121118, "name": "Grijalba", "state": "", "country": "ES", "coord": {"lon": -4.11896, "lat": 42.430019}}, {"id": 3121120, "name": "Griegos", "state": "", "country": "ES", "coord": {"lon": -1.71201, "lat": 40.427219}}, {"id": 3121134, "name": "Gr\u00e1valos", "state": "", "country": "ES", "coord": {"lon": -1.99874, "lat": 42.10836}}, {"id": 3121135, "name": "Graus", "state": "", "country": "ES", "coord": {"lon": 0.33749, "lat": 42.18885}}, {"id": 3121142, "name": "Granucillo", "state": "", "country": "ES", "coord": {"lon": -5.92777, "lat": 42.05209}}, {"id": 3121143, "name": "Gra\u00f1\u00f3n", "state": "", "country": "ES", "coord": {"lon": -3.02767, "lat": 42.449921}}, {"id": 3121145, "name": "Granollers", "state": "", "country": "ES", "coord": {"lon": 2.28773, "lat": 41.607971}}, {"id": 3121149, "name": "Granja de Moreruela", "state": "", "country": "ES", "coord": {"lon": -5.73893, "lat": 41.810261}}, {"id": 3121150, "name": "la Granja d'Escarp", "state": "", "country": "ES", "coord": {"lon": 0.36667, "lat": 41.416672}}, {"id": 3121158, "name": "Granera", "state": "", "country": "ES", "coord": {"lon": 2.05924, "lat": 41.727409}}, {"id": 3121161, "name": "Gra\u00f1\u00e9n", "state": "", "country": "ES", "coord": {"lon": -0.36941, "lat": 41.94104}}, {"id": 3121163, "name": "Grand\u00edval", "state": "", "country": "ES", "coord": {"lon": -2.78245, "lat": 42.714359}}, {"id": 3121197, "name": "Grandas de Salime", "state": "", "country": "ES", "coord": {"lon": -6.8757, "lat": 43.215542}}, {"id": 3121216, "name": "la Granadella", "state": "", "country": "ES", "coord": {"lon": 0.66667, "lat": 41.349998}}, {"id": 3121230, "name": "Grajera", "state": "", "country": "ES", "coord": {"lon": -3.61304, "lat": 41.373192}}, {"id": 3121233, "name": "Grajal de Campos", "state": "", "country": "ES", "coord": {"lon": -5.01938, "lat": 42.320728}}, {"id": 3121238, "name": "Grado", "state": "", "country": "ES", "coord": {"lon": -6.07433, "lat": 43.388008}}, {"id": 3121241, "name": "Gradefes", "state": "", "country": "ES", "coord": {"lon": -5.22691, "lat": 42.623959}}, {"id": 3121264, "name": "Coia", "state": "", "country": "ES", "coord": {"lon": -8.75, "lat": 42.216671}}, {"id": 3121268, "name": "Gotor", "state": "", "country": "ES", "coord": {"lon": -1.64915, "lat": 41.54583}}, {"id": 3121270, "name": "Gotarrendura", "state": "", "country": "ES", "coord": {"lon": -4.7409, "lat": 40.826519}}, {"id": 3121271, "name": "G\u00f3sol", "state": "", "country": "ES", "coord": {"lon": 1.6601, "lat": 42.236969}}, {"id": 3121281, "name": "Gorozika", "state": "", "country": "ES", "coord": {"lon": -2.63333, "lat": 43.316669}}, {"id": 3121284, "name": "Gornazo", "state": "", "country": "ES", "coord": {"lon": -3.98332, "lat": 43.41309}}, {"id": 3121285, "name": "Gormaz", "state": "", "country": "ES", "coord": {"lon": -3.005, "lat": 41.492321}}, {"id": 3121286, "name": "Elexalde", "state": "", "country": "ES", "coord": {"lon": -2.93678, "lat": 43.414902}}, {"id": 3121290, "name": "Gordoncillo", "state": "", "country": "ES", "coord": {"lon": -5.4018, "lat": 42.135571}}, {"id": 3121295, "name": "Gordaliza del Pino", "state": "", "country": "ES", "coord": {"lon": -5.15731, "lat": 42.343571}}, {"id": 3121311, "name": "Go\u00f1i", "state": "", "country": "ES", "coord": {"lon": -1.90358, "lat": 42.851669}}, {"id": 3121312, "name": "G\u00f3ngora", "state": "", "country": "ES", "coord": {"lon": -1.53053, "lat": 42.76157}}, {"id": 3121316, "name": "Gondomar", "state": "", "country": "ES", "coord": {"lon": -8.74971, "lat": 42.111549}}, {"id": 3121325, "name": "Gomeznarro", "state": "", "country": "ES", "coord": {"lon": -4.8432, "lat": 41.250359}}, {"id": 3121329, "name": "Gomecello", "state": "", "country": "ES", "coord": {"lon": -5.53585, "lat": 41.042801}}, {"id": 3121333, "name": "G\u00f3mara", "state": "", "country": "ES", "coord": {"lon": -2.22493, "lat": 41.62347}}, {"id": 3121339, "name": "Golpejas", "state": "", "country": "ES", "coord": {"lon": -5.90687, "lat": 40.999802}}, {"id": 3121341, "name": "Golpejar de la Sobarriba", "state": "", "country": "ES", "coord": {"lon": -5.51536, "lat": 42.600861}}, {"id": 3121344, "name": "Golm\u00e9s", "state": "", "country": "ES", "coord": {"lon": 0.93125, "lat": 41.633541}}, {"id": 3121345, "name": "Golmayo", "state": "", "country": "ES", "coord": {"lon": -2.52267, "lat": 41.766201}}, {"id": 3121346, "name": "Golmar", "state": "", "country": "ES", "coord": {"lon": -8.56865, "lat": 43.226109}}, {"id": 3121349, "name": "Golernio", "state": "", "country": "ES", "coord": {"lon": -2.75568, "lat": 42.764408}}, {"id": 3121357, "name": "Goizueta", "state": "", "country": "ES", "coord": {"lon": -1.86411, "lat": 43.171871}}, {"id": 3121366, "name": "Godos", "state": "", "country": "ES", "coord": {"lon": -1.10178, "lat": 40.911228}}, {"id": 3121370, "name": "Godojos", "state": "", "country": "ES", "coord": {"lon": -1.8641, "lat": 41.268379}}, {"id": 3121394, "name": "Gista\u00edn", "state": "", "country": "ES", "coord": {"lon": 0.33478, "lat": 42.591099}}, {"id": 3121397, "name": "Gironella", "state": "", "country": "ES", "coord": {"lon": 1.88019, "lat": 42.034328}}, {"id": 3121404, "name": "Xinzo de Limia", "state": "", "country": "ES", "coord": {"lon": -7.72459, "lat": 42.063499}}, {"id": 3121411, "name": "Ginestar", "state": "", "country": "ES", "coord": {"lon": 0.6329, "lat": 41.04184}}, {"id": 3121415, "name": "Gimileo", "state": "", "country": "ES", "coord": {"lon": -2.82237, "lat": 42.549919}}, {"id": 3121416, "name": "Gimialc\u00f3n", "state": "", "country": "ES", "coord": {"lon": -5.12308, "lat": 40.877048}}, {"id": 3121424, "name": "Gij\u00f3n", "state": "", "country": "ES", "coord": {"lon": -5.66152, "lat": 43.535728}}, {"id": 3121425, "name": "Gijano", "state": "", "country": "ES", "coord": {"lon": -3.24509, "lat": 43.16087}}, {"id": 3121437, "name": "Getafe", "state": "", "country": "ES", "coord": {"lon": -3.73295, "lat": 40.30571}}, {"id": 3121450, "name": "Gessa", "state": "", "country": "ES", "coord": {"lon": 0.89024, "lat": 42.705711}}, {"id": 3121453, "name": "Gerri", "state": "", "country": "ES", "coord": {"lon": 1.06727, "lat": 42.323689}}, {"id": 3121456, "name": "Girona", "state": "", "country": "ES", "coord": {"lon": 2.82493, "lat": 41.983109}}, {"id": 3121460, "name": "Germade", "state": "", "country": "ES", "coord": {"lon": -7.81324, "lat": 43.354671}}, {"id": 3121461, "name": "Geria", "state": "", "country": "ES", "coord": {"lon": -4.87663, "lat": 41.578678}}, {"id": 3121467, "name": "Ger", "state": "", "country": "ES", "coord": {"lon": 1.84536, "lat": 42.410591}}, {"id": 3121469, "name": "Genevilla", "state": "", "country": "ES", "coord": {"lon": -2.39021, "lat": 42.645199}}, {"id": 3121480, "name": "Gemu\u00f1o", "state": "", "country": "ES", "coord": {"lon": -4.78178, "lat": 40.591591}}, {"id": 3121482, "name": "Gema", "state": "", "country": "ES", "coord": {"lon": -5.64906, "lat": 41.418549}}, {"id": 3121485, "name": "Gelsa", "state": "", "country": "ES", "coord": {"lon": -0.46158, "lat": 41.407661}}, {"id": 3121486, "name": "Gelida", "state": "", "country": "ES", "coord": {"lon": 1.86667, "lat": 41.433331}}, {"id": 3121490, "name": "Gejuelo del Barro", "state": "", "country": "ES", "coord": {"lon": -6.12332, "lat": 41.076328}}, {"id": 3121495, "name": "Gea de Albarrac\u00edn", "state": "", "country": "ES", "coord": {"lon": -1.34823, "lat": 40.41114}}, {"id": 3121498, "name": "Gaztelu", "state": "", "country": "ES", "coord": {"lon": -2.02439, "lat": 43.116219}}, {"id": 3121507, "name": "Gabiria", "state": "", "country": "ES", "coord": {"lon": -2.27962, "lat": 43.049339}}, {"id": 3121509, "name": "Gav\u00edn", "state": "", "country": "ES", "coord": {"lon": -0.29689, "lat": 42.619122}}, {"id": 3121513, "name": "Gavilanes", "state": "", "country": "ES", "coord": {"lon": -4.85321, "lat": 40.277908}}, {"id": 3121519, "name": "Gav\u00e0", "state": "", "country": "ES", "coord": {"lon": 2.00123, "lat": 41.306049}}, {"id": 3121520, "name": "Gausac", "state": "", "country": "ES", "coord": {"lon": 0.79175, "lat": 42.707611}}, {"id": 3121521, "name": "Gauna", "state": "", "country": "ES", "coord": {"lon": -2.49531, "lat": 42.824478}}, {"id": 3121522, "name": "Gat\u00f3n de Campos", "state": "", "country": "ES", "coord": {"lon": -4.98078, "lat": 42.049839}}, {"id": 3121527, "name": "Gatika", "state": "", "country": "ES", "coord": {"lon": -2.86667, "lat": 43.366669}}, {"id": 3121529, "name": "Gata", "state": "", "country": "ES", "coord": {"lon": -6.59684, "lat": 40.237579}}, {"id": 3121530, "name": "Gastrar", "state": "", "country": "ES", "coord": {"lon": -8.41893, "lat": 42.850029}}, {"id": 3121533, "name": "Gascue\u00f1a de Bornova", "state": "", "country": "ES", "coord": {"lon": -3.01924, "lat": 41.142429}}, {"id": 3121534, "name": "Gascue\u00f1a", "state": "", "country": "ES", "coord": {"lon": -2.51856, "lat": 40.29937}}, {"id": 3121535, "name": "Gascones", "state": "", "country": "ES", "coord": {"lon": -3.64217, "lat": 41.018429}}, {"id": 3121545, "name": "Garriguella", "state": "", "country": "ES", "coord": {"lon": 3.06506, "lat": 42.343922}}, {"id": 3121546, "name": "Garrigoles", "state": "", "country": "ES", "coord": {"lon": 3.03333, "lat": 42.099998}}, {"id": 3121548, "name": "Garrig\u00e0s", "state": "", "country": "ES", "coord": {"lon": 2.95438, "lat": 42.193432}}, {"id": 3121549, "name": "Garray", "state": "", "country": "ES", "coord": {"lon": -2.44592, "lat": 41.81617}}, {"id": 3121550, "name": "Garrapinillos", "state": "", "country": "ES", "coord": {"lon": -1.02682, "lat": 41.683659}}, {"id": 3121554, "name": "Garralda", "state": "", "country": "ES", "coord": {"lon": -1.28624, "lat": 42.948181}}, {"id": 3121555, "name": "Garrafe de Tor\u00edo", "state": "", "country": "ES", "coord": {"lon": -5.5236, "lat": 42.732849}}, {"id": 3121559, "name": "Gar\u00f2s", "state": "", "country": "ES", "coord": {"lon": 0.84745, "lat": 42.70023}}, {"id": 3121567, "name": "Gar\u00edsoain", "state": "", "country": "ES", "coord": {"lon": -1.91093, "lat": 42.719898}}, {"id": 3121569, "name": "Gar\u00ednoain", "state": "", "country": "ES", "coord": {"lon": -1.64434, "lat": 42.600361}}, {"id": 3121575, "name": "Garg\u00fcera", "state": "", "country": "ES", "coord": {"lon": -5.92782, "lat": 40.061298}}, {"id": 3121579, "name": "Gargantilla del Lozoya", "state": "", "country": "ES", "coord": {"lon": -3.71538, "lat": 40.96249}}, {"id": 3121582, "name": "Gargantilla", "state": "", "country": "ES", "coord": {"lon": -5.92068, "lat": 40.248348}}, {"id": 3121586, "name": "Garganta la Olla", "state": "", "country": "ES", "coord": {"lon": -5.77665, "lat": 40.110489}}, {"id": 3121589, "name": "Garganta del Villar", "state": "", "country": "ES", "coord": {"lon": -5.1042, "lat": 40.44965}}, {"id": 3121590, "name": "Garganta de los Montes", "state": "", "country": "ES", "coord": {"lon": -3.68375, "lat": 40.919922}}, {"id": 3121598, "name": "Gargallo", "state": "", "country": "ES", "coord": {"lon": -0.58442, "lat": 40.835831}}, {"id": 3121602, "name": "Garde", "state": "", "country": "ES", "coord": {"lon": -0.92589, "lat": 42.789371}}, {"id": 3121605, "name": "Garcirrey", "state": "", "country": "ES", "coord": {"lon": -6.1312, "lat": 40.90049}}, {"id": 3121607, "name": "Garcinarro", "state": "", "country": "ES", "coord": {"lon": -2.75902, "lat": 40.224731}}, {"id": 3121608, "name": "Garcill\u00e1n", "state": "", "country": "ES", "coord": {"lon": -4.26577, "lat": 40.977711}}, {"id": 3121609, "name": "Garcihern\u00e1ndez", "state": "", "country": "ES", "coord": {"lon": -5.43567, "lat": 40.860958}}, {"id": 3121610, "name": "Garcibuey", "state": "", "country": "ES", "coord": {"lon": -5.9944, "lat": 40.515518}}, {"id": 3121611, "name": "Garcia", "state": "", "country": "ES", "coord": {"lon": 0.65, "lat": 41.133331}}, {"id": 3121615, "name": "Garbajosa", "state": "", "country": "ES", "coord": {"lon": -2.43087, "lat": 41.047859}}, {"id": 3121617, "name": "Garaioa", "state": "", "country": "ES", "coord": {"lon": -1.23333, "lat": 42.933331}}, {"id": 3121625, "name": "Gara\u00f1a", "state": "", "country": "ES", "coord": {"lon": -4.96621, "lat": 43.453259}}, {"id": 3121634, "name": "Ganzo", "state": "", "country": "ES", "coord": {"lon": -4.06539, "lat": 43.360641}}, {"id": 3121642, "name": "Gandesa", "state": "", "country": "ES", "coord": {"lon": 0.4385, "lat": 41.053749}}, {"id": 3121659, "name": "Gamones", "state": "", "country": "ES", "coord": {"lon": -6.17621, "lat": 41.4669}}, {"id": 3121665, "name": "Gamonal", "state": "", "country": "ES", "coord": {"lon": -5.08333, "lat": 40.683331}}, {"id": 3121669, "name": "Gamiz", "state": "", "country": "ES", "coord": {"lon": -2.61941, "lat": 42.818699}}, {"id": 3121675, "name": "Gama", "state": "", "country": "ES", "coord": {"lon": -4.20675, "lat": 42.747959}}, {"id": 3121677, "name": "Galve de Sorbe", "state": "", "country": "ES", "coord": {"lon": -3.18333, "lat": 41.216671}}, {"id": 3121678, "name": "Galve", "state": "", "country": "ES", "coord": {"lon": -0.88217, "lat": 40.65591}}, {"id": 3121679, "name": "Gallur", "state": "", "country": "ES", "coord": {"lon": -1.31577, "lat": 41.868301}}, {"id": 3121682, "name": "Gallocanta", "state": "", "country": "ES", "coord": {"lon": -1.50774, "lat": 40.996239}}, {"id": 3121687, "name": "Gallipienzo", "state": "", "country": "ES", "coord": {"lon": -1.41115, "lat": 42.524502}}, {"id": 3121690, "name": "Gallinero de Cameros", "state": "", "country": "ES", "coord": {"lon": -2.61793, "lat": 42.172291}}, {"id": 3121697, "name": "Gallifa", "state": "", "country": "ES", "coord": {"lon": 2.11346, "lat": 41.692429}}, {"id": 3121702, "name": "Gallegos de Sobrinos", "state": "", "country": "ES", "coord": {"lon": -5.11224, "lat": 40.71693}}, {"id": 3121704, "name": "Gallegos del R\u00edo", "state": "", "country": "ES", "coord": {"lon": -6.17435, "lat": 41.73497}}, {"id": 3121705, "name": "Gallegos del Pan", "state": "", "country": "ES", "coord": {"lon": -5.58117, "lat": 41.59985}}, {"id": 3121707, "name": "Gallegos de Hornija", "state": "", "country": "ES", "coord": {"lon": -5.09768, "lat": 41.609798}}, {"id": 3121709, "name": "Gallegos de Arga\u00f1\u00e1n", "state": "", "country": "ES", "coord": {"lon": -6.70246, "lat": 40.631458}}, {"id": 3121715, "name": "Gallegos", "state": "", "country": "ES", "coord": {"lon": -3.78591, "lat": 41.075081}}, {"id": 3121720, "name": "Gallartu", "state": "", "country": "ES", "coord": {"lon": -2.83714, "lat": 43.099331}}, {"id": 3121721, "name": "Gallarta", "state": "", "country": "ES", "coord": {"lon": -3.07282, "lat": 43.321178}}, {"id": 3121727, "name": "Galizano", "state": "", "country": "ES", "coord": {"lon": -3.67156, "lat": 43.469261}}, {"id": 3121728, "name": "Galisancho", "state": "", "country": "ES", "coord": {"lon": -5.55471, "lat": 40.744179}}, {"id": 3121731, "name": "Galinduste", "state": "", "country": "ES", "coord": {"lon": -5.54003, "lat": 40.662659}}, {"id": 3121732, "name": "Galindo y Perahuy", "state": "", "country": "ES", "coord": {"lon": -5.8741, "lat": 40.94397}}, {"id": 3121736, "name": "Galilea", "state": "", "country": "ES", "coord": {"lon": -2.23605, "lat": 42.347031}}, {"id": 3121744, "name": "Galende", "state": "", "country": "ES", "coord": {"lon": -6.66252, "lat": 42.104401}}, {"id": 3121751, "name": "Galdakao", "state": "", "country": "ES", "coord": {"lon": -2.83333, "lat": 43.23333}}, {"id": 3121752, "name": "Galb\u00e1rruli", "state": "", "country": "ES", "coord": {"lon": -2.96087, "lat": 42.621811}}, {"id": 3121753, "name": "Galbarros", "state": "", "country": "ES", "coord": {"lon": -3.43827, "lat": 42.52729}}, {"id": 3121762, "name": "Galar", "state": "", "country": "ES", "coord": {"lon": -1.69881, "lat": 42.761471}}, {"id": 3121763, "name": "Gal\u00e1pagos", "state": "", "country": "ES", "coord": {"lon": -3.33537, "lat": 40.69347}}, {"id": 3121766, "name": "Galapagar", "state": "", "country": "ES", "coord": {"lon": -4.00426, "lat": 40.5783}}, {"id": 3121769, "name": "Gajates", "state": "", "country": "ES", "coord": {"lon": -5.36506, "lat": 40.782539}}, {"id": 3121772, "name": "Gajanejos", "state": "", "country": "ES", "coord": {"lon": -2.89229, "lat": 40.841469}}, {"id": 3121774, "name": "Gaintza", "state": "", "country": "ES", "coord": {"lon": -2.1329, "lat": 43.052711}}, {"id": 3121783, "name": "Gazeta", "state": "", "country": "ES", "coord": {"lon": -2.53857, "lat": 42.843819}}, {"id": 3121785, "name": "Gab\u00edn", "state": "", "country": "ES", "coord": {"lon": -7.48545, "lat": 42.26775}}, {"id": 3121796, "name": "Fusti\u00f1ana", "state": "", "country": "ES", "coord": {"lon": -1.48526, "lat": 42.02087}}, {"id": 3121806, "name": "Funes", "state": "", "country": "ES", "coord": {"lon": -1.80017, "lat": 42.31562}}, {"id": 3121813, "name": "Fulleda", "state": "", "country": "ES", "coord": {"lon": 1.02395, "lat": 41.463341}}, {"id": 3121816, "name": "Fuf\u00edn", "state": "", "country": "ES", "coord": {"lon": -7.83038, "lat": 42.833981}}, {"id": 3121818, "name": "Fuertescusa", "state": "", "country": "ES", "coord": {"lon": -2.1762, "lat": 40.475521}}, {"id": 3121819, "name": "Fuentidue\u00f1a de Tajo", "state": "", "country": "ES", "coord": {"lon": -3.15718, "lat": 40.115742}}, {"id": 3121820, "name": "Fuentidue\u00f1a", "state": "", "country": "ES", "coord": {"lon": -3.97899, "lat": 41.442261}}, {"id": 3121824, "name": "Fuentetoba", "state": "", "country": "ES", "coord": {"lon": -2.56094, "lat": 41.77636}}, {"id": 3121826, "name": "Fuentestr\u00fan", "state": "", "country": "ES", "coord": {"lon": -2.08283, "lat": 41.87466}}, {"id": 3121828, "name": "Fuentespreadas", "state": "", "country": "ES", "coord": {"lon": -5.62798, "lat": 41.326271}}, {"id": 3121829, "name": "Fuentespina", "state": "", "country": "ES", "coord": {"lon": -3.68475, "lat": 41.630798}}, {"id": 3121830, "name": "Fuentespalda", "state": "", "country": "ES", "coord": {"lon": 0.06517, "lat": 40.80666}}, {"id": 3121831, "name": "Fuentesoto", "state": "", "country": "ES", "coord": {"lon": -3.91835, "lat": 41.456638}}, {"id": 3121832, "name": "Fuentesnuevas", "state": "", "country": "ES", "coord": {"lon": -6.64039, "lat": 42.574459}}, {"id": 3121834, "name": "Fuentesecas", "state": "", "country": "ES", "coord": {"lon": -5.47252, "lat": 41.630772}}, {"id": 3121835, "name": "Fuentes de Valdepero", "state": "", "country": "ES", "coord": {"lon": -4.5005, "lat": 42.075321}}, {"id": 3121837, "name": "Fuentes de Rubielos", "state": "", "country": "ES", "coord": {"lon": -0.61667, "lat": 40.166672}}, {"id": 3121838, "name": "Fuentes de Ropel", "state": "", "country": "ES", "coord": {"lon": -5.54532, "lat": 42.003769}}, {"id": 3121840, "name": "Fuentes de O\u00f1oro", "state": "", "country": "ES", "coord": {"lon": -6.81144, "lat": 40.591019}}, {"id": 3121841, "name": "Fuentes de Nava", "state": "", "country": "ES", "coord": {"lon": -4.78333, "lat": 42.083328}}, {"id": 3121843, "name": "Fuentes de Maga\u00f1a", "state": "", "country": "ES", "coord": {"lon": -2.1795, "lat": 41.935211}}, {"id": 3121847, "name": "Fuentes de Jiloca", "state": "", "country": "ES", "coord": {"lon": -1.53616, "lat": 41.228588}}, {"id": 3121849, "name": "Fuentes de Ebro", "state": "", "country": "ES", "coord": {"lon": -0.63159, "lat": 41.512501}}, {"id": 3121851, "name": "Fuentes de Cu\u00e9llar", "state": "", "country": "ES", "coord": {"lon": -4.21508, "lat": 41.414879}}, {"id": 3121853, "name": "Fuentes de Carbajal", "state": "", "country": "ES", "coord": {"lon": -5.44606, "lat": 42.177761}}, {"id": 3121854, "name": "Fuentes de B\u00e9jar", "state": "", "country": "ES", "coord": {"lon": -5.6927, "lat": 40.508148}}, {"id": 3121855, "name": "Fuentes de Ay\u00f3dar", "state": "", "country": "ES", "coord": {"lon": -0.41667, "lat": 40.033329}}, {"id": 3121856, "name": "Fuentes de A\u00f1o", "state": "", "country": "ES", "coord": {"lon": -4.89908, "lat": 41.017689}}, {"id": 3121860, "name": "Fuentes Claras", "state": "", "country": "ES", "coord": {"lon": -1.32266, "lat": 40.86375}}, {"id": 3121862, "name": "Fuentes Calientes", "state": "", "country": "ES", "coord": {"lon": -0.96667, "lat": 40.700001}}, {"id": 3121865, "name": "Fuentesa\u00faco de Fuentidue\u00f1a", "state": "", "country": "ES", "coord": {"lon": -4.06215, "lat": 41.42445}}, {"id": 3121867, "name": "Fuentesa\u00faco", "state": "", "country": "ES", "coord": {"lon": -5.49722, "lat": 41.230431}}, {"id": 3121877, "name": "Fuenterroble de Salvatierra", "state": "", "country": "ES", "coord": {"lon": -5.73379, "lat": 40.564659}}, {"id": 3121881, "name": "Hondarribia", "state": "", "country": "ES", "coord": {"lon": -1.79448, "lat": 43.372021}}, {"id": 3121885, "name": "Fuentepinilla", "state": "", "country": "ES", "coord": {"lon": -2.76288, "lat": 41.56683}}, {"id": 3121886, "name": "Fuentepi\u00f1el", "state": "", "country": "ES", "coord": {"lon": -4.04295, "lat": 41.398918}}, {"id": 3121887, "name": "Fuentepelayo", "state": "", "country": "ES", "coord": {"lon": -4.1757, "lat": 41.222488}}, {"id": 3121892, "name": "Fuentenovilla", "state": "", "country": "ES", "coord": {"lon": -3.09102, "lat": 40.36248}}, {"id": 3121893, "name": "Fuentenebro", "state": "", "country": "ES", "coord": {"lon": -3.75449, "lat": 41.528728}}, {"id": 3121895, "name": "Fuentemolinos", "state": "", "country": "ES", "coord": {"lon": -3.85005, "lat": 41.604771}}, {"id": 3121899, "name": "Fuentelviejo", "state": "", "country": "ES", "coord": {"lon": -2.9843, "lat": 40.526371}}, {"id": 3121900, "name": "Fuentelsaz de Soria", "state": "", "country": "ES", "coord": {"lon": -2.41525, "lat": 41.86586}}, {"id": 3121901, "name": "Fuentelsaz", "state": "", "country": "ES", "coord": {"lon": -1.83108, "lat": 41.073589}}, {"id": 3121904, "name": "Fuentelisendo", "state": "", "country": "ES", "coord": {"lon": -3.90129, "lat": 41.622742}}, {"id": 3121909, "name": "Fuentelencina", "state": "", "country": "ES", "coord": {"lon": -2.88226, "lat": 40.517811}}, {"id": 3121910, "name": "Fuentelc\u00e9sped", "state": "", "country": "ES", "coord": {"lon": -3.64064, "lat": 41.591621}}, {"id": 3121913, "name": "Fuente la Reina", "state": "", "country": "ES", "coord": {"lon": -0.6, "lat": 40.066669}}, {"id": 3121916, "name": "Fuentelape\u00f1a", "state": "", "country": "ES", "coord": {"lon": -5.38325, "lat": 41.251438}}, {"id": 3121917, "name": "Fuentelahiguera de Albatages", "state": "", "country": "ES", "coord": {"lon": -3.30492, "lat": 40.783119}}, {"id": 3121921, "name": "Fuenteguinaldo", "state": "", "country": "ES", "coord": {"lon": -6.67528, "lat": 40.428761}}, {"id": 3121924, "name": "Fuente Encalada", "state": "", "country": "ES", "coord": {"lon": -5.99622, "lat": 42.110111}}, {"id": 3121925, "name": "Fuente el Sol", "state": "", "country": "ES", "coord": {"lon": -4.9343, "lat": 41.176029}}, {"id": 3121926, "name": "Fuente el Saz", "state": "", "country": "ES", "coord": {"lon": -3.51146, "lat": 40.63216}}, {"id": 3121929, "name": "Fuente el Olmo de Fuentidue\u00f1a", "state": "", "country": "ES", "coord": {"lon": -4.00086, "lat": 41.379292}}, {"id": 3121932, "name": "Fuente de Santa Cruz", "state": "", "country": "ES", "coord": {"lon": -4.6353, "lat": 41.209721}}, {"id": 3121941, "name": "Fuentec\u00e9n", "state": "", "country": "ES", "coord": {"lon": -3.86867, "lat": 41.628521}}, {"id": 3121943, "name": "Fuentecantos", "state": "", "country": "ES", "coord": {"lon": -2.42846, "lat": 41.849289}}, {"id": 3121945, "name": "Fuentecambr\u00f3n", "state": "", "country": "ES", "coord": {"lon": -3.32872, "lat": 41.505791}}, {"id": 3121947, "name": "Fuentebureba", "state": "", "country": "ES", "coord": {"lon": -3.2351, "lat": 42.633999}}, {"id": 3121950, "name": "Fuentearmegil", "state": "", "country": "ES", "coord": {"lon": -3.18362, "lat": 41.714958}}, {"id": 3121952, "name": "Fuente-Andrino", "state": "", "country": "ES", "coord": {"lon": -4.45393, "lat": 42.412239}}, {"id": 3121956, "name": "Fuensalida", "state": "", "country": "ES", "coord": {"lon": -4.20718, "lat": 40.052879}}, {"id": 3121957, "name": "Fuensalda\u00f1a", "state": "", "country": "ES", "coord": {"lon": -4.76547, "lat": 41.706169}}, {"id": 3121959, "name": "Fuenmayor", "state": "", "country": "ES", "coord": {"lon": -2.56153, "lat": 42.467289}}, {"id": 3121960, "name": "Fuenlabrada", "state": "", "country": "ES", "coord": {"lon": -3.79415, "lat": 40.284191}}, {"id": 3121963, "name": "Fuenferrada", "state": "", "country": "ES", "coord": {"lon": -1.0118, "lat": 40.869228}}, {"id": 3121964, "name": "Fuendetodos", "state": "", "country": "ES", "coord": {"lon": -0.95988, "lat": 41.342449}}, {"id": 3121965, "name": "Fuendejal\u00f3n", "state": "", "country": "ES", "coord": {"lon": -1.47213, "lat": 41.760502}}, {"id": 3121968, "name": "Fuencemill\u00e1n", "state": "", "country": "ES", "coord": {"lon": -3.09818, "lat": 40.920631}}, {"id": 3121971, "name": "Fuencaliente de Medina", "state": "", "country": "ES", "coord": {"lon": -2.45846, "lat": 41.135899}}, {"id": 3121975, "name": "Fuembellida", "state": "", "country": "ES", "coord": {"lon": -1.99861, "lat": 40.75589}}, {"id": 3121981, "name": "Frumales", "state": "", "country": "ES", "coord": {"lon": -4.18631, "lat": 41.383331}}, {"id": 3121995, "name": "Fr\u00f3mista", "state": "", "country": "ES", "coord": {"lon": -4.40546, "lat": 42.26667}}, {"id": 3122002, "name": "Friol", "state": "", "country": "ES", "coord": {"lon": -7.79514, "lat": 43.032131}}, {"id": 3122010, "name": "Friera de Valverde", "state": "", "country": "ES", "coord": {"lon": -5.84153, "lat": 41.91214}}, {"id": 3122014, "name": "Fr\u00edas de Albarrac\u00edn", "state": "", "country": "ES", "coord": {"lon": -1.6147, "lat": 40.33754}}, {"id": 3122015, "name": "Fr\u00edas", "state": "", "country": "ES", "coord": {"lon": -3.29394, "lat": 42.762249}}, {"id": 3122021, "name": "Fresno El Viejo", "state": "", "country": "ES", "coord": {"lon": -5.14413, "lat": 41.197521}}, {"id": 3122022, "name": "Fresno de Torote", "state": "", "country": "ES", "coord": {"lon": -3.41003, "lat": 40.590401}}, {"id": 3122023, "name": "Fresno de Sayago", "state": "", "country": "ES", "coord": {"lon": -5.97129, "lat": 41.318481}}, {"id": 3122024, "name": "Fresno de Rodilla", "state": "", "country": "ES", "coord": {"lon": -3.48507, "lat": 42.42054}}, {"id": 3122027, "name": "Fresno del R\u00edo", "state": "", "country": "ES", "coord": {"lon": -4.81734, "lat": 42.681759}}, {"id": 3122029, "name": "Fresno del Camino", "state": "", "country": "ES", "coord": {"lon": -5.65179, "lat": 42.56287}}, {"id": 3122030, "name": "Fresno de la Vega", "state": "", "country": "ES", "coord": {"lon": -5.53587, "lat": 42.345451}}, {"id": 3122032, "name": "Fresno de la Ribera", "state": "", "country": "ES", "coord": {"lon": -5.56658, "lat": 41.529259}}, {"id": 3122033, "name": "Fresno de la Polvorosa", "state": "", "country": "ES", "coord": {"lon": -5.7697, "lat": 42.083099}}, {"id": 3122034, "name": "Fresno de la Fuente", "state": "", "country": "ES", "coord": {"lon": -3.64491, "lat": 41.392429}}, {"id": 3122036, "name": "Fresno de Caracena", "state": "", "country": "ES", "coord": {"lon": -3.09123, "lat": 41.452469}}, {"id": 3122037, "name": "Fresno de Cantespino", "state": "", "country": "ES", "coord": {"lon": -3.4995, "lat": 41.368198}}, {"id": 3122045, "name": "Fresnillo de las Due\u00f1as", "state": "", "country": "ES", "coord": {"lon": -3.64558, "lat": 41.646999}}, {"id": 3122048, "name": "Fresne\u00f1a", "state": "", "country": "ES", "coord": {"lon": -3.13452, "lat": 42.413658}}, {"id": 3122050, "name": "Fresnedoso", "state": "", "country": "ES", "coord": {"lon": -5.7097, "lat": 40.43618}}, {"id": 3122060, "name": "Fresnedillas", "state": "", "country": "ES", "coord": {"lon": -4.17146, "lat": 40.487041}}, {"id": 3122061, "name": "Fresnedilla", "state": "", "country": "ES", "coord": {"lon": -4.62201, "lat": 40.232342}}, {"id": 3122066, "name": "Fresneda de la Sierra Tir\u00f3n", "state": "", "country": "ES", "coord": {"lon": -3.13596, "lat": 42.31535}}, {"id": 3122067, "name": "Fresneda de la Sierra", "state": "", "country": "ES", "coord": {"lon": -2.14233, "lat": 40.39101}}, {"id": 3122068, "name": "Fresneda de Cu\u00e9llar", "state": "", "country": "ES", "coord": {"lon": -4.44938, "lat": 41.31905}}, {"id": 3122077, "name": "Fr\u00e9scano", "state": "", "country": "ES", "coord": {"lon": -1.45, "lat": 41.883331}}, {"id": 3122107, "name": "Frechilla de Almaz\u00e1n", "state": "", "country": "ES", "coord": {"lon": -2.51444, "lat": 41.426559}}, {"id": 3122108, "name": "Frechilla", "state": "", "country": "ES", "coord": {"lon": -4.84112, "lat": 42.13768}}, {"id": 3122123, "name": "Frandov\u00ednez", "state": "", "country": "ES", "coord": {"lon": -3.83783, "lat": 42.310322}}, {"id": 3122157, "name": "Fraga", "state": "", "country": "ES", "coord": {"lon": 0.34894, "lat": 41.522942}}, {"id": 3122159, "name": "Frades de la Sierra", "state": "", "country": "ES", "coord": {"lon": -5.78223, "lat": 40.656872}}, {"id": 3122160, "name": "Frades", "state": "", "country": "ES", "coord": {"lon": -8.29391, "lat": 43.05011}}, {"id": 3122163, "name": "Frades", "state": "", "country": "ES", "coord": {"lon": -8.46667, "lat": 42.25}}, {"id": 3122167, "name": "Foz-Calanda", "state": "", "country": "ES", "coord": {"lon": -0.26484, "lat": 40.922081}}, {"id": 3122172, "name": "Foz", "state": "", "country": "ES", "coord": {"lon": -7.2544, "lat": 43.569199}}, {"id": 3122180, "name": "Forua", "state": "", "country": "ES", "coord": {"lon": -2.67504, "lat": 43.333431}}, {"id": 3122182, "name": "Forti\u00e0", "state": "", "country": "ES", "coord": {"lon": 3.03881, "lat": 42.243198}}, {"id": 3122184, "name": "Fortanete", "state": "", "country": "ES", "coord": {"lon": -0.52283, "lat": 40.505329}}, {"id": 3122188, "name": "F\u00f3rnoles", "state": "", "country": "ES", "coord": {"lon": -0.00383, "lat": 40.893589}}, {"id": 3122198, "name": "Fornelos de Montes", "state": "", "country": "ES", "coord": {"lon": -8.45291, "lat": 42.341259}}, {"id": 3122205, "name": "Fornells de la Selva", "state": "", "country": "ES", "coord": {"lon": 2.80907, "lat": 41.931591}}, {"id": 3122222, "name": "Formiche Bajo", "state": "", "country": "ES", "coord": {"lon": -0.87572, "lat": 40.288502}}, {"id": 3122223, "name": "Formiche Alto", "state": "", "country": "ES", "coord": {"lon": -0.89241, "lat": 40.323669}}, {"id": 3122229, "name": "Forfoleda", "state": "", "country": "ES", "coord": {"lon": -5.74979, "lat": 41.09779}}, {"id": 3122231, "name": "For\u00e8s", "state": "", "country": "ES", "coord": {"lon": 1.23333, "lat": 41.48333}}, {"id": 3122236, "name": "Forcarei", "state": "", "country": "ES", "coord": {"lon": -8.35, "lat": 42.599998}}, {"id": 3122238, "name": "Forcall", "state": "", "country": "ES", "coord": {"lon": -0.19992, "lat": 40.64542}}, {"id": 3122243, "name": "Forcadela", "state": "", "country": "ES", "coord": {"lon": -8.71667, "lat": 41.98333}}, {"id": 3122251, "name": "Fonzaleche", "state": "", "country": "ES", "coord": {"lon": -3.01218, "lat": 42.581139}}, {"id": 3122252, "name": "Fonz", "state": "", "country": "ES", "coord": {"lon": 0.25878, "lat": 42.010151}}, {"id": 3122258, "name": "Fontiveros", "state": "", "country": "ES", "coord": {"lon": -4.96445, "lat": 40.92997}}, {"id": 3122260, "name": "Fontioso", "state": "", "country": "ES", "coord": {"lon": -3.73872, "lat": 41.94273}}, {"id": 3122261, "name": "Fontihoyuelo", "state": "", "country": "ES", "coord": {"lon": -5.05791, "lat": 42.161919}}, {"id": 3122267, "name": "Fonteta", "state": "", "country": "ES", "coord": {"lon": 3.0571, "lat": 41.950432}}, {"id": 3122271, "name": "Fontellas", "state": "", "country": "ES", "coord": {"lon": -1.57648, "lat": 42.026939}}, {"id": 3122273, "name": "Fontela", "state": "", "country": "ES", "coord": {"lon": -7.16368, "lat": 42.991821}}, {"id": 3122288, "name": "Fontcoberta", "state": "", "country": "ES", "coord": {"lon": 2.8, "lat": 42.133331}}, {"id": 3122293, "name": "Fontanos de Tor\u00edo", "state": "", "country": "ES", "coord": {"lon": -5.53994, "lat": 42.755089}}, {"id": 3122296, "name": "Fontanillas de Castro", "state": "", "country": "ES", "coord": {"lon": -5.78064, "lat": 41.733849}}, {"id": 3122297, "name": "Fontanilles", "state": "", "country": "ES", "coord": {"lon": 3.10776, "lat": 42.011169}}, {"id": 3122304, "name": "Fontanar", "state": "", "country": "ES", "coord": {"lon": -3.17309, "lat": 40.724659}}, {"id": 3122313, "name": "Fonsagrada", "state": "", "country": "ES", "coord": {"lon": -7.0679, "lat": 43.123981}}, {"id": 3122315, "name": "Fonollosa", "state": "", "country": "ES", "coord": {"lon": 1.66867, "lat": 41.763031}}, {"id": 3122321, "name": "Fonfr\u00eda", "state": "", "country": "ES", "coord": {"lon": -6.14082, "lat": 41.63493}}, {"id": 3122322, "name": "Fonfr\u00eda", "state": "", "country": "ES", "coord": {"lon": -1.08475, "lat": 40.995659}}, {"id": 3122332, "name": "Fonciello", "state": "", "country": "ES", "coord": {"lon": -5.73958, "lat": 43.377789}}, {"id": 3122334, "name": "Foncea", "state": "", "country": "ES", "coord": {"lon": -3.03897, "lat": 42.61528}}, {"id": 3122338, "name": "Fompedraza", "state": "", "country": "ES", "coord": {"lon": -4.14483, "lat": 41.535412}}, {"id": 3122339, "name": "Fombuena", "state": "", "country": "ES", "coord": {"lon": -1.19266, "lat": 41.144421}}, {"id": 3122342, "name": "Fombellida", "state": "", "country": "ES", "coord": {"lon": -4.18409, "lat": 41.76693}}, {"id": 3122357, "name": "Folgueras", "state": "", "country": "ES", "coord": {"lon": -5.8, "lat": 43.383331}}, {"id": 3122367, "name": "Folgoso de la Ribera", "state": "", "country": "ES", "coord": {"lon": -6.32035, "lat": 42.646931}}, {"id": 3122376, "name": "Folgoso", "state": "", "country": "ES", "coord": {"lon": -7.8066, "lat": 42.223808}}, {"id": 3122389, "name": "Foix\u00e0", "state": "", "country": "ES", "coord": {"lon": 3.00021, "lat": 42.036259}}, {"id": 3122393, "name": "Fogars de Montcl\u00fas", "state": "", "country": "ES", "coord": {"lon": 2.45, "lat": 41.73333}}, {"id": 3122399, "name": "Florida de Li\u00e9bana", "state": "", "country": "ES", "coord": {"lon": -5.76252, "lat": 41.023621}}, {"id": 3122401, "name": "Flores de \u00c1vila", "state": "", "country": "ES", "coord": {"lon": -5.07914, "lat": 40.933578}}, {"id": 3122404, "name": "Florejacs", "state": "", "country": "ES", "coord": {"lon": 1.21667, "lat": 41.799999}}, {"id": 3122407, "name": "Flix", "state": "", "country": "ES", "coord": {"lon": 0.55008, "lat": 41.23074}}, {"id": 3122409, "name": "Fla\u00e7\u00e0", "state": "", "country": "ES", "coord": {"lon": 2.96667, "lat": 42.066669}}, {"id": 3122410, "name": "Flariz", "state": "", "country": "ES", "coord": {"lon": -7.55842, "lat": 41.927441}}, {"id": 3122415, "name": "Fitero", "state": "", "country": "ES", "coord": {"lon": -1.85756, "lat": 42.057701}}, {"id": 3122418, "name": "Fiscal", "state": "", "country": "ES", "coord": {"lon": -0.12094, "lat": 42.495609}}, {"id": 3122426, "name": "Fisterra", "state": "", "country": "ES", "coord": {"lon": -9.26289, "lat": 42.904919}}, {"id": 3122427, "name": "Filiel", "state": "", "country": "ES", "coord": {"lon": -6.33445, "lat": 42.3783}}, {"id": 3122440, "name": "Figueruelas", "state": "", "country": "ES", "coord": {"lon": -1.17473, "lat": 41.76651}}, {"id": 3122442, "name": "Figueruela de Arriba", "state": "", "country": "ES", "coord": {"lon": -6.44454, "lat": 41.868671}}, {"id": 3122445, "name": "Figueroles", "state": "", "country": "ES", "coord": {"lon": -0.23333, "lat": 40.116669}}, {"id": 3122447, "name": "Figuerola", "state": "", "country": "ES", "coord": {"lon": 1.26545, "lat": 41.371521}}, {"id": 3122452, "name": "Figueras", "state": "", "country": "ES", "coord": {"lon": -7.02559, "lat": 43.539429}}, {"id": 3122453, "name": "Figueres", "state": "", "country": "ES", "coord": {"lon": 2.96163, "lat": 42.266449}}, {"id": 3122458, "name": "Figueiroa", "state": "", "country": "ES", "coord": {"lon": -9.11476, "lat": 42.991421}}, {"id": 3122461, "name": "Figueiro\u00e1", "state": "", "country": "ES", "coord": {"lon": -7.73333, "lat": 42.26667}}, {"id": 3122466, "name": "Figueiredo", "state": "", "country": "ES", "coord": {"lon": -7.77855, "lat": 42.275539}}, {"id": 3122495, "name": "Ferreruela de Huerva", "state": "", "country": "ES", "coord": {"lon": -1.2335, "lat": 41.063251}}, {"id": 3122496, "name": "Ferreruela", "state": "", "country": "ES", "coord": {"lon": -6.07215, "lat": 41.766731}}, {"id": 3122500, "name": "Ferrero", "state": "", "country": "ES", "coord": {"lon": -5.85304, "lat": 43.636471}}, {"id": 3122503, "name": "Ferreras de Arriba", "state": "", "country": "ES", "coord": {"lon": -6.19462, "lat": 41.898781}}, {"id": 3122504, "name": "Ferreras de Abajo", "state": "", "country": "ES", "coord": {"lon": -6.07904, "lat": 41.896511}}, {"id": 3122506, "name": "Ferreras", "state": "", "country": "ES", "coord": {"lon": -5.95036, "lat": 42.639679}}, {"id": 3122554, "name": "Ferral del Bernesga", "state": "", "country": "ES", "coord": {"lon": -5.66026, "lat": 42.61544}}, {"id": 3122558, "name": "Fermoselle", "state": "", "country": "ES", "coord": {"lon": -6.39584, "lat": 41.317379}}, {"id": 3122564, "name": "Fene", "state": "", "country": "ES", "coord": {"lon": -8.15, "lat": 43.450001}}, {"id": 3122574, "name": "Felechosa", "state": "", "country": "ES", "coord": {"lon": -5.50831, "lat": 43.103901}}, {"id": 3122576, "name": "Feleches", "state": "", "country": "ES", "coord": {"lon": -5.95, "lat": 43.366669}}, {"id": 3122595, "name": "Fay\u00f3n", "state": "", "country": "ES", "coord": {"lon": 0.33302, "lat": 41.23851}}, {"id": 3122600, "name": "la Fatarella", "state": "", "country": "ES", "coord": {"lon": 0.48333, "lat": 41.166672}}, {"id": 3122606, "name": "Farrera", "state": "", "country": "ES", "coord": {"lon": 1.27216, "lat": 42.49654}}, {"id": 3122621, "name": "Farlete", "state": "", "country": "ES", "coord": {"lon": -0.50678, "lat": 41.681221}}, {"id": 3122622, "name": "Fariza", "state": "", "country": "ES", "coord": {"lon": -6.26667, "lat": 41.416672}}, {"id": 3122636, "name": "Faramontanos de T\u00e1bara", "state": "", "country": "ES", "coord": {"lon": -5.88883, "lat": 41.83469}}, {"id": 3122641, "name": "Fanzara", "state": "", "country": "ES", "coord": {"lon": -0.31667, "lat": 40.01667}}, {"id": 3122656, "name": "Falset", "state": "", "country": "ES", "coord": {"lon": 0.81979, "lat": 41.14576}}, {"id": 3122667, "name": "Falces", "state": "", "country": "ES", "coord": {"lon": -1.79321, "lat": 42.38966}}, {"id": 3122671, "name": "Fago", "state": "", "country": "ES", "coord": {"lon": -0.88131, "lat": 42.734402}}, {"id": 3122695, "name": "Fabero", "state": "", "country": "ES", "coord": {"lon": -6.62651, "lat": 42.768028}}, {"id": 3122697, "name": "Fabara", "state": "", "country": "ES", "coord": {"lon": 0.16908, "lat": 41.177502}}, {"id": 3122707, "name": "Ezkurra", "state": "", "country": "ES", "coord": {"lon": -1.81667, "lat": 43.083328}}, {"id": 3122709, "name": "Ezcaray", "state": "", "country": "ES", "coord": {"lon": -3.01309, "lat": 42.325359}}, {"id": 3122710, "name": "O \u00c9zaro", "state": "", "country": "ES", "coord": {"lon": -9.13136, "lat": 42.91127}}, {"id": 3122717, "name": "Eulz", "state": "", "country": "ES", "coord": {"lon": -2.07504, "lat": 42.69619}}, {"id": 3122718, "name": "Eulate", "state": "", "country": "ES", "coord": {"lon": -2.20638, "lat": 42.776409}}, {"id": 3122720, "name": "Etura", "state": "", "country": "ES", "coord": {"lon": -2.49132, "lat": 42.891312}}, {"id": 3122724, "name": "Etayo", "state": "", "country": "ES", "coord": {"lon": -2.15447, "lat": 42.616951}}, {"id": 3122727, "name": "Estri\u00e9gana", "state": "", "country": "ES", "coord": {"lon": -2.52363, "lat": 41.058208}}, {"id": 3122730, "name": "Estremera", "state": "", "country": "ES", "coord": {"lon": -3.1, "lat": 40.183331}}, {"id": 3122739, "name": "Estopany\u00e0 / Estopi\u00f1\u00e1n del Castillo", "state": "", "country": "ES", "coord": {"lon": 0.54335, "lat": 41.99675}}, {"id": 3122740, "name": "Estollo", "state": "", "country": "ES", "coord": {"lon": -2.85092, "lat": 42.329529}}, {"id": 3122744, "name": "Estiche de Cinca", "state": "", "country": "ES", "coord": {"lon": 0.1236, "lat": 41.81802}}, {"id": 3122752, "name": "Estercuel", "state": "", "country": "ES", "coord": {"lon": -0.63208, "lat": 40.855}}, {"id": 3122758, "name": "Est\u00e9par", "state": "", "country": "ES", "coord": {"lon": -3.89946, "lat": 42.277309}}, {"id": 3122759, "name": "Estepa de San Juan", "state": "", "country": "ES", "coord": {"lon": -2.33322, "lat": 41.926609}}, {"id": 3122760, "name": "Est\u00e9noz", "state": "", "country": "ES", "coord": {"lon": -1.92278, "lat": 42.74424}}, {"id": 3122762, "name": "Estella-Lizarra", "state": "", "country": "ES", "coord": {"lon": -2.03226, "lat": 42.671822}}, {"id": 3122794, "name": "Estadilla", "state": "", "country": "ES", "coord": {"lon": 0.24343, "lat": 42.056568}}, {"id": 3122795, "name": "Estada", "state": "", "country": "ES", "coord": {"lon": 0.23219, "lat": 42.07201}}, {"id": 3122806, "name": "Establ\u00e9s", "state": "", "country": "ES", "coord": {"lon": -2.02438, "lat": 41.007671}}, {"id": 3122807, "name": "Esquivias", "state": "", "country": "ES", "coord": {"lon": -3.76677, "lat": 40.104401}}, {"id": 3122809, "name": "Esqu\u00edroz", "state": "", "country": "ES", "coord": {"lon": -1.65538, "lat": 42.775002}}, {"id": 3122815, "name": "Espu\u00e9ndolas", "state": "", "country": "ES", "coord": {"lon": -0.43087, "lat": 42.562851}}, {"id": 3122816, "name": "Espronceda", "state": "", "country": "ES", "coord": {"lon": -2.30524, "lat": 42.597069}}, {"id": 3122817, "name": "Espot", "state": "", "country": "ES", "coord": {"lon": 1.08666, "lat": 42.578381}}, {"id": 3122823, "name": "Esponell\u00e0", "state": "", "country": "ES", "coord": {"lon": 2.8, "lat": 42.166672}}, {"id": 3122824, "name": "Espolla", "state": "", "country": "ES", "coord": {"lon": 3.00064, "lat": 42.391201}}, {"id": 3122825, "name": "Espl\u00fas", "state": "", "country": "ES", "coord": {"lon": 0.27586, "lat": 41.798698}}, {"id": 3122826, "name": "Esplugues de Llobregat", "state": "", "country": "ES", "coord": {"lon": 2.08809, "lat": 41.377319}}, {"id": 3122830, "name": "Esplegares", "state": "", "country": "ES", "coord": {"lon": -2.37084, "lat": 40.856499}}, {"id": 3122832, "name": "Espirdo", "state": "", "country": "ES", "coord": {"lon": -4.07331, "lat": 40.997639}}, {"id": 3122837, "name": "Espinosa de Villagonzalo", "state": "", "country": "ES", "coord": {"lon": -4.37218, "lat": 42.479488}}, {"id": 3122838, "name": "Espinosa de los Monteros", "state": "", "country": "ES", "coord": {"lon": -3.55365, "lat": 43.077541}}, {"id": 3122841, "name": "Espinosa del Camino", "state": "", "country": "ES", "coord": {"lon": -3.2802, "lat": 42.405899}}, {"id": 3122844, "name": "Espinosa de Henares", "state": "", "country": "ES", "coord": {"lon": -3.06956, "lat": 40.900539}}, {"id": 3122845, "name": "Espinosa de Cervera", "state": "", "country": "ES", "coord": {"lon": -3.46858, "lat": 41.896832}}, {"id": 3122846, "name": "Espinosa de Cerrato", "state": "", "country": "ES", "coord": {"lon": -3.95346, "lat": 41.966789}}, {"id": 3122850, "name": "Espino de la Orbada", "state": "", "country": "ES", "coord": {"lon": -5.42515, "lat": 41.10693}}, {"id": 3122892, "name": "Espej\u00f3n", "state": "", "country": "ES", "coord": {"lon": -3.25936, "lat": 41.830231}}, {"id": 3122895, "name": "Espeja de San Marcelino", "state": "", "country": "ES", "coord": {"lon": -3.2223, "lat": 41.802269}}, {"id": 3122897, "name": "Espeja", "state": "", "country": "ES", "coord": {"lon": -6.71582, "lat": 40.565639}}, {"id": 3122912, "name": "Esparreguera", "state": "", "country": "ES", "coord": {"lon": 1.86667, "lat": 41.533329}}, {"id": 3122917, "name": "Espadilla", "state": "", "country": "ES", "coord": {"lon": -0.35, "lat": 40.033329}}, {"id": 3122918, "name": "Espada\u00f1edo", "state": "", "country": "ES", "coord": {"lon": -6.39419, "lat": 42.11618}}, {"id": 3122920, "name": "Espada\u00f1a", "state": "", "country": "ES", "coord": {"lon": -6.28457, "lat": 41.060848}}, {"id": 3122928, "name": "Esles", "state": "", "country": "ES", "coord": {"lon": -3.80372, "lat": 43.281712}}, {"id": 3122929, "name": "Eslava", "state": "", "country": "ES", "coord": {"lon": -1.45947, "lat": 42.56459}}, {"id": 3122934, "name": "Esguevillas de Esgueva", "state": "", "country": "ES", "coord": {"lon": -4.38062, "lat": 41.750179}}, {"id": 3122936, "name": "Esgos", "state": "", "country": "ES", "coord": {"lon": -7.69691, "lat": 42.325489}}, {"id": 3122937, "name": "Esgos", "state": "", "country": "ES", "coord": {"lon": -7.68333, "lat": 42.316669}}, {"id": 3122946, "name": "Escurial de la Sierra", "state": "", "country": "ES", "coord": {"lon": -5.9552, "lat": 40.617298}}, {"id": 3122959, "name": "Escucha", "state": "", "country": "ES", "coord": {"lon": -0.81012, "lat": 40.79467}}, {"id": 3122962, "name": "Escuadra", "state": "", "country": "ES", "coord": {"lon": -8.41667, "lat": 42.433331}}, {"id": 3122969, "name": "Escorihuela", "state": "", "country": "ES", "coord": {"lon": -0.97078, "lat": 40.543999}}, {"id": 3122970, "name": "Eskoriatza", "state": "", "country": "ES", "coord": {"lon": -2.52598, "lat": 43.018291}}, {"id": 3122974, "name": "Escopete", "state": "", "country": "ES", "coord": {"lon": -3.0046, "lat": 40.413239}}, {"id": 3122977, "name": "Escobosa de Almaz\u00e1n", "state": "", "country": "ES", "coord": {"lon": -2.3714, "lat": 41.486259}}, {"id": 3122983, "name": "Escobedo", "state": "", "country": "ES", "coord": {"lon": -3.90116, "lat": 43.40522}}, {"id": 3122985, "name": "Escobar de Polendos", "state": "", "country": "ES", "coord": {"lon": -4.13117, "lat": 41.09079}}, {"id": 3122986, "name": "Escobar de Campos", "state": "", "country": "ES", "coord": {"lon": -4.96573, "lat": 42.31337}}, {"id": 3122992, "name": "Esc\u00f3", "state": "", "country": "ES", "coord": {"lon": -1.05718, "lat": 42.61858}}, {"id": 3122995, "name": "Escatr\u00f3n", "state": "", "country": "ES", "coord": {"lon": -0.32308, "lat": 41.291489}}, {"id": 3122998, "name": "Escarrilla", "state": "", "country": "ES", "coord": {"lon": -0.3132, "lat": 42.735352}}, {"id": 3123001, "name": "Escariche", "state": "", "country": "ES", "coord": {"lon": -3.0531, "lat": 40.405529}}, {"id": 3123003, "name": "Escard\u00e9n", "state": "", "country": "ES", "coord": {"lon": -6.55444, "lat": 43.44529}}, {"id": 3123006, "name": "Escarabajosa de Cabezas", "state": "", "country": "ES", "coord": {"lon": -4.19411, "lat": 41.104698}}, {"id": 3123017, "name": "Escamilla", "state": "", "country": "ES", "coord": {"lon": -2.56292, "lat": 40.549789}}, {"id": 3123021, "name": "Escalona del Prado", "state": "", "country": "ES", "coord": {"lon": -4.12272, "lat": 41.166821}}, {"id": 3123024, "name": "Escalona", "state": "", "country": "ES", "coord": {"lon": -4.40484, "lat": 40.166901}}, {"id": 3123034, "name": "Escalante", "state": "", "country": "ES", "coord": {"lon": -3.51347, "lat": 43.436779}}, {"id": 3123063, "name": "Ermua", "state": "", "country": "ES", "coord": {"lon": -2.5, "lat": 43.183331}}, {"id": 3123068, "name": "Erla", "state": "", "country": "ES", "coord": {"lon": -0.95019, "lat": 42.117321}}, {"id": 3123070, "name": "Eriste", "state": "", "country": "ES", "coord": {"lon": 0.49267, "lat": 42.58987}}, {"id": 3123100, "name": "Eratsun", "state": "", "country": "ES", "coord": {"lon": -1.8, "lat": 43.083328}}, {"id": 3123103, "name": "Erantsus", "state": "", "country": "ES", "coord": {"lon": -1.5, "lat": 42.833328}}, {"id": 3123104, "name": "Erandio", "state": "", "country": "ES", "coord": {"lon": -2.94502, "lat": 43.30788}}, {"id": 3123106, "name": "\u00c9pila", "state": "", "country": "ES", "coord": {"lon": -1.28007, "lat": 41.60046}}, {"id": 3123113, "name": "Entrimo", "state": "", "country": "ES", "coord": {"lon": -8.11725, "lat": 41.932968}}, {"id": 3123115, "name": "Entrev\u00edas", "state": "", "country": "ES", "coord": {"lon": -3.68333, "lat": 40.400002}}, {"id": 3123124, "name": "Entrena", "state": "", "country": "ES", "coord": {"lon": -2.53066, "lat": 42.387821}}, {"id": 3123128, "name": "Entrambosr\u00edos", "state": "", "country": "ES", "coord": {"lon": -3.71667, "lat": 43.066669}}, {"id": 3123131, "name": "Entrambasaguas", "state": "", "country": "ES", "coord": {"lon": -3.68072, "lat": 43.37846}}, {"id": 3123136, "name": "Entrala", "state": "", "country": "ES", "coord": {"lon": -5.75556, "lat": 41.430061}}, {"id": 3123143, "name": "Entines", "state": "", "country": "ES", "coord": {"lon": -8.91667, "lat": 42.849998}}, {"id": 3123156, "name": "En\u00e9riz", "state": "", "country": "ES", "coord": {"lon": -1.72794, "lat": 42.670952}}, {"id": 3123160, "name": "Endrinal", "state": "", "country": "ES", "coord": {"lon": -5.80411, "lat": 40.591091}}, {"id": 3123168, "name": "Enciso", "state": "", "country": "ES", "coord": {"lon": -2.26953, "lat": 42.14946}}, {"id": 3123169, "name": "Enc\u00edo", "state": "", "country": "ES", "coord": {"lon": -3.0868, "lat": 42.67115}}, {"id": 3123170, "name": "Encinillas", "state": "", "country": "ES", "coord": {"lon": -4.15784, "lat": 41.018089}}, {"id": 3123173, "name": "Encinedo", "state": "", "country": "ES", "coord": {"lon": -6.59368, "lat": 42.270489}}, {"id": 3123174, "name": "Encinasola de los Comendadores", "state": "", "country": "ES", "coord": {"lon": -6.53261, "lat": 41.030891}}, {"id": 3123175, "name": "Encinas de Esgueva", "state": "", "country": "ES", "coord": {"lon": -4.10357, "lat": 41.756519}}, {"id": 3123176, "name": "Encinas de Arriba", "state": "", "country": "ES", "coord": {"lon": -5.55661, "lat": 40.771198}}, {"id": 3123177, "name": "Encinas de Abajo", "state": "", "country": "ES", "coord": {"lon": -5.47037, "lat": 40.934929}}, {"id": 3123179, "name": "Encinas", "state": "", "country": "ES", "coord": {"lon": -3.66762, "lat": 41.375111}}, {"id": 3123181, "name": "Encina de San Silvestre", "state": "", "country": "ES", "coord": {"lon": -6.09268, "lat": 41.01442}}, {"id": 3123182, "name": "Encinacorba", "state": "", "country": "ES", "coord": {"lon": -1.27516, "lat": 41.28516}}, {"id": 3123189, "name": "Enate", "state": "", "country": "ES", "coord": {"lon": 0.21957, "lat": 42.080349}}, {"id": 3123195, "name": "Empalme", "state": "", "country": "ES", "coord": {"lon": -7.86667, "lat": 42.416672}}, {"id": 3123199, "name": "Embid de Ariza", "state": "", "country": "ES", "coord": {"lon": -1.97373, "lat": 41.3783}}, {"id": 3123200, "name": "Embid", "state": "", "country": "ES", "coord": {"lon": -1.71206, "lat": 40.972561}}, {"id": 3123206, "name": "El Viso de San Juan", "state": "", "country": "ES", "coord": {"lon": -3.91817, "lat": 40.141541}}, {"id": 3123219, "name": "El Vell\u00f3n", "state": "", "country": "ES", "coord": {"lon": -3.57969, "lat": 40.76495}}, {"id": 3123229, "name": "El Valle", "state": "", "country": "ES", "coord": {"lon": -5.81755, "lat": 43.159389}}, {"id": 3123241, "name": "El Tormillo", "state": "", "country": "ES", "coord": {"lon": -0.03239, "lat": 41.869961}}, {"id": 3123246, "name": "El Tiemblo", "state": "", "country": "ES", "coord": {"lon": -4.50156, "lat": 40.415329}}, {"id": 3123267, "name": "els Hostalets de Pierola", "state": "", "country": "ES", "coord": {"lon": 1.76667, "lat": 41.533329}}, {"id": 3123278, "name": "El Sardinero", "state": "", "country": "ES", "coord": {"lon": -3.78781, "lat": 43.47464}}, {"id": 3123282, "name": "El Royo", "state": "", "country": "ES", "coord": {"lon": -2.64618, "lat": 41.90871}}, {"id": 3123303, "name": "El Real de San Vicente", "state": "", "country": "ES", "coord": {"lon": -4.69095, "lat": 40.135609}}, {"id": 3123304, "name": "El Raso", "state": "", "country": "ES", "coord": {"lon": -5.33926, "lat": 40.17062}}, {"id": 3123329, "name": "El Prat de Llobregat", "state": "", "country": "ES", "coord": {"lon": 2.09472, "lat": 41.327839}}, {"id": 3123342, "name": "El Pontico", "state": "", "country": "ES", "coord": {"lon": -5.66667, "lat": 43.283329}}, {"id": 3123364, "name": "El Perdig\u00f3n", "state": "", "country": "ES", "coord": {"lon": -5.75277, "lat": 41.41267}}, {"id": 3123381, "name": "El Pardo", "state": "", "country": "ES", "coord": {"lon": -3.77253, "lat": 40.514542}}, {"id": 3123388, "name": "El Palacio", "state": "", "country": "ES", "coord": {"lon": -5.8035, "lat": 43.127682}}, {"id": 3123395, "name": "Elosu", "state": "", "country": "ES", "coord": {"lon": -2.67929, "lat": 42.975262}}, {"id": 3123398, "name": "Elorz", "state": "", "country": "ES", "coord": {"lon": -1.56152, "lat": 42.732578}}, {"id": 3123399, "name": "Elorrio", "state": "", "country": "ES", "coord": {"lon": -2.54056, "lat": 43.129238}}, {"id": 3123421, "name": "El Molar", "state": "", "country": "ES", "coord": {"lon": -3.57969, "lat": 40.732159}}, {"id": 3123422, "name": "El Mir\u00f3n", "state": "", "country": "ES", "coord": {"lon": -5.40552, "lat": 40.533218}}, {"id": 3123445, "name": "\u00c9ller", "state": "", "country": "ES", "coord": {"lon": 1.79223, "lat": 42.416359}}, {"id": 3123449, "name": "Eljas", "state": "", "country": "ES", "coord": {"lon": -6.84616, "lat": 40.21648}}, {"id": 3123450, "name": "Elizondo", "state": "", "country": "ES", "coord": {"lon": -1.51785, "lat": 43.148281}}, {"id": 3123455, "name": "El Hoyo de Pinares", "state": "", "country": "ES", "coord": {"lon": -4.42357, "lat": 40.500839}}, {"id": 3123461, "name": "El Herrad\u00f3n", "state": "", "country": "ES", "coord": {"lon": -4.55921, "lat": 40.56485}}, {"id": 3123462, "name": "Gurb", "state": "", "country": "ES", "coord": {"lon": 2.23537, "lat": 41.954189}}, {"id": 3123468, "name": "Elgeta", "state": "", "country": "ES", "coord": {"lon": -2.48862, "lat": 43.137032}}, {"id": 3123470, "name": "Elgueras", "state": "", "country": "ES", "coord": {"lon": -5.12092, "lat": 43.35601}}, {"id": 3123473, "name": "Empuriabrava", "state": "", "country": "ES", "coord": {"lon": 3.12059, "lat": 42.24691}}, {"id": 3123475, "name": "El Grado", "state": "", "country": "ES", "coord": {"lon": 0.22247, "lat": 42.151909}}, {"id": 3123476, "name": "Elgorriaga", "state": "", "country": "ES", "coord": {"lon": -1.68658, "lat": 43.13858}}, {"id": 3123478, "name": "Elgoibar", "state": "", "country": "ES", "coord": {"lon": -2.41334, "lat": 43.216011}}, {"id": 3123488, "name": "El Franco", "state": "", "country": "ES", "coord": {"lon": -6.8662, "lat": 43.555222}}, {"id": 3123491, "name": "Figar\u00f3", "state": "", "country": "ES", "coord": {"lon": 2.27297, "lat": 41.721218}}, {"id": 3123493, "name": "Ferrol", "state": "", "country": "ES", "coord": {"lon": -8.23689, "lat": 43.483212}}, {"id": 3123496, "name": "El Espino", "state": "", "country": "ES", "coord": {"lon": -6.64987, "lat": 42.71862}}, {"id": 3123499, "name": "El Espinar", "state": "", "country": "ES", "coord": {"lon": -4.24724, "lat": 40.718842}}, {"id": 3123504, "name": "El Escorial", "state": "", "country": "ES", "coord": {"lon": -4.12846, "lat": 40.582539}}, {"id": 3123515, "name": "Elduain", "state": "", "country": "ES", "coord": {"lon": -2.00102, "lat": 43.140171}}, {"id": 3123517, "name": "Desierto", "state": "", "country": "ES", "coord": {"lon": -2.98333, "lat": 43.299999}}, {"id": 3123525, "name": "El Cuadr\u00f3n", "state": "", "country": "ES", "coord": {"lon": -3.65724, "lat": 40.941261}}, {"id": 3123528, "name": "El Crucero", "state": "", "country": "ES", "coord": {"lon": -3.11667, "lat": 43.316669}}, {"id": 3123531, "name": "Zalla", "state": "", "country": "ES", "coord": {"lon": -3.13333, "lat": 43.23333}}, {"id": 3123535, "name": "El Comercio", "state": "", "country": "ES", "coord": {"lon": -0.8191, "lat": 41.74369}}, {"id": 3123547, "name": "Elciego", "state": "", "country": "ES", "coord": {"lon": -2.61897, "lat": 42.51569}}, {"id": 3123564, "name": "O Castro", "state": "", "country": "ES", "coord": {"lon": -7.91667, "lat": 42.366669}}, {"id": 3123574, "name": "El Castellar", "state": "", "country": "ES", "coord": {"lon": -0.81734, "lat": 40.365311}}, {"id": 3123578, "name": "El Casar de Talamanca", "state": "", "country": "ES", "coord": {"lon": -3.42541, "lat": 40.700211}}, {"id": 3123579, "name": "El Casar de Escalona", "state": "", "country": "ES", "coord": {"lon": -4.52507, "lat": 40.046398}}, {"id": 3123595, "name": "Elkano", "state": "", "country": "ES", "coord": {"lon": -1.54684, "lat": 42.8311}}, {"id": 3123615, "name": "El Cabezo", "state": "", "country": "ES", "coord": {"lon": -1.21836, "lat": 41.786129}}, {"id": 3123617, "name": "El Cabaco", "state": "", "country": "ES", "coord": {"lon": -6.12848, "lat": 40.565521}}, {"id": 3123619, "name": "El Bustio", "state": "", "country": "ES", "coord": {"lon": -4.5209, "lat": 43.376209}}, {"id": 3123622, "name": "El Burgo de Osma", "state": "", "country": "ES", "coord": {"lon": -3.06522, "lat": 41.586189}}, {"id": 3123623, "name": "El Burgo de Ebro", "state": "", "country": "ES", "coord": {"lon": -0.74128, "lat": 41.571571}}, {"id": 3123625, "name": "Burgelu / Elburgo", "state": "", "country": "ES", "coord": {"lon": -2.54513, "lat": 42.84972}}, {"id": 3123658, "name": "O Barco de Valdeorras", "state": "", "country": "ES", "coord": {"lon": -6.99005, "lat": 42.41642}}, {"id": 3123659, "name": "El Barco de \u00c1vila", "state": "", "country": "ES", "coord": {"lon": -5.52365, "lat": 40.357101}}, {"id": 3123667, "name": "El Astillero", "state": "", "country": "ES", "coord": {"lon": -3.82051, "lat": 43.40094}}, {"id": 3123677, "name": "Elantxobe", "state": "", "country": "ES", "coord": {"lon": -2.63912, "lat": 43.402431}}, {"id": 3123682, "name": "El \u00c1lamo", "state": "", "country": "ES", "coord": {"lon": -3.99447, "lat": 40.230659}}, {"id": 3123686, "name": "Ejulve", "state": "", "country": "ES", "coord": {"lon": -0.55344, "lat": 40.776329}}, {"id": 3123687, "name": "Ejeme", "state": "", "country": "ES", "coord": {"lon": -5.53828, "lat": 40.76685}}, {"id": 3123688, "name": "Ejea de los Caballeros", "state": "", "country": "ES", "coord": {"lon": -1.13716, "lat": 42.12632}}, {"id": 3123703, "name": "Eiras", "state": "", "country": "ES", "coord": {"lon": -8.78333, "lat": 41.933331}}, {"id": 3123709, "name": "Eibar", "state": "", "country": "ES", "coord": {"lon": -2.47158, "lat": 43.184929}}, {"id": 3123713, "name": "Egileta", "state": "", "country": "ES", "coord": {"lon": -2.53466, "lat": 42.809582}}, {"id": 3123735, "name": "Echavarri", "state": "", "country": "ES", "coord": {"lon": -2.06491, "lat": 42.72747}}, {"id": 3123738, "name": "Echarri-Aranaz", "state": "", "country": "ES", "coord": {"lon": -2.06474, "lat": 42.907909}}, {"id": 3123740, "name": "Echarri", "state": "", "country": "ES", "coord": {"lon": -1.82525, "lat": 42.78017}}, {"id": 3123745, "name": "Etxalar", "state": "", "country": "ES", "coord": {"lon": -1.63671, "lat": 43.233761}}, {"id": 3123748, "name": "Etxaguen", "state": "", "country": "ES", "coord": {"lon": -2.72427, "lat": 42.98481}}, {"id": 3123750, "name": "Ecay", "state": "", "country": "ES", "coord": {"lon": -1.38737, "lat": 42.774109}}, {"id": 3123759, "name": "Ea", "state": "", "country": "ES", "coord": {"lon": -2.58556, "lat": 43.379848}}, {"id": 3123761, "name": "Duyos", "state": "", "country": "ES", "coord": {"lon": -5.20477, "lat": 43.45734}}, {"id": 3123765, "name": "Duruelo de la Sierra", "state": "", "country": "ES", "coord": {"lon": -2.93086, "lat": 41.954479}}, {"id": 3123766, "name": "Duruelo", "state": "", "country": "ES", "coord": {"lon": -3.64914, "lat": 41.236221}}, {"id": 3123770, "name": "Dur\u00f3n", "state": "", "country": "ES", "coord": {"lon": -2.72662, "lat": 40.625301}}, {"id": 3123773, "name": "Durango", "state": "", "country": "ES", "coord": {"lon": -2.6338, "lat": 43.171242}}, {"id": 3123774, "name": "Durana", "state": "", "country": "ES", "coord": {"lon": -2.63947, "lat": 42.890678}}, {"id": 3123776, "name": "Du\u00f1a", "state": "", "country": "ES", "coord": {"lon": -4.21734, "lat": 43.335739}}, {"id": 3123779, "name": "Dumbr\u00eda", "state": "", "country": "ES", "coord": {"lon": -9.11328, "lat": 43.008362}}, {"id": 3123786, "name": "Due\u00f1as", "state": "", "country": "ES", "coord": {"lon": -4.54714, "lat": 41.877171}}, {"id": 3123793, "name": "Driebes", "state": "", "country": "ES", "coord": {"lon": -3.04165, "lat": 40.24498}}, {"id": 3123797, "name": "Doz\u00f3n", "state": "", "country": "ES", "coord": {"lon": -8.01667, "lat": 42.583328}}, {"id": 3123801, "name": "Dosrius", "state": "", "country": "ES", "coord": {"lon": 2.41667, "lat": 41.583328}}, {"id": 3123808, "name": "Duesaig\u00fces", "state": "", "country": "ES", "coord": {"lon": 0.93333, "lat": 41.150002}}, {"id": 3123812, "name": "Doro\u00f1o", "state": "", "country": "ES", "coord": {"lon": -2.72993, "lat": 42.776131}}, {"id": 3123816, "name": "Dorneda", "state": "", "country": "ES", "coord": {"lon": -8.33146, "lat": 43.357262}}, {"id": 3123822, "name": "Dord\u00f3niz", "state": "", "country": "ES", "coord": {"lon": -2.73493, "lat": 42.716671}}, {"id": 3123828, "name": "Donvidas", "state": "", "country": "ES", "coord": {"lon": -4.80634, "lat": 41.089539}}, {"id": 3123830, "name": "Donramiro", "state": "", "country": "ES", "coord": {"lon": -8.11667, "lat": 42.650002}}, {"id": 3123832, "name": "Donjimeno", "state": "", "country": "ES", "coord": {"lon": -4.84627, "lat": 40.959782}}, {"id": 3123834, "name": "Do\u00f1inos de Salamanca", "state": "", "country": "ES", "coord": {"lon": -5.74349, "lat": 40.959782}}, {"id": 3123835, "name": "Do\u00f1inos de Ledesma", "state": "", "country": "ES", "coord": {"lon": -6.03412, "lat": 41.012508}}, {"id": 3123839, "name": "Donillas", "state": "", "country": "ES", "coord": {"lon": -6.05979, "lat": 42.636478}}, {"id": 3123840, "name": "Donhierro", "state": "", "country": "ES", "coord": {"lon": -4.6967, "lat": 41.116421}}, {"id": 3123849, "name": "Donalbay", "state": "", "country": "ES", "coord": {"lon": -7.69146, "lat": 43.12973}}, {"id": 3123856, "name": "Domingo Garc\u00eda", "state": "", "country": "ES", "coord": {"lon": -4.37927, "lat": 41.11528}}, {"id": 3123860, "name": "Dom\u00e9s", "state": "", "country": "ES", "coord": {"lon": -7.95, "lat": 42.116669}}, {"id": 3123861, "name": "Domeny", "state": "", "country": "ES", "coord": {"lon": 2.79006, "lat": 41.991989}}, {"id": 3123866, "name": "Domaio", "state": "", "country": "ES", "coord": {"lon": -8.68333, "lat": 42.299999}}, {"id": 3123872, "name": "Dodro", "state": "", "country": "ES", "coord": {"lon": -8.68683, "lat": 42.718552}}, {"id": 3123885, "name": "Dios le Guarde", "state": "", "country": "ES", "coord": {"lon": -6.31511, "lat": 40.64283}}, {"id": 3123889, "name": "Dima", "state": "", "country": "ES", "coord": {"lon": -2.73333, "lat": 43.133331}}, {"id": 3123894, "name": "Dicastillo", "state": "", "country": "ES", "coord": {"lon": -2.02666, "lat": 42.596481}}, {"id": 3123897, "name": "Deza", "state": "", "country": "ES", "coord": {"lon": -2.02046, "lat": 41.46373}}, {"id": 3123900, "name": "Devesa de Curue\u00f1o", "state": "", "country": "ES", "coord": {"lon": -5.37181, "lat": 42.702492}}, {"id": 3123903, "name": "Devesa", "state": "", "country": "ES", "coord": {"lon": -7.75, "lat": 43.033329}}, {"id": 3123910, "name": "Deba", "state": "", "country": "ES", "coord": {"lon": -2.35213, "lat": 43.295712}}, {"id": 3123913, "name": "Destriana", "state": "", "country": "ES", "coord": {"lon": -6.09573, "lat": 42.32729}}, {"id": 3123916, "name": "Desojo", "state": "", "country": "ES", "coord": {"lon": -2.27438, "lat": 42.587898}}, {"id": 3123919, "name": "Descargamar\u00eda", "state": "", "country": "ES", "coord": {"lon": -6.48666, "lat": 40.304459}}, {"id": 3123921, "name": "Derio", "state": "", "country": "ES", "coord": {"lon": -2.88116, "lat": 43.305439}}, {"id": 3123922, "name": "Derio", "state": "", "country": "ES", "coord": {"lon": -2.88333, "lat": 43.283329}}, {"id": 3123933, "name": "Delika", "state": "", "country": "ES", "coord": {"lon": -2.98794, "lat": 42.969608}}, {"id": 3123941, "name": "Dehesa de Romanos", "state": "", "country": "ES", "coord": {"lon": -4.43518, "lat": 42.63876}}, {"id": 3123942, "name": "Dehesa de Montejo", "state": "", "country": "ES", "coord": {"lon": -4.51019, "lat": 42.819389}}, {"id": 3123959, "name": "Dego", "state": "", "country": "ES", "coord": {"lon": -5.13937, "lat": 43.334358}}, {"id": 3123960, "name": "Dega\u00f1a", "state": "", "country": "ES", "coord": {"lon": -6.56935, "lat": 42.93969}}, {"id": 3123961, "name": "Defradas del Coto", "state": "", "country": "ES", "coord": {"lon": -6.66667, "lat": 43.150002}}, {"id": 3123966, "name": "Das", "state": "", "country": "ES", "coord": {"lon": 1.87051, "lat": 42.361431}}, {"id": 3123969, "name": "Daroca", "state": "", "country": "ES", "coord": {"lon": -1.41492, "lat": 41.11475}}, {"id": 3123971, "name": "Darnius", "state": "", "country": "ES", "coord": {"lon": 2.83333, "lat": 42.366669}}, {"id": 3123972, "name": "Darm\u00f3s", "state": "", "country": "ES", "coord": {"lon": 0.70734, "lat": 41.09766}}, {"id": 3123981, "name": "Daganzo de Arriba", "state": "", "country": "ES", "coord": {"lon": -3.45457, "lat": 40.542931}}, {"id": 3123983, "name": "Dad\u00edn", "state": "", "country": "ES", "coord": {"lon": -8.81799, "lat": 42.438221}}, {"id": 3123984, "name": "Dac\u00f3n", "state": "", "country": "ES", "coord": {"lon": -8.04865, "lat": 42.422508}}, {"id": 3123993, "name": "Cutanda", "state": "", "country": "ES", "coord": {"lon": -1.18368, "lat": 40.93483}}, {"id": 3124001, "name": "Curtis", "state": "", "country": "ES", "coord": {"lon": -8.05, "lat": 43.116669}}, {"id": 3124002, "name": "Curtis", "state": "", "country": "ES", "coord": {"lon": -8.06667, "lat": 43.083328}}, {"id": 3124005, "name": "Curro", "state": "", "country": "ES", "coord": {"lon": -8.67594, "lat": 42.506649}}, {"id": 3124014, "name": "Curiel de Duero", "state": "", "country": "ES", "coord": {"lon": -4.1011, "lat": 41.643269}}, {"id": 3124021, "name": "Cuntis", "state": "", "country": "ES", "coord": {"lon": -8.56256, "lat": 42.633961}}, {"id": 3124026, "name": "Cunit", "state": "", "country": "ES", "coord": {"lon": 1.63645, "lat": 41.198292}}, {"id": 3124033, "name": "Cumiar", "state": "", "country": "ES", "coord": {"lon": -8.45, "lat": 42.200001}}, {"id": 3124041, "name": "Culleredo", "state": "", "country": "ES", "coord": {"lon": -8.38858, "lat": 43.28788}}, {"id": 3124042, "name": "Culla", "state": "", "country": "ES", "coord": {"lon": -0.16569, "lat": 40.336498}}, {"id": 3124043, "name": "Culebros", "state": "", "country": "ES", "coord": {"lon": -6.10377, "lat": 42.641701}}, {"id": 3124064, "name": "Cuevas Labradas", "state": "", "country": "ES", "coord": {"lon": -1.05008, "lat": 40.453499}}, {"id": 3124065, "name": "Cuevas de Vinrom\u00e1", "state": "", "country": "ES", "coord": {"lon": 0.12084, "lat": 40.309761}}, {"id": 3124068, "name": "Cuevas de San Clemente", "state": "", "country": "ES", "coord": {"lon": -3.5684, "lat": 42.130089}}, {"id": 3124069, "name": "Cuevas de Provanco", "state": "", "country": "ES", "coord": {"lon": -3.96203, "lat": 41.54208}}, {"id": 3124071, "name": "Cuevas del Valle", "state": "", "country": "ES", "coord": {"lon": -5.00938, "lat": 40.294182}}, {"id": 3124075, "name": "Cuevas de Almud\u00e9n", "state": "", "country": "ES", "coord": {"lon": -0.82958, "lat": 40.713421}}, {"id": 3124085, "name": "Cueva del Hierro", "state": "", "country": "ES", "coord": {"lon": -2.03612, "lat": 40.582581}}, {"id": 3124087, "name": "Cueva de \u00c1greda", "state": "", "country": "ES", "coord": {"lon": -1.88818, "lat": 41.7631}}, {"id": 3124096, "name": "Cueva", "state": "", "country": "ES", "coord": {"lon": -4.49603, "lat": 43.06604}}, {"id": 3124099, "name": "Cueto", "state": "", "country": "ES", "coord": {"lon": -3.80049, "lat": 43.48299}}, {"id": 3124128, "name": "Cuenca de Campos", "state": "", "country": "ES", "coord": {"lon": -5.05538, "lat": 42.059269}}, {"id": 3124132, "name": "Cuenca", "state": "", "country": "ES", "coord": {"lon": -2.13333, "lat": 40.066669}}, {"id": 3124133, "name": "Cu\u00e9nabres", "state": "", "country": "ES", "coord": {"lon": -4.98909, "lat": 43.066181}}, {"id": 3124136, "name": "Cu\u00e9llar", "state": "", "country": "ES", "coord": {"lon": -4.31474, "lat": 41.40155}}, {"id": 3124139, "name": "Cuelgamures", "state": "", "country": "ES", "coord": {"lon": -5.65769, "lat": 41.307381}}, {"id": 3124141, "name": "Cud\u00f3n", "state": "", "country": "ES", "coord": {"lon": -4.01521, "lat": 43.415508}}, {"id": 3124142, "name": "Cudillero", "state": "", "country": "ES", "coord": {"lon": -6.14589, "lat": 43.562168}}, {"id": 3124146, "name": "Cuchia", "state": "", "country": "ES", "coord": {"lon": -4.01799, "lat": 43.438309}}, {"id": 3124150, "name": "Cucal\u00f3n", "state": "", "country": "ES", "coord": {"lon": -1.21475, "lat": 41.086079}}, {"id": 3124152, "name": "Cubo de la Solana", "state": "", "country": "ES", "coord": {"lon": -2.42179, "lat": 41.602242}}, {"id": 3124155, "name": "Cubo de Bureba", "state": "", "country": "ES", "coord": {"lon": -3.20626, "lat": 42.64011}}, {"id": 3124156, "name": "Cubo de Benavente", "state": "", "country": "ES", "coord": {"lon": -6.16342, "lat": 42.124901}}, {"id": 3124161, "name": "Cubla", "state": "", "country": "ES", "coord": {"lon": -1.07917, "lat": 40.209782}}, {"id": 3124162, "name": "Cubillos del Sil", "state": "", "country": "ES", "coord": {"lon": -6.5636, "lat": 42.625191}}, {"id": 3124166, "name": "Cubillos", "state": "", "country": "ES", "coord": {"lon": -5.7392, "lat": 41.57436}}, {"id": 3124169, "name": "Cubillo del Campo", "state": "", "country": "ES", "coord": {"lon": -3.61025, "lat": 42.168541}}, {"id": 3124178, "name": "Cubillo", "state": "", "country": "ES", "coord": {"lon": -3.90878, "lat": 41.12138}}, {"id": 3124184, "name": "Cubillas de Santa Marta", "state": "", "country": "ES", "coord": {"lon": -4.61463, "lat": 41.83358}}, {"id": 3124185, "name": "Cubillas de Rueda", "state": "", "country": "ES", "coord": {"lon": -5.17528, "lat": 42.656261}}, {"id": 3124187, "name": "Cubillas de los Oteros", "state": "", "country": "ES", "coord": {"lon": -5.50877, "lat": 42.37199}}, {"id": 3124188, "name": "Cubillas de Cerrato", "state": "", "country": "ES", "coord": {"lon": -4.4672, "lat": 41.798439}}, {"id": 3124194, "name": "Cubilla", "state": "", "country": "ES", "coord": {"lon": -2.93717, "lat": 41.74905}}, {"id": 3124200, "name": "Cubells", "state": "", "country": "ES", "coord": {"lon": 0.959, "lat": 41.85062}}, {"id": 3124201, "name": "Cubelles", "state": "", "country": "ES", "coord": {"lon": 1.67267, "lat": 41.207722}},