[{"id": 4752882, "name": "City Farm", "state": "VA", "country": "US", "coord": {"lon": -79.189468, "lat": 37.325699}}, {"id": 4752978, "name": "Clarke County", "state": "VA", "country": "US", "coord": {"lon": -77.966393, "lat": 39.116772}}, {"id": 4752994, "name": "Clarksville", "state": "VA", "country": "US", "coord": {"lon": -78.556938, "lat": 36.624031}}, {"id": 4753043, "name": "Claypool Hill", "state": "VA", "country": "US", "coord": {"lon": -81.751778, "lat": 37.062611}}, {"id": 4753158, "name": "Clifton Forge", "state": "VA", "country": "US", "coord": {"lon": -79.824493, "lat": 37.816238}}, {"id": 4753218, "name": "Clintwood", "state": "VA", "country": "US", "coord": {"lon": -82.455978, "lat": 37.150108}}, {"id": 4753268, "name": "Cloverdale", "state": "VA", "country": "US", "coord": {"lon": -79.905602, "lat": 37.365139}}, {"id": 4753409, "name": "Coeburn", "state": "VA", "country": "US", "coord": {"lon": -82.464043, "lat": 36.943989}}, {"id": 4753635, "name": "Collinsville", "state": "VA", "country": "US", "coord": {"lon": -79.915321, "lat": 36.715141}}, {"id": 4753654, "name": "Colonial Beach", "state": "VA", "country": "US", "coord": {"lon": -76.963577, "lat": 38.25457}}, {"id": 4753671, "name": "Colonial Heights", "state": "VA", "country": "US", "coord": {"lon": -77.407257, "lat": 37.26804}}, {"id": 4753684, "name": "City of Colonial Heights", "state": "VA", "country": "US", "coord": {"lon": -77.410263, "lat": 37.244041}}, {"id": 4753820, "name": "Concord", "state": "VA", "country": "US", "coord": {"lon": -78.975021, "lat": 37.34264}}, {"id": 4754164, "name": "Cotman (historical)", "state": "VA", "country": "US", "coord": {"lon": -77.301369, "lat": 37.42598}}, {"id": 4754219, "name": "Countryside", "state": "VA", "country": "US", "coord": {"lon": -77.413597, "lat": 39.040939}}, {"id": 4754296, "name": "Courtland", "state": "VA", "country": "US", "coord": {"lon": -77.068024, "lat": 36.716259}}, {"id": 4754358, "name": "Covington", "state": "VA", "country": "US", "coord": {"lon": -79.99395, "lat": 37.793461}}, {"id": 4754589, "name": "Cranes Nest", "state": "VA", "country": "US", "coord": {"lon": -82.472366, "lat": 36.973991}}, {"id": 4754686, "name": "Crewe", "state": "VA", "country": "US", "coord": {"lon": -78.123329, "lat": 37.17321}}, {"id": 4754712, "name": "Crimora", "state": "VA", "country": "US", "coord": {"lon": -78.850304, "lat": 38.154018}}, {"id": 4754901, "name": "Crozet", "state": "VA", "country": "US", "coord": {"lon": -78.700577, "lat": 38.06958}}, {"id": 4754966, "name": "Culpeper", "state": "VA", "country": "US", "coord": {"lon": -77.996658, "lat": 38.473179}}, {"id": 4754972, "name": "Culpeper County", "state": "VA", "country": "US", "coord": {"lon": -77.966393, "lat": 38.500401}}, {"id": 4754989, "name": "Cumberland", "state": "VA", "country": "US", "coord": {"lon": -78.24527, "lat": 37.495979}}, {"id": 4755143, "name": "Dahlgren", "state": "VA", "country": "US", "coord": {"lon": -77.051086, "lat": 38.331242}}, {"id": 4755158, "name": "Dale City", "state": "VA", "country": "US", "coord": {"lon": -77.311089, "lat": 38.637058}}, {"id": 4755173, "name": "Daleville", "state": "VA", "country": "US", "coord": {"lon": -79.912537, "lat": 37.409859}}, {"id": 4755189, "name": "Daltons", "state": "VA", "country": "US", "coord": {"lon": -77.419434, "lat": 38.13541}}, {"id": 4755280, "name": "Danville", "state": "VA", "country": "US", "coord": {"lon": -79.39502, "lat": 36.585972}}, {"id": 4755298, "name": "City of Danville", "state": "VA", "country": "US", "coord": {"lon": -79.39502, "lat": 36.585972}}, {"id": 4755491, "name": "Dayton", "state": "VA", "country": "US", "coord": {"lon": -78.938637, "lat": 38.414848}}, {"id": 4755668, "name": "Deerwood", "state": "VA", "country": "US", "coord": {"lon": -78.446121, "lat": 38.13541}}, {"id": 4755710, "name": "Deltaville", "state": "VA", "country": "US", "coord": {"lon": -76.336891, "lat": 37.554859}}, {"id": 4755865, "name": "Dickenson County", "state": "VA", "country": "US", "coord": {"lon": -82.349869, "lat": 37.133438}}, {"id": 4755972, "name": "Dinwiddie", "state": "VA", "country": "US", "coord": {"lon": -77.586662, "lat": 37.07793}}, {"id": 4755976, "name": "Dinwiddie County", "state": "VA", "country": "US", "coord": {"lon": -77.633049, "lat": 37.066818}}, {"id": 4756211, "name": "Dooms", "state": "VA", "country": "US", "coord": {"lon": -78.857521, "lat": 38.10902}}, {"id": 4756348, "name": "Dranesville", "state": "VA", "country": "US", "coord": {"lon": -77.345818, "lat": 39.000671}}, {"id": 4756549, "name": "Dryden", "state": "VA", "country": "US", "coord": {"lon": -82.941551, "lat": 36.777592}}, {"id": 4756557, "name": "Dublin", "state": "VA", "country": "US", "coord": {"lon": -80.685341, "lat": 37.105679}}, {"id": 4756636, "name": "Dulles Town Center", "state": "VA", "country": "US", "coord": {"lon": -77.415817, "lat": 39.037609}}, {"id": 4756643, "name": "Dumfries", "state": "VA", "country": "US", "coord": {"lon": -77.328041, "lat": 38.567619}}, {"id": 4756653, "name": "Dumbarton", "state": "VA", "country": "US", "coord": {"lon": -77.491371, "lat": 37.60376}}, {"id": 4756736, "name": "Dunn Loring", "state": "VA", "country": "US", "coord": {"lon": -77.221649, "lat": 38.89344}}, {"id": 4756955, "name": "East Hampton", "state": "VA", "country": "US", "coord": {"lon": -76.331612, "lat": 37.037369}}, {"id": 4756970, "name": "East Lexington", "state": "VA", "country": "US", "coord": {"lon": -79.425323, "lat": 37.792912}}, {"id": 4756972, "name": "East Highland Park", "state": "VA", "country": "US", "coord": {"lon": -77.406929, "lat": 37.580978}}, {"id": 4757073, "name": "Eastville", "state": "VA", "country": "US", "coord": {"lon": -75.945763, "lat": 37.352638}}, {"id": 4757240, "name": "Edinburg", "state": "VA", "country": "US", "coord": {"lon": -78.565849, "lat": 38.82095}}, {"id": 4757467, "name": "Elkton", "state": "VA", "country": "US", "coord": {"lon": -78.623627, "lat": 38.407902}}, {"id": 4757667, "name": "Emory", "state": "VA", "country": "US", "coord": {"lon": -81.836227, "lat": 36.772888}}, {"id": 4757673, "name": "Emporia", "state": "VA", "country": "US", "coord": {"lon": -77.54248, "lat": 36.685982}}, {"id": 4757699, "name": "Enfield", "state": "VA", "country": "US", "coord": {"lon": -77.21859, "lat": 37.745419}}, {"id": 4757734, "name": "Enon", "state": "VA", "country": "US", "coord": {"lon": -77.322762, "lat": 37.3307}}, {"id": 4757863, "name": "Ettrick", "state": "VA", "country": "US", "coord": {"lon": -77.429977, "lat": 37.24015}}, {"id": 4757978, "name": "Exmore", "state": "VA", "country": "US", "coord": {"lon": -75.82299, "lat": 37.531799}}, {"id": 4758023, "name": "Fairfax", "state": "VA", "country": "US", "coord": {"lon": -77.306374, "lat": 38.846218}}, {"id": 4758041, "name": "Fairfax County", "state": "VA", "country": "US", "coord": {"lon": -77.349709, "lat": 38.850109}}, {"id": 4758102, "name": "Fairfax Station", "state": "VA", "country": "US", "coord": {"lon": -77.325539, "lat": 38.800949}}, {"id": 4758109, "name": "City of Fairfax", "state": "VA", "country": "US", "coord": {"lon": -77.306374, "lat": 38.846218}}, {"id": 4758143, "name": "Fairlawn", "state": "VA", "country": "US", "coord": {"lon": -79.982002, "lat": 37.776241}}, {"id": 4758144, "name": "Fairlawn", "state": "VA", "country": "US", "coord": {"lon": -80.578392, "lat": 37.14846}}, {"id": 4758390, "name": "Falls Church", "state": "VA", "country": "US", "coord": {"lon": -77.171089, "lat": 38.882332}}, {"id": 4758426, "name": "Falmouth", "state": "VA", "country": "US", "coord": {"lon": -77.468323, "lat": 38.32402}}, {"id": 4758495, "name": "Farmville", "state": "VA", "country": "US", "coord": {"lon": -78.391937, "lat": 37.302101}}, {"id": 4758671, "name": "Ferrum", "state": "VA", "country": "US", "coord": {"lon": -80.013367, "lat": 36.92292}}, {"id": 4758750, "name": "Fincastle", "state": "VA", "country": "US", "coord": {"lon": -79.877258, "lat": 37.499298}}, {"id": 4759120, "name": "Fishersville", "state": "VA", "country": "US", "coord": {"lon": -78.969193, "lat": 38.099018}}, {"id": 4759430, "name": "Floris", "state": "VA", "country": "US", "coord": {"lon": -77.412773, "lat": 38.937061}}, {"id": 4759446, "name": "Floyd", "state": "VA", "country": "US", "coord": {"lon": -80.320053, "lat": 36.91124}}, {"id": 4759556, "name": "Forest", "state": "VA", "country": "US", "coord": {"lon": -79.289749, "lat": 37.36375}}, {"id": 4759735, "name": "Fort Lee", "state": "VA", "country": "US", "coord": {"lon": -77.335258, "lat": 37.495701}}, {"id": 4759968, "name": "Franconia", "state": "VA", "country": "US", "coord": {"lon": -77.14637, "lat": 38.782059}}, {"id": 4759986, "name": "Franklin", "state": "VA", "country": "US", "coord": {"lon": -76.922462, "lat": 36.67765}}, {"id": 4760059, "name": "Fredericksburg", "state": "VA", "country": "US", "coord": {"lon": -77.460541, "lat": 38.303181}}, {"id": 4760084, "name": "City of Fredericksburg", "state": "VA", "country": "US", "coord": {"lon": -77.460541, "lat": 38.303181}}, {"id": 4760232, "name": "Front Royal", "state": "VA", "country": "US", "coord": {"lon": -78.194443, "lat": 38.918171}}, {"id": 4760363, "name": "Gainesville", "state": "VA", "country": "US", "coord": {"lon": -77.613876, "lat": 38.79567}}, {"id": 4760376, "name": "Galax", "state": "VA", "country": "US", "coord": {"lon": -80.923973, "lat": 36.66124}}, {"id": 4760593, "name": "Gate City", "state": "VA", "country": "US", "coord": {"lon": -82.580994, "lat": 36.637878}}, {"id": 4760971, "name": "Glade Spring", "state": "VA", "country": "US", "coord": {"lon": -81.771233, "lat": 36.791222}}, {"id": 4761008, "name": "Glasgow", "state": "VA", "country": "US", "coord": {"lon": -79.45031, "lat": 37.634022}}, {"id": 4761054, "name": "Glen Allen", "state": "VA", "country": "US", "coord": {"lon": -77.506371, "lat": 37.665981}}, {"id": 4761123, "name": "Glenns", "state": "VA", "country": "US", "coord": {"lon": -76.612732, "lat": 37.565701}}, {"id": 4761164, "name": "Gloucester County", "state": "VA", "country": "US", "coord": {"lon": -76.549667, "lat": 37.416809}}, {"id": 4761166, "name": "Gloucester Courthouse", "state": "VA", "country": "US", "coord": {"lon": -76.526619, "lat": 37.409859}}, {"id": 4761171, "name": "Gloucester Point", "state": "VA", "country": "US", "coord": {"lon": -76.496887, "lat": 37.254028}}, {"id": 4761277, "name": "Goochland", "state": "VA", "country": "US", "coord": {"lon": -77.885269, "lat": 37.684311}}, {"id": 4761471, "name": "Gordonsville", "state": "VA", "country": "US", "coord": {"lon": -78.187782, "lat": 38.13736}}, {"id": 4761951, "name": "Great Falls", "state": "VA", "country": "US", "coord": {"lon": -77.288322, "lat": 38.998169}}, {"id": 4762155, "name": "Greenbriar", "state": "VA", "country": "US", "coord": {"lon": -77.400818, "lat": 38.873451}}, {"id": 4762356, "name": "Gretna", "state": "VA", "country": "US", "coord": {"lon": -79.35891, "lat": 36.953751}}, {"id": 4762454, "name": "Grottoes", "state": "VA", "country": "US", "coord": {"lon": -78.825859, "lat": 38.267349}}, {"id": 4762493, "name": "Groveton", "state": "VA", "country": "US", "coord": {"lon": -77.084702, "lat": 38.767342}}, {"id": 4762512, "name": "Grundy", "state": "VA", "country": "US", "coord": {"lon": -82.099022, "lat": 37.277889}}, {"id": 4762755, "name": "Halifax", "state": "VA", "country": "US", "coord": {"lon": -78.928337, "lat": 36.765968}}, {"id": 4762888, "name": "Hampden Sydney", "state": "VA", "country": "US", "coord": {"lon": -78.459717, "lat": 37.242371}}, {"id": 4762894, "name": "Hampton", "state": "VA", "country": "US", "coord": {"lon": -76.345222, "lat": 37.029869}}, {"id": 4762929, "name": "City of Hampton", "state": "VA", "country": "US", "coord": {"lon": -76.333, "lat": 37.062649}}, {"id": 4762979, "name": "Hanover", "state": "VA", "country": "US", "coord": {"lon": -77.370262, "lat": 37.766529}}, {"id": 4762988, "name": "Hanover County", "state": "VA", "country": "US", "coord": {"lon": -77.48304, "lat": 37.750141}}, {"id": 4763029, "name": "Happy Valley", "state": "VA", "country": "US", "coord": {"lon": -79.145302, "lat": 37.25848}}, {"id": 4763231, "name": "Harrisonburg", "state": "VA", "country": "US", "coord": {"lon": -78.868919, "lat": 38.44957}}, {"id": 4763237, "name": "City of Harrisonburg", "state": "VA", "country": "US", "coord": {"lon": -78.868919, "lat": 38.44957}}, {"id": 4763436, "name": "Hayfield", "state": "VA", "country": "US", "coord": {"lon": -77.135811, "lat": 38.751781}}, {"id": 4763452, "name": "Haymarket", "state": "VA", "country": "US", "coord": {"lon": -77.636383, "lat": 38.812061}}, {"id": 4763558, "name": "Heathsville", "state": "VA", "country": "US", "coord": {"lon": -76.472168, "lat": 37.917629}}, {"id": 4763688, "name": "Henrico County", "state": "VA", "country": "US", "coord": {"lon": -77.366371, "lat": 37.550152}}, {"id": 4763716, "name": "Henry Fork", "state": "VA", "country": "US", "coord": {"lon": -79.870308, "lat": 36.966251}}, {"id": 4763793, "name": "Herndon", "state": "VA", "country": "US", "coord": {"lon": -77.386101, "lat": 38.969551}}, {"id": 4763953, "name": "Hicks Mill", "state": "VA", "country": "US", "coord": {"lon": -77.258034, "lat": 38.094021}}, {"id": 4764100, "name": "Highland County", "state": "VA", "country": "US", "coord": {"lon": -79.366432, "lat": 38.366791}}, {"id": 4764127, "name": "Highland Springs", "state": "VA", "country": "US", "coord": {"lon": -77.327759, "lat": 37.545979}}, {"id": 4764251, "name": "Hillsville", "state": "VA", "country": "US", "coord": {"lon": -80.734787, "lat": 36.76263}}, {"id": 4764534, "name": "Hollins", "state": "VA", "country": "US", "coord": {"lon": -79.9431, "lat": 37.341251}}, {"id": 4764607, "name": "Hollymead", "state": "VA", "country": "US", "coord": {"lon": -78.441681, "lat": 38.117081}}, {"id": 4764743, "name": "Honaker", "state": "VA", "country": "US", "coord": {"lon": -81.974289, "lat": 37.01622}}, {"id": 4764826, "name": "Hopewell", "state": "VA", "country": "US", "coord": {"lon": -77.287201, "lat": 37.304321}}, {"id": 4764849, "name": "City of Hopewell", "state": "VA", "country": "US", "coord": {"lon": -77.287201, "lat": 37.304321}}, {"id": 4764936, "name": "Horse Pasture", "state": "VA", "country": "US", "coord": {"lon": -79.950867, "lat": 36.628471}}, {"id": 4765392, "name": "Huntington", "state": "VA", "country": "US", "coord": {"lon": -77.070808, "lat": 38.792339}}, {"id": 4765475, "name": "Hurt", "state": "VA", "country": "US", "coord": {"lon": -79.29641, "lat": 37.09264}}, {"id": 4765520, "name": "Hybla Valley", "state": "VA", "country": "US", "coord": {"lon": -77.083031, "lat": 38.747608}}, {"id": 4765553, "name": "Idylwood", "state": "VA", "country": "US", "coord": {"lon": -77.211647, "lat": 38.895111}}, {"id": 4765594, "name": "Independent Hill", "state": "VA", "country": "US", "coord": {"lon": -77.437759, "lat": 38.635948}}, {"id": 4766204, "name": "Isle of Wight", "state": "VA", "country": "US", "coord": {"lon": -76.707741, "lat": 36.90765}}, {"id": 4766205, "name": "Isle of Wight County", "state": "VA", "country": "US", "coord": {"lon": -76.699677, "lat": 36.88348}}, {"id": 4766447, "name": "James City County", "state": "VA", "country": "US", "coord": {"lon": -76.76635, "lat": 37.300152}}, {"id": 4766586, "name": "Jefferson", "state": "", "country": "US", "coord": {"lon": -77.187759, "lat": 38.864559}}, {"id": 4767082, "name": "Jolivue", "state": "VA", "country": "US", "coord": {"lon": -79.073082, "lat": 38.109852}}, {"id": 4767229, "name": "Jonesville", "state": "VA", "country": "US", "coord": {"lon": -83.111, "lat": 36.68898}}, {"id": 4767509, "name": "Kenbridge", "state": "VA", "country": "US", "coord": {"lon": -78.125, "lat": 36.96209}}, {"id": 4767575, "name": "Kentucky Farms", "state": "VA", "country": "US", "coord": {"lon": -76.493279, "lat": 37.145699}}, {"id": 4767723, "name": "Kilmarnock", "state": "VA", "country": "US", "coord": {"lon": -76.379669, "lat": 37.710411}}, {"id": 4767771, "name": "King George", "state": "VA", "country": "US", "coord": {"lon": -77.184418, "lat": 38.268181}}, {"id": 4767789, "name": "King William", "state": "VA", "country": "US", "coord": {"lon": -77.01358, "lat": 37.687359}}, {"id": 4767790, "name": "King William County", "state": "VA", "country": "US", "coord": {"lon": -77.083031, "lat": 37.683479}}, {"id": 4767794, "name": "King and Queen Court House", "state": "VA", "country": "US", "coord": {"lon": -76.877457, "lat": 37.669861}}, {"id": 4767864, "name": "Kings Park", "state": "VA", "country": "US", "coord": {"lon": -77.243317, "lat": 38.806221}}, {"id": 4768185, "name": "Lake Barcroft", "state": "VA", "country": "US", "coord": {"lon": -77.155807, "lat": 38.847889}}, {"id": 4768313, "name": "Lake Monticello", "state": "VA", "country": "US", "coord": {"lon": -78.334732, "lat": 37.923199}}, {"id": 4768351, "name": "Lake Ridge", "state": "VA", "country": "US", "coord": {"lon": -77.29776, "lat": 38.687889}}, {"id": 4768423, "name": "Lakeside", "state": "VA", "country": "US", "coord": {"lon": -77.476929, "lat": 37.607651}}, {"id": 4768513, "name": "Lancaster", "state": "VA", "country": "US", "coord": {"lon": -76.466339, "lat": 37.769859}}, {"id": 4768678, "name": "Laurel", "state": "VA", "country": "US", "coord": {"lon": -77.508873, "lat": 37.642921}}, {"id": 4768816, "name": "Laurel Ridge", "state": "VA", "country": "US", "coord": {"lon": -80.448387, "lat": 37.268459}}, {"id": 4768900, "name": "Lawrenceville", "state": "VA", "country": "US", "coord": {"lon": -77.846939, "lat": 36.757648}}, {"id": 4768916, "name": "Laymantown", "state": "VA", "country": "US", "coord": {"lon": -79.857536, "lat": 37.365688}}, {"id": 4768972, "name": "Lebanon", "state": "VA", "country": "US", "coord": {"lon": -82.080132, "lat": 36.90094}}, {"id": 4769120, "name": "Lees Mill", "state": "VA", "country": "US", "coord": {"lon": -76.895523, "lat": 36.682652}}, {"id": 4769125, "name": "Leesburg", "state": "VA", "country": "US", "coord": {"lon": -77.563599, "lat": 39.115662}}, {"id": 4769339, "name": "Lexington", "state": "VA", "country": "US", "coord": {"lon": -79.442818, "lat": 37.784019}}, {"id": 4769608, "name": "Lincolnia", "state": "VA", "country": "US", "coord": {"lon": -77.143311, "lat": 38.818451}}, {"id": 4769667, "name": "Linton Hall", "state": "VA", "country": "US", "coord": {"lon": -77.574989, "lat": 38.759838}}, {"id": 4770288, "name": "Loch Lomond", "state": "VA", "country": "US", "coord": {"lon": -77.478043, "lat": 38.786228}}, {"id": 4770714, "name": "Lorton", "state": "VA", "country": "US", "coord": {"lon": -77.22776, "lat": 38.704281}}, {"id": 4770746, "name": "Loudoun County", "state": "VA", "country": "US", "coord": {"lon": -77.649712, "lat": 39.083439}}, {"id": 4770766, "name": "Louisa", "state": "VA", "country": "US", "coord": {"lon": -78.004158, "lat": 38.025139}}, {"id": 4770817, "name": "Lovettsville", "state": "VA", "country": "US", "coord": {"lon": -77.636658, "lat": 39.272598}}, {"id": 4770827, "name": "Lovingston", "state": "VA", "country": "US", "coord": {"lon": -78.870857, "lat": 37.759861}}, {"id": 4770931, "name": "Lowes Island", "state": "VA", "country": "US", "coord": {"lon": -77.352211, "lat": 39.05983}}, {"id": 4770995, "name": "Lunenburg", "state": "VA", "country": "US", "coord": {"lon": -78.265549, "lat": 36.960979}}, {"id": 4771014, "name": "Luray", "state": "VA", "country": "US", "coord": {"lon": -78.45945, "lat": 38.665401}}, {"id": 4771075, "name": "Lynchburg", "state": "VA", "country": "US", "coord": {"lon": -79.14225, "lat": 37.41375}}, {"id": 4771099, "name": "City of Lynchburg", "state": "VA", "country": "US", "coord": {"lon": -79.14225, "lat": 37.41375}}, {"id": 4771100, "name": "Lyndhurst", "state": "VA", "country": "US", "coord": {"lon": -78.945023, "lat": 38.029301}}, {"id": 4771235, "name": "Madison", "state": "VA", "country": "US", "coord": {"lon": -78.2575, "lat": 38.380409}}, {"id": 4771247, "name": "Madison Heights", "state": "VA", "country": "US", "coord": {"lon": -79.123077, "lat": 37.430981}}, {"id": 4771401, "name": "Manassas", "state": "VA", "country": "US", "coord": {"lon": -77.475273, "lat": 38.75095}}, {"id": 4771414, "name": "Manassas Park", "state": "VA", "country": "US", "coord": {"lon": -77.469711, "lat": 38.784}}, {"id": 4771426, "name": "City of Manassas", "state": "VA", "country": "US", "coord": {"lon": -77.475273, "lat": 38.75095}}, {"id": 4771494, "name": "Mantua", "state": "VA", "country": "US", "coord": {"lon": -77.25943, "lat": 38.853722}}, {"id": 4771643, "name": "Marion", "state": "VA", "country": "US", "coord": {"lon": -81.514839, "lat": 36.834839}}, {"id": 4771701, "name": "Marshall", "state": "VA", "country": "US", "coord": {"lon": -77.857773, "lat": 38.864841}}, {"id": 4771808, "name": "Martinsville", "state": "VA", "country": "US", "coord": {"lon": -79.872543, "lat": 36.691528}}, {"id": 4771834, "name": "Marumsco Woods", "state": "VA", "country": "US", "coord": {"lon": -77.260536, "lat": 38.622059}}, {"id": 4771924, "name": "Massanetta Springs", "state": "VA", "country": "US", "coord": {"lon": -78.83419, "lat": 38.400398}}, {"id": 4771926, "name": "Massanova", "state": "VA", "country": "US", "coord": {"lon": -78.077217, "lat": 38.67012}}, {"id": 4771928, "name": "Massanutten", "state": "VA", "country": "US", "coord": {"lon": -78.737801, "lat": 38.409569}}, {"id": 4771980, "name": "Mathews", "state": "VA", "country": "US", "coord": {"lon": -76.319939, "lat": 37.43708}}, {"id": 4772009, "name": "Matoaca", "state": "VA", "country": "US", "coord": {"lon": -77.477493, "lat": 37.230431}}, {"id": 4772354, "name": "McLean", "state": "VA", "country": "US", "coord": {"lon": -77.177483, "lat": 38.93428}}, {"id": 4772384, "name": "McMullin", "state": "VA", "country": "US", "coord": {"lon": -81.578171, "lat": 36.814281}}, {"id": 4772566, "name": "Mechanicsville", "state": "VA", "country": "US", "coord": {"lon": -77.373306, "lat": 37.608761}}, {"id": 4772735, "name": "Merrifield", "state": "VA", "country": "US", "coord": {"lon": -77.226929, "lat": 38.874279}}, {"id": 4772739, "name": "Merrimac", "state": "VA", "country": "US", "coord": {"lon": -78.078613, "lat": 38.452629}}, {"id": 4772740, "name": "Merrimac", "state": "VA", "country": "US", "coord": {"lon": -80.425613, "lat": 37.189571}}, {"id": 4772927, "name": "Middletown", "state": "VA", "country": "US", "coord": {"lon": -78.280563, "lat": 39.027611}}, {"id": 4773677, "name": "Montclair", "state": "VA", "country": "US", "coord": {"lon": -77.339706, "lat": 38.61095}}, {"id": 4773690, "name": "Monterey", "state": "VA", "country": "US", "coord": {"lon": -79.580597, "lat": 38.412338}}, {"id": 4773711, "name": "Montgomery County", "state": "VA", "country": "US", "coord": {"lon": -80.383102, "lat": 37.166801}}, {"id": 4773747, "name": "Montrose", "state": "VA", "country": "US", "coord": {"lon": -77.378311, "lat": 37.520699}}, {"id": 4773752, "name": "Montross", "state": "VA", "country": "US", "coord": {"lon": -76.827461, "lat": 38.095131}}, {"id": 4774075, "name": "Motley", "state": "VA", "country": "US", "coord": {"lon": -79.341141, "lat": 37.069592}}, {"id": 4774282, "name": "Mount Hermon", "state": "VA", "country": "US", "coord": {"lon": -79.422249, "lat": 36.678471}}, {"id": 4774352, "name": "Mount Jackson", "state": "VA", "country": "US", "coord": {"lon": -78.642242, "lat": 38.745949}}, {"id": 4774976, "name": "Mountain Road", "state": "VA", "country": "US", "coord": {"lon": -78.986961, "lat": 36.759579}}, {"id": 4775438, "name": "Narrows", "state": "VA", "country": "US", "coord": {"lon": -80.811188, "lat": 37.331509}}, {"id": 4775439, "name": "Narrows", "state": "VA", "country": "US", "coord": {"lon": -79.958931, "lat": 37.205421}}, {"id": 4775601, "name": "Nellysford", "state": "VA", "country": "US", "coord": {"lon": -78.872238, "lat": 37.890419}}, {"id": 4775660, "name": "New Baltimore", "state": "VA", "country": "US", "coord": {"lon": -77.728333, "lat": 38.767342}}, {"id": 4775705, "name": "New Castle", "state": "VA", "country": "US", "coord": {"lon": -80.110878, "lat": 37.50013}}, {"id": 4775756, "name": "New Hampden", "state": "VA", "country": "US", "coord": {"lon": -79.563377, "lat": 38.492901}}, {"id": 4775859, "name": "New Market", "state": "VA", "country": "US", "coord": {"lon": -78.67141, "lat": 38.6479}}, {"id": 4775981, "name": "Newington", "state": "VA", "country": "US", "coord": {"lon": -77.184982, "lat": 38.738449}}, {"id": 4776024, "name": "Newport News", "state": "VA", "country": "US", "coord": {"lon": -76.428001, "lat": 36.97876}}, {"id": 4776037, "name": "City of Newport News", "state": "VA", "country": "US", "coord": {"lon": -76.508011, "lat": 37.062649}}, {"id": 4776181, "name": "Nokesville", "state": "VA", "country": "US", "coord": {"lon": -77.579712, "lat": 38.69873}}, {"id": 4776222, "name": "Norfolk", "state": "VA", "country": "US", "coord": {"lon": -76.285217, "lat": 36.846809}}, {"id": 4776242, "name": "City of Norfolk", "state": "VA", "country": "US", "coord": {"lon": -76.261879, "lat": 36.891258}}, {"id": 4776469, "name": "North Shore", "state": "VA", "country": "US", "coord": {"lon": -79.658363, "lat": 37.082088}}, {"id": 4776472, "name": "North Springfield", "state": "VA", "country": "US", "coord": {"lon": -77.204697, "lat": 38.804279}}, {"id": 4776585, "name": "Norton", "state": "VA", "country": "US", "coord": {"lon": -82.629051, "lat": 36.93343}}, {"id": 4776694, "name": "Oak Grove", "state": "VA", "country": "US", "coord": {"lon": -77.403877, "lat": 38.984001}}, {"id": 4776970, "name": "Oakton", "state": "VA", "country": "US", "coord": {"lon": -77.300819, "lat": 38.880951}}, {"id": 4777405, "name": "Onancock", "state": "VA", "country": "US", "coord": {"lon": -75.7491, "lat": 37.7118}}, {"id": 4777454, "name": "Orange", "state": "VA", "country": "US", "coord": {"lon": -78.110832, "lat": 38.245411}}, {"id": 4777824, "name": "Palmyra", "state": "VA", "country": "US", "coord": {"lon": -78.263344, "lat": 37.86097}}, {"id": 4777858, "name": "Pannill Fork", "state": "VA", "country": "US", "coord": {"lon": -80.0131, "lat": 36.70903}}, {"id": 4778077, "name": "Passapatanzy", "state": "VA", "country": "US", "coord": {"lon": -77.314148, "lat": 38.297352}}, {"id": 4778096, "name": "Patrick County", "state": "VA", "country": "US", "coord": {"lon": -80.283112, "lat": 36.666801}}, {"id": 4778128, "name": "Patrick Springs", "state": "VA", "country": "US", "coord": {"lon": -80.195053, "lat": 36.6418}}, {"id": 4778312, "name": "Pearisburg", "state": "VA", "country": "US", "coord": {"lon": -80.735069, "lat": 37.326511}}, {"id": 4778381, "name": "Pembroke", "state": "VA", "country": "US", "coord": {"lon": -80.638947, "lat": 37.319569}}, {"id": 4778452, "name": "Pennington Gap", "state": "VA", "country": "US", "coord": {"lon": -83.027107, "lat": 36.758419}}, {"id": 4778626, "name": "Petersburg", "state": "VA", "country": "US", "coord": {"lon": -77.401932, "lat": 37.227928}}, {"id": 4778642, "name": "City of Petersburg", "state": "VA", "country": "US", "coord": {"lon": -77.401932, "lat": 37.227928}}, {"id": 4778945, "name": "Pimmit Hills", "state": "VA", "country": "US", "coord": {"lon": -77.200813, "lat": 38.912891}}, {"id": 4779923, "name": "Poquoson", "state": "VA", "country": "US", "coord": {"lon": -76.345779, "lat": 37.122372}}, {"id": 4779999, "name": "Portsmouth", "state": "VA", "country": "US", "coord": {"lon": -76.298271, "lat": 36.83543}}, {"id": 4780011, "name": "Portsmouth Heights", "state": "VA", "country": "US", "coord": {"lon": -76.368828, "lat": 36.82098}}, {"id": 4780019, "name": "City of Portsmouth", "state": "VA", "country": "US", "coord": {"lon": -76.354668, "lat": 36.85487}}, {"id": 4780087, "name": "Potomac Mills", "state": "VA", "country": "US", "coord": {"lon": -77.294151, "lat": 38.64595}}, {"id": 4780126, "name": "Pound", "state": "VA", "country": "US", "coord": {"lon": -82.601273, "lat": 37.123711}}, {"id": 4780220, "name": "Powhatan", "state": "VA", "country": "US", "coord": {"lon": -77.918892, "lat": 37.542091}}, {"id": 4780337, "name": "Prices Fork", "state": "VA", "country": "US", "coord": {"lon": -80.490051, "lat": 37.20985}}, {"id": 4780370, "name": "Prince George", "state": "VA", "country": "US", "coord": {"lon": -77.288033, "lat": 37.220428}}, {"id": 4780384, "name": "Prince William County", "state": "VA", "country": "US", "coord": {"lon": -77.48304, "lat": 38.700119}}, {"id": 4780577, "name": "Pulaski", "state": "VA", "country": "US", "coord": {"lon": -80.779793, "lat": 37.047901}}, {"id": 4780641, "name": "Purcellville", "state": "VA", "country": "US", "coord": {"lon": -77.714722, "lat": 39.136768}}, {"id": 4780837, "name": "Radford", "state": "VA", "country": "US", "coord": {"lon": -80.576447, "lat": 37.13179}}, {"id": 4780851, "name": "City of Radford", "state": "VA", "country": "US", "coord": {"lon": -80.576447, "lat": 37.13179}}, {"id": 4781039, "name": "Rappahannock County", "state": "VA", "country": "US", "coord": {"lon": -78.149719, "lat": 38.66679}}, {"id": 4781113, "name": "Raven", "state": "VA", "country": "US", "coord": {"lon": -81.855118, "lat": 37.087059}}, {"id": 4781129, "name": "Ravensworth", "state": "VA", "country": "US", "coord": {"lon": -77.220543, "lat": 38.804001}}, {"id": 4781530, "name": "Reston", "state": "VA", "country": "US", "coord": {"lon": -77.341103, "lat": 38.968719}}, {"id": 4781708, "name": "Richmond", "state": "VA", "country": "US", "coord": {"lon": -77.460258, "lat": 37.553761}}, {"id": 4781711, "name": "Richlands", "state": "VA", "country": "US", "coord": {"lon": -81.793732, "lat": 37.09317}}, {"id": 4781756, "name": "City of Richmond", "state": "VA", "country": "US", "coord": {"lon": -77.460258, "lat": 37.553761}}, {"id": 4782167, "name": "Roanoke", "state": "VA", "country": "US", "coord": {"lon": -79.941429, "lat": 37.270969}}, {"id": 4782181, "name": "Roanoke County", "state": "VA", "country": "US", "coord": {"lon": -80.049759, "lat": 37.28347}}, {"id": 4782241, "name": "City of Roanoke", "state": "VA", "country": "US", "coord": {"lon": -79.941429, "lat": 37.270969}}, {"id": 4782691, "name": "Rocky Mount", "state": "VA", "country": "US", "coord": {"lon": -79.891983, "lat": 36.997639}}, {"id": 4782864, "name": "Rose Hill", "state": "VA", "country": "US", "coord": {"lon": -77.112762, "lat": 38.788719}}, {"id": 4783160, "name": "Ruckersville", "state": "VA", "country": "US", "coord": {"lon": -78.369179, "lat": 38.233189}}, {"id": 4783233, "name": "Rural Retreat", "state": "VA", "country": "US", "coord": {"lon": -81.275932, "lat": 36.89373}}, {"id": 4783255, "name": "Rushmere", "state": "VA", "country": "US", "coord": {"lon": -76.676353, "lat": 37.066811}}, {"id": 4783303, "name": "Rustburg", "state": "VA", "country": "US", "coord": {"lon": -79.100853, "lat": 37.27681}}, {"id": 4784112, "name": "Salem", "state": "VA", "country": "US", "coord": {"lon": -80.054764, "lat": 37.293468}}, {"id": 4784205, "name": "City of Salem", "state": "VA", "country": "US", "coord": {"lon": -80.054764, "lat": 37.293468}}, {"id": 4784259, "name": "Saluda", "state": "VA", "country": "US", "coord": {"lon": -76.594948, "lat": 37.605968}}, {"id": 4784275, "name": "Saltville", "state": "VA", "country": "US", "coord": {"lon": -81.762062, "lat": 36.8815}}, {"id": 4784352, "name": "Sandston", "state": "VA", "country": "US", "coord": {"lon": -77.315811, "lat": 37.523479}}, {"id": 4784902, "name": "Seven Corners", "state": "VA", "country": "US", "coord": {"lon": -77.155258, "lat": 38.872059}}, {"id": 4785161, "name": "Shawnee Land", "state": "VA", "country": "US", "coord": {"lon": -78.345558, "lat": 39.19149}}, {"id": 4785167, "name": "Shawsville", "state": "VA", "country": "US", "coord": {"lon": -80.255318, "lat": 37.168468}}, {"id": 4785243, "name": "Shenandoah", "state": "VA", "country": "US", "coord": {"lon": -78.625023, "lat": 38.485119}}, {"id": 4785261, "name": "Shenandoah Farms", "state": "VA", "country": "US", "coord": {"lon": -78.075546, "lat": 38.981781}}, {"id": 4785576, "name": "Short Pump", "state": "VA", "country": "US", "coord": {"lon": -77.612488, "lat": 37.650421}}, {"id": 4786274, "name": "Smithfield", "state": "VA", "country": "US", "coord": {"lon": -76.631073, "lat": 36.982368}}, {"id": 4786352, "name": "Smyth County", "state": "VA", "country": "US", "coord": {"lon": -81.516502, "lat": 36.850121}}, {"id": 4786522, "name": "South Boston", "state": "VA", "country": "US", "coord": {"lon": -78.901398, "lat": 36.69875}}, {"id": 4786619, "name": "South Hill", "state": "VA", "country": "US", "coord": {"lon": -78.128891, "lat": 36.726528}}, {"id": 4786624, "name": "South Hill Park", "state": "VA", "country": "US", "coord": {"lon": -80.419769, "lat": 37.118462}}, {"id": 4786667, "name": "South Riding", "state": "VA", "country": "US", "coord": {"lon": -77.503883, "lat": 38.92094}}, {"id": 4786714, "name": "South Suffolk", "state": "VA", "country": "US", "coord": {"lon": -76.590233, "lat": 36.717091}}, {"id": 4786946, "name": "Spotsylvania", "state": "VA", "country": "US", "coord": {"lon": -77.589149, "lat": 38.200958}}, {"id": 4786952, "name": "Spotsylvania Courthouse", "state": "VA", "country": "US", "coord": {"lon": -77.587769, "lat": 38.19791}}, {"id": 4787117, "name": "Springfield", "state": "VA", "country": "US", "coord": {"lon": -77.187202, "lat": 38.78928}}, {"id": 4787171, "name": "Springville", "state": "VA", "country": "US", "coord": {"lon": -81.402878, "lat": 37.19651}}, {"id": 4787247, "name": "Stafford", "state": "VA", "country": "US", "coord": {"lon": -77.408318, "lat": 38.42207}}, {"id": 4787296, "name": "Stanardsville", "state": "VA", "country": "US", "coord": {"lon": -78.44001, "lat": 38.297352}}, {"id": 4787307, "name": "Stanley", "state": "VA", "country": "US", "coord": {"lon": -78.50251, "lat": 38.575401}}, {"id": 4787327, "name": "Stanleytown", "state": "VA", "country": "US", "coord": {"lon": -79.962822, "lat": 36.744301}}, {"id": 4787440, "name": "Staunton", "state": "VA", "country": "US", "coord": {"lon": -79.071701, "lat": 38.149578}}, {"id": 4787467, "name": "City of Staunton", "state": "VA", "country": "US", "coord": {"lon": -79.071701, "lat": 38.149578}}, {"id": 4787519, "name": "Stephens City", "state": "VA", "country": "US", "coord": {"lon": -78.218063, "lat": 39.083439}}, {"id": 4787534, "name": "Sterling", "state": "VA", "country": "US", "coord": {"lon": -77.428596, "lat": 39.006222}}, {"id": 4787602, "name": "Stevensburg", "state": "VA", "country": "US", "coord": {"lon": -77.899719, "lat": 38.44318}}, {"id": 4787974, "name": "Strasburg", "state": "VA", "country": "US", "coord": {"lon": -78.35862, "lat": 38.98872}}, {"id": 4788051, "name": "Stuart", "state": "VA", "country": "US", "coord": {"lon": -80.26561, "lat": 36.640968}}, {"id": 4788070, "name": "Stuarts Draft", "state": "VA", "country": "US", "coord": {"lon": -79.033638, "lat": 38.03014}}, {"id": 4788145, "name": "Sudley", "state": "VA", "country": "US", "coord": {"lon": -77.49749, "lat": 38.792889}}, {"id": 4788158, "name": "Suffolk", "state": "VA", "country": "US", "coord": {"lon": -76.583557, "lat": 36.72821}}, {"id": 4788160, "name": "City of Suffolk", "state": "VA", "country": "US", "coord": {"lon": -76.608009, "lat": 36.708481}}, {"id": 4788216, "name": "Sugarland Run", "state": "VA", "country": "US", "coord": {"lon": -77.375259, "lat": 39.037609}}, {"id": 4788431, "name": "Surry", "state": "VA", "country": "US", "coord": {"lon": -76.835243, "lat": 37.137932}}, {"id": 4788444, "name": "Sussex", "state": "VA", "country": "US", "coord": {"lon": -77.279137, "lat": 36.91515}}, {"id": 4788822, "name": "Tappahannock", "state": "VA", "country": "US", "coord": {"lon": -76.859131, "lat": 37.925411}}, {"id": 4788966, "name": "Tazewell", "state": "VA", "country": "US", "coord": {"lon": -81.519547, "lat": 37.114841}}, {"id": 4789648, "name": "Timberlake", "state": "VA", "country": "US", "coord": {"lon": -79.25753, "lat": 37.320702}}, {"id": 4789655, "name": "Timberville", "state": "VA", "country": "US", "coord": {"lon": -78.773911, "lat": 38.639011}}, {"id": 4790025, "name": "Triangle", "state": "VA", "country": "US", "coord": {"lon": -77.336647, "lat": 38.546791}}, {"id": 4790207, "name": "Tuckahoe", "state": "VA", "country": "US", "coord": {"lon": -77.556381, "lat": 37.590149}}, {"id": 4790534, "name": "Tysons Corner", "state": "VA", "country": "US", "coord": {"lon": -77.231087, "lat": 38.91872}}, {"id": 4790661, "name": "Union Hall", "state": "VA", "country": "US", "coord": {"lon": -79.686417, "lat": 37.018749}}, {"id": 4790763, "name": "University Center", "state": "VA", "country": "US", "coord": {"lon": -77.444153, "lat": 39.057049}}, {"id": 4791102, "name": "Verona", "state": "VA", "country": "US", "coord": {"lon": -79.008362, "lat": 38.20208}}, {"id": 4791136, "name": "Victoria", "state": "VA", "country": "US", "coord": {"lon": -78.227219, "lat": 36.994869}}, {"id": 4791160, "name": "Vienna", "state": "VA", "country": "US", "coord": {"lon": -77.265259, "lat": 38.901218}}, {"id": 4791237, "name": "Vinton", "state": "VA", "country": "US", "coord": {"lon": -79.89698, "lat": 37.280972}}, {"id": 4791259, "name": "Virginia Beach", "state": "VA", "country": "US", "coord": {"lon": -75.977982, "lat": 36.852928}}, {"id": 4791271, "name": "City of Virginia Beach", "state": "VA", "country": "US", "coord": {"lon": -76.005211, "lat": 36.737652}}, {"id": 4792225, "name": "Warm Springs", "state": "VA", "country": "US", "coord": {"lon": -79.790611, "lat": 38.046242}}, {"id": 4792255, "name": "Warrenton", "state": "VA", "country": "US", "coord": {"lon": -77.795273, "lat": 38.713451}}, {"id": 4792273, "name": "Warsaw", "state": "VA", "country": "US", "coord": {"lon": -76.758011, "lat": 37.95874}}, {"id": 4792307, "name": "Washington", "state": "VA", "country": "US", "coord": {"lon": -78.159439, "lat": 38.713451}}, {"id": 4792484, "name": "Wattsville", "state": "VA", "country": "US", "coord": {"lon": -75.499649, "lat": 37.93401}}, {"id": 4792494, "name": "Waverly", "state": "VA", "country": "US", "coord": {"lon": -77.095238, "lat": 37.03598}}, {"id": 4792522, "name": "Waynesboro", "state": "VA", "country": "US", "coord": {"lon": -78.889473, "lat": 38.06847}}, {"id": 4792534, "name": "City of Waynesboro", "state": "VA", "country": "US", "coord": {"lon": -78.889473, "lat": 38.06847}}, {"id": 4792598, "name": "Weber City", "state": "VA", "country": "US", "coord": {"lon": -78.28389, "lat": 37.755138}}, {"id": 4792599, "name": "Weber City", "state": "VA", "country": "US", "coord": {"lon": -82.562103, "lat": 36.622879}}, {"id": 4792829, "name": "West Gate", "state": "VA", "country": "US", "coord": {"lon": -77.49749, "lat": 38.78289}}, {"id": 4792867, "name": "West Lynchburg", "state": "VA", "country": "US", "coord": {"lon": -79.178078, "lat": 37.403198}}, {"id": 4792878, "name": "West Point", "state": "VA", "country": "US", "coord": {"lon": -76.796349, "lat": 37.531528}}, {"id": 4792901, "name": "West Springfield", "state": "VA", "country": "US", "coord": {"lon": -77.221092, "lat": 38.77261}}, {"id": 4793125, "name": "Weyers Cave", "state": "VA", "country": "US", "coord": {"lon": -78.913078, "lat": 38.28846}}, {"id": 4793846, "name": "Williamsburg", "state": "VA", "country": "US", "coord": {"lon": -76.707458, "lat": 37.270699}}, {"id": 4794120, "name": "Winchester", "state": "VA", "country": "US", "coord": {"lon": -78.16333, "lat": 39.185661}}, {"id": 4794134, "name": "City of Winchester", "state": "VA", "country": "US", "coord": {"lon": -78.16333, "lat": 39.185661}}, {"id": 4794164, "name": "Windsor", "state": "VA", "country": "US", "coord": {"lon": -76.744118, "lat": 36.808479}}, {"id": 4794277, "name": "Wise County", "state": "VA", "country": "US", "coord": {"lon": -82.599876, "lat": 36.96677}}, {"id": 4794350, "name": "Wolf Trap", "state": "VA", "country": "US", "coord": {"lon": -77.286087, "lat": 38.939831}}, {"id": 4794457, "name": "Woodbridge", "state": "VA", "country": "US", "coord": {"lon": -77.249702, "lat": 38.658169}}, {"id": 4794529, "name": "Woodlawn", "state": "VA", "country": "US", "coord": {"lon": -80.822853, "lat": 36.722351}}, {"id": 4794531, "name": "Woodlawn", "state": "VA", "country": "US", "coord": {"lon": -77.132759, "lat": 38.716782}}, {"id": 4794641, "name": "Woodstock", "state": "VA", "country": "US", "coord": {"lon": -78.505836, "lat": 38.881779}}, {"id": 4794814, "name": "Wyndham", "state": "VA", "country": "US", "coord": {"lon": -77.612488, "lat": 37.698479}}, {"id": 4794837, "name": "Wytheville", "state": "VA", "country": "US", "coord": {"lon": -81.084808, "lat": 36.948448}}, {"id": 4794943, "name": "York County", "state": "VA", "country": "US", "coord": {"lon": -76.549667, "lat": 37.233479}}, {"id": 4794966, "name": "Yorkshire", "state": "VA", "country": "US", "coord": {"lon": -77.447769, "lat": 38.793171}}, {"id": 4795467, "name": "Charlotte Amalie", "state": "", "country": "VI", "coord": {"lon": -64.930702, "lat": 18.3419}}, {"id": 4795577, "name": "Cruz Bay", "state": "", "country": "VI", "coord": {"lon": -64.793747, "lat": 18.331341}}, {"id": 4795677, "name": "Envy", "state": "", "country": "VI", "coord": {"lon": -64.802917, "lat": 17.699421}}, {"id": 4796105, "name": "Lovenlund", "state": "", "country": "VI", "coord": {"lon": -64.91098, "lat": 18.359119}}, {"id": 4796512, "name": "Saint Croix", "state": "", "country": "VI", "coord": {"lon": -64.738762, "lat": 17.7397}}, {"id": 4796775, "name": "Virgin Islands of the United States", "state": "", "country": "VI", "coord": {"lon": -64.983482, "lat": 18.348289}}, {"id": 4797041, "name": "Alderson", "state": "WV", "country": "US", "coord": {"lon": -80.642021, "lat": 37.725948}}, {"id": 4797174, "name": "Alum Creek", "state": "WV", "country": "US", "coord": {"lon": -81.80513, "lat": 38.286758}}, {"id": 4797301, "name": "Ansted", "state": "WV", "country": "US", "coord": {"lon": -81.099548, "lat": 38.136219}}, {"id": 4797447, "name": "Arnold Hill", "state": "WV", "country": "US", "coord": {"lon": -79.863678, "lat": 38.883438}}, {"id": 4797549, "name": "Athens", "state": "WV", "country": "US", "coord": {"lon": -81.016197, "lat": 37.42234}}, {"id": 4797880, "name": "Barboursville", "state": "WV", "country": "US", "coord": {"lon": -82.294594, "lat": 38.409531}}, {"id": 4797975, "name": "Barrackville", "state": "WV", "country": "US", "coord": {"lon": -80.166748, "lat": 39.5037}}, {"id": 4798258, "name": "Beaver", "state": "WV", "country": "US", "coord": {"lon": -81.142319, "lat": 37.74762}}, {"id": 4798308, "name": "Beckley", "state": "WV", "country": "US", "coord": {"lon": -81.188164, "lat": 37.778172}}, {"id": 4798532, "name": "Belington", "state": "WV", "country": "US", "coord": {"lon": -79.935631, "lat": 39.025101}}, {"id": 4798559, "name": "Belle", "state": "WV", "country": "US", "coord": {"lon": -81.537621, "lat": 38.232052}}, {"id": 4798686, "name": "Berkeley County", "state": "WV", "country": "US", "coord": {"lon": -78.033058, "lat": 39.4501}}, {"id": 4798697, "name": "Berkeley Springs", "state": "WV", "country": "US", "coord": {"lon": -78.224716, "lat": 39.624802}}, {"id": 4798838, "name": "Bethlehem", "state": "WV", "country": "US", "coord": {"lon": -80.28064, "lat": 39.392029}}, {"id": 4799532, "name": "Blennerhassett", "state": "WV", "country": "US", "coord": {"lon": -81.629288, "lat": 39.263691}}, {"id": 4799622, "name": "Bluefield", "state": "WV", "country": "US", "coord": {"lon": -81.222321, "lat": 37.26984}}, {"id": 4799692, "name": "Bluewell", "state": "WV", "country": "US", "coord": {"lon": -81.259819, "lat": 37.312618}}, {"id": 4799715, "name": "Boaz", "state": "WV", "country": "US", "coord": {"lon": -81.502068, "lat": 39.361462}}, {"id": 4799763, "name": "Bolair", "state": "WV", "country": "US", "coord": {"lon": -80.44397, "lat": 38.437611}}, {"id": 4799766, "name": "Bolivar", "state": "WV", "country": "US", "coord": {"lon": -77.752769, "lat": 39.323429}}, {"id": 4799815, "name": "Boone County", "state": "WV", "country": "US", "coord": {"lon": -81.699837, "lat": 38.016769}}, {"id": 4799944, "name": "Bradley", "state": "WV", "country": "US", "coord": {"lon": -81.193993, "lat": 37.865391}}, {"id": 4800081, "name": "Bridgeport", "state": "WV", "country": "US", "coord": {"lon": -80.256203, "lat": 39.28648}}, {"id": 4800099, "name": "Brierwood", "state": "WV", "country": "US", "coord": {"lon": -81.43679, "lat": 39.336739}}, {"id": 4800195, "name": "Brookhaven", "state": "WV", "country": "US", "coord": {"lon": -79.90451, "lat": 39.611752}}, {"id": 4800356, "name": "Brush Fork", "state": "WV", "country": "US", "coord": {"lon": -81.255928, "lat": 37.280949}}, {"id": 4800587, "name": "Buckhannon", "state": "WV", "country": "US", "coord": {"lon": -80.232033, "lat": 38.993992}}, {"id": 4800639, "name": "Buffalo", "state": "WV", "country": "US", "coord": {"lon": -81.981796, "lat": 38.617592}}, {"id": 4800996, "name": "Cabell County", "state": "WV", "country": "US", "coord": {"lon": -82.24987, "lat": 38.433418}}, {"id": 4801546, "name": "Cass", "state": "WV", "country": "US", "coord": {"lon": -79.91478, "lat": 38.396778}}, {"id": 4801769, "name": "Ceredo", "state": "WV", "country": "US", "coord": {"lon": -82.558769, "lat": 38.396469}}, {"id": 4801828, "name": "Chapmanville", "state": "WV", "country": "US", "coord": {"lon": -82.017349, "lat": 37.973709}}, {"id": 4801850, "name": "Charles Town", "state": "WV", "country": "US", "coord": {"lon": -77.859718, "lat": 39.28899}}, {"id": 4801859, "name": "Charleston", "state": "WV", "country": "US", "coord": {"lon": -81.632622, "lat": 38.349819}}, {"id": 4801895, "name": "Cheat Lake", "state": "WV", "country": "US", "coord": {"lon": -79.853394, "lat": 39.67202}}, {"id": 4801966, "name": "Chesapeake", "state": "WV", "country": "US", "coord": {"lon": -81.536232, "lat": 38.223438}}, {"id": 4802316, "name": "Clarksburg", "state": "WV", "country": "US", "coord": {"lon": -80.344528, "lat": 39.280651}}, {"id": 4802333, "name": "Clay", "state": "WV", "country": "US", "coord": {"lon": -81.085114, "lat": 38.460381}}, {"id": 4802417, "name": "Clendenin", "state": "WV", "country": "US", "coord": {"lon": -81.348167, "lat": 38.488708}}, {"id": 4802525, "name": "Coal City", "state": "WV", "country": "US", "coord": {"lon": -81.210381, "lat": 37.679001}}, {"id": 4802527, "name": "Coal Fork", "state": "WV", "country": "US", "coord": {"lon": -81.52095, "lat": 38.3176}}, {"id": 4803150, "name": "Crab Orchard", "state": "WV", "country": "US", "coord": {"lon": -81.230659, "lat": 37.740669}}, {"id": 4803183, "name": "Craigsville", "state": "WV", "country": "US", "coord": {"lon": -80.653152, "lat": 38.330669}}, {"id": 4803372, "name": "Cross Lanes", "state": "WV", "country": "US", "coord": {"lon": -81.79068, "lat": 38.420368}}, {"id": 4803404, "name": "Crown Hill", "state": "WV", "country": "US", "coord": {"lon": -81.413727, "lat": 38.2001}}, {"id": 4803451, "name": "Culloden", "state": "WV", "country": "US", "coord": {"lon": -82.05542, "lat": 38.42009}}, {"id": 4803616, "name": "Daniels", "state": "WV", "country": "US", "coord": {"lon": -81.122879, "lat": 37.743172}}, {"id": 4803960, "name": "Despard", "state": "WV", "country": "US", "coord": {"lon": -80.305923, "lat": 39.2887}}, {"id": 4804563, "name": "Dunbar", "state": "WV", "country": "US", "coord": {"lon": -81.73735, "lat": 38.360649}}, {"id": 4804927, "name": "Eleanor", "state": "WV", "country": "US", "coord": {"lon": -81.932358, "lat": 38.53759}}, {"id": 4804951, "name": "Elizabeth", "state": "WV", "country": "US", "coord": {"lon": -81.395119, "lat": 39.063412}}, {"id": 4805033, "name": "Elkins", "state": "WV", "country": "US", "coord": {"lon": -79.846733, "lat": 38.925941}}, {"id": 4805077, "name": "Elkview", "state": "WV", "country": "US", "coord": {"lon": -81.4804, "lat": 38.442879}}, {"id": 4805403, "name": "Fairlea", "state": "WV", "country": "US", "coord": {"lon": -80.457024, "lat": 37.780682}}, {"id": 4805404, "name": "Fairmont", "state": "WV", "country": "US", "coord": {"lon": -80.142578, "lat": 39.485081}}, {"id": 4805678, "name": "Fayette County", "state": "WV", "country": "US", "coord": {"lon": -81.099823, "lat": 38.05011}}, {"id": 4805686, "name": "Fayetteville", "state": "WV", "country": "US", "coord": {"lon": -81.103989, "lat": 38.052891}}, {"id": 4806346, "name": "Fort Ashby", "state": "WV", "country": "US", "coord": {"lon": -78.768631, "lat": 39.503151}}, {"id": 4806401, "name": "Foster", "state": "WV", "country": "US", "coord": {"lon": -81.779839, "lat": 38.097321}}, {"id": 4806416, "name": "Fountain Spring", "state": "WV", "country": "US", "coord": {"lon": -81.544853, "lat": 39.146191}}, {"id": 4806504, "name": "Franklin", "state": "WV", "country": "US", "coord": {"lon": -79.331146, "lat": 38.642891}}, {"id": 4806775, "name": "Garten", "state": "WV", "country": "US", "coord": {"lon": -81.076767, "lat": 38.034561}}, {"id": 4806941, "name": "Gilbert Creek", "state": "WV", "country": "US", "coord": {"lon": -81.894836, "lat": 37.575939}}, {"id": 4807058, "name": "Gleason (historical)", "state": "WV", "country": "US", "coord": {"lon": -79.217262, "lat": 39.362881}}, {"id": 4807116, "name": "Glenville", "state": "WV", "country": "US", "coord": {"lon": -80.837601, "lat": 38.934261}}, {"id": 4807136, "name": "Glendale", "state": "WV", "country": "US", "coord": {"lon": -80.75425, "lat": 39.949242}}, {"id": 4807310, "name": "Grafton", "state": "WV", "country": "US", "coord": {"lon": -80.018967, "lat": 39.340919}}, {"id": 4807389, "name": "Grantsville", "state": "WV", "country": "US", "coord": {"lon": -81.095947, "lat": 38.92342}}, {"id": 4807976, "name": "Hamlin", "state": "WV", "country": "US", "coord": {"lon": -82.102921, "lat": 38.278702}}, {"id": 4808274, "name": "Harrison County", "state": "WV", "country": "US", "coord": {"lon": -80.383148, "lat": 39.283421}}, {"id": 4808281, "name": "Harrisville", "state": "WV", "country": "US", "coord": {"lon": -81.051781, "lat": 39.209518}}, {"id": 4808945, "name": "Hinton", "state": "WV", "country": "US", "coord": {"lon": -80.889252, "lat": 37.674011}}, {"id": 4809537, "name": "Huntington", "state": "WV", "country": "US", "coord": {"lon": -82.445152, "lat": 38.41925}}, {"id": 4809558, "name": "Hurricane", "state": "WV", "country": "US", "coord": {"lon": -82.020142, "lat": 38.43259}}, {"id": 4809881, "name": "Inwood", "state": "WV", "country": "US", "coord": {"lon": -78.040001, "lat": 39.35788}}, {"id": 4810156, "name": "Jed", "state": "WV", "country": "US", "coord": {"lon": -81.574547, "lat": 37.404282}}, {"id": 4810630, "name": "Kanawha County", "state": "WV", "country": "US", "coord": {"lon": -81.566513, "lat": 38.333431}}, {"id": 4810818, "name": "Kenova", "state": "WV", "country": "US", "coord": {"lon": -82.578209, "lat": 38.398972}}, {"id": 4810850, "name": "Kesling Mill", "state": "WV", "country": "US", "coord": {"lon": -80.142303, "lat": 39.005379}}, {"id": 4810884, "name": "Keyser", "state": "WV", "country": "US", "coord": {"lon": -78.973923, "lat": 39.440929}}, {"id": 4811007, "name": "Kingwood", "state": "WV", "country": "US", "coord": {"lon": -79.683388, "lat": 39.47176}}, {"id": 4811622, "name": "Lavalette", "state": "WV", "country": "US", "coord": {"lon": -82.446823, "lat": 38.322861}}, {"id": 4811968, "name": "Lesage", "state": "WV", "country": "US", "coord": {"lon": -82.298477, "lat": 38.50647}}, {"id": 4812015, "name": "Lewisburg", "state": "WV", "country": "US", "coord": {"lon": -80.445633, "lat": 37.801788}}, {"id": 4812867, "name": "Logan", "state": "WV", "country": "US", "coord": {"lon": -81.993462, "lat": 37.848709}}, {"id": 4813389, "name": "Lubeck", "state": "WV", "country": "US", "coord": {"lon": -81.631241, "lat": 39.235352}}, {"id": 4813512, "name": "Mabscott", "state": "WV", "country": "US", "coord": {"lon": -81.208427, "lat": 37.77095}}, {"id": 4813519, "name": "MacArthur", "state": "WV", "country": "US", "coord": {"lon": -81.212601, "lat": 37.75845}}, {"id": 4813565, "name": "Madison", "state": "WV", "country": "US", "coord": {"lon": -81.81929, "lat": 38.067051}}, {"id": 4813648, "name": "Mallory", "state": "WV", "country": "US", "coord": {"lon": -81.837898, "lat": 37.730659}}, {"id": 4813666, "name": "Mannington", "state": "WV", "country": "US", "coord": {"lon": -80.343422, "lat": 39.530918}}, {"id": 4813754, "name": "Marion County", "state": "WV", "country": "US", "coord": {"lon": -80.249802, "lat": 39.51675}}, {"id": 4813774, "name": "Marlinton", "state": "WV", "country": "US", "coord": {"lon": -80.094513, "lat": 38.22345}}, {"id": 4813783, "name": "Marmet", "state": "WV", "country": "US", "coord": {"lon": -81.567062, "lat": 38.24538}}, {"id": 4813878, "name": "Martinsburg", "state": "WV", "country": "US", "coord": {"lon": -77.96389, "lat": 39.456211}}, {"id": 4814188, "name": "McDowell County", "state": "WV", "country": "US", "coord": {"lon": -81.649834, "lat": 37.366779}}, {"id": 4814268, "name": "McMechen", "state": "WV", "country": "US", "coord": {"lon": -80.731468, "lat": 39.988129}}, {"id": 4814674, "name": "Middlebourne", "state": "WV", "country": "US", "coord": {"lon": -80.903717, "lat": 39.492298}}, {"id": 4815044, "name": "Milton", "state": "WV", "country": "US", "coord": {"lon": -82.132362, "lat": 38.434528}}, {"id": 4815060, "name": "Mineral County", "state": "WV", "country": "US", "coord": {"lon": -78.949753, "lat": 39.400101}}, {"id": 4815066, "name": "Mineral Wells", "state": "WV", "country": "US", "coord": {"lon": -81.532066, "lat": 39.19035}}, {"id": 4815200, "name": "Monongah", "state": "WV", "country": "US", "coord": {"lon": -80.21814, "lat": 39.462582}}, {"id": 4815207, "name": "Monongalia County", "state": "WV", "country": "US", "coord": {"lon": -80.033119, "lat": 39.650082}}, {"id": 4815241, "name": "Montgomery", "state": "WV", "country": "US", "coord": {"lon": -81.328453, "lat": 38.180382}}, {"id": 4815286, "name": "Moorefield", "state": "WV", "country": "US", "coord": {"lon": -78.969467, "lat": 39.062328}}, {"id": 4815352, "name": "Morgantown", "state": "WV", "country": "US", "coord": {"lon": -79.955902, "lat": 39.629532}}, {"id": 4815462, "name": "Moundsville", "state": "WV", "country": "US", "coord": {"lon": -80.743141, "lat": 39.920349}}, {"id": 4815582, "name": "Mount Hope", "state": "WV", "country": "US", "coord": {"lon": -81.164268, "lat": 37.89539}}, {"id": 4816186, "name": "Mullens", "state": "WV", "country": "US", "coord": {"lon": -81.380379, "lat": 37.583172}}, {"id": 4816520, "name": "New Martinsville", "state": "WV", "country": "US", "coord": {"lon": -80.857597, "lat": 39.64452}}, {"id": 4816522, "name": "New Haven", "state": "WV", "country": "US", "coord": {"lon": -81.973473, "lat": 38.986469}}, {"id": 4816665, "name": "Nitro", "state": "WV", "country": "US", "coord": {"lon": -81.844017, "lat": 38.41481}}, {"id": 4816898, "name": "Nutter Fort", "state": "WV", "country": "US", "coord": {"lon": -80.319809, "lat": 39.26342}}, {"id": 4816993, "name": "Oak Hill", "state": "WV", "country": "US", "coord": {"lon": -81.148712, "lat": 37.972328}}, {"id": 4817070, "name": "Oceana", "state": "WV", "country": "US", "coord": {"lon": -81.624001, "lat": 37.692059}}, {"id": 4817486, "name": "Paden City", "state": "WV", "country": "US", "coord": {"lon": -80.936768, "lat": 39.602852}}, {"id": 4817641, "name": "Parkersburg", "state": "WV", "country": "US", "coord": {"lon": -81.561508, "lat": 39.266739}}, {"id": 4817695, "name": "Parsons", "state": "WV", "country": "US", "coord": {"lon": -79.680901, "lat": 39.0965}}, {"id": 4817825, "name": "Pea Ridge", "state": "WV", "country": "US", "coord": {"lon": -82.31987, "lat": 38.413971}}, {"id": 4817911, "name": "Pennsboro", "state": "WV", "country": "US", "coord": {"lon": -80.968437, "lat": 39.28508}}, {"id": 4818030, "name": "Petersburg", "state": "WV", "country": "US", "coord": {"lon": -79.123917, "lat": 38.992611}}, {"id": 4818074, "name": "Philippi", "state": "WV", "country": "US", "coord": {"lon": -80.040359, "lat": 39.152321}}, {"id": 4818227, "name": "Pinch", "state": "WV", "country": "US", "coord": {"lon": -81.481789, "lat": 38.40871}}, {"id": 4818347, "name": "Pineville", "state": "WV", "country": "US", "coord": {"lon": -81.537048, "lat": 37.583172}}, {"id": 4818573, "name": "Pleasant Valley", "state": "WV", "country": "US", "coord": {"lon": -80.141747, "lat": 39.45536}}, {"id": 4818700, "name": "Pocahontas County", "state": "WV", "country": "US", "coord": {"lon": -80.033119, "lat": 38.316792}}, {"id": 4818750, "name": "Point Pleasant", "state": "WV", "country": "US", "coord": {"lon": -82.137093, "lat": 38.844528}}, {"id": 4819079, "name": "Princeton", "state": "WV", "country": "US", "coord": {"lon": -81.102592, "lat": 37.36623}}, {"id": 4819121, "name": "Prosperity", "state": "WV", "country": "US", "coord": {"lon": -81.201767, "lat": 37.836498}}, {"id": 4819197, "name": "Putnam County", "state": "WV", "country": "US", "coord": {"lon": -81.883186, "lat": 38.516762}}, {"id": 4819307, "name": "Rainelle", "state": "WV", "country": "US", "coord": {"lon": -80.767029, "lat": 37.968731}}, {"id": 4819310, "name": "Raleigh County", "state": "WV", "country": "US", "coord": {"lon": -81.249817, "lat": 37.750111}}, {"id": 4819360, "name": "Rand", "state": "WV", "country": "US", "coord": {"lon": -81.56234, "lat": 38.2826}}, {"id": 4819366, "name": "Randolph County", "state": "WV", "country": "US", "coord": {"lon": -79.833122, "lat": 38.766781}}, {"id": 4819389, "name": "Ranson", "state": "WV", "country": "US", "coord": {"lon": -77.86055, "lat": 39.295101}}, {"id": 4819418, "name": "Ravenswood", "state": "WV", "country": "US", "coord": {"lon": -81.760963, "lat": 38.948139}}, {"id": 4819768, "name": "Richwood", "state": "WV", "country": "US", "coord": {"lon": -80.533142, "lat": 38.224838}}, {"id": 4820037, "name": "Ripley", "state": "WV", "country": "US", "coord": {"lon": -81.710693, "lat": 38.818699}}, {"id": 4820597, "name": "Romney", "state": "WV", "country": "US", "coord": {"lon": -78.756683, "lat": 39.342041}}, {"id": 4820608, "name": "Ronceverte", "state": "WV", "country": "US", "coord": {"lon": -80.462852, "lat": 37.74984}}, {"id": 4820938, "name": "Saint Albans", "state": "WV", "country": "US", "coord": {"lon": -81.836243, "lat": 38.385651}}, {"id": 4821087, "name": "Saint Marys", "state": "WV", "country": "US", "coord": {"lon": -81.205109, "lat": 39.391739}}, {"id": 4821203, "name": "Salem", "state": "WV", "country": "US", "coord": {"lon": -80.55899, "lat": 39.282871}}, {"id": 4821800, "name": "Shady Spring", "state": "WV", "country": "US", "coord": {"lon": -81.098427, "lat": 37.705669}}, {"id": 4821860, "name": "Shannondale", "state": "WV", "country": "US", "coord": {"lon": -77.807487, "lat": 39.217049}}, {"id": 4821983, "name": "Shepherdstown", "state": "WV", "country": "US", "coord": {"lon": -77.804161, "lat": 39.430099}}, {"id": 4822050, "name": "Shinnston", "state": "WV", "country": "US", "coord": {"lon": -80.300087, "lat": 39.395641}}, {"id": 4822310, "name": "Sissonville", "state": "WV", "country": "US", "coord": {"lon": -81.630959, "lat": 38.528149}}, {"id": 4822313, "name": "Sistersville", "state": "WV", "country": "US", "coord": {"lon": -80.995941, "lat": 39.56424}}, {"id": 4822741, "name": "Sophia", "state": "WV", "country": "US", "coord": {"lon": -81.250664, "lat": 37.707611}}, {"id": 4822764, "name": "South Charleston", "state": "WV", "country": "US", "coord": {"lon": -81.69957, "lat": 38.368431}}, {"id": 4822933, "name": "Spencer", "state": "WV", "country": "US", "coord": {"lon": -81.350952, "lat": 38.802029}}, {"id": 4823285, "name": "Stanaford", "state": "WV", "country": "US", "coord": {"lon": -81.152321, "lat": 37.815948}}, {"id": 4823309, "name": "Star City", "state": "WV", "country": "US", "coord": {"lon": -79.98645, "lat": 39.658409}}, {"id": 4823571, "name": "Stonewood", "state": "WV", "country": "US", "coord": {"lon": -80.312309, "lat": 39.250919}}, {"id": 4824027, "name": "Summersville", "state": "WV", "country": "US", "coord": {"lon": -80.8526, "lat": 38.281219}}, {"id": 4824118, "name": "Sutton", "state": "WV", "country": "US", "coord": {"lon": -80.709824, "lat": 38.664539}}, {"id": 4824451, "name": "Teays Farm", "state": "WV", "country": "US", "coord": {"lon": -81.902634, "lat": 38.48592}}, {"id": 4824469, "name": "Teays Valley", "state": "WV", "country": "US", "coord": {"lon": -81.929298, "lat": 38.450089}}, {"id": 4824515, "name": "Terra Alta", "state": "WV", "country": "US", "coord": {"lon": -79.54644, "lat": 39.445648}}, {"id": 4825440, "name": "Uneeda", "state": "WV", "country": "US", "coord": {"lon": -81.780678, "lat": 38.03566}}, {"id": 4825447, "name": "Union", "state": "WV", "country": "US", "coord": {"lon": -80.543678, "lat": 37.591511}}, {"id": 4825617, "name": "Tornado", "state": "WV", "country": "US", "coord": {"lon": -81.844299, "lat": 38.342869}}, {"id": 4825733, "name": "Upshur County", "state": "WV", "country": "US", "coord": {"lon": -80.250359, "lat": 38.88343}}, {"id": 4825976, "name": "Vienna", "state": "WV", "country": "US", "coord": {"lon": -81.548462, "lat": 39.327019}}, {"id": 4826522, "name": "Washington", "state": "WV", "country": "US", "coord": {"lon": -81.671799, "lat": 39.261189}}, {"id": 4826592, "name": "Wayne", "state": "WV", "country": "US", "coord": {"lon": -82.442368, "lat": 38.22147}}, {"id": 4826636, "name": "Webster County", "state": "WV", "country": "US", "coord": {"lon": -80.416473, "lat": 38.516769}}, {"id": 4826648, "name": "Webster Springs", "state": "WV", "country": "US", "coord": {"lon": -80.413422, "lat": 38.479271}}, {"id": 4826660, "name": "Welch", "state": "WV", "country": "US", "coord": {"lon": -81.584549, "lat": 37.432892}}, {"id": 4826808, "name": "West Union", "state": "WV", "country": "US", "coord": {"lon": -80.777046, "lat": 39.296471}}, {"id": 4826850, "name": "West Virginia", "state": "WV", "country": "US", "coord": {"lon": -80.500092, "lat": 38.500381}}, {"id": 4826882, "name": "Weston", "state": "WV", "country": "US", "coord": {"lon": -80.467308, "lat": 39.038429}}, {"id": 4826895, "name": "Westover", "state": "WV", "country": "US", "coord": {"lon": -79.969788, "lat": 39.634529}}, {"id": 4827104, "name": "White Sulphur Springs", "state": "WV", "country": "US", "coord": {"lon": -80.297569, "lat": 37.796509}}, {"id": 4827185, "name": "Whittaker", "state": "WV", "country": "US", "coord": {"lon": -81.380112, "lat": 38.07761}}, {"id": 4827255, "name": "Wiley Ford", "state": "WV", "country": "US", "coord": {"lon": -78.775017, "lat": 39.614529}}, {"id": 4827333, "name": "Williamson", "state": "WV", "country": "US", "coord": {"lon": -82.277359, "lat": 37.674271}}, {"id": 4827351, "name": "Williamstown", "state": "WV", "country": "US", "coord": {"lon": -81.448181, "lat": 39.400631}}, {"id": 4827506, "name": "Winfield", "state": "WV", "country": "US", "coord": {"lon": -81.893471, "lat": 38.533138}}, {"id": 4827706, "name": "Wood County", "state": "WV", "country": "US", "coord": {"lon": -81.501228, "lat": 39.200081}}, {"id": 4828081, "name": "Elba", "state": "AL", "country": "US", "coord": {"lon": -86.067719, "lat": 31.41461}}, {"id": 4828090, "name": "Elmore", "state": "AL", "country": "US", "coord": {"lon": -86.314972, "lat": 32.538738}}, {"id": 4828193, "name": "Sherwood", "state": "AR", "country": "US", "coord": {"lon": -92.224319, "lat": 34.81509}}, {"id": 4828344, "name": "Bando", "state": "IL", "country": "US", "coord": {"lon": -89.709549, "lat": 39.827549}}, {"id": 4828382, "name": "Franklin", "state": "IN", "country": "US", "coord": {"lon": -86.054993, "lat": 39.48061}}, {"id": 4828384, "name": "Newton", "state": "IL", "country": "US", "coord": {"lon": -88.162537, "lat": 38.990879}}, {"id": 4828388, "name": "Narita", "state": "IL", "country": "US", "coord": {"lon": -89.218979, "lat": 39.983101}}, {"id": 4828677, "name": "Linn", "state": "MO", "country": "US", "coord": {"lon": -91.850449, "lat": 38.48587}}, {"id": 4828696, "name": "Villa Ridge", "state": "MO", "country": "US", "coord": {"lon": -90.886803, "lat": 38.472549}}, {"id": 4828755, "name": "Rosedale", "state": "MS", "country": "US", "coord": {"lon": -91.027893, "lat": 33.853439}}, {"id": 4828766, "name": "Shaw", "state": "MS", "country": "US", "coord": {"lon": -90.773712, "lat": 33.60178}}, {"id": 4828862, "name": "Merchantville", "state": "NJ", "country": "US", "coord": {"lon": -75.066559, "lat": 39.947338}}, {"id": 4828864, "name": "Florence", "state": "NJ", "country": "US", "coord": {"lon": -74.918221, "lat": 39.73428}}, {"id": 4828875, "name": "Oak Valley", "state": "NJ", "country": "US", "coord": {"lon": -75.162399, "lat": 39.80122}}, {"id": 4828883, "name": "Bremen", "state": "OH", "country": "US", "coord": {"lon": -82.426819, "lat": 39.701729}}, {"id": 4828890, "name": "Chillicothe", "state": "OH", "country": "US", "coord": {"lon": -82.982399, "lat": 39.333118}}, {"id": 4828923, "name": "Coalgate", "state": "OK", "country": "US", "coord": {"lon": -96.218613, "lat": 34.538151}}, {"id": 4829092, "name": "Bedford County", "state": "TN", "country": "US", "coord": {"lon": -86.449989, "lat": 35.516739}}, {"id": 4829206, "name": "Dilley", "state": "TX", "country": "US", "coord": {"lon": -99.170593, "lat": 28.66748}}, {"id": 4829208, "name": "Devine", "state": "TX", "country": "US", "coord": {"lon": -98.905312, "lat": 29.139959}}, {"id": 4829219, "name": "Hickory Creek", "state": "TX", "country": "US", "coord": {"lon": -97.04306, "lat": 33.122341}}, {"id": 4829237, "name": "Buena", "state": "VA", "country": "US", "coord": {"lon": -78.04805, "lat": 38.341518}}, {"id": 4829243, "name": "Wallis", "state": "TX", "country": "US", "coord": {"lon": -96.065239, "lat": 29.63135}}, {"id": 4829274, "name": "New Kent", "state": "VA", "country": "US", "coord": {"lon": -76.978859, "lat": 37.517651}}, {"id": 4829280, "name": "Independence", "state": "VA", "country": "US", "coord": {"lon": -81.150917, "lat": 36.622349}}, {"id": 4829305, "name": "Cresson", "state": "TX", "country": "US", "coord": {"lon": -97.617798, "lat": 32.532639}}, {"id": 4829307, "name": "Bay City", "state": "TX", "country": "US", "coord": {"lon": -95.969398, "lat": 28.982759}}, {"id": 4829341, "name": "Wise", "state": "VA", "country": "US", "coord": {"lon": -82.575706, "lat": 36.975929}}, {"id": 4829449, "name": "Abbeville", "state": "AL", "country": "US", "coord": {"lon": -85.250488, "lat": 31.57184}}, {"id": 4829588, "name": "Adamsville", "state": "AL", "country": "US", "coord": {"lon": -86.956108, "lat": 33.600941}}, {"id": 4829762, "name": "Alabaster", "state": "AL", "country": "US", "coord": {"lon": -86.816383, "lat": 33.244282}}, {"id": 4829764, "name": "Alabama", "state": "AL", "country": "US", "coord": {"lon": -86.750259, "lat": 32.750408}}, {"id": 4829791, "name": "Albertville", "state": "AL", "country": "US", "coord": {"lon": -86.20887, "lat": 34.26759}}, {"id": 4829843, "name": "Alexander City", "state": "AL", "country": "US", "coord": {"lon": -85.95385, "lat": 32.944012}}, {"id": 4829861, "name": "Alexandria", "state": "AL", "country": "US", "coord": {"lon": -85.885521, "lat": 33.773991}}, {"id": 4829885, "name": "Aliceville", "state": "AL", "country": "US", "coord": {"lon": -88.151421, "lat": 33.12957}}, {"id": 4830099, "name": "Andalusia", "state": "AL", "country": "US", "coord": {"lon": -86.483292, "lat": 31.3085}}, {"id": 4830198, "name": "Anniston", "state": "AL", "country": "US", "coord": {"lon": -85.831627, "lat": 33.659828}}, {"id": 4830455, "name": "Arab", "state": "AL", "country": "US", "coord": {"lon": -86.495819, "lat": 34.31815}}, {"id": 4830478, "name": "Argo", "state": "AL", "country": "US", "coord": {"lon": -86.53054, "lat": 33.68177}}, {"id": 4830504, "name": "Ardmore", "state": "", "country": "US", "coord": {"lon": -86.846947, "lat": 34.992031}}, {"id": 4830668, "name": "Athens", "state": "AL", "country": "US", "coord": {"lon": -86.971672, "lat": 34.802872}}, {"id": 4830684, "name": "Ashford", "state": "AL", "country": "US", "coord": {"lon": -85.23632, "lat": 31.182961}}, {"id": 4830687, "name": "Ashland", "state": "AL", "country": "US", "coord": {"lon": -85.836067, "lat": 33.273731}}, {"id": 4830707, "name": "Ashville", "state": "AL", "country": "US", "coord": {"lon": -86.254417, "lat": 33.83704}}, {"id": 4830759, "name": "Atmore", "state": "AL", "country": "US", "coord": {"lon": -87.493874, "lat": 31.02379}}, {"id": 4830768, "name": "Attalla", "state": "AL", "country": "US", "coord": {"lon": -86.088593, "lat": 34.021759}}, {"id": 4830796, "name": "Auburn", "state": "AL", "country": "US", "coord": {"lon": -85.480782, "lat": 32.609859}}, {"id": 4830868, "name": "Autauga County", "state": "AL", "country": "US", "coord": {"lon": -86.649979, "lat": 32.53347}}, {"id": 4831176, "name": "Ballplay", "state": "AL", "country": "US", "coord": {"lon": -85.808022, "lat": 34.058708}}, {"id": 4831207, "name": "Baldwin County", "state": "AL", "country": "US", "coord": {"lon": -87.766663, "lat": 30.750469}}, {"id": 4831725, "name": "Connecticut", "state": "CT", "country": "US", "coord": {"lon": -72.666481, "lat": 41.667042}}, {"id": 4831764, "name": "South Coventry", "state": "CT", "country": "US", "coord": {"lon": -72.305077, "lat": 41.7701}}, {"id": 4831766, "name": "Tariffville", "state": "CT", "country": "US", "coord": {"lon": -72.760101, "lat": 41.90871}}, {"id": 4831969, "name": "Cos Cob", "state": "CT", "country": "US", "coord": {"lon": -73.599571, "lat": 41.033428}}, {"id": 4831990, "name": "Canton", "state": "IL", "country": "US", "coord": {"lon": -90.035118, "lat": 40.55809}}, {"id": 4832014, "name": "Deer Park", "state": "IL", "country": "US", "coord": {"lon": -89.036186, "lat": 41.295029}}, {"id": 4832027, "name": "Coventry Lake", "state": "CT", "country": "US", "coord": {"lon": -72.332581, "lat": 41.77232}}, {"id": 4832038, "name": "Glendale Heights", "state": "IL", "country": "US", "coord": {"lon": -88.071739, "lat": 41.910309}}, {"id": 4832074, "name": "Lena", "state": "IL", "country": "US", "coord": {"lon": -89.822342, "lat": 42.379459}}, {"id": 4832121, "name": "Cromwell", "state": "CT", "country": "US", "coord": {"lon": -72.64537, "lat": 41.5951}}, {"id": 4832176, "name": "East Falmouth", "state": "MA", "country": "US", "coord": {"lon": -70.55864, "lat": 41.578442}}, {"id": 4832225, "name": "Crystal Lake", "state": "CT", "country": "US", "coord": {"lon": -72.378418, "lat": 41.931759}}, {"id": 4832272, "name": "North Andover", "state": "MA", "country": "US", "coord": {"lon": -71.135063, "lat": 42.6987}}, {"id": 4832294, "name": "Revere", "state": "MA", "country": "US", "coord": {"lon": -71.011993, "lat": 42.408428}}, {"id": 4832322, "name": "West Barnstable", "state": "MA", "country": "US", "coord": {"lon": -70.374474, "lat": 41.705662}}, {"id": 4832342, "name": "Alfred", "state": "ME", "country": "US", "coord": {"lon": -70.718391, "lat": 43.476471}}, {"id": 4832353, "name": "Danbury", "state": "CT", "country": "US", "coord": {"lon": -73.45401, "lat": 41.394821}}, {"id": 4832356, "name": "Berwick", "state": "ME", "country": "US", "coord": {"lon": -70.864502, "lat": 43.265919}}, {"id": 4832408, "name": "Hope", "state": "ME", "country": "US", "coord": {"lon": -69.158928, "lat": 44.265079}}, {"id": 4832411, "name": "Danielson", "state": "CT", "country": "US", "coord": {"lon": -71.88591, "lat": 41.802601}}, {"id": 4832425, "name": "Darien", "state": "CT", "country": "US", "coord": {"lon": -73.469292, "lat": 41.078709}}, {"id": 4832458, "name": "Rockland", "state": "ME", "country": "US", "coord": {"lon": -69.108932, "lat": 44.103691}}, {"id": 4832484, "name": "Union", "state": "ME", "country": "US", "coord": {"lon": -69.274208, "lat": 44.211472}}, {"id": 4832554, "name": "Inkster", "state": "MI", "country": "US", "coord": {"lon": -83.309929, "lat": 42.294201}}, {"id": 4832672, "name": "Harlis", "state": "MN", "country": "US", "coord": {"lon": -92.312691, "lat": 46.412159}}, {"id": 4832684, "name": "Edina", "state": "MO", "country": "US", "coord": {"lon": -92.172684, "lat": 40.167542}}, {"id": 4832745, "name": "Derby", "state": "CT", "country": "US", "coord": {"lon": -73.088997, "lat": 41.320648}}, {"id": 4832924, "name": "Paul", "state": "NE", "country": "US", "coord": {"lon": -95.896667, "lat": 40.59528}}, {"id": 4833084, "name": "Yardville", "state": "NJ", "country": "US", "coord": {"lon": -74.664322, "lat": 40.181221}}, {"id": 4833098, "name": "Camillus", "state": "NY", "country": "US", "coord": {"lon": -76.3041, "lat": 43.03923}}, {"id": 4833108, "name": "Clyde", "state": "NY", "country": "US", "coord": {"lon": -76.8694, "lat": 43.084229}}, {"id": 4833123, "name": "Durham", "state": "CT", "country": "US", "coord": {"lon": -72.681213, "lat": 41.481758}}, {"id": 4833272, "name": "Wayland", "state": "NY", "country": "US", "coord": {"lon": -77.589706, "lat": 42.567841}}, {"id": 4833276, "name": "Watervliet", "state": "NY", "country": "US", "coord": {"lon": -73.701233, "lat": 42.73008}}, {"id": 4833279, "name": "East Brooklyn", "state": "CT", "country": "US", "coord": {"lon": -71.897293, "lat": 41.796768}}, {"id": 4833304, "name": "Camden", "state": "OH", "country": "US", "coord": {"lon": -82.305717, "lat": 41.237831}}, {"id": 4833320, "name": "Cleveland Heights", "state": "OH", "country": "US", "coord": {"lon": -81.556236, "lat": 41.52005}}, {"id": 4833348, "name": "Genoa", "state": "OH", "country": "US", "coord": {"lon": -83.359093, "lat": 41.518108}}, {"id": 4833363, "name": "East Haddam", "state": "CT", "country": "US", "coord": {"lon": -72.461197, "lat": 41.453152}}, {"id": 4833387, "name": "East Hampton", "state": "CT", "country": "US", "coord": {"lon": -72.502586, "lat": 41.575932}}, {"id": 4833403, "name": "East Hartford", "state": "CT", "country": "US", "coord": {"lon": -72.61203, "lat": 41.782318}}, {"id": 4833425, "name": "East Haven", "state": "CT", "country": "US", "coord": {"lon": -72.868431, "lat": 41.276211}}, {"id": 4833478, "name": "Carnegie", "state": "PA", "country": "US", "coord": {"lon": -80.083389, "lat": 40.40868}}, {"id": 4833505, "name": "East Norwalk", "state": "CT", "country": "US", "coord": {"lon": -73.398453, "lat": 41.105652}}, {"id": 4833760, "name": "Hayti", "state": "SD", "country": "US", "coord": {"lon": -97.20507, "lat": 44.657188}}, {"id": 4833883, "name": "Ellington", "state": "CT", "country": "US", "coord": {"lon": -72.46981, "lat": 41.903992}}, {"id": 4833930, "name": "Newark", "state": "WI", "country": "US", "coord": {"lon": -89.227608, "lat": 42.542229}}, {"id": 4834157, "name": "Fairfield", "state": "CT", "country": "US", "coord": {"lon": -73.263733, "lat": 41.141209}}, {"id": 4834162, "name": "Fairfield County", "state": "CT", "country": "US", "coord": {"lon": -73.316231, "lat": 41.266762}}, {"id": 4834272, "name": "Farmington", "state": "CT", "country": "US", "coord": {"lon": -72.832039, "lat": 41.719818}}, {"id": 4834837, "name": "Gales Ferry", "state": "CT", "country": "US", "coord": {"lon": -72.082024, "lat": 41.429821}}, {"id": 4834938, "name": "Georgetown", "state": "CT", "country": "US", "coord": {"lon": -73.434837, "lat": 41.25565}}, {"id": 4835003, "name": "Glastonbury", "state": "CT", "country": "US", "coord": {"lon": -72.608147, "lat": 41.712318}}, {"id": 4835004, "name": "Glastonbury Center", "state": "CT", "country": "US", "coord": {"lon": -72.599533, "lat": 41.700932}}, {"id": 4835032, "name": "Glenville", "state": "CT", "country": "US", "coord": {"lon": -73.659851, "lat": 41.035381}}, {"id": 4835395, "name": "Greenwich", "state": "CT", "country": "US", "coord": {"lon": -73.628464, "lat": 41.026489}}, {"id": 4835461, "name": "Groton", "state": "CT", "country": "US", "coord": {"lon": -72.078407, "lat": 41.350101}}, {"id": 4835512, "name": "Guilford", "state": "CT", "country": "US", "coord": {"lon": -72.681763, "lat": 41.28899}}, {"id": 4835654, "name": "Hamden", "state": "CT", "country": "US", "coord": {"lon": -72.896767, "lat": 41.395931}}, {"id": 4835797, "name": "Hartford", "state": "CT", "country": "US", "coord": {"lon": -72.685089, "lat": 41.76371}}, {"id": 4835806, "name": "Hartford County", "state": "CT", "country": "US", "coord": {"lon": -72.766212, "lat": 41.766769}}, {"id": 4835946, "name": "Hazardville", "state": "CT", "country": "US", "coord": {"lon": -72.544807, "lat": 41.98732}}, {"id": 4835969, "name": "Hebron", "state": "CT", "country": "US", "coord": {"lon": -72.365921, "lat": 41.657879}}, {"id": 4836026, "name": "Heritage Village", "state": "CT", "country": "US", "coord": {"lon": -73.237892, "lat": 41.485649}}, {"id": 4836058, "name": "Higganum", "state": "CT", "country": "US", "coord": {"lon": -72.55703, "lat": 41.49704}}, {"id": 4836993, "name": "Jewett City", "state": "CT", "country": "US", "coord": {"lon": -71.980911, "lat": 41.60677}}, {"id": 4837222, "name": "Kensington", "state": "CT", "country": "US", "coord": {"lon": -72.768707, "lat": 41.63538}}, {"id": 4837278, "name": "Killingly Center", "state": "CT", "country": "US", "coord": {"lon": -71.86924, "lat": 41.838711}}, {"id": 4837466, "name": "Lake Pocotopaug", "state": "CT", "country": "US", "coord": {"lon": -72.510368, "lat": 41.598431}}, {"id": 4837648, "name": "Ledyard", "state": "CT", "country": "US", "coord": {"lon": -72.014236, "lat": 41.439819}}, {"id": 4837798, "name": "Lisbon", "state": "CT", "country": "US", "coord": {"lon": -72.011742, "lat": 41.603989}}, {"id": 4837799, "name": "Litchfield", "state": "CT", "country": "US", "coord": {"lon": -73.188721, "lat": 41.747318}}, {"id": 4837802, "name": "Litchfield County", "state": "CT", "country": "US", "coord": {"lon": -73.250122, "lat": 41.766762}}, {"id": 4837916, "name": "Long Hill", "state": "CT", "country": "US", "coord": {"lon": -72.052299, "lat": 41.353989}}, {"id": 4837993, "name": "Lordship", "state": "CT", "country": "US", "coord": {"lon": -73.112053, "lat": 41.153992}}, {"id": 4838116, "name": "Madison", "state": "CT", "country": "US", "coord": {"lon": -72.598427, "lat": 41.279541}}, {"id": 4838174, "name": "Manchester", "state": "CT", "country": "US", "coord": {"lon": -72.521477, "lat": 41.775928}}, {"id": 4838204, "name": "Mansfield City", "state": "CT", "country": "US", "coord": {"lon": -72.233688, "lat": 41.76593}}, {"id": 4838524, "name": "Meriden", "state": "CT", "country": "US", "coord": {"lon": -72.807037, "lat": 41.538151}}, {"id": 4838627, "name": "Middlesex County", "state": "CT", "country": "US", "coord": {"lon": -72.532867, "lat": 41.46677}}, {"id": 4838633, "name": "Middletown", "state": "CT", "country": "US", "coord": {"lon": -72.65065, "lat": 41.562321}}, {"id": 4838652, "name": "Milford", "state": "CT", "country": "US", "coord": {"lon": -73.056503, "lat": 41.222321}}, {"id": 4838794, "name": "Miry Brook", "state": "CT", "country": "US", "coord": {"lon": -73.482353, "lat": 41.366482}}, {"id": 4838887, "name": "Montville Center", "state": "CT", "country": "US", "coord": {"lon": -72.151192, "lat": 41.478989}}, {"id": 4838895, "name": "Moodus", "state": "CT", "country": "US", "coord": {"lon": -72.450089, "lat": 41.50288}}, {"id": 4838928, "name": "Moosup", "state": "CT", "country": "US", "coord": {"lon": -71.880913, "lat": 41.712879}}, {"id": 4838969, "name": "Morris Cove", "state": "CT", "country": "US", "coord": {"lon": -72.891487, "lat": 41.258148}}, {"id": 4839141, "name": "Mystic", "state": "CT", "country": "US", "coord": {"lon": -71.966461, "lat": 41.354271}}, {"id": 4839222, "name": "Naugatuck", "state": "CT", "country": "US", "coord": {"lon": -73.050659, "lat": 41.485931}}, {"id": 4839292, "name": "New Britain", "state": "CT", "country": "US", "coord": {"lon": -72.779541, "lat": 41.661209}}, {"id": 4839366, "name": "New Haven", "state": "CT", "country": "US", "coord": {"lon": -72.928162, "lat": 41.308151}}, {"id": 4839373, "name": "New Haven County", "state": "CT", "country": "US", "coord": {"lon": -72.932877, "lat": 41.400101}}, {"id": 4839416, "name": "New Londonhttps://www.geonames.org/1524325/ekibastuz.html#", "state": "CT", "country": "US", "coord": {"lon": -72.099518, "lat": 41.355652}}, {"id": 4839420, "name": "New London County", "state": "CT", "country": "US", "coord": {"lon": -72.066193, "lat": 41.483429}}, {"id": 4839435, "name": "New Milford", "state": "CT", "country": "US", "coord": {"lon": -73.408447, "lat": 41.577042}}, {"id": 4839460, "name": "New Preston", "state": "CT", "country": "US", "coord": {"lon": -73.351791, "lat": 41.675098}}, {"id": 4839485, "name": "Newfield", "state": "CT", "country": "US", "coord": {"lon": -73.12928, "lat": 41.857868}}, {"id": 4839497, "name": "Newington", "state": "CT", "country": "US", "coord": {"lon": -72.723709, "lat": 41.69788}}, {"id": 4839521, "name": "Niantic", "state": "CT", "country": "US", "coord": {"lon": -72.19313, "lat": 41.325378}}, {"id": 4839568, "name": "Noank", "state": "CT", "country": "US", "coord": {"lon": -71.990631, "lat": 41.327881}}, {"id": 4839636, "name": "North Branford", "state": "CT", "country": "US", "coord": {"lon": -72.767319, "lat": 41.327599}}, {"id": 4839692, "name": "North Granby", "state": "CT", "country": "US", "coord": {"lon": -72.829536, "lat": 41.99593}}, {"id": 4839697, "name": "North Grosvenor Dale", "state": "CT", "country": "US", "coord": {"lon": -71.898682, "lat": 41.985649}}, {"id": 4839704, "name": "North Haven", "state": "CT", "country": "US", "coord": {"lon": -72.859543, "lat": 41.39093}}, {"id": 4839745, "name": "North Stamford", "state": "CT", "country": "US", "coord": {"lon": -73.543457, "lat": 41.138149}}, {"id": 4839822, "name": "Norwalk", "state": "CT", "country": "US", "coord": {"lon": -73.407898, "lat": 41.117599}}, {"id": 4839843, "name": "Norwich", "state": "CT", "country": "US", "coord": {"lon": -72.075912, "lat": 41.524261}}, {"id": 4839921, "name": "Oakville", "state": "CT", "country": "US", "coord": {"lon": -73.085388, "lat": 41.59343}}, {"id": 4839983, "name": "Old Greenwich", "state": "CT", "country": "US", "coord": {"lon": -73.56485, "lat": 41.022881}}, {"id": 4840015, "name": "Old Mystic", "state": "CT", "country": "US", "coord": {"lon": -71.961739, "lat": 41.391491}}, {"id": 4840035, "name": "Old Saybrook", "state": "CT", "country": "US", "coord": {"lon": -72.376198, "lat": 41.291771}}, {"id": 4840104, "name": "Orange", "state": "CT", "country": "US", "coord": {"lon": -73.025658, "lat": 41.278431}}, {"id": 4840237, "name": "Oxford", "state": "CT", "country": "US", "coord": {"lon": -73.116783, "lat": 41.43399}}, {"id": 4840426, "name": "Pawcatuck", "state": "CT", "country": "US", "coord": {"lon": -71.833679, "lat": 41.377319}}, {"id": 4840504, "name": "Pemberwick", "state": "CT", "country": "US", "coord": {"lon": -73.660683, "lat": 41.02565}}, {"id": 4840755, "name": "Plainfield", "state": "CT", "country": "US", "coord": {"lon": -71.91507, "lat": 41.676491}}, {"id": 4840767, "name": "Plainville", "state": "CT", "country": "US", "coord": {"lon": -72.858162, "lat": 41.674541}}, {"id": 4840844, "name": "Plymouth", "state": "CT", "country": "US", "coord": {"lon": -73.052887, "lat": 41.672039}}, {"id": 4840983, "name": "Poquonock Bridge", "state": "CT", "country": "US", "coord": {"lon": -72.024803, "lat": 41.3451}}, {"id": 4841001, "name": "Portland", "state": "CT", "country": "US", "coord": {"lon": -72.640648, "lat": 41.57288}}, {"id": 4841089, "name": "Prospect", "state": "CT", "country": "US", "coord": {"lon": -72.978722, "lat": 41.502319}}, {"id": 4841125, "name": "Preston City", "state": "CT", "country": "US", "coord": {"lon": -71.973961, "lat": 41.528992}}, {"id": 4841187, "name": "Putnam", "state": "CT", "country": "US", "coord": {"lon": -71.908958, "lat": 41.9151}}, {"id": 4841217, "name": "Quinebaug", "state": "CT", "country": "US", "coord": {"lon": -71.949799, "lat": 42.023708}}, {"id": 4841463, "name": "Ridgefield", "state": "CT", "country": "US", "coord": {"lon": -73.498177, "lat": 41.281479}}, {"id": 4841527, "name": "Riverside", "state": "CT", "country": "US", "coord": {"lon": -73.578178, "lat": 41.03371}}, {"id": 4841628, "name": "Rockville", "state": "CT", "country": "US", "coord": {"lon": -72.449532, "lat": 41.86676}}, {"id": 4842507, "name": "Salmon Brook", "state": "CT", "country": "US", "coord": {"lon": -72.795372, "lat": 41.95649}}, {"id": 4842642, "name": "Saybrook Manor", "state": "CT", "country": "US", "coord": {"lon": -72.398972, "lat": 41.285381}}, {"id": 4842818, "name": "Seymour", "state": "CT", "country": "US", "coord": {"lon": -73.075943, "lat": 41.396759}}, {"id": 4842898, "name": "Shelton", "state": "CT", "country": "US", "coord": {"lon": -73.093163, "lat": 41.31649}}, {"id": 4842958, "name": "Sherwood Manor", "state": "CT", "country": "US", "coord": {"lon": -72.564247, "lat": 42.013432}}, {"id": 4843215, "name": "Somers", "state": "CT", "country": "US", "coord": {"lon": -72.446198, "lat": 41.985371}}, {"id": 4843350, "name": "South Windham", "state": "CT", "country": "US", "coord": {"lon": -72.170357, "lat": 41.679539}}, {"id": 4843353, "name": "South Windsor", "state": "CT", "country": "US", "coord": {"lon": -72.621201, "lat": 41.823711}}, {"id": 4843359, "name": "South Woodstock", "state": "CT", "country": "US", "coord": {"lon": -71.959518, "lat": 41.938992}}, {"id": 4843362, "name": "Southbury", "state": "CT", "country": "US", "coord": {"lon": -73.213173, "lat": 41.48148}}, {"id": 4843375, "name": "Southford", "state": "CT", "country": "US", "coord": {"lon": -73.161781, "lat": 41.464539}}, {"id": 4843395, "name": "Southport", "state": "CT", "country": "US", "coord": {"lon": -73.283447, "lat": 41.13649}}, {"id": 4843411, "name": "Southwood Acres", "state": "CT", "country": "US", "coord": {"lon": -72.57148, "lat": 41.962601}}, {"id": 4843553, "name": "Stafford", "state": "CT", "country": "US", "coord": {"lon": -72.288971, "lat": 41.984821}}, {"id": 4843556, "name": "Stafford Springs", "state": "CT", "country": "US", "coord": {"lon": -72.302299, "lat": 41.954262}}, {"id": 4843564, "name": "Stamford", "state": "CT", "country": "US", "coord": {"lon": -73.538727, "lat": 41.053429}}, {"id": 4843650, "name": "Sterling", "state": "CT", "country": "US", "coord": {"lon": -71.828682, "lat": 41.7076}}, {"id": 4843786, "name": "Storrs", "state": "CT", "country": "US", "coord": {"lon": -72.249519, "lat": 41.80843}}, {"id": 4843811, "name": "Stratford", "state": "CT", "country": "US", "coord": {"lon": -73.133171, "lat": 41.18454}}, {"id": 4843878, "name": "Suffield Depot", "state": "CT", "country": "US", "coord": {"lon": -72.649811, "lat": 41.981209}}, {"id": 4844078, "name": "Terramuggus", "state": "CT", "country": "US", "coord": {"lon": -72.47036, "lat": 41.635101}}, {"id": 4844084, "name": "Terryville", "state": "CT", "country": "US", "coord": {"lon": -73.010941, "lat": 41.67815}}, {"id": 4844181, "name": "Thomaston", "state": "CT", "country": "US", "coord": {"lon": -73.073158, "lat": 41.673988}}, {"id": 4844184, "name": "Thompson", "state": "CT", "country": "US", "coord": {"lon": -71.862572, "lat": 41.95871}}, {"id": 4844200, "name": "Thompsonville", "state": "CT", "country": "US", "coord": {"lon": -72.598984, "lat": 41.99704}}, {"id": 4844273, "name": "Tolland", "state": "CT", "country": "US", "coord": {"lon": -72.36869, "lat": 41.87149}}, {"id": 4844275, "name": "Tolland County", "state": "CT", "country": "US", "coord": {"lon": -72.349533, "lat": 41.850101}}, {"id": 4844309, "name": "Torrington", "state": "CT", "country": "US", "coord": {"lon": -73.121223, "lat": 41.800652}}, {"id": 4844459, "name": "Trumbull", "state": "CT", "country": "US", "coord": {"lon": -73.200668, "lat": 41.24287}}, {"id": 4844602, "name": "Uncasville", "state": "CT", "country": "US", "coord": {"lon": -72.109802, "lat": 41.43454}}, {"id": 4845056, "name": "Wallingford", "state": "CT", "country": "US", "coord": {"lon": -72.823158, "lat": 41.457039}}, {"id": 4845193, "name": "Waterbury", "state": "CT", "country": "US", "coord": {"lon": -73.051498, "lat": 41.558151}}, {"id": 4845245, "name": "Watertown", "state": "CT", "country": "US", "coord": {"lon": -73.118172, "lat": 41.606209}}, {"id": 4845261, "name": "Wauregan", "state": "CT", "country": "US", "coord": {"lon": -71.909241, "lat": 41.74427}}, {"id": 4845277, "name": "Weatogue", "state": "CT", "country": "US", "coord": {"lon": -72.82843, "lat": 41.843712}}, {"id": 4845411, "name": "West Hartford", "state": "CT", "country": "US", "coord": {"lon": -72.742043, "lat": 41.762039}}, {"id": 4845419, "name": "West Haven", "state": "CT", "country": "US", "coord": {"lon": -72.947052, "lat": 41.270649}}, {"id": 4845500, "name": "West Simsbury", "state": "CT", "country": "US", "coord": {"lon": -72.858147, "lat": 41.87315}}, {"id": 4845519, "name": "West Torrington", "state": "CT", "country": "US", "coord": {"lon": -73.143723, "lat": 41.818432}}, {"id": 4845585, "name": "Westport", "state": "CT", "country": "US", "coord": {"lon": -73.357903, "lat": 41.141491}}, {"id": 4845612, "name": "Wethersfield", "state": "CT", "country": "US", "coord": {"lon": -72.652588, "lat": 41.714272}}, {"id": 4845823, "name": "Willimantic", "state": "CT", "country": "US", "coord": {"lon": -72.20813, "lat": 41.710651}}, {"id": 4845889, "name": "Winchester Center", "state": "CT", "country": "US", "coord": {"lon": -73.134827, "lat": 41.900101}}, {"id": 4845897, "name": "Windermere", "state": "CT", "country": "US", "coord": {"lon": -72.484253, "lat": 41.87788}}, {"id": 4845898, "name": "Windham", "state": "CT", "country": "US", "coord": {"lon": -72.157021, "lat": 41.699821}}, {"id": 4845904, "name": "Windham County", "state": "CT", "country": "US", "coord": {"lon": -72.000069, "lat": 41.833431}}, {"id": 4845926, "name": "Windsor Locks", "state": "CT", "country": "US", "coord": {"lon": -72.627312, "lat": 41.92926}}, {"id": 4845953, "name": "Winsted", "state": "CT", "country": "US", "coord": {"lon": -73.060112, "lat": 41.921211}}, {"id": 4845984, "name": "Wolcott", "state": "CT", "country": "US", "coord": {"lon": -72.986771, "lat": 41.602322}}, {"id": 4846022, "name": "Woodbridge", "state": "CT", "country": "US", "coord": {"lon": -73.008438, "lat": 41.3526}}, {"id": 4846028, "name": "Woodbury", "state": "CT", "country": "US", "coord": {"lon": -73.209, "lat": 41.54454}}, {"id": 4846051, "name": "Woodmont", "state": "CT", "country": "US", "coord": {"lon": -72.991493, "lat": 41.228149}}, {"id": 4846317, "name": "Ackley", "state": "IA", "country": "US", "coord": {"lon": -93.053261, "lat": 42.55415}}, {"id": 4846344, "name": "Adair County", "state": "IA", "country": "US", "coord": {"lon": -94.466911, "lat": 41.333321}}, {"id": 4846398, "name": "Adel", "state": "IA", "country": "US", "coord": {"lon": -94.017448, "lat": 41.614429}}, {"id": 4846499, "name": "Akron", "state": "IA", "country": "US", "coord": {"lon": -96.559479, "lat": 42.82888}}, {"id": 4846519, "name": "Albert City", "state": "IA", "country": "US", "coord": {"lon": -94.948601, "lat": 42.781921}}, {"id": 4846529, "name": "Albia", "state": "IA", "country": "US", "coord": {"lon": -92.805748, "lat": 41.026669}}, {"id": 4846602, "name": "Algona", "state": "IA", "country": "US", "coord": {"lon": -94.233017, "lat": 43.069969}}, {"id": 4846691, "name": "Allison", "state": "IA", "country": "US", "coord": {"lon": -92.795189, "lat": 42.75275}}, {"id": 4846729, "name": "Alta", "state": "IA", "country": "US", "coord": {"lon": -95.29055, "lat": 42.673592}}, {"id": 4846745, "name": "Alton", "state": "IA", "country": "US", "coord": {"lon": -96.010567, "lat": 42.987492}}, {"id": 4846757, "name": "Altoona", "state": "IA", "country": "US", "coord": {"lon": -93.464661, "lat": 41.644161}}, {"id": 4846834, "name": "Ames", "state": "IA", "country": "US", "coord": {"lon": -93.619942, "lat": 42.03471}}, {"id": 4846880, "name": "Anamosa", "state": "IA", "country": "US", "coord": {"lon": -91.285156, "lat": 42.108341}}, {"id": 4846960, "name": "Ankeny", "state": "IA", "country": "US", "coord": {"lon": -93.605766, "lat": 41.72971}}, {"id": 4847027, "name": "Aplington", "state": "IA", "country": "US", "coord": {"lon": -92.884361, "lat": 42.584148}}, {"id": 4847187, "name": "Arnolds Park", "state": "IA", "country": "US", "coord": {"lon": -95.123878, "lat": 43.372742}}, {"id": 4847226, "name": "Asbury", "state": "IA", "country": "US", "coord": {"lon": -90.751518, "lat": 42.51445}}, {"id": 4847375, "name": "Atkins", "state": "IA", "country": "US", "coord": {"lon": -91.862129, "lat": 41.996941}}, {"id": 4847385, "name": "Atlantic", "state": "IA", "country": "US", "coord": {"lon": -95.013878, "lat": 41.403599}}, {"id": 4847421, "name": "Audubon", "state": "IA", "country": "US", "coord": {"lon": -94.932487, "lat": 41.71804}}, {"id": 4847460, "name": "Aurelia", "state": "IA", "country": "US", "coord": {"lon": -95.436668, "lat": 42.712761}}, {"id": 4847498, "name": "Avoca", "state": "IA", "country": "US", "coord": {"lon": -95.338051, "lat": 41.476662}}, {"id": 4847559, "name": "Baculis Mobile Home Park", "state": "IA", "country": "US", "coord": {"lon": -91.536278, "lat": 41.631962}}, {"id": 4847668, "name": "Ballyclough", "state": "IA", "country": "US", "coord": {"lon": -90.718178, "lat": 42.425838}}, {"id": 4847721, "name": "Bar-Jac Mobile Estates", "state": "IA", "country": "US", "coord": {"lon": -94.108566, "lat": 41.859711}}, {"id": 4847849, "name": "Baxter", "state": "IA", "country": "US", "coord": {"lon": -93.151588, "lat": 41.826099}}, {"id": 4848022, "name": "Bedford", "state": "IA", "country": "US", "coord": {"lon": -94.721359, "lat": 40.666931}}, {"id": 4848106, "name": "Belle Plaine", "state": "IA", "country": "US", "coord": {"lon": -92.278236, "lat": 41.896938}}, {"id": 4848124, "name": "Bellevue", "state": "IA", "country": "US", "coord": {"lon": -90.422913, "lat": 42.258629}}, {"id": 4848144, "name": "Belmond", "state": "IA", "country": "US", "coord": {"lon": -93.614098, "lat": 42.846081}}, {"id": 4848489, "name": "Bettendorf", "state": "IA", "country": "US", "coord": {"lon": -90.515694, "lat": 41.524479}}, {"id": 4848660, "name": "Birchwood Estates", "state": "IA", "country": "US", "coord": {"lon": -95.143333, "lat": 43.160519}}, {"id": 4848699, "name": "Black Hawk County", "state": "IA", "country": "US", "coord": {"lon": -92.316849, "lat": 42.466648}}, {"id": 4848854, "name": "Bloomfield", "state": "IA", "country": "US", "coord": {"lon": -92.414909, "lat": 40.75169}}, {"id": 4848891, "name": "Blue Grass", "state": "IA", "country": "US", "coord": {"lon": -90.765984, "lat": 41.508919}}, {"id": 4849026, "name": "Bondurant", "state": "IA", "country": "US", "coord": {"lon": -93.462158, "lat": 41.700539}}, {"id": 4849051, "name": "Boone", "state": "IA", "country": "US", "coord": {"lon": -93.880234, "lat": 42.0597}}, {"id": 4849058, "name": "Boone County", "state": "IA", "country": "US", "coord": {"lon": -93.933563, "lat": 42.033321}}, {"id": 4849380, "name": "Britt", "state": "IA", "country": "US", "coord": {"lon": -93.801888, "lat": 43.09774}}, {"id": 4849448, "name": "Brooklyn", "state": "IA", "country": "US", "coord": {"lon": -92.445457, "lat": 41.733608}}, {"id": 4849689, "name": "Buena Vista County", "state": "IA", "country": "US", "coord": {"lon": -95.150269, "lat": 42.733311}}, {"id": 4849708, "name": "Buffalo (historical)", "state": "IA", "country": "US", "coord": {"lon": -94.003563, "lat": 41.3111}}, {"id": 4849709, "name": "Buffalo", "state": "IA", "country": "US", "coord": {"lon": -90.723473, "lat": 41.456421}}, {"id": 4849826, "name": "Burlington", "state": "IA", "country": "US", "coord": {"lon": -91.112923, "lat": 40.807541}}, {"id": 4850204, "name": "Camanche", "state": "IA", "country": "US", "coord": {"lon": -90.256241, "lat": 41.78809}}, {"id": 4850326, "name": "Canby", "state": "IA", "country": "US", "coord": {"lon": -94.566643, "lat": 41.41721}}, {"id": 4850411, "name": "Carlisle", "state": "IA", "country": "US", "coord": {"lon": -93.491051, "lat": 41.50082}}, {"id": 4850478, "name": "Carroll", "state": "IA", "country": "US", "coord": {"lon": -94.866928, "lat": 42.065819}}, {"id": 4850488, "name": "Carroll County", "state": "IA", "country": "US", "coord": {"lon": -94.883598, "lat": 42.033321}}, {"id": 4850531, "name": "Carter Lake", "state": "IA", "country": "US", "coord": {"lon": -95.918068, "lat": 41.29055}}, {"id": 4850549, "name": "Cascade", "state": "IA", "country": "US", "coord": {"lon": -91.014862, "lat": 42.298618}}, {"id": 4850574, "name": "Casino Beach", "state": "IA", "country": "US", "coord": {"lon": -95.228607, "lat": 42.624149}}, {"id": 4850583, "name": "Cass County", "state": "IA", "country": "US", "coord": {"lon": -94.933601, "lat": 41.333321}}, {"id": 4850657, "name": "Cedar", "state": "IA", "country": "US", "coord": {"lon": -92.525742, "lat": 41.212231}}, {"id": 4850676, "name": "Cedar County", "state": "IA", "country": "US", "coord": {"lon": -91.133492, "lat": 41.766689}}, {"id": 4850699, "name": "Cedar Falls", "state": "IA", "country": "US", "coord": {"lon": -92.445473, "lat": 42.52776}}, {"id": 4850751, "name": "Cedar Rapids", "state": "IA", "country": "US", "coord": {"lon": -91.644073, "lat": 42.008331}}, {"id": 4850890, "name": "Center Junction", "state": "IA", "country": "US", "coord": {"lon": -91.08709, "lat": 42.116119}}, {"id": 4850898, "name": "Center Point", "state": "IA", "country": "US", "coord": {"lon": -91.785179, "lat": 42.19083}}, {"id": 4850961, "name": "Centerville", "state": "IA", "country": "US", "coord": {"lon": -92.874092, "lat": 40.73418}}, {"id": 4850962, "name": "Centerville", "state": "IA", "country": "US", "coord": {"lon": -93.935509, "lat": 42.092758}}, {"id": 4850998, "name": "Central City", "state": "IA", "country": "US", "coord": {"lon": -91.524063, "lat": 42.20388}}, {"id": 4851093, "name": "Cerro Gordo County", "state": "IA", "country": "US", "coord": {"lon": -93.266869, "lat": 43.083302}}, {"id": 4851140, "name": "Chariton", "state": "IA", "country": "US", "coord": {"lon": -93.306602, "lat": 41.013889}}, {"id": 4851163, "name": "Charles City", "state": "IA", "country": "US", "coord": {"lon": -92.672409, "lat": 43.06636}}, {"id": 4851247, "name": "Cherokee", "state": "IA", "country": "US", "coord": {"lon": -95.551666, "lat": 42.749432}}, {"id": 4851762, "name": "Clarinda", "state": "IA", "country": "US", "coord": {"lon": -95.038307, "lat": 40.74194}}, {"id": 4851785, "name": "Clarion", "state": "IA", "country": "US", "coord": {"lon": -93.732986, "lat": 42.73164}}, {"id": 4851846, "name": "Clarksville", "state": "IA", "country": "US", "coord": {"lon": -92.667686, "lat": 42.784698}}, {"id": 4851866, "name": "Clay County", "state": "IA", "country": "US", "coord": {"lon": -95.150269, "lat": 43.083302}}, {"id": 4851902, "name": "Clayton County", "state": "IA", "country": "US", "coord": {"lon": -91.366798, "lat": 42.833321}}, {"id": 4851935, "name": "Clear Lake", "state": "IA", "country": "US", "coord": {"lon": -93.379372, "lat": 43.13802}}, {"id": 4852022, "name": "Clinton", "state": "IA", "country": "US", "coord": {"lon": -90.188744, "lat": 41.844471}}, {"id": 4852032, "name": "Clinton County", "state": "IA", "country": "US", "coord": {"lon": -90.55014, "lat": 41.883362}}, {"id": 4852052, "name": "Clinton Stock Yards", "state": "IA", "country": "US", "coord": {"lon": -90.222633, "lat": 41.8167}}, {"id": 4852065, "name": "Clive", "state": "IA", "country": "US", "coord": {"lon": -93.724113, "lat": 41.603039}}, {"id": 4852124, "name": "Coal Siding (historical)", "state": "IA", "country": "US", "coord": {"lon": -93.05603, "lat": 41.670818}}, {"id": 4852165, "name": "Coggon", "state": "IA", "country": "US", "coord": {"lon": -91.530441, "lat": 42.280819}}, {"id": 4852212, "name": "Colfax", "state": "IA", "country": "US", "coord": {"lon": -93.245201, "lat": 41.677769}}, {"id": 4852321, "name": "Columbus Junction", "state": "IA", "country": "US", "coord": {"lon": -91.36071, "lat": 41.280029}}, {"id": 4852475, "name": "Congers Mobile Home Park", "state": "IA", "country": "US", "coord": {"lon": -91.130699, "lat": 40.808369}}, {"id": 4852519, "name": "Conrad", "state": "IA", "country": "US", "coord": {"lon": -92.874649, "lat": 42.224709}}, {"id": 4852589, "name": "Coon Rapids", "state": "IA", "country": "US", "coord": {"lon": -94.677483, "lat": 41.870819}}, {"id": 4852640, "name": "Coralville", "state": "IA", "country": "US", "coord": {"lon": -91.580452, "lat": 41.676399}}, {"id": 4852711, "name": "Corning", "state": "IA", "country": "US", "coord": {"lon": -94.740807, "lat": 40.98999}}, {"id": 4852755, "name": "Corydon", "state": "IA", "country": "US", "coord": {"lon": -93.318817, "lat": 40.75695}}, {"id": 4852832, "name": "Council Bluffs", "state": "IA", "country": "US", "coord": {"lon": -95.860832, "lat": 41.26194}}, {"id": 4853059, "name": "Cresco", "state": "IA", "country": "US", "coord": {"lon": -92.114052, "lat": 43.381359}}, {"id": 4853078, "name": "Creston", "state": "IA", "country": "US", "coord": {"lon": -94.361351, "lat": 41.058601}}, {"id": 4853296, "name": "Dakota City", "state": "IA", "country": "US", "coord": {"lon": -94.197182, "lat": 42.722191}}, {"id": 4853325, "name": "Dallas Center", "state": "IA", "country": "US", "coord": {"lon": -93.96106, "lat": 41.684429}}, {"id": 4853335, "name": "Dallas County", "state": "IA", "country": "US", "coord": {"lon": -94.050232, "lat": 41.683319}}, {"id": 4853423, "name": "Davenport", "state": "IA", "country": "US", "coord": {"lon": -90.577637, "lat": 41.52364}}, {"id": 4853537, "name": "De Soto", "state": "IA", "country": "US", "coord": {"lon": -94.009666, "lat": 41.531658}}, {"id": 4853551, "name": "De Witt", "state": "IA", "country": "US", "coord": {"lon": -90.538193, "lat": 41.82336}}, {"id": 4853608, "name": "Decorah", "state": "IA", "country": "US", "coord": {"lon": -91.785713, "lat": 43.30331}}, {"id": 4853757, "name": "Denison", "state": "IA", "country": "US", "coord": {"lon": -95.355278, "lat": 42.017769}}, {"id": 4853799, "name": "Denver", "state": "IA", "country": "US", "coord": {"lon": -92.337402, "lat": 42.671371}}, {"id": 4853828, "name": "Des Moines", "state": "IA", "country": "US", "coord": {"lon": -93.609108, "lat": 41.60054}}, {"id": 4853838, "name": "Des Moines County", "state": "IA", "country": "US", "coord": {"lon": -91.183479, "lat": 40.916698}}, {"id": 4854158, "name": "Dike", "state": "IA", "country": "US", "coord": {"lon": -92.62825, "lat": 42.464149}}, {"id": 4854240, "name": "Doubleday", "state": "IA", "country": "US", "coord": {"lon": -92.633522, "lat": 43.086361}}, {"id": 4854529, "name": "Dubuque", "state": "IA", "country": "US", "coord": {"lon": -90.664574, "lat": 42.500561}}, {"id": 4854534, "name": "Dubuque County", "state": "IA", "country": "US", "coord": {"lon": -90.866798, "lat": 42.48333}}, {"id": 4854644, "name": "Dunlap", "state": "IA", "country": "US", "coord": {"lon": -95.600563, "lat": 41.854431}}, {"id": 4854674, "name": "Durant", "state": "IA", "country": "US", "coord": {"lon": -90.910698, "lat": 41.599751}}, {"id": 4854711, "name": "Dyersville", "state": "IA", "country": "US", "coord": {"lon": -91.12291, "lat": 42.48444}}, {"id": 4854718, "name": "Dysart", "state": "IA", "country": "US", "coord": {"lon": -92.306297, "lat": 42.171661}}, {"id": 4854745, "name": "Eagle Grove", "state": "IA", "country": "US", "coord": {"lon": -93.904388, "lat": 42.664139}}, {"id": 4854792, "name": "Earlham", "state": "IA", "country": "US", "coord": {"lon": -94.124123, "lat": 41.491928}}, {"id": 4855139, "name": "Edna", "state": "IA", "country": "US", "coord": {"lon": -96.094467, "lat": 43.384972}}, {"id": 4855167, "name": "Eddyville", "state": "IA", "country": "US", "coord": {"lon": -92.63739, "lat": 41.156502}}, {"id": 4855218, "name": "Eldora", "state": "IA", "country": "US", "coord": {"lon": -93.099648, "lat": 42.360821}}, {"id": 4855248, "name": "Eldridge", "state": "IA", "country": "US", "coord": {"lon": -90.584579, "lat": 41.658089}}, {"id": 4855333, "name": "Elk Run Heights", "state": "IA", "country": "US", "coord": {"lon": -92.256569, "lat": 42.46693}}, {"id": 4855341, "name": "Elkader", "state": "IA", "country": "US", "coord": {"lon": -91.405418, "lat": 42.85387}}, {"id": 4855521, "name": "Ely", "state": "IA", "country": "US", "coord": {"lon": -91.585182, "lat": 41.873619}}, {"id": 4855587, "name": "Emmet County", "state": "IA", "country": "US", "coord": {"lon": -94.666931, "lat": 43.374401}}, {"id": 4855595, "name": "Emmetsburg", "state": "IA", "country": "US", "coord": {"lon": -94.683037, "lat": 43.11274}}, {"id": 4855679, "name": "Epworth", "state": "IA", "country": "US", "coord": {"lon": -90.932083, "lat": 42.445}}, {"id": 4855703, "name": "Estates West", "state": "IA", "country": "US", "coord": {"lon": -96.364754, "lat": 42.406658}}, {"id": 4855709, "name": "Estherville", "state": "IA", "country": "US", "coord": {"lon": -94.832764, "lat": 43.40163}}, {"id": 4855806, "name": "Evansdale", "state": "IA", "country": "US", "coord": {"lon": -92.281021, "lat": 42.469151}}, {"id": 4855951, "name": "Fairbank", "state": "IA", "country": "US", "coord": {"lon": -92.047119, "lat": 42.639149}}, {"id": 4855958, "name": "Fairfax", "state": "IA", "country": "US", "coord": {"lon": -91.781013, "lat": 41.919449}}, {"id": 4855967, "name": "Fairfield", "state": "IA", "country": "US", "coord": {"lon": -91.962669, "lat": 41.008629}}, {"id": 4856296, "name": "Farley", "state": "IA", "country": "US", "coord": {"lon": -91.006248, "lat": 42.44278}}, {"id": 4856468, "name": "Fayette", "state": "IA", "country": "US", "coord": {"lon": -91.802109, "lat": 42.84193}}, {"id": 4857314, "name": "Floyd County", "state": "IA", "country": "US", "coord": {"lon": -92.783531, "lat": 43.066639}}, {"id": 4857406, "name": "Forest City", "state": "IA", "country": "US", "coord": {"lon": -93.637161, "lat": 43.262459}}, {"id": 4857486, "name": "Fort Dodge", "state": "IA", "country": "US", "coord": {"lon": -94.168022, "lat": 42.497471}}, {"id": 4857507, "name": "Fort Madison", "state": "IA", "country": "US", "coord": {"lon": -91.315147, "lat": 40.629761}}, {"id": 4857806, "name": "Fremont County", "state": "IA", "country": "US", "coord": {"lon": -95.600273, "lat": 40.750561}}, {"id": 4857911, "name": "Fruitland", "state": "IA", "country": "US", "coord": {"lon": -91.129318, "lat": 41.35614}}, {"id": 4858117, "name": "Garner", "state": "IA", "country": "US", "coord": {"lon": -93.601883, "lat": 43.102459}}, {"id": 4858159, "name": "Gas Light Mobile Home Villa", "state": "IA", "country": "US", "coord": {"lon": -92.41658, "lat": 42.54137}}, {"id": 4858239, "name": "George", "state": "IA", "country": "US", "coord": {"lon": -96.002243, "lat": 43.343861}}, {"id": 4858343, "name": "Gilbert", "state": "IA", "country": "US", "coord": {"lon": -93.649658, "lat": 42.10693}}, {"id": 4858377, "name": "Gilliatt", "state": "IA", "country": "US", "coord": {"lon": -95.758621, "lat": 41.291111}}, {"id": 4858479, "name": "Glenwood", "state": "IA", "country": "US", "coord": {"lon": -95.742508, "lat": 41.04694}}, {"id": 4858498, "name": "Glidden", "state": "IA", "country": "US", "coord": {"lon": -94.728867, "lat": 42.056931}}, {"id": 4858565, "name": "Golf View Mobile Home Court", "state": "IA", "country": "US", "coord": {"lon": -91.616837, "lat": 41.7514}}, {"id": 4858687, "name": "Gowrie", "state": "IA", "country": "US", "coord": {"lon": -94.290802, "lat": 42.280529}}, {"id": 4858952, "name": "Granger", "state": "IA", "country": "US", "coord": {"lon": -93.824387, "lat": 41.761101}}, {"id": 4859211, "name": "Greene", "state": "IA", "country": "US", "coord": {"lon": -92.802422, "lat": 42.895809}}, {"id": 4859214, "name": "Greene County", "state": "IA", "country": "US", "coord": {"lon": -94.400253, "lat": 42.033321}}, {"id": 4859234, "name": "Greenfield", "state": "IA", "country": "US", "coord": {"lon": -94.461349, "lat": 41.305271}}, {"id": 4859329, "name": "Grimes", "state": "IA", "country": "US", "coord": {"lon": -93.791061, "lat": 41.68832}}, {"id": 4859343, "name": "Grinnell", "state": "IA", "country": "US", "coord": {"lon": -92.722412, "lat": 41.74305}}, {"id": 4859365, "name": "Griswold", "state": "IA", "country": "US", "coord": {"lon": -95.137489, "lat": 41.234989}}, {"id": 4859430, "name": "Grundy Center", "state": "IA", "country": "US", "coord": {"lon": -92.768532, "lat": 42.361649}}, {"id": 4859441, "name": "Grundy County", "state": "IA", "country": "US", "coord": {"lon": -92.800201, "lat": 42.399979}}, {"id": 4859450, "name": "Gruver", "state": "IA", "country": "US", "coord": {"lon": -94.705261, "lat": 43.393291}}, {"id": 4859491, "name": "Guthrie Center", "state": "IA", "country": "US", "coord": {"lon": -94.503304, "lat": 41.677212}}, {"id": 4859502, "name": "Guthrie County", "state": "IA", "country": "US", "coord": {"lon": -94.500801, "lat": 41.683319}}, {"id": 4859514, "name": "Guttenberg", "state": "IA", "country": "US", "coord": {"lon": -91.099571, "lat": 42.78582}}, {"id": 4859603, "name": "Hamburg", "state": "IA", "country": "US", "coord": {"lon": -95.657768, "lat": 40.60445}}, {"id": 4859624, "name": "Hamilton County", "state": "IA", "country": "US", "coord": {"lon": -93.716881, "lat": 42.383308}}, {"id": 4859658, "name": "Hampton", "state": "IA", "country": "US", "coord": {"lon": -93.202423, "lat": 42.74192}}, {"id": 4859771, "name": "Hardin County", "state": "IA", "country": "US", "coord": {"lon": -93.250763, "lat": 42.38332}}, {"id": 4859802, "name": "Harlan", "state": "IA", "country": "US", "coord": {"lon": -95.325546, "lat": 41.653042}}, {"id": 4859875, "name": "Harris", "state": "IA", "country": "US", "coord": {"lon": -95.434174, "lat": 43.44524}}, {"id": 4859950, "name": "Hartley", "state": "IA", "country": "US", "coord": {"lon": -95.476952, "lat": 43.17997}}, {"id": 4860019, "name": "Hastings", "state": "IA", "country": "US", "coord": {"lon": -95.499161, "lat": 41.022781}}, {"id": 4860066, "name": "Hawarden", "state": "IA", "country": "US", "coord": {"lon": -96.485313, "lat": 42.995819}}, {"id": 4860353, "name": "Henry County", "state": "IA", "country": "US", "coord": {"lon": -91.550163, "lat": 40.98336}}, {"id": 4860360, "name": "Henderson", "state": "IA", "country": "US", "coord": {"lon": -95.431107, "lat": 41.140549}}, {"id": 4860452, "name": "Hiawatha", "state": "IA", "country": "US", "coord": {"lon": -91.682121, "lat": 42.035831}}, {"id": 4860629, "name": "Highview", "state": "IA", "country": "US", "coord": {"lon": -93.904114, "lat": 42.47192}}, {"id": 4860792, "name": "Hobarton", "state": "IA", "country": "US", "coord": {"lon": -94.282188, "lat": 43.070518}}, {"id": 4860886, "name": "Holstein", "state": "IA", "country": "US", "coord": {"lon": -95.544998, "lat": 42.489151}}, {"id": 4861232, "name": "Howard County", "state": "IA", "country": "US", "coord": {"lon": -92.316841, "lat": 43.349972}}, {"id": 4861298, "name": "Hudson", "state": "IA", "country": "US", "coord": {"lon": -92.455467, "lat": 42.406651}}, {"id": 4861319, "name": "Hull", "state": "IA", "country": "US", "coord": {"lon": -96.133629, "lat": 43.188591}}, {"id": 4861335, "name": "Humboldt", "state": "IA", "country": "US", "coord": {"lon": -94.21524, "lat": 42.720798}}, {"id": 4861343, "name": "Humboldt County", "state": "IA", "country": "US", "coord": {"lon": -94.200241, "lat": 42.866638}}, {"id": 4861422, "name": "Huxley", "state": "IA", "country": "US", "coord": {"lon": -93.600769, "lat": 41.89526}}, {"id": 4861464, "name": "Ida Grove", "state": "IA", "country": "US", "coord": {"lon": -95.471672, "lat": 42.34499}}, {"id": 4861620, "name": "Independence", "state": "IA", "country": "US", "coord": {"lon": -91.889343, "lat": 42.468601}}, {"id": 4861712, "name": "Indiana", "state": "IA", "country": "US", "coord": {"lon": -93.0252, "lat": 41.204441}}, {"id": 4861716, "name": "Indianapolis", "state": "IA", "country": "US", "coord": {"lon": -92.433517, "lat": 41.39695}}, {"id": 4861719, "name": "Indianola", "state": "IA", "country": "US", "coord": {"lon": -93.557442, "lat": 41.358051}}, {"id": 4861743, "name": "Indiantown (historical)", "state": "IA", "country": "US", "coord": {"lon": -95.108047, "lat": 41.312489}}, {"id": 4862034, "name": "Iowa City", "state": "IA", "country": "US", "coord": {"lon": -91.530167, "lat": 41.661129}}, {"id": 4862069, "name": "Iowa Falls", "state": "IA", "country": "US", "coord": {"lon": -93.251312, "lat": 42.52248}}, {"id": 4862182, "name": "Iowa", "state": "IA", "country": "US", "coord": {"lon": -93.500488, "lat": 42.000271}}, {"id": 4862320, "name": "Jackson County", "state": "IA", "country": "US", "coord": {"lon": -90.583458, "lat": 42.166679}}, {"id": 4862456, "name": "Jasper County", "state": "IA", "country": "US", "coord": {"lon": -93.050201, "lat": 41.683319}}, {"id": 4862482, "name": "Jefferson", "state": "IA", "country": "US", "coord": {"lon": -94.377472, "lat": 42.015259}}, {"id": 4862494, "name": "Jefferson County", "state": "IA", "country": "US", "coord": {"lon": -91.950172, "lat": 41.033352}}, {"id": 4862645, "name": "Jesup", "state": "IA", "country": "US", "coord": {"lon": -92.063789, "lat": 42.47554}}, {"id": 4862659, "name": "Jewell", "state": "IA", "country": "US", "coord": {"lon": -93.640221, "lat": 42.306931}}, {"id": 4862732, "name": "Johnson County", "state": "IA", "country": "US", "coord": {"lon": -91.533501, "lat": 41.666679}}, {"id": 4862760, "name": "Johnston", "state": "IA", "country": "US", "coord": {"lon": -93.697723, "lat": 41.673038}}, {"id": 4862800, "name": "Jones County", "state": "IA", "country": "US", "coord": {"lon": -91.133476, "lat": 42.116669}}, {"id": 4862816, "name": "Jones Siding", "state": "IA", "country": "US", "coord": {"lon": -94.208023, "lat": 42.67997}}, {"id": 4863181, "name": "Kalona", "state": "IA", "country": "US", "coord": {"lon": -91.706001, "lat": 41.48307}}, {"id": 4863239, "name": "Keb (historical)", "state": "IA", "country": "US", "coord": {"lon": -92.458519, "lat": 41.083351}}, {"id": 4863349, "name": "Keokuk", "state": "IA", "country": "US", "coord": {"lon": -91.384872, "lat": 40.39727}}, {"id": 4863380, "name": "Keosauqua", "state": "IA", "country": "US", "coord": {"lon": -91.962387, "lat": 40.730309}}, {"id": 4863391, "name": "Keota", "state": "IA", "country": "US", "coord": {"lon": -91.953789, "lat": 41.363899}}, {"id": 4863535, "name": "Kingsley", "state": "IA", "country": "US", "coord": {"lon": -95.967522, "lat": 42.588322}}, {"id": 4863705, "name": "Knoxville", "state": "IA", "country": "US", "coord": {"lon": -93.109367, "lat": 41.320831}}, {"id": 4863737, "name": "Konigsmark", "state": "IA", "country": "US", "coord": {"lon": -91.692398, "lat": 41.889999}}, {"id": 4863753, "name": "Kossuth County", "state": "IA", "country": "US", "coord": {"lon": -94.216911, "lat": 43.199959}}, {"id": 4863820, "name": "La Porte City", "state": "IA", "country": "US", "coord": {"lon": -92.192131, "lat": 42.314991}}, {"id": 4863906, "name": "Lake City", "state": "IA", "country": "US", "coord": {"lon": -94.733871, "lat": 42.267479}}, {"id": 4863966, "name": "Lake Mills", "state": "IA", "country": "US", "coord": {"lon": -93.533272, "lat": 43.419399}}, {"id": 4863989, "name": "Lake Park", "state": "IA", "country": "US", "coord": {"lon": -95.320831, "lat": 43.455521}}, {"id": 4864012, "name": "Lake View", "state": "IA", "country": "US", "coord": {"lon": -95.053322, "lat": 42.311649}}, {"id": 4864088, "name": "Lakota", "state": "IA", "country": "US", "coord": {"lon": -94.093849, "lat": 43.377178}}, {"id": 4864105, "name": "Lamoni", "state": "IA", "country": "US", "coord": {"lon": -93.93412, "lat": 40.62278}}, {"id": 4864265, "name": "Laurens", "state": "IA", "country": "US", "coord": {"lon": -94.851929, "lat": 42.846642}}, {"id": 4864315, "name": "Le Claire", "state": "IA", "country": "US", "coord": {"lon": -90.34346, "lat": 41.59864}}, {"id": 4864337, "name": "Le Mars", "state": "IA", "country": "US", "coord": {"lon": -96.165581, "lat": 42.794159}}, {"id": 4864395, "name": "Lee County", "state": "IA", "country": "US", "coord": {"lon": -91.48349, "lat": 40.65004}}, {"id": 4864471, "name": "Lenox", "state": "IA", "country": "US", "coord": {"lon": -94.561913, "lat": 40.881649}}, {"id": 4864492, "name": "Leon", "state": "IA", "country": "US", "coord": {"lon": -93.747719, "lat": 40.739719}}, {"id": 4864924, "name": "Linn County", "state": "IA", "country": "US", "coord": {"lon": -91.600182, "lat": 42.066662}}, {"id": 4864990, "name": "Lisbon", "state": "IA", "country": "US", "coord": {"lon": -91.385452, "lat": 41.92112}}, {"id": 4865287, "name": "Logan", "state": "IA", "country": "US", "coord": {"lon": -95.788902, "lat": 41.643051}}, {"id": 4865338, "name": "Lone Tree", "state": "IA", "country": "US", "coord": {"lon": -91.425987, "lat": 41.488079}}, {"id": 4865519, "name": "Lourdes", "state": "IA", "country": "US", "coord": {"lon": -92.298782, "lat": 43.262192}}, {"id": 4865617, "name": "Lucas County", "state": "IA", "country": "US", "coord": {"lon": -93.300209, "lat": 41.033329}}, {"id": 4865744, "name": "Lyon County", "state": "IA", "country": "US", "coord": {"lon": -96.250862, "lat": 43.383308}}, {"id": 4865871, "name": "Madrid", "state": "IA", "country": "US", "coord": {"lon": -93.82328, "lat": 41.876652}}, {"id": 4865892, "name": "Maharishi Vedic City", "state": "IA", "country": "US", "coord": {"lon": -91.994904, "lat": 41.052521}}, {"id": 4865894, "name": "Mahaska County", "state": "IA", "country": "US", "coord": {"lon": -92.650192, "lat": 41.33334}}, {"id": 4865974, "name": "Malvern", "state": "IA", "country": "US", "coord": {"lon": -95.585281, "lat": 41.002781}}, {"id": 4865996, "name": "Manchester", "state": "IA", "country": "US", "coord": {"lon": -91.455429, "lat": 42.48415}}, {"id": 4866032, "name": "Manly", "state": "IA", "country": "US", "coord": {"lon": -93.202148, "lat": 43.287182}}, {"id": 4866048, "name": "Manning", "state": "IA", "country": "US", "coord": {"lon": -95.064987, "lat": 41.909149}}, {"id": 4866066, "name": "Manson", "state": "IA", "country": "US", "coord": {"lon": -94.534142, "lat": 42.52914}}, {"id": 4866151, "name": "Mapleton", "state": "IA", "country": "US", "coord": {"lon": -95.79306, "lat": 42.165821}}, {"id": 4866164, "name": "Maquoketa", "state": "IA", "country": "US", "coord": {"lon": -90.665688, "lat": 42.068909}}, {"id": 4866215, "name": "Marcus", "state": "IA", "country": "US", "coord": {"lon": -95.80751, "lat": 42.825821}}, {"id": 4866236, "name": "Marengo", "state": "IA", "country": "US", "coord": {"lon": -92.07074, "lat": 41.798061}}, {"id": 4866263, "name": "Marion", "state": "IA", "country": "US", "coord": {"lon": -91.597679, "lat": 42.034168}}, {"id": 4866274, "name": "Marion County", "state": "IA", "country": "US", "coord": {"lon": -93.100197, "lat": 41.333328}}, {"id": 4866360, "name": "Marshall County", "state": "IA", "country": "US", "coord": {"lon": -93.000763, "lat": 42.033321}}, {"id": 4866371, "name": "Marshalltown", "state": "IA", "country": "US", "coord": {"lon": -92.907982, "lat": 42.049431}}]