[{"id": 4502649, "name": "Laurel Springs", "state": "NJ", "country": "US", "coord": {"lon": -75.006279, "lat": 39.82011}}, {"id": 4502667, "name": "Leisuretowne", "state": "NJ", "country": "US", "coord": {"lon": -74.702103, "lat": 39.892342}}, {"id": 4502687, "name": "Lindenwold", "state": "NJ", "country": "US", "coord": {"lon": -74.997673, "lat": 39.82428}}, {"id": 4502690, "name": "Linwood", "state": "NJ", "country": "US", "coord": {"lon": -74.575157, "lat": 39.33984}}, {"id": 4502832, "name": "Magnolia", "state": "NJ", "country": "US", "coord": {"lon": -74.660713, "lat": 39.949841}}, {"id": 4502833, "name": "Magnolia", "state": "NJ", "country": "US", "coord": {"lon": -75.039062, "lat": 39.854561}}, {"id": 4502866, "name": "Manahawkin", "state": "NJ", "country": "US", "coord": {"lon": -74.258751, "lat": 39.6954}}, {"id": 4502901, "name": "Maple Shade", "state": "NJ", "country": "US", "coord": {"lon": -74.992393, "lat": 39.95261}}, {"id": 4502904, "name": "Margate City", "state": "NJ", "country": "US", "coord": {"lon": -74.503487, "lat": 39.327888}}, {"id": 4502911, "name": "Marlton", "state": "NJ", "country": "US", "coord": {"lon": -74.921829, "lat": 39.89122}}, {"id": 4502962, "name": "Mays Landing", "state": "NJ", "country": "US", "coord": {"lon": -74.727661, "lat": 39.452339}}, {"id": 4502986, "name": "Medford Lakes", "state": "NJ", "country": "US", "coord": {"lon": -74.80294, "lat": 39.858452}}, {"id": 4503078, "name": "Millville", "state": "NJ", "country": "US", "coord": {"lon": -75.039337, "lat": 39.402061}}, {"id": 4503132, "name": "Mount Ephraim", "state": "NJ", "country": "US", "coord": {"lon": -75.092667, "lat": 39.878448}}, {"id": 4503134, "name": "Mount Holly", "state": "NJ", "country": "US", "coord": {"lon": -74.787659, "lat": 39.992889}}, {"id": 4503136, "name": "Mount Laurel", "state": "NJ", "country": "US", "coord": {"lon": -74.890999, "lat": 39.933998}}, {"id": 4503195, "name": "Mullica Hill", "state": "NJ", "country": "US", "coord": {"lon": -75.224068, "lat": 39.739281}}, {"id": 4503204, "name": "Mystic Island", "state": "NJ", "country": "US", "coord": {"lon": -74.38237, "lat": 39.544281}}, {"id": 4503217, "name": "National Park", "state": "NJ", "country": "US", "coord": {"lon": -75.178787, "lat": 39.865952}}, {"id": 4503264, "name": "Newfield", "state": "NJ", "country": "US", "coord": {"lon": -75.024902, "lat": 39.546501}}, {"id": 4503289, "name": "North Beach Haven", "state": "NJ", "country": "US", "coord": {"lon": -74.231529, "lat": 39.57317}}, {"id": 4503299, "name": "North Cape May", "state": "NJ", "country": "US", "coord": {"lon": -74.957947, "lat": 38.982059}}, {"id": 4503313, "name": "North Wildwood", "state": "NJ", "country": "US", "coord": {"lon": -74.799332, "lat": 39.000671}}, {"id": 4503316, "name": "Northfield", "state": "NJ", "country": "US", "coord": {"lon": -74.550148, "lat": 39.370392}}, {"id": 4503339, "name": "Oaklyn", "state": "NJ", "country": "US", "coord": {"lon": -75.084618, "lat": 39.900951}}, {"id": 4503346, "name": "Ocean Acres", "state": "NJ", "country": "US", "coord": {"lon": -74.280983, "lat": 39.74345}}, {"id": 4503351, "name": "Ocean City", "state": "NJ", "country": "US", "coord": {"lon": -74.5746, "lat": 39.277618}}, {"id": 4503355, "name": "Ocean County", "state": "NJ", "country": "US", "coord": {"lon": -74.216248, "lat": 39.90012}}, {"id": 4503360, "name": "Ocean Gate", "state": "NJ", "country": "US", "coord": {"lon": -74.133751, "lat": 39.926788}}, {"id": 4503401, "name": "Olivet", "state": "NJ", "country": "US", "coord": {"lon": -75.154633, "lat": 39.548168}}, {"id": 4503516, "name": "Paulsboro", "state": "NJ", "country": "US", "coord": {"lon": -75.240463, "lat": 39.830391}}, {"id": 4503532, "name": "Pemberton", "state": "NJ", "country": "US", "coord": {"lon": -74.682938, "lat": 39.972061}}, {"id": 4503534, "name": "Pemberton Heights", "state": "NJ", "country": "US", "coord": {"lon": -74.678772, "lat": 39.962608}}, {"id": 4503544, "name": "Penns Grove", "state": "NJ", "country": "US", "coord": {"lon": -75.467972, "lat": 39.729561}}, {"id": 4503548, "name": "Pennsauken", "state": "NJ", "country": "US", "coord": {"lon": -75.057953, "lat": 39.956219}}, {"id": 4503555, "name": "Pennsville", "state": "NJ", "country": "US", "coord": {"lon": -75.516586, "lat": 39.65345}}, {"id": 4503596, "name": "Pine Beach", "state": "NJ", "country": "US", "coord": {"lon": -74.170967, "lat": 39.935951}}, {"id": 4503606, "name": "Pine Hill", "state": "NJ", "country": "US", "coord": {"lon": -74.992111, "lat": 39.784279}}, {"id": 4503617, "name": "Pine Ridge at Crestwood", "state": "NJ", "country": "US", "coord": {"lon": -74.315147, "lat": 39.954559}}, {"id": 4503635, "name": "Pitman", "state": "NJ", "country": "US", "coord": {"lon": -75.131569, "lat": 39.732891}}, {"id": 4503646, "name": "Pleasantville", "state": "NJ", "country": "US", "coord": {"lon": -74.52404, "lat": 39.389839}}, {"id": 4503665, "name": "Pomona", "state": "NJ", "country": "US", "coord": {"lon": -74.575157, "lat": 39.478451}}, {"id": 4503681, "name": "Port Norris", "state": "NJ", "country": "US", "coord": {"lon": -75.035179, "lat": 39.245949}}, {"id": 4503682, "name": "Port Republic", "state": "NJ", "country": "US", "coord": {"lon": -74.48571, "lat": 39.520672}}, {"id": 4503698, "name": "Presidential Lakes Estates", "state": "NJ", "country": "US", "coord": {"lon": -74.564598, "lat": 39.913731}}, {"id": 4503736, "name": "Ramblewood", "state": "NJ", "country": "US", "coord": {"lon": -74.943779, "lat": 39.928719}}, {"id": 4503781, "name": "Richwood", "state": "NJ", "country": "US", "coord": {"lon": -75.165459, "lat": 39.72261}}, {"id": 4503788, "name": "Rio Grande", "state": "NJ", "country": "US", "coord": {"lon": -74.881561, "lat": 39.014561}}, {"id": 4503816, "name": "Rosenhayn", "state": "NJ", "country": "US", "coord": {"lon": -75.131287, "lat": 39.478168}}, {"id": 4503944, "name": "Salem", "state": "NJ", "country": "US", "coord": {"lon": -75.46714, "lat": 39.571781}}, {"id": 4503953, "name": "Runnemede", "state": "NJ", "country": "US", "coord": {"lon": -75.067947, "lat": 39.852341}}, {"id": 4503956, "name": "Sally Marshall Crossing", "state": "NJ", "country": "US", "coord": {"lon": -74.891838, "lat": 39.001499}}, {"id": 4504003, "name": "Sea Isle City", "state": "NJ", "country": "US", "coord": {"lon": -74.69294, "lat": 39.15345}}, {"id": 4504007, "name": "Seabrook Farms", "state": "NJ", "country": "US", "coord": {"lon": -75.217957, "lat": 39.50095}}, {"id": 4504010, "name": "Seaside Heights", "state": "NJ", "country": "US", "coord": {"lon": -74.072906, "lat": 39.944279}}, {"id": 4504014, "name": "Seaside Park", "state": "NJ", "country": "US", "coord": {"lon": -74.07708, "lat": 39.926788}}, {"id": 4504096, "name": "Ship Bottom", "state": "NJ", "country": "US", "coord": {"lon": -74.18042, "lat": 39.642899}}, {"id": 4504131, "name": "Silver Ridge", "state": "NJ", "country": "US", "coord": {"lon": -74.218483, "lat": 39.959278}}, {"id": 4504164, "name": "Smithville", "state": "NJ", "country": "US", "coord": {"lon": -74.457092, "lat": 39.494011}}, {"id": 4504180, "name": "Somerdale", "state": "NJ", "country": "US", "coord": {"lon": -75.022667, "lat": 39.844002}}, {"id": 4504186, "name": "Somers Point", "state": "NJ", "country": "US", "coord": {"lon": -74.594597, "lat": 39.317619}}, {"id": 4504221, "name": "South Toms River", "state": "NJ", "country": "US", "coord": {"lon": -74.204308, "lat": 39.942059}}, {"id": 4504225, "name": "South Vineland", "state": "NJ", "country": "US", "coord": {"lon": -75.028793, "lat": 39.44595}}, {"id": 4504245, "name": "Speedwell", "state": "NJ", "country": "US", "coord": {"lon": -74.545433, "lat": 39.763168}}, {"id": 4504250, "name": "Springdale", "state": "NJ", "country": "US", "coord": {"lon": -74.966278, "lat": 39.902611}}, {"id": 4504336, "name": "Stratford", "state": "NJ", "country": "US", "coord": {"lon": -75.01545, "lat": 39.826778}}, {"id": 4504375, "name": "Surf City", "state": "NJ", "country": "US", "coord": {"lon": -74.165138, "lat": 39.66206}}, {"id": 4504391, "name": "Swedesboro", "state": "NJ", "country": "US", "coord": {"lon": -75.310471, "lat": 39.747608}}, {"id": 4504476, "name": "Toms River", "state": "NJ", "country": "US", "coord": {"lon": -74.197922, "lat": 39.953732}}, {"id": 4504525, "name": "Tuckerton", "state": "NJ", "country": "US", "coord": {"lon": -74.340141, "lat": 39.603168}}, {"id": 4504536, "name": "Turnersville", "state": "NJ", "country": "US", "coord": {"lon": -75.051277, "lat": 39.77317}}, {"id": 4504598, "name": "Ventnor City", "state": "NJ", "country": "US", "coord": {"lon": -74.477371, "lat": 39.340389}}, {"id": 4504608, "name": "Victory Lakes", "state": "NJ", "country": "US", "coord": {"lon": -74.966003, "lat": 39.633171}}, {"id": 4504616, "name": "Villas", "state": "NJ", "country": "US", "coord": {"lon": -74.938507, "lat": 39.028721}}, {"id": 4504621, "name": "Vineland", "state": "NJ", "country": "US", "coord": {"lon": -75.025726, "lat": 39.486229}}, {"id": 4504713, "name": "Waretown", "state": "NJ", "country": "US", "coord": {"lon": -74.195137, "lat": 39.791512}}, {"id": 4504761, "name": "Wenonah", "state": "NJ", "country": "US", "coord": {"lon": -75.148788, "lat": 39.794559}}, {"id": 4504783, "name": "West Cape May", "state": "NJ", "country": "US", "coord": {"lon": -74.941841, "lat": 38.938721}}, {"id": 4504811, "name": "Westville", "state": "NJ", "country": "US", "coord": {"lon": -75.131561, "lat": 39.867889}}, {"id": 4504856, "name": "Wildwood", "state": "NJ", "country": "US", "coord": {"lon": -74.814888, "lat": 38.991779}}, {"id": 4504857, "name": "Wildwood Crest", "state": "NJ", "country": "US", "coord": {"lon": -74.833504, "lat": 38.974838}}, {"id": 4504871, "name": "Williamstown", "state": "NJ", "country": "US", "coord": {"lon": -74.995171, "lat": 39.68623}}, {"id": 4504910, "name": "Wood-Lynne", "state": "NJ", "country": "US", "coord": {"lon": -75.096291, "lat": 39.917339}}, {"id": 4504911, "name": "Woodbine", "state": "NJ", "country": "US", "coord": {"lon": -74.81517, "lat": 39.241779}}, {"id": 4504915, "name": "Woodbury", "state": "NJ", "country": "US", "coord": {"lon": -75.152679, "lat": 39.838169}}, {"id": 4504919, "name": "Woodbury Heights", "state": "NJ", "country": "US", "coord": {"lon": -75.155182, "lat": 39.817059}}, {"id": 4504946, "name": "Woodstown", "state": "NJ", "country": "US", "coord": {"lon": -75.328247, "lat": 39.651501}}, {"id": 4504988, "name": "Aberdeen", "state": "OH", "country": "US", "coord": {"lon": -83.761032, "lat": 38.655628}}, {"id": 4505215, "name": "Amberley", "state": "OH", "country": "US", "coord": {"lon": -84.428001, "lat": 39.204781}}, {"id": 4505219, "name": "Amelia", "state": "OH", "country": "US", "coord": {"lon": -84.217712, "lat": 39.0284}}, {"id": 4505390, "name": "Arcanum", "state": "OH", "country": "US", "coord": {"lon": -84.553291, "lat": 39.990051}}, {"id": 4505522, "name": "Ashville", "state": "OH", "country": "US", "coord": {"lon": -82.952957, "lat": 39.715618}}, {"id": 4505542, "name": "Athens", "state": "OH", "country": "US", "coord": {"lon": -82.101257, "lat": 39.329239}}, {"id": 4505546, "name": "Athens County", "state": "OH", "country": "US", "coord": {"lon": -82.049873, "lat": 39.350071}}, {"id": 4505716, "name": "Baltimore", "state": "OH", "country": "US", "coord": {"lon": -82.600723, "lat": 39.845341}}, {"id": 4505786, "name": "Barnesville", "state": "OH", "country": "US", "coord": {"lon": -81.176498, "lat": 39.988129}}, {"id": 4505868, "name": "Batavia", "state": "OH", "country": "US", "coord": {"lon": -84.17688, "lat": 39.077011}}, {"id": 4506008, "name": "Beavercreek", "state": "OH", "country": "US", "coord": {"lon": -84.063271, "lat": 39.709229}}, {"id": 4506031, "name": "Beckett Ridge", "state": "OH", "country": "US", "coord": {"lon": -84.435219, "lat": 39.347}}, {"id": 4506166, "name": "Bellbrook", "state": "OH", "country": "US", "coord": {"lon": -84.07077, "lat": 39.63562}}, {"id": 4506187, "name": "Belpre", "state": "OH", "country": "US", "coord": {"lon": -81.572899, "lat": 39.27396}}, {"id": 4506308, "name": "Bethel", "state": "OH", "country": "US", "coord": {"lon": -84.080772, "lat": 38.96368}}, {"id": 4506309, "name": "Bethel", "state": "OH", "country": "US", "coord": {"lon": -83.393532, "lat": 39.730339}}, {"id": 4506474, "name": "Beverly", "state": "OH", "country": "US", "coord": {"lon": -81.639572, "lat": 39.547852}}, {"id": 4506487, "name": "Bexley", "state": "OH", "country": "US", "coord": {"lon": -82.937683, "lat": 39.968948}}, {"id": 4506666, "name": "Blacklick Estates", "state": "OH", "country": "US", "coord": {"lon": -82.864342, "lat": 39.90506}}, {"id": 4506684, "name": "Blanchester", "state": "OH", "country": "US", "coord": {"lon": -83.988823, "lat": 39.293121}}, {"id": 4506754, "name": "Blue Ash", "state": "OH", "country": "US", "coord": {"lon": -84.378273, "lat": 39.231998}}, {"id": 4507067, "name": "Bridgetown", "state": "OH", "country": "US", "coord": {"lon": -84.637169, "lat": 39.153111}}, {"id": 4507188, "name": "Brookville", "state": "OH", "country": "US", "coord": {"lon": -84.411339, "lat": 39.83672}}, {"id": 4507378, "name": "Buckeye Lake", "state": "OH", "country": "US", "coord": {"lon": -82.472382, "lat": 39.933681}}, {"id": 4507423, "name": "Buffalo", "state": "OH", "country": "US", "coord": {"lon": -81.520119, "lat": 39.915909}}, {"id": 4507497, "name": "Burlington", "state": "OH", "country": "US", "coord": {"lon": -82.535713, "lat": 38.407299}}, {"id": 4507568, "name": "Butler County", "state": "OH", "country": "US", "coord": {"lon": -84.566612, "lat": 39.450062}}, {"id": 4507599, "name": "Byesville", "state": "OH", "country": "US", "coord": {"lon": -81.536507, "lat": 39.969791}}, {"id": 4507661, "name": "Caldwell", "state": "OH", "country": "US", "coord": {"lon": -81.51651, "lat": 39.747849}}, {"id": 4507755, "name": "Camden", "state": "OH", "country": "US", "coord": {"lon": -84.64856, "lat": 39.628941}}, {"id": 4507883, "name": "Canal Winchester", "state": "OH", "country": "US", "coord": {"lon": -82.804619, "lat": 39.842838}}, {"id": 4507937, "name": "Carlisle", "state": "OH", "country": "US", "coord": {"lon": -84.320221, "lat": 39.582001}}, {"id": 4508132, "name": "Cedarville", "state": "OH", "country": "US", "coord": {"lon": -83.80854, "lat": 39.744228}}, {"id": 4508204, "name": "Centerville", "state": "OH", "country": "US", "coord": {"lon": -84.159378, "lat": 39.628391}}, {"id": 4508373, "name": "Chauncey", "state": "OH", "country": "US", "coord": {"lon": -82.129311, "lat": 39.39785}}, {"id": 4508395, "name": "Cherry Grove", "state": "OH", "country": "US", "coord": {"lon": -84.321877, "lat": 39.072559}}, {"id": 4508465, "name": "Cheviot", "state": "OH", "country": "US", "coord": {"lon": -84.613281, "lat": 39.157001}}, {"id": 4508506, "name": "Choctaw Lake", "state": "OH", "country": "US", "coord": {"lon": -83.484917, "lat": 39.96006}}, {"id": 4508722, "name": "Cincinnati", "state": "OH", "country": "US", "coord": {"lon": -84.456886, "lat": 39.161999}}, {"id": 4508778, "name": "Circleville", "state": "OH", "country": "US", "coord": {"lon": -82.946007, "lat": 39.60062}}, {"id": 4508810, "name": "Clark County", "state": "OH", "country": "US", "coord": {"lon": -83.766586, "lat": 39.916729}}, {"id": 4508885, "name": "Clayton", "state": "OH", "country": "US", "coord": {"lon": -84.360497, "lat": 39.86311}}, {"id": 4508944, "name": "Cleves", "state": "OH", "country": "US", "coord": {"lon": -84.749123, "lat": 39.16172}}, {"id": 4509035, "name": "Coal Grove", "state": "OH", "country": "US", "coord": {"lon": -82.64711, "lat": 38.50341}}, {"id": 4509177, "name": "Columbus", "state": "OH", "country": "US", "coord": {"lon": -82.998787, "lat": 39.961182}}, {"id": 4509221, "name": "Commercial Point", "state": "OH", "country": "US", "coord": {"lon": -83.057129, "lat": 39.768398}}, {"id": 4509506, "name": "Covedale", "state": "OH", "country": "US", "coord": {"lon": -84.606331, "lat": 39.12117}}, {"id": 4509634, "name": "Crooksville", "state": "OH", "country": "US", "coord": {"lon": -82.092087, "lat": 39.768959}}, {"id": 4509699, "name": "Crystal Lakes", "state": "OH", "country": "US", "coord": {"lon": -84.026604, "lat": 39.889229}}, {"id": 4509882, "name": "Day Heights", "state": "OH", "country": "US", "coord": {"lon": -84.226318, "lat": 39.17395}}, {"id": 4509884, "name": "Dayton", "state": "OH", "country": "US", "coord": {"lon": -84.191612, "lat": 39.758949}}, {"id": 4509986, "name": "Deer Park", "state": "OH", "country": "US", "coord": {"lon": -84.394661, "lat": 39.205341}}, {"id": 4510062, "name": "Dent", "state": "OH", "country": "US", "coord": {"lon": -84.651337, "lat": 39.18589}}, {"id": 4510098, "name": "Devola", "state": "OH", "country": "US", "coord": {"lon": -81.479012, "lat": 39.473679}}, {"id": 4510143, "name": "Dillonvale", "state": "OH", "country": "US", "coord": {"lon": -84.402161, "lat": 39.218109}}, {"id": 4510303, "name": "Drexel", "state": "OH", "country": "US", "coord": {"lon": -84.286613, "lat": 39.746449}}, {"id": 4510329, "name": "Dry Ridge", "state": "OH", "country": "US", "coord": {"lon": -84.61911, "lat": 39.25922}}, {"id": 4510342, "name": "Dry Run", "state": "OH", "country": "US", "coord": {"lon": -84.33049, "lat": 39.104229}}, {"id": 4510456, "name": "Dunlap", "state": "OH", "country": "US", "coord": {"lon": -84.617996, "lat": 39.292278}}, {"id": 4510719, "name": "Eaton", "state": "OH", "country": "US", "coord": {"lon": -84.63662, "lat": 39.743938}}, {"id": 4510996, "name": "Elmwood Place", "state": "OH", "country": "US", "coord": {"lon": -84.487999, "lat": 39.187279}}, {"id": 4511064, "name": "Englewood", "state": "OH", "country": "US", "coord": {"lon": -84.30217, "lat": 39.87756}}, {"id": 4511086, "name": "Enon", "state": "OH", "country": "US", "coord": {"lon": -83.936882, "lat": 39.87812}}, {"id": 4511149, "name": "Etna", "state": "OH", "country": "US", "coord": {"lon": -82.681831, "lat": 39.957291}}, {"id": 4511196, "name": "Evendale", "state": "OH", "country": "US", "coord": {"lon": -84.417999, "lat": 39.256168}}, {"id": 4511219, "name": "Ewing", "state": "OH", "country": "US", "coord": {"lon": -82.433212, "lat": 39.472569}}, {"id": 4511263, "name": "Fairborn", "state": "OH", "country": "US", "coord": {"lon": -84.019379, "lat": 39.820889}}, {"id": 4511274, "name": "Fairfax", "state": "OH", "country": "US", "coord": {"lon": -84.393272, "lat": 39.14534}}, {"id": 4511283, "name": "Fairfield", "state": "OH", "country": "US", "coord": {"lon": -84.560501, "lat": 39.34589}}, {"id": 4511285, "name": "Fairfield Beach", "state": "OH", "country": "US", "coord": {"lon": -82.475159, "lat": 39.915901}}, {"id": 4511295, "name": "Fairfield County", "state": "OH", "country": "US", "coord": {"lon": -82.599892, "lat": 39.75034}}, {"id": 4511500, "name": "Farmersville", "state": "OH", "country": "US", "coord": {"lon": -84.429108, "lat": 39.679501}}, {"id": 4511642, "name": "Finneytown", "state": "OH", "country": "US", "coord": {"lon": -84.5205, "lat": 39.20034}}, {"id": 4511939, "name": "Five Points", "state": "OH", "country": "US", "coord": {"lon": -84.192993, "lat": 39.568668}}, {"id": 4512060, "name": "Forest Park", "state": "OH", "country": "US", "coord": {"lon": -84.504112, "lat": 39.29034}}, {"id": 4512083, "name": "Forestville", "state": "OH", "country": "US", "coord": {"lon": -84.34494, "lat": 39.075062}}, {"id": 4512145, "name": "Fort McKinley", "state": "OH", "country": "US", "coord": {"lon": -84.253548, "lat": 39.797562}}, {"id": 4512200, "name": "Frankfort", "state": "OH", "country": "US", "coord": {"lon": -83.18074, "lat": 39.401451}}, {"id": 4512203, "name": "Franklin", "state": "OH", "country": "US", "coord": {"lon": -84.304108, "lat": 39.558949}}, {"id": 4512214, "name": "Franklin County", "state": "OH", "country": "US", "coord": {"lon": -83.016571, "lat": 39.966728}}, {"id": 4512229, "name": "Franklin Furnace", "state": "OH", "country": "US", "coord": {"lon": -82.848778, "lat": 38.645081}}, {"id": 4512378, "name": "Fruit Hill", "state": "OH", "country": "US", "coord": {"lon": -84.36438, "lat": 39.075619}}, {"id": 4512449, "name": "Gallipolis", "state": "OH", "country": "US", "coord": {"lon": -82.20237, "lat": 38.809799}}, {"id": 4512557, "name": "Geneva", "state": "OH", "country": "US", "coord": {"lon": -82.433487, "lat": 39.66201}}, {"id": 4512584, "name": "Georgetown", "state": "OH", "country": "US", "coord": {"lon": -83.904091, "lat": 38.86451}}, {"id": 4512586, "name": "Georgetown", "state": "OH", "country": "US", "coord": {"lon": -81.883743, "lat": 39.968399}}, {"id": 4512620, "name": "Germantown", "state": "OH", "country": "US", "coord": {"lon": -84.369392, "lat": 39.626171}}, {"id": 4512773, "name": "Glendale", "state": "OH", "country": "US", "coord": {"lon": -84.459389, "lat": 39.270611}}, {"id": 4512821, "name": "Glouster", "state": "OH", "country": "US", "coord": {"lon": -82.084587, "lat": 39.503132}}, {"id": 4512862, "name": "Golf Manor", "state": "OH", "country": "US", "coord": {"lon": -84.446327, "lat": 39.187279}}, {"id": 4513047, "name": "Grandview", "state": "OH", "country": "US", "coord": {"lon": -84.724388, "lat": 39.194221}}, {"id": 4513057, "name": "Grandview Heights", "state": "OH", "country": "US", "coord": {"lon": -83.040741, "lat": 39.97979}}, {"id": 4513216, "name": "Green Meadows", "state": "OH", "country": "US", "coord": {"lon": -83.944382, "lat": 39.86895}}, {"id": 4513280, "name": "Greene County", "state": "OH", "country": "US", "coord": {"lon": -83.899933, "lat": 39.683392}}, {"id": 4513294, "name": "Greenfield", "state": "OH", "country": "US", "coord": {"lon": -83.38269, "lat": 39.352009}}, {"id": 4513309, "name": "Greenhills", "state": "OH", "country": "US", "coord": {"lon": -84.523003, "lat": 39.268108}}, {"id": 4513394, "name": "Groesbeck", "state": "OH", "country": "US", "coord": {"lon": -84.586891, "lat": 39.22311}}, {"id": 4513409, "name": "Grove City", "state": "OH", "country": "US", "coord": {"lon": -83.092957, "lat": 39.881451}}, {"id": 4513425, "name": "Groveport", "state": "OH", "country": "US", "coord": {"lon": -82.883789, "lat": 39.878399}}, {"id": 4513575, "name": "Hamilton", "state": "OH", "country": "US", "coord": {"lon": -84.56134, "lat": 39.399502}}, {"id": 4513583, "name": "Hamilton County", "state": "OH", "country": "US", "coord": {"lon": -84.533279, "lat": 39.183392}}, {"id": 4513703, "name": "Harbor Hills", "state": "OH", "country": "US", "coord": {"lon": -82.43515, "lat": 39.936729}}, {"id": 4513805, "name": "Harrison", "state": "OH", "country": "US", "coord": {"lon": -84.819946, "lat": 39.262001}}, {"id": 4514004, "name": "Hebron", "state": "OH", "country": "US", "coord": {"lon": -82.491272, "lat": 39.961731}}, {"id": 4514204, "name": "Highland County", "state": "OH", "country": "US", "coord": {"lon": -83.616592, "lat": 39.183399}}, {"id": 4514228, "name": "Highpoint", "state": "OH", "country": "US", "coord": {"lon": -84.35022, "lat": 39.288391}}, {"id": 4514282, "name": "Hillsboro", "state": "OH", "country": "US", "coord": {"lon": -83.611588, "lat": 39.20229}}, {"id": 4514358, "name": "Hocking County", "state": "OH", "country": "US", "coord": {"lon": -82.466537, "lat": 39.516731}}, {"id": 4514429, "name": "Holiday Valley", "state": "OH", "country": "US", "coord": {"lon": -83.968536, "lat": 39.856171}}, {"id": 4514746, "name": "Huber Heights", "state": "OH", "country": "US", "coord": {"lon": -84.124657, "lat": 39.843948}}, {"id": 4514822, "name": "Hunter", "state": "OH", "country": "US", "coord": {"lon": -84.289658, "lat": 39.49284}}, {"id": 4514868, "name": "Hustead", "state": "OH", "country": "US", "coord": {"lon": -83.862984, "lat": 39.840618}}, {"id": 4515247, "name": "Ironton", "state": "OH", "country": "US", "coord": {"lon": -82.682938, "lat": 38.536751}}, {"id": 4515318, "name": "Jackson", "state": "OH", "country": "US", "coord": {"lon": -82.636551, "lat": 39.052021}}, {"id": 4515427, "name": "Jamestown", "state": "OH", "country": "US", "coord": {"lon": -83.734917, "lat": 39.658119}}, {"id": 4515485, "name": "Jeffersonville", "state": "OH", "country": "US", "coord": {"lon": -83.563812, "lat": 39.653671}}, {"id": 4515813, "name": "Kenwood", "state": "OH", "country": "US", "coord": {"lon": -84.367157, "lat": 39.210609}}, {"id": 4515843, "name": "Kettering", "state": "OH", "country": "US", "coord": {"lon": -84.168831, "lat": 39.689499}}, {"id": 4515935, "name": "Kings Mills", "state": "OH", "country": "US", "coord": {"lon": -84.24855, "lat": 39.35561}}, {"id": 4515947, "name": "Kingston", "state": "OH", "country": "US", "coord": {"lon": -82.910728, "lat": 39.473949}}, {"id": 4516127, "name": "Lake Darby", "state": "OH", "country": "US", "coord": {"lon": -83.228798, "lat": 39.957279}}, {"id": 4516233, "name": "Lancaster", "state": "OH", "country": "US", "coord": {"lon": -82.599327, "lat": 39.71368}}, {"id": 4516248, "name": "Landen", "state": "OH", "country": "US", "coord": {"lon": -84.28299, "lat": 39.312}}, {"id": 4516412, "name": "Lebanon", "state": "OH", "country": "US", "coord": {"lon": -84.202988, "lat": 39.435341}}, {"id": 4516446, "name": "Leesburg", "state": "OH", "country": "US", "coord": {"lon": -83.552971, "lat": 39.345058}}, {"id": 4516523, "name": "Lewisburg", "state": "OH", "country": "US", "coord": {"lon": -84.539673, "lat": 39.846161}}, {"id": 4516677, "name": "Lincoln Heights", "state": "OH", "country": "US", "coord": {"lon": -84.455498, "lat": 39.238949}}, {"id": 4516701, "name": "Lincoln Village", "state": "OH", "country": "US", "coord": {"lon": -83.130737, "lat": 39.954788}}, {"id": 4516749, "name": "Lisbon", "state": "OH", "country": "US", "coord": {"lon": -83.635201, "lat": 39.860889}}, {"id": 4516752, "name": "Lithopolis", "state": "OH", "country": "US", "coord": {"lon": -82.806282, "lat": 39.802841}}, {"id": 4516931, "name": "Lockland", "state": "OH", "country": "US", "coord": {"lon": -84.457718, "lat": 39.229221}}, {"id": 4516989, "name": "Logan", "state": "OH", "country": "US", "coord": {"lon": -82.407097, "lat": 39.54007}}, {"id": 4516993, "name": "Logan Elm Village", "state": "OH", "country": "US", "coord": {"lon": -82.951851, "lat": 39.569778}}, {"id": 4517009, "name": "London", "state": "OH", "country": "US", "coord": {"lon": -83.44825, "lat": 39.886452}}, {"id": 4517140, "name": "Loveland", "state": "OH", "country": "US", "coord": {"lon": -84.263832, "lat": 39.268951}}, {"id": 4517142, "name": "Loveland Park", "state": "OH", "country": "US", "coord": {"lon": -84.263268, "lat": 39.299782}}, {"id": 4517204, "name": "Lucasville", "state": "OH", "country": "US", "coord": {"lon": -82.996841, "lat": 38.87952}}, {"id": 4517264, "name": "Lynchburg", "state": "OH", "country": "US", "coord": {"lon": -83.791313, "lat": 39.24173}}, {"id": 4517323, "name": "Mack", "state": "OH", "country": "US", "coord": {"lon": -84.649673, "lat": 39.158112}}, {"id": 4517353, "name": "Madeira", "state": "OH", "country": "US", "coord": {"lon": -84.363548, "lat": 39.190891}}, {"id": 4517471, "name": "Manchester", "state": "OH", "country": "US", "coord": {"lon": -83.60936, "lat": 38.688129}}, {"id": 4517580, "name": "Mariemont", "state": "OH", "country": "US", "coord": {"lon": -84.374382, "lat": 39.145061}}, {"id": 4517586, "name": "Marietta", "state": "OH", "country": "US", "coord": {"lon": -81.454842, "lat": 39.415352}}, {"id": 4517698, "name": "Mason", "state": "OH", "country": "US", "coord": {"lon": -84.309937, "lat": 39.360062}}, {"id": 4517759, "name": "Mayfield", "state": "OH", "country": "US", "coord": {"lon": -84.372719, "lat": 39.494781}}, {"id": 4517774, "name": "McArthur", "state": "OH", "country": "US", "coord": {"lon": -82.478493, "lat": 39.24646}}, {"id": 4517816, "name": "McConnelsville", "state": "OH", "country": "US", "coord": {"lon": -81.853188, "lat": 39.648682}}, {"id": 4518151, "name": "Miami Heights", "state": "OH", "country": "US", "coord": {"lon": -84.720497, "lat": 39.165058}}, {"id": 4518188, "name": "Miamisburg", "state": "OH", "country": "US", "coord": {"lon": -84.286613, "lat": 39.642841}}, {"id": 4518202, "name": "Miamitown", "state": "OH", "country": "US", "coord": {"lon": -84.704109, "lat": 39.215889}}, {"id": 4518257, "name": "Middleport", "state": "OH", "country": "US", "coord": {"lon": -82.048752, "lat": 39.001751}}, {"id": 4518264, "name": "Middletown", "state": "OH", "country": "US", "coord": {"lon": -84.398277, "lat": 39.51506}}, {"id": 4518307, "name": "Milford", "state": "OH", "country": "US", "coord": {"lon": -84.29438, "lat": 39.175339}}, {"id": 4518397, "name": "Millersport", "state": "OH", "country": "US", "coord": {"lon": -82.53405, "lat": 39.900059}}, {"id": 4518550, "name": "Monroe", "state": "OH", "country": "US", "coord": {"lon": -84.36216, "lat": 39.440338}}, {"id": 4518596, "name": "Monfort Heights", "state": "OH", "country": "US", "coord": {"lon": -84.595222, "lat": 39.188389}}, {"id": 4518597, "name": "Montgomery", "state": "OH", "country": "US", "coord": {"lon": -84.354111, "lat": 39.228111}}, {"id": 4518598, "name": "Montgomery County", "state": "OH", "country": "US", "coord": {"lon": -84.299942, "lat": 39.75034}}, {"id": 4518661, "name": "Moraine", "state": "OH", "country": "US", "coord": {"lon": -84.219383, "lat": 39.706169}}, {"id": 4518737, "name": "Morrow", "state": "OH", "country": "US", "coord": {"lon": -84.127159, "lat": 39.3545}}, {"id": 4518834, "name": "Mount Carmel", "state": "OH", "country": "US", "coord": {"lon": -84.3041, "lat": 39.105888}}, {"id": 4518890, "name": "Mount Healthy", "state": "OH", "country": "US", "coord": {"lon": -84.545776, "lat": 39.233669}}, {"id": 4518892, "name": "Mount Healthy Heights", "state": "OH", "country": "US", "coord": {"lon": -84.568001, "lat": 39.270329}}, {"id": 4519005, "name": "Mount Orab", "state": "OH", "country": "US", "coord": {"lon": -83.919647, "lat": 39.027569}}, {"id": 4519047, "name": "Mount Repose", "state": "OH", "country": "US", "coord": {"lon": -84.22438, "lat": 39.200619}}, {"id": 4519065, "name": "Mount Sterling", "state": "OH", "country": "US", "coord": {"lon": -83.26519, "lat": 39.719509}}, {"id": 4519246, "name": "Mulberry", "state": "OH", "country": "US", "coord": {"lon": -84.242157, "lat": 39.19339}}, {"id": 4519300, "name": "Muskingum County", "state": "OH", "country": "US", "coord": {"lon": -81.94986, "lat": 39.950069}}, {"id": 4519445, "name": "Nelsonville", "state": "OH", "country": "US", "coord": {"lon": -82.231819, "lat": 39.458679}}, {"id": 4519478, "name": "New Boston", "state": "OH", "country": "US", "coord": {"lon": -82.936836, "lat": 38.7523}}, {"id": 4519486, "name": "New Burlington", "state": "OH", "country": "US", "coord": {"lon": -84.557167, "lat": 39.259499}}, {"id": 4519497, "name": "New Carlisle", "state": "OH", "country": "US", "coord": {"lon": -84.02549, "lat": 39.936169}}, {"id": 4519510, "name": "New Concord", "state": "OH", "country": "US", "coord": {"lon": -81.734016, "lat": 39.993679}}, {"id": 4519583, "name": "New Lebanon", "state": "OH", "country": "US", "coord": {"lon": -84.384949, "lat": 39.745331}}, {"id": 4519591, "name": "New Lexington", "state": "OH", "country": "US", "coord": {"lon": -82.208481, "lat": 39.713959}}, {"id": 4519625, "name": "New Matamoras", "state": "OH", "country": "US", "coord": {"lon": -81.067047, "lat": 39.524521}}, {"id": 4519627, "name": "New Miami", "state": "OH", "country": "US", "coord": {"lon": -84.536888, "lat": 39.43478}}, {"id": 4519642, "name": "New Paris", "state": "OH", "country": "US", "coord": {"lon": -84.793289, "lat": 39.856991}}, {"id": 4519657, "name": "New Richmond", "state": "OH", "country": "US", "coord": {"lon": -84.279938, "lat": 38.948681}}, {"id": 4519701, "name": "New Vienna", "state": "OH", "country": "US", "coord": {"lon": -83.691032, "lat": 39.323669}}, {"id": 4519745, "name": "Newport", "state": "OH", "country": "US", "coord": {"lon": -81.226784, "lat": 39.390911}}, {"id": 4519761, "name": "Newtown", "state": "OH", "country": "US", "coord": {"lon": -84.36161, "lat": 39.1245}}, {"id": 4519853, "name": "North College Hill", "state": "OH", "country": "US", "coord": {"lon": -84.550781, "lat": 39.218391}}, {"id": 4519883, "name": "North Fork Village", "state": "OH", "country": "US", "coord": {"lon": -83.029068, "lat": 39.335899}}, {"id": 4519923, "name": "North Zanesville", "state": "OH", "country": "US", "coord": {"lon": -82.003471, "lat": 39.97868}}, {"id": 4519924, "name": "Northbrook", "state": "OH", "country": "US", "coord": {"lon": -84.583557, "lat": 39.246449}}, {"id": 4519938, "name": "Northgate", "state": "OH", "country": "US", "coord": {"lon": -84.592453, "lat": 39.252831}}, {"id": 4519950, "name": "Northridge", "state": "OH", "country": "US", "coord": {"lon": -83.778542, "lat": 39.99173}}, {"id": 4519951, "name": "Northridge", "state": "OH", "country": "US", "coord": {"lon": -84.196892, "lat": 39.80756}}, {"id": 4519990, "name": "Norwich", "state": "OH", "country": "US", "coord": {"lon": -81.791519, "lat": 39.985069}}, {"id": 4519995, "name": "Norwood", "state": "OH", "country": "US", "coord": {"lon": -84.459663, "lat": 39.155609}}, {"id": 4520081, "name": "Oak Hill", "state": "OH", "country": "US", "coord": {"lon": -82.573502, "lat": 38.893959}}, {"id": 4520163, "name": "Oakwood", "state": "OH", "country": "US", "coord": {"lon": -84.17411, "lat": 39.725342}}, {"id": 4520177, "name": "Obetz", "state": "OH", "country": "US", "coord": {"lon": -82.950737, "lat": 39.878948}}, {"id": 4520760, "name": "Oxford", "state": "OH", "country": "US", "coord": {"lon": -84.745232, "lat": 39.507}}, {"id": 4520864, "name": "Park Layne", "state": "OH", "country": "US", "coord": {"lon": -84.039658, "lat": 39.886452}}, {"id": 4520905, "name": "Pataskala", "state": "OH", "country": "US", "coord": {"lon": -82.674332, "lat": 39.995621}}, {"id": 4520994, "name": "Peck", "state": "OH", "country": "US", "coord": {"lon": -83.016289, "lat": 39.156181}}, {"id": 4521011, "name": "Peebles", "state": "OH", "country": "US", "coord": {"lon": -83.405746, "lat": 38.948959}}, {"id": 4521093, "name": "Perry County", "state": "OH", "country": "US", "coord": {"lon": -82.2332, "lat": 39.733398}}, {"id": 4521196, "name": "Pickaway County", "state": "OH", "country": "US", "coord": {"lon": -83.033241, "lat": 39.650059}}, {"id": 4521209, "name": "Pickerington", "state": "OH", "country": "US", "coord": {"lon": -82.753502, "lat": 39.884232}}, {"id": 4521245, "name": "Pike County", "state": "OH", "country": "US", "coord": {"lon": -83.066566, "lat": 39.066738}}, {"id": 4521268, "name": "Piketon", "state": "OH", "country": "US", "coord": {"lon": -83.014343, "lat": 39.06813}}, {"id": 4521461, "name": "Pleasant Corners", "state": "OH", "country": "US", "coord": {"lon": -83.126846, "lat": 39.843948}}, {"id": 4521465, "name": "Pleasant Grove", "state": "OH", "country": "US", "coord": {"lon": -81.959023, "lat": 39.952011}}, {"id": 4521565, "name": "Pleasant Run", "state": "OH", "country": "US", "coord": {"lon": -84.56356, "lat": 39.299782}}, {"id": 4521571, "name": "Pleasant Run Farm", "state": "OH", "country": "US", "coord": {"lon": -84.547997, "lat": 39.303108}}, {"id": 4521708, "name": "Pomeroy", "state": "OH", "country": "US", "coord": {"lon": -82.033752, "lat": 39.02758}}, {"id": 4521816, "name": "Portsmouth", "state": "OH", "country": "US", "coord": {"lon": -82.997673, "lat": 38.731739}}, {"id": 4521880, "name": "Powhatan Point", "state": "OH", "country": "US", "coord": {"lon": -80.815369, "lat": 39.860081}}, {"id": 4521978, "name": "Prospect", "state": "OH", "country": "US", "coord": {"lon": -83.563812, "lat": 39.135071}}, {"id": 4522228, "name": "Reading", "state": "OH", "country": "US", "coord": {"lon": -84.442162, "lat": 39.223671}}, {"id": 4522359, "name": "Reno", "state": "OH", "country": "US", "coord": {"lon": -81.395668, "lat": 39.372849}}, {"id": 4522411, "name": "Reynoldsburg", "state": "OH", "country": "US", "coord": {"lon": -82.812119, "lat": 39.954788}}, {"id": 4522540, "name": "Ripley", "state": "OH", "country": "US", "coord": {"lon": -83.844917, "lat": 38.745628}}, {"id": 4522586, "name": "Riverside", "state": "OH", "country": "US", "coord": {"lon": -84.1241, "lat": 39.779781}}, {"id": 4522873, "name": "Rosemount", "state": "OH", "country": "US", "coord": {"lon": -82.979057, "lat": 38.78619}}, {"id": 4522884, "name": "Ross", "state": "OH", "country": "US", "coord": {"lon": -84.650497, "lat": 39.312279}}, {"id": 4522889, "name": "Ross County", "state": "OH", "country": "US", "coord": {"lon": -83.066566, "lat": 39.35006}}, {"id": 4522898, "name": "Roseville", "state": "OH", "country": "US", "coord": {"lon": -82.071251, "lat": 39.807289}}, {"id": 4522916, "name": "Rossmoyne", "state": "OH", "country": "US", "coord": {"lon": -84.386879, "lat": 39.213669}}, {"id": 4523097, "name": "Sabina", "state": "OH", "country": "US", "coord": {"lon": -83.636871, "lat": 39.48867}}, {"id": 4523190, "name": "Saint Bernard", "state": "OH", "country": "US", "coord": {"lon": -84.49855, "lat": 39.167}}, {"id": 4523769, "name": "Salem Heights", "state": "OH", "country": "US", "coord": {"lon": -84.378273, "lat": 39.071732}}, {"id": 4524221, "name": "Scioto County", "state": "OH", "country": "US", "coord": {"lon": -82.983231, "lat": 38.800079}}, {"id": 4524253, "name": "Sciotodale", "state": "OH", "country": "US", "coord": {"lon": -82.868782, "lat": 38.754799}}, {"id": 4524446, "name": "Shadyside", "state": "OH", "country": "US", "coord": {"lon": -80.750641, "lat": 39.970909}}, {"id": 4524499, "name": "Sharonville", "state": "OH", "country": "US", "coord": {"lon": -84.413269, "lat": 39.268108}}, {"id": 4524538, "name": "Shawnee Hills", "state": "OH", "country": "US", "coord": {"lon": -83.786873, "lat": 39.65284}}, {"id": 4524626, "name": "Sherwood", "state": "OH", "country": "US", "coord": {"lon": -84.360771, "lat": 39.084782}}, {"id": 4524642, "name": "Shiloh", "state": "OH", "country": "US", "coord": {"lon": -84.228554, "lat": 39.818668}}, {"id": 4524753, "name": "Silverton", "state": "OH", "country": "US", "coord": {"lon": -84.400497, "lat": 39.192841}}, {"id": 4524804, "name": "Sixteen Mile Stand", "state": "OH", "country": "US", "coord": {"lon": -84.327438, "lat": 39.272839}}, {"id": 4524817, "name": "Skyline Acres", "state": "OH", "country": "US", "coord": {"lon": -84.566887, "lat": 39.228668}}, {"id": 4524993, "name": "Somerset", "state": "OH", "country": "US", "coord": {"lon": -82.297089, "lat": 39.807011}}, {"id": 4525028, "name": "South Bloomfield", "state": "OH", "country": "US", "coord": {"lon": -82.986847, "lat": 39.718399}}, {"id": 4525041, "name": "South Charleston", "state": "OH", "country": "US", "coord": {"lon": -83.634369, "lat": 39.82534}}, {"id": 4525084, "name": "South Lebanon", "state": "OH", "country": "US", "coord": {"lon": -84.213272, "lat": 39.370892}}, {"id": 4525103, "name": "South Point", "state": "OH", "country": "US", "coord": {"lon": -82.586273, "lat": 38.417858}}, {"id": 4525137, "name": "South Zanesville", "state": "OH", "country": "US", "coord": {"lon": -82.006248, "lat": 39.899231}}, {"id": 4525304, "name": "Springboro", "state": "OH", "country": "US", "coord": {"lon": -84.233269, "lat": 39.55228}}, {"id": 4525310, "name": "Springdale", "state": "OH", "country": "US", "coord": {"lon": -84.485222, "lat": 39.286999}}, {"id": 4525353, "name": "Springfield", "state": "OH", "country": "US", "coord": {"lon": -83.808823, "lat": 39.924229}}, {"id": 4525666, "name": "Stringtown", "state": "OH", "country": "US", "coord": {"lon": -83.488251, "lat": 39.234791}}, {"id": 4525829, "name": "Summerside", "state": "OH", "country": "US", "coord": {"lon": -84.288269, "lat": 39.104778}}, {"id": 4526172, "name": "Terrace Park", "state": "OH", "country": "US", "coord": {"lon": -84.307159, "lat": 39.159229}}, {"id": 4526215, "name": "The Plains", "state": "OH", "country": "US", "coord": {"lon": -82.13237, "lat": 39.368961}}, {"id": 4526225, "name": "The Village of Indian Hill", "state": "OH", "country": "US", "coord": {"lon": -84.295769, "lat": 39.249779}}, {"id": 4526284, "name": "Thornport", "state": "OH", "country": "US", "coord": {"lon": -82.410988, "lat": 39.91312}}, {"id": 4526365, "name": "Tipp City", "state": "OH", "country": "US", "coord": {"lon": -84.172157, "lat": 39.958389}}, {"id": 4526469, "name": "Trenton", "state": "OH", "country": "US", "coord": {"lon": -84.457718, "lat": 39.480888}}, {"id": 4526576, "name": "Trotwood", "state": "OH", "country": "US", "coord": {"lon": -84.311333, "lat": 39.797279}}, {"id": 4526790, "name": "Union", "state": "OH", "country": "US", "coord": {"lon": -84.306328, "lat": 39.897831}}, {"id": 4526993, "name": "Upper Arlington", "state": "OH", "country": "US", "coord": {"lon": -83.062408, "lat": 39.994511}}, {"id": 4527023, "name": "Upper Valley Trailer Court", "state": "OH", "country": "US", "coord": {"lon": -84.060493, "lat": 39.832279}}, {"id": 4527124, "name": "Vandalia", "state": "OH", "country": "US", "coord": {"lon": -84.19883, "lat": 39.89061}}, {"id": 4527624, "name": "Warren County", "state": "OH", "country": "US", "coord": {"lon": -84.166603, "lat": 39.433392}}, {"id": 4527660, "name": "Washington Court House", "state": "OH", "country": "US", "coord": {"lon": -83.439079, "lat": 39.536449}}, {"id": 4527676, "name": "Washington Meadows", "state": "OH", "country": "US", "coord": {"lon": -82.886009, "lat": 39.584511}}, {"id": 4527720, "name": "Waterloo", "state": "OH", "country": "US", "coord": {"lon": -82.784897, "lat": 39.83979}}, {"id": 4527760, "name": "Waverly", "state": "OH", "country": "US", "coord": {"lon": -82.985458, "lat": 39.12674}}, {"id": 4527805, "name": "Waynesville", "state": "OH", "country": "US", "coord": {"lon": -84.086601, "lat": 39.529781}}, {"id": 4527879, "name": "Wellston", "state": "OH", "country": "US", "coord": {"lon": -82.532944, "lat": 39.123409}}, {"id": 4527941, "name": "West Alexandria", "state": "OH", "country": "US", "coord": {"lon": -84.532173, "lat": 39.744499}}, {"id": 4527963, "name": "West Carrollton City", "state": "OH", "country": "US", "coord": {"lon": -84.252159, "lat": 39.672279}}, {"id": 4528015, "name": "West Jefferson", "state": "OH", "country": "US", "coord": {"lon": -83.268799, "lat": 39.944778}}, {"id": 4528036, "name": "West Milton", "state": "OH", "country": "US", "coord": {"lon": -84.328003, "lat": 39.962551}}, {"id": 4528051, "name": "West Portsmouth", "state": "OH", "country": "US", "coord": {"lon": -83.02906, "lat": 38.758411}}, {"id": 4528071, "name": "West Union", "state": "OH", "country": "US", "coord": {"lon": -83.545189, "lat": 38.794521}}, {"id": 4528187, "name": "Wetherington", "state": "OH", "country": "US", "coord": {"lon": -84.377441, "lat": 39.36367}}, {"id": 4528203, "name": "Wheelersburg", "state": "OH", "country": "US", "coord": {"lon": -82.855453, "lat": 38.73035}}, {"id": 4528259, "name": "White Oak", "state": "OH", "country": "US", "coord": {"lon": -84.599388, "lat": 39.213112}}, {"id": 4528291, "name": "Whitehall", "state": "OH", "country": "US", "coord": {"lon": -82.88546, "lat": 39.966728}}, {"id": 4528348, "name": "Wilberforce", "state": "OH", "country": "US", "coord": {"lon": -83.877708, "lat": 39.716171}}, {"id": 4528414, "name": "Williamsburg", "state": "OH", "country": "US", "coord": {"lon": -84.052994, "lat": 39.05423}}, {"id": 4528434, "name": "Williamsport", "state": "OH", "country": "US", "coord": {"lon": -83.120461, "lat": 39.585899}}, {"id": 4528463, "name": "Wilmington", "state": "OH", "country": "US", "coord": {"lon": -83.828537, "lat": 39.445339}}, {"id": 4528527, "name": "Winchester", "state": "OH", "country": "US", "coord": {"lon": -83.650749, "lat": 38.941738}}, {"id": 4528596, "name": "Withamsville", "state": "OH", "country": "US", "coord": {"lon": -84.288269, "lat": 39.062279}}, {"id": 4528695, "name": "Woodlawn", "state": "OH", "country": "US", "coord": {"lon": -84.470222, "lat": 39.251999}}, {"id": 4528722, "name": "Woodsdale Park", "state": "OH", "country": "US", "coord": {"lon": -84.487442, "lat": 39.42783}}, {"id": 4528724, "name": "Woodsfield", "state": "OH", "country": "US", "coord": {"lon": -81.115379, "lat": 39.762569}}, {"id": 4528793, "name": "Wyoming", "state": "OH", "country": "US", "coord": {"lon": -84.465782, "lat": 39.231171}}, {"id": 4528810, "name": "Xenia", "state": "OH", "country": "US", "coord": {"lon": -83.929649, "lat": 39.68478}}, {"id": 4528866, "name": "Yellow Springs", "state": "OH", "country": "US", "coord": {"lon": -83.886871, "lat": 39.80645}}, {"id": 4528923, "name": "Zanesville", "state": "OH", "country": "US", "coord": {"lon": -82.013191, "lat": 39.94035}}, {"id": 4529096, "name": "Ada", "state": "OK", "country": "US", "coord": {"lon": -96.678337, "lat": 34.774529}}, {"id": 4529143, "name": "Afton", "state": "OK", "country": "US", "coord": {"lon": -94.96302, "lat": 36.693691}}, {"id": 4529292, "name": "Altus", "state": "OK", "country": "US", "coord": {"lon": -99.333977, "lat": 34.63813}}, {"id": 4529308, "name": "Alva", "state": "OK", "country": "US", "coord": {"lon": -98.666473, "lat": 36.805031}}, {"id": 4529353, "name": "Anadarko", "state": "OK", "country": "US", "coord": {"lon": -98.24366, "lat": 35.072559}}, {"id": 4529418, "name": "Antlers", "state": "OK", "country": "US", "coord": {"lon": -95.620247, "lat": 34.231209}}, {"id": 4529424, "name": "Apache", "state": "OK", "country": "US", "coord": {"lon": -98.365891, "lat": 34.893681}}, {"id": 4529448, "name": "Arapaho", "state": "OK", "country": "US", "coord": {"lon": -98.964531, "lat": 35.577831}}, {"id": 4529469, "name": "Ardmore", "state": "OK", "country": "US", "coord": {"lon": -97.143631, "lat": 34.174259}}, {"id": 4529480, "name": "Arkoma", "state": "OK", "country": "US", "coord": {"lon": -94.434097, "lat": 35.354542}}, {"id": 4529499, "name": "Arnett", "state": "OK", "country": "US", "coord": {"lon": -99.774841, "lat": 36.13504}}, {"id": 4529531, "name": "Artillery Village", "state": "OK", "country": "US", "coord": {"lon": -98.41394, "lat": 34.638962}}, {"id": 4529604, "name": "Atoka", "state": "OK", "country": "US", "coord": {"lon": -96.128326, "lat": 34.385929}}, {"id": 4529605, "name": "Atoka County", "state": "OK", "country": "US", "coord": {"lon": -96.01693, "lat": 34.400089}}, {"id": 4529973, "name": "Barnsdall", "state": "OK", "country": "US", "coord": {"lon": -96.161667, "lat": 36.562019}}, {"id": 4529987, "name": "Bartlesville", "state": "OK", "country": "US", "coord": {"lon": -95.98082, "lat": 36.747311}}, {"id": 4530237, "name": "Beckham County", "state": "OK", "country": "US", "coord": {"lon": -99.667038, "lat": 35.26672}}, {"id": 4530265, "name": "Beggs", "state": "OK", "country": "US", "coord": {"lon": -96.070267, "lat": 35.742599}}, {"id": 4530363, "name": "Bentley", "state": "OK", "country": "US", "coord": {"lon": -96.07888, "lat": 34.214821}}, {"id": 4530372, "name": "Bethany", "state": "OK", "country": "US", "coord": {"lon": -97.632263, "lat": 35.518669}}, {"id": 4530396, "name": "Bethel Acres", "state": "OK", "country": "US", "coord": {"lon": -97.025581, "lat": 35.308681}}, {"id": 4530801, "name": "Bixby", "state": "OK", "country": "US", "coord": {"lon": -95.883324, "lat": 35.942039}}, {"id": 4530866, "name": "Blackwell", "state": "OK", "country": "US", "coord": {"lon": -97.282822, "lat": 36.804482}}, {"id": 4530876, "name": "Blaine County", "state": "OK", "country": "US", "coord": {"lon": -98.450348, "lat": 35.866711}}, {"id": 4530883, "name": "Blanchard", "state": "OK", "country": "US", "coord": {"lon": -97.658089, "lat": 35.13784}}, {"id": 4531160, "name": "Boley", "state": "OK", "country": "US", "coord": {"lon": -96.48362, "lat": 35.493408}}, {"id": 4531300, "name": "Bray", "state": "OK", "country": "US", "coord": {"lon": -97.817528, "lat": 34.637859}}, {"id": 4531370, "name": "Bristow", "state": "OK", "country": "US", "coord": {"lon": -96.391121, "lat": 35.830631}}, {"id": 4531405, "name": "Broken Arrow", "state": "OK", "country": "US", "coord": {"lon": -95.790817, "lat": 36.052601}}, {"id": 4531414, "name": "Broken Bow", "state": "OK", "country": "US", "coord": {"lon": -94.739098, "lat": 34.029282}}, {"id": 4531565, "name": "Bryan County", "state": "OK", "country": "US", "coord": {"lon": -96.26693, "lat": 33.966759}}, {"id": 4531627, "name": "Buffalo", "state": "OK", "country": "US", "coord": {"lon": -99.630402, "lat": 36.83559}}, {"id": 4531760, "name": "Burns Flat", "state": "OK", "country": "US", "coord": {"lon": -99.170357, "lat": 35.348942}}, {"id": 4531785, "name": "Bushyhead", "state": "OK", "country": "US", "coord": {"lon": -95.494141, "lat": 36.461479}}, {"id": 4531846, "name": "Byng", "state": "OK", "country": "US", "coord": {"lon": -96.665573, "lat": 34.861198}}, {"id": 4531875, "name": "Cache", "state": "OK", "country": "US", "coord": {"lon": -98.62867, "lat": 34.62952}}, {"id": 4531980, "name": "Calera", "state": "OK", "country": "US", "coord": {"lon": -96.428596, "lat": 33.93454}}, {"id": 4532136, "name": "Canadian County", "state": "OK", "country": "US", "coord": {"lon": -97.983658, "lat": 35.533379}}, {"id": 4532357, "name": "Carnegie", "state": "OK", "country": "US", "coord": {"lon": -98.603668, "lat": 35.103668}}, {"id": 4532398, "name": "Carter County", "state": "OK", "country": "US", "coord": {"lon": -97.300301, "lat": 34.233429}}, {"id": 4532493, "name": "Catoosa", "state": "OK", "country": "US", "coord": {"lon": -95.745819, "lat": 36.188992}}, {"id": 4532776, "name": "Central High", "state": "OK", "country": "US", "coord": {"lon": -98.08976, "lat": 34.623131}}, {"id": 4532846, "name": "Chandler", "state": "OK", "country": "US", "coord": {"lon": -96.880859, "lat": 35.701729}}, {"id": 4532917, "name": "Checotah", "state": "OK", "country": "US", "coord": {"lon": -95.523041, "lat": 35.4701}}, {"id": 4532918, "name": "Chelsea", "state": "OK", "country": "US", "coord": {"lon": -95.432472, "lat": 36.535648}}, {"id": 4532929, "name": "Cherokee", "state": "OK", "country": "US", "coord": {"lon": -98.356743, "lat": 36.754471}}, {"id": 4532932, "name": "Cherokee County", "state": "OK", "country": "US", "coord": {"lon": -94.983566, "lat": 35.900089}}, {"id": 4533006, "name": "Cheyenne", "state": "OK", "country": "US", "coord": {"lon": -99.671494, "lat": 35.613941}}, {"id": 4533029, "name": "Chickasha", "state": "OK", "country": "US", "coord": {"lon": -97.936432, "lat": 35.052559}}, {"id": 4533130, "name": "Choctaw", "state": "OK", "country": "US", "coord": {"lon": -97.268921, "lat": 35.497559}}, {"id": 4533166, "name": "Chouteau", "state": "OK", "country": "US", "coord": {"lon": -95.343018, "lat": 36.185928}}, {"id": 4533580, "name": "Claremore", "state": "OK", "country": "US", "coord": {"lon": -95.616089, "lat": 36.312599}}, {"id": 4533683, "name": "Cleora", "state": "OK", "country": "US", "coord": {"lon": -94.971069, "lat": 36.578972}}, {"id": 4533688, "name": "Cleveland", "state": "OK", "country": "US", "coord": {"lon": -96.464188, "lat": 36.31007}}, {"id": 4533690, "name": "Cleveland County", "state": "OK", "country": "US", "coord": {"lon": -97.300308, "lat": 35.200069}}, {"id": 4533738, "name": "Clinton", "state": "OK", "country": "US", "coord": {"lon": -98.967308, "lat": 35.51561}}, {"id": 4533854, "name": "Colbert", "state": "OK", "country": "US", "coord": {"lon": -96.502487, "lat": 33.853161}}, {"id": 4533909, "name": "Collinsville", "state": "OK", "country": "US", "coord": {"lon": -95.838882, "lat": 36.36454}}, {"id": 4533928, "name": "Comanche", "state": "OK", "country": "US", "coord": {"lon": -97.963921, "lat": 34.368969}}, {"id": 4533932, "name": "Comanche County", "state": "OK", "country": "US", "coord": {"lon": -98.483673, "lat": 34.66674}}, {"id": 4533952, "name": "Commerce", "state": "OK", "country": "US", "coord": {"lon": -94.873009, "lat": 36.933399}}, {"id": 4534096, "name": "Copeland", "state": "OK", "country": "US", "coord": {"lon": -94.828293, "lat": 36.65591}}, {"id": 4534117, "name": "Cordell", "state": "OK", "country": "US", "coord": {"lon": -98.988411, "lat": 35.290611}}, {"id": 4534386, "name": "Coweta", "state": "OK", "country": "US", "coord": {"lon": -95.65081, "lat": 35.951771}}, {"id": 4534444, "name": "Creek County", "state": "OK", "country": "US", "coord": {"lon": -96.400291, "lat": 35.900082}}, {"id": 4534452, "name": "Crescent", "state": "OK", "country": "US", "coord": {"lon": -97.594772, "lat": 35.952541}}, {"id": 4534659, "name": "Cushing", "state": "OK", "country": "US", "coord": {"lon": -96.766968, "lat": 35.985062}}, {"id": 4534687, "name": "Cyril", "state": "OK", "country": "US", "coord": {"lon": -98.2006, "lat": 34.896461}}, {"id": 4534774, "name": "Davis", "state": "OK", "country": "US", "coord": {"lon": -97.119461, "lat": 34.504532}}, {"id": 4534934, "name": "Del City", "state": "OK", "country": "US", "coord": {"lon": -97.440872, "lat": 35.442009}}, {"id": 4535051, "name": "Dewey", "state": "OK", "country": "US", "coord": {"lon": -95.935539, "lat": 36.795921}}, {"id": 4535089, "name": "Dickson", "state": "OK", "country": "US", "coord": {"lon": -96.984459, "lat": 34.187321}}, {"id": 4535121, "name": "Dixie Park", "state": "OK", "country": "US", "coord": {"lon": -97.949478, "lat": 34.487301}}, {"id": 4535205, "name": "Dougherty", "state": "OK", "country": "US", "coord": {"lon": -97.055573, "lat": 34.399529}}, {"id": 4535287, "name": "Drumright", "state": "OK", "country": "US", "coord": {"lon": -96.601128, "lat": 35.9884}}, {"id": 4535389, "name": "Duncan", "state": "OK", "country": "US", "coord": {"lon": -97.957809, "lat": 34.5023}}, {"id": 4535414, "name": "Durant", "state": "OK", "country": "US", "coord": {"lon": -96.370819, "lat": 33.993992}}, {"id": 4535740, "name": "Edmond", "state": "OK", "country": "US", "coord": {"lon": -97.478104, "lat": 35.652828}}, {"id": 4535783, "name": "El Reno", "state": "OK", "country": "US", "coord": {"lon": -97.955048, "lat": 35.532269}}, {"id": 4535806, "name": "Elgin", "state": "OK", "country": "US", "coord": {"lon": -98.292267, "lat": 34.78035}}, {"id": 4535823, "name": "Elk City", "state": "OK", "country": "US", "coord": {"lon": -99.404259, "lat": 35.411991}}, {"id": 4535845, "name": "Ellis County", "state": "OK", "country": "US", "coord": {"lon": -99.767059, "lat": 36.133381}}, {"id": 4535961, "name": "Enid", "state": "OK", "country": "US", "coord": {"lon": -97.878387, "lat": 36.395592}}, {"id": 4535992, "name": "Erick", "state": "OK", "country": "US", "coord": {"lon": -99.866493, "lat": 35.215328}}, {"id": 4536031, "name": "Eufaula", "state": "OK", "country": "US", "coord": {"lon": -95.582497, "lat": 35.28722}}, {"id": 4536099, "name": "Fairfax", "state": "OK", "country": "US", "coord": {"lon": -96.704201, "lat": 36.573662}}, {"id": 4536109, "name": "Fairland", "state": "OK", "country": "US", "coord": {"lon": -94.847458, "lat": 36.751179}}, {"id": 4536124, "name": "Fairview", "state": "OK", "country": "US", "coord": {"lon": -98.479797, "lat": 36.268921}}, {"id": 4536996, "name": "Fletcher", "state": "OK", "country": "US", "coord": {"lon": -98.244217, "lat": 34.82312}}, {"id": 4537123, "name": "Fort Gibson", "state": "OK", "country": "US", "coord": {"lon": -95.250519, "lat": 35.7976}}, {"id": 4537289, "name": "Frederick", "state": "OK", "country": "US", "coord": {"lon": -99.01841, "lat": 34.392029}}, {"id": 4537423, "name": "Gaddy", "state": "OK", "country": "US", "coord": {"lon": -97.000862, "lat": 35.33313}}, {"id": 4537472, "name": "Garfield County", "state": "OK", "country": "US", "coord": {"lon": -98.062843, "lat": 36.187538}}, {"id": 4537513, "name": "Garvin County", "state": "OK", "country": "US", "coord": {"lon": -97.333641, "lat": 34.716751}}, {"id": 4537530, "name": "Geary", "state": "OK", "country": "US", "coord": {"lon": -98.317291, "lat": 35.631161}}, {"id": 4537533, "name": "Gene Autry", "state": "OK", "country": "US", "coord": {"lon": -97.038071, "lat": 34.283699}}, {"id": 4537560, "name": "Geronimo", "state": "OK", "country": "US", "coord": {"lon": -98.38311, "lat": 34.48119}}, {"id": 4537641, "name": "Glenpool", "state": "OK", "country": "US", "coord": {"lon": -96.008881, "lat": 35.955372}}, {"id": 4537728, "name": "Goldsby", "state": "OK", "country": "US", "coord": {"lon": -97.476982, "lat": 35.141178}}, {"id": 4537854, "name": "Grady County", "state": "OK", "country": "US", "coord": {"lon": -97.900322, "lat": 35.033401}}, {"id": 4537884, "name": "Grandfield", "state": "OK", "country": "US", "coord": {"lon": -98.684509, "lat": 34.22842}}, {"id": 4537904, "name": "Granite", "state": "OK", "country": "US", "coord": {"lon": -99.380638, "lat": 34.96228}}, {"id": 4538126, "name": "Grove", "state": "OK", "country": "US", "coord": {"lon": -94.769119, "lat": 36.593689}}, {"id": 4538142, "name": "Guthrie", "state": "OK", "country": "US", "coord": {"lon": -97.425323, "lat": 35.878941}}, {"id": 4538234, "name": "Hall Park", "state": "OK", "country": "US", "coord": {"lon": -97.406418, "lat": 35.237011}}, {"id": 4538320, "name": "Harmon", "state": "OK", "country": "US", "coord": {"lon": -99.560387, "lat": 36.14476}}, {"id": 4538346, "name": "Harrah", "state": "OK", "country": "US", "coord": {"lon": -97.163643, "lat": 35.48951}}, {"id": 4538400, "name": "Hartshorne", "state": "OK", "country": "US", "coord": {"lon": -95.55748, "lat": 34.8451}}, {"id": 4538428, "name": "Haskell", "state": "OK", "country": "US", "coord": {"lon": -95.674149, "lat": 35.820381}}, {"id": 4538431, "name": "Haskell County", "state": "OK", "country": "US", "coord": {"lon": -95.133568, "lat": 35.216759}}, {"id": 4538506, "name": "Healdton", "state": "OK", "country": "US", "coord": {"lon": -97.487801, "lat": 34.23315}}, {"id": 4538519, "name": "Heavener", "state": "OK", "country": "US", "coord": {"lon": -94.600777, "lat": 34.889271}}, {"id": 4538544, "name": "Helena", "state": "OK", "country": "US", "coord": {"lon": -98.270073, "lat": 36.546139}}, {"id": 4538562, "name": "Hennessey", "state": "OK", "country": "US", "coord": {"lon": -97.898666, "lat": 36.1092}}, {"id": 4538577, "name": "Henryetta", "state": "OK", "country": "US", "coord": {"lon": -95.981941, "lat": 35.439831}}, {"id": 4538801, "name": "Hinton", "state": "OK", "country": "US", "coord": {"lon": -98.355621, "lat": 35.471439}}, {"id": 4538808, "name": "Hird", "state": "OK", "country": "US", "coord": {"lon": -96.651962, "lat": 34.810638}}, {"id": 4538821, "name": "Hobart", "state": "OK", "country": "US", "coord": {"lon": -99.093132, "lat": 35.029499}}, {"id": 4538869, "name": "Holdenville", "state": "OK", "country": "US", "coord": {"lon": -96.399178, "lat": 35.08036}}, {"id": 4538890, "name": "Hollis", "state": "OK", "country": "US", "coord": {"lon": -99.912048, "lat": 34.688389}}, {"id": 4538955, "name": "Hominy", "state": "OK", "country": "US", "coord": {"lon": -96.395302, "lat": 36.414242}}, {"id": 4539119, "name": "Hoxbar", "state": "OK", "country": "US", "coord": {"lon": -97.039177, "lat": 34.07093}}, {"id": 4539140, "name": "Hughes County", "state": "OK", "country": "US", "coord": {"lon": -96.266953, "lat": 35.06675}}, {"id": 4539145, "name": "Hugo", "state": "OK", "country": "US", "coord": {"lon": -95.509682, "lat": 34.010658}}, {"id": 4539224, "name": "Idabel", "state": "OK", "country": "US", "coord": {"lon": -94.826332, "lat": 33.89566}}, {"id": 4539265, "name": "Imo", "state": "OK", "country": "US", "coord": {"lon": -97.977837, "lat": 36.35392}}, {"id": 4539283, "name": "Indiahoma", "state": "OK", "country": "US", "coord": {"lon": -98.751457, "lat": 34.619789}}, {"id": 4539351, "name": "Inola", "state": "OK", "country": "US", "coord": {"lon": -95.509422, "lat": 36.151211}}, {"id": 4539499, "name": "Jackson County", "state": "OK", "country": "US", "coord": {"lon": -99.383698, "lat": 34.616741}}, {"id": 4539557, "name": "Jay", "state": "OK", "country": "US", "coord": {"lon": -94.796898, "lat": 36.421188}}, {"id": 4539615, "name": "Jenks", "state": "OK", "country": "US", "coord": {"lon": -95.96833, "lat": 36.022869}}, {"id": 4539726, "name": "Jones", "state": "OK", "country": "US", "coord": {"lon": -97.28698, "lat": 35.565891}}, {"id": 4539775, "name": "Justice", "state": "OK", "country": "US", "coord": {"lon": -95.566643, "lat": 36.29287}}, {"id": 4540074, "name": "Kay County", "state": "OK", "country": "US", "coord": {"lon": -97.150322, "lat": 36.850029}}, {"id": 4540094, "name": "Keith", "state": "OK", "country": "US", "coord": {"lon": -95.464691, "lat": 36.09177}}, {"id": 4540109, "name": "Kellyville", "state": "OK", "country": "US", "coord": {"lon": -96.213608, "lat": 35.943699}}, {"id": 4540155, "name": "Kenwood", "state": "OK", "country": "US", "coord": {"lon": -94.985786, "lat": 36.314529}}, {"id": 4540261, "name": "Kiefer", "state": "OK", "country": "US", "coord": {"lon": -96.065277, "lat": 35.94482}}, {"id": 4540313, "name": "Kingfisher", "state": "OK", "country": "US", "coord": {"lon": -97.931717, "lat": 35.861431}}, {"id": 4540329, "name": "Kingston", "state": "OK", "country": "US", "coord": {"lon": -96.719719, "lat": 33.998711}}, {"id": 4540403, "name": "Konawa", "state": "OK", "country": "US", "coord": {"lon": -96.7528, "lat": 34.95953}}, {"id": 4540422, "name": "Krebs", "state": "OK", "country": "US", "coord": {"lon": -95.71582, "lat": 34.927872}}, {"id": 4540465, "name": "Lafayette", "state": "OK", "country": "US", "coord": {"lon": -95.103569, "lat": 35.173988}}, {"id": 4540495, "name": "Lahoma", "state": "OK", "country": "US", "coord": {"lon": -98.08979, "lat": 36.387531}}, {"id": 4540677, "name": "Langston", "state": "OK", "country": "US", "coord": {"lon": -97.25531, "lat": 35.945049}}, {"id": 4540713, "name": "Laverne", "state": "OK", "country": "US", "coord": {"lon": -99.893463, "lat": 36.709751}}, {"id": 4540737, "name": "Lawton", "state": "OK", "country": "US", "coord": {"lon": -98.390327, "lat": 34.608688}}, {"id": 4540932, "name": "Lexington", "state": "OK", "country": "US", "coord": {"lon": -97.335579, "lat": 35.01479}}, {"id": 4541040, "name": "Lillard Park", "state": "OK", "country": "US", "coord": {"lon": -97.594208, "lat": 35.428669}}, {"id": 4541116, "name": "Lindsay", "state": "OK", "country": "US", "coord": {"lon": -97.602531, "lat": 34.834801}}, {"id": 4541152, "name": "Little Axe", "state": "OK", "country": "US", "coord": {"lon": -97.212532, "lat": 35.232571}}, {"id": 4541597, "name": "Locust Grove", "state": "OK", "country": "US", "coord": {"lon": -95.16774, "lat": 36.200089}}, {"id": 4541625, "name": "Lone Grove", "state": "OK", "country": "US", "coord": {"lon": -97.262787, "lat": 34.175369}}, {"id": 4541748, "name": "Longtown", "state": "OK", "country": "US", "coord": {"lon": -95.512756, "lat": 35.24538}}, {"id": 4541812, "name": "Love County", "state": "OK", "country": "US", "coord": {"lon": -97.233627, "lat": 33.9501}}, {"id": 4541984, "name": "Luther", "state": "OK", "country": "US", "coord": {"lon": -97.195587, "lat": 35.661732}}, {"id": 4542052, "name": "Madill", "state": "OK", "country": "US", "coord": {"lon": -96.771667, "lat": 34.090382}}, {"id": 4542100, "name": "Mangum", "state": "OK", "country": "US", "coord": {"lon": -99.504257, "lat": 34.872002}}, {"id": 4542113, "name": "Mannford", "state": "OK", "country": "US", "coord": {"lon": -96.354462, "lat": 36.133411}}, {"id": 4542164, "name": "Marietta", "state": "OK", "country": "US", "coord": {"lon": -97.116676, "lat": 33.937038}}, {"id": 4542179, "name": "Marlow", "state": "OK", "country": "US", "coord": {"lon": -97.958092, "lat": 34.648129}}, {"id": 4542180, "name": "Marlow", "state": "", "country": "US", "coord": {"lon": -97.955872, "lat": 34.590359}}, {"id": 4542267, "name": "Maud", "state": "OK", "country": "US", "coord": {"lon": -96.775848, "lat": 35.13036}}, {"id": 4542291, "name": "Mayes County", "state": "OK", "country": "US", "coord": {"lon": -95.26667, "lat": 36.299999}}, {"id": 4542312, "name": "Maysville", "state": "OK", "country": "US", "coord": {"lon": -97.405861, "lat": 34.817299}}, {"id": 4542361, "name": "Mazie", "state": "OK", "country": "US", "coord": {"lon": -95.363297, "lat": 36.107601}}, {"id": 4542367, "name": "McAlester", "state": "OK", "country": "US", "coord": {"lon": -95.769707, "lat": 34.93343}}, {"id": 4542393, "name": "McClain County", "state": "OK", "country": "US", "coord": {"lon": -97.516983, "lat": 35.016739}}, {"id": 4542404, "name": "McCord", "state": "OK", "country": "US", "coord": {"lon": -97.037262, "lat": 36.67865}}, {"id": 4542500, "name": "McLoud", "state": "OK", "country": "US", "coord": {"lon": -97.091423, "lat": 35.435902}}, {"id": 4542557, "name": "Medford", "state": "OK", "country": "US", "coord": {"lon": -97.733658, "lat": 36.806969}}, {"id": 4542564, "name": "Meeker", "state": "OK", "country": "US", "coord": {"lon": -96.902802, "lat": 35.503399}}, {"id": 4542643, "name": "Meridian", "state": "OK", "country": "US", "coord": {"lon": -97.978088, "lat": 34.427311}}, {"id": 4542692, "name": "Miami", "state": "OK", "country": "US", "coord": {"lon": -94.877457, "lat": 36.874512}}, {"id": 4542735, "name": "Middleberg", "state": "OK", "country": "US", "coord": {"lon": -97.735039, "lat": 35.106178}}, {"id": 4542765, "name": "Midwest City", "state": "OK", "country": "US", "coord": {"lon": -97.396698, "lat": 35.449509}}, {"id": 4542876, "name": "Minco", "state": "OK", "country": "US", "coord": {"lon": -97.944489, "lat": 35.31284}}, {"id": 4542975, "name": "Moore", "state": "OK", "country": "US", "coord": {"lon": -97.486702, "lat": 35.339512}}, {"id": 4542994, "name": "Mooreland", "state": "OK", "country": "US", "coord": {"lon": -99.204819, "lat": 36.439201}}, {"id": 4543027, "name": "Morris", "state": "OK", "country": "US", "coord": {"lon": -95.860268, "lat": 35.607601}}, {"id": 4543082, "name": "Mounds", "state": "OK", "country": "US", "coord": {"lon": -96.061111, "lat": 35.87648}}, {"id": 4543280, "name": "Muldrow", "state": "OK", "country": "US", "coord": {"lon": -94.598831, "lat": 35.4062}}, {"id": 4543314, "name": "Murray County", "state": "OK", "country": "US", "coord": {"lon": -97.03363, "lat": 34.483421}}, {"id": 4543338, "name": "Muskogee", "state": "OK", "country": "US", "coord": {"lon": -95.36969, "lat": 35.747879}}, {"id": 4543342, "name": "Muskogee County", "state": "OK", "country": "US", "coord": {"lon": -95.33358, "lat": 35.583431}}, {"id": 4543352, "name": "Mustang", "state": "OK", "country": "US", "coord": {"lon": -97.724487, "lat": 35.384232}}, {"id": 4543622, "name": "Newcastle", "state": "OK", "country": "US", "coord": {"lon": -97.599762, "lat": 35.247292}}, {"id": 4543627, "name": "Newkirk", "state": "OK", "country": "US", "coord": {"lon": -97.053368, "lat": 36.882252}}, {"id": 4543652, "name": "Nichols Hills", "state": "OK", "country": "US", "coord": {"lon": -97.548927, "lat": 35.550892}}, {"id": 4543671, "name": "Nicoma Park", "state": "OK", "country": "US", "coord": {"lon": -97.32309, "lat": 35.491169}}, {"id": 4543724, "name": "Ninnekah", "state": "OK", "country": "US", "coord": {"lon": -97.923927, "lat": 34.947849}}, {"id": 4543733, "name": "Noble", "state": "OK", "country": "US", "coord": {"lon": -97.394753, "lat": 35.13924}}, {"id": 4543762, "name": "Norman", "state": "OK", "country": "US", "coord": {"lon": -97.439484, "lat": 35.222569}}, {"id": 4544025, "name": "Nowata", "state": "OK", "country": "US", "coord": {"lon": -95.638031, "lat": 36.700642}}, {"id": 4544174, "name": "Oakhurst", "state": "OK", "country": "US", "coord": {"lon": -96.064438, "lat": 36.075371}}, {"id": 4544175, "name": "Oakland", "state": "OK", "country": "US", "coord": {"lon": -96.793892, "lat": 34.100101}}, {"id": 4544252, "name": "Oilton", "state": "OK", "country": "US", "coord": {"lon": -96.583633, "lat": 36.084511}}, {"id": 4544257, "name": "Okarche", "state": "OK", "country": "US", "coord": {"lon": -97.97644, "lat": 35.72588}}, {"id": 4544263, "name": "Okeene", "state": "OK", "country": "US", "coord": {"lon": -98.317017, "lat": 36.11615}}, {"id": 4544272, "name": "Okemah", "state": "OK", "country": "US", "coord": {"lon": -96.305008, "lat": 35.43259}}, {"id": 4544284, "name": "Okfuskee County", "state": "OK", "country": "US", "coord": {"lon": -96.366951, "lat": 35.466751}}, {"id": 4544349, "name": "Oklahoma City", "state": "OK", "country": "US", "coord": {"lon": -97.516434, "lat": 35.46756}}, {"id": 4544356, "name": "Oklahoma County", "state": "OK", "country": "US", "coord": {"lon": -97.400307, "lat": 35.55006}}, {"id": 4544379, "name": "Oklahoma", "state": "OK", "country": "US", "coord": {"lon": -97.503281, "lat": 35.492088}}, {"id": 4544383, "name": "Okmulgee", "state": "OK", "country": "US", "coord": {"lon": -95.960548, "lat": 35.62344}}, {"id": 4544386, "name": "Okmulgee County", "state": "OK", "country": "US", "coord": {"lon": -95.966942, "lat": 35.650101}}, {"id": 4547242, "name": "Oologah", "state": "OK", "country": "US", "coord": {"lon": -95.708321, "lat": 36.447041}}, {"id": 4547407, "name": "Owasso", "state": "OK", "country": "US", "coord": {"lon": -95.854713, "lat": 36.269539}}, {"id": 4547504, "name": "Panama", "state": "OK", "country": "US", "coord": {"lon": -94.672447, "lat": 35.16732}}, {"id": 4547567, "name": "Park Hill", "state": "OK", "country": "US", "coord": {"lon": -94.958839, "lat": 35.861198}}, {"id": 4547675, "name": "Pawhuska", "state": "OK", "country": "US", "coord": {"lon": -96.337227, "lat": 36.667839}}, {"id": 4547684, "name": "Pawnee", "state": "OK", "country": "US", "coord": {"lon": -96.803917, "lat": 36.33783}}, {"id": 4547690, "name": "Pauls Valley", "state": "OK", "country": "US", "coord": {"lon": -97.222252, "lat": 34.740082}}, {"id": 4547701, "name": "Payne County", "state": "OK", "country": "US", "coord": {"lon": -96.96698, "lat": 36.066719}}, {"id": 4547849, "name": "Perkins", "state": "OK", "country": "US", "coord": {"lon": -97.033638, "lat": 35.973942}}, {"id": 4547861, "name": "Perry", "state": "OK", "country": "US", "coord": {"lon": -97.288101, "lat": 36.28949}}, {"id": 4547969, "name": "Piedmont", "state": "OK", "country": "US", "coord": {"lon": -97.746429, "lat": 35.641998}}, {"id": 4548088, "name": "Pink", "state": "OK", "country": "US", "coord": {"lon": -97.119751, "lat": 35.260632}}, {"id": 4548102, "name": "Pittsburg County", "state": "OK", "country": "US", "coord": {"lon": -95.766937, "lat": 34.9501}}, {"id": 4548233, "name": "Pocola", "state": "OK", "country": "US", "coord": {"lon": -94.477997, "lat": 35.231209}}, {"id": 4548267, "name": "Ponca City", "state": "OK", "country": "US", "coord": {"lon": -97.085587, "lat": 36.706982}}, {"id": 4548292, "name": "Pontotoc County", "state": "OK", "country": "US", "coord": {"lon": -96.68779, "lat": 34.687592}}, {"id": 4548363, "name": "Poteau", "state": "OK", "country": "US", "coord": {"lon": -94.623558, "lat": 35.053711}}, {"id": 4548371, "name": "Pottawatomie County", "state": "OK", "country": "US", "coord": {"lon": -96.950302, "lat": 35.21674}}, {"id": 4548393, "name": "Prague", "state": "OK", "country": "US", "coord": {"lon": -96.68502, "lat": 35.48674}}, {"id": 4548516, "name": "Pryor", "state": "OK", "country": "US", "coord": {"lon": -95.31691, "lat": 36.30843}}, {"id": 4548560, "name": "Purcell", "state": "OK", "country": "US", "coord": {"lon": -97.361137, "lat": 35.01368}}, {"id": 4548780, "name": "Quinton", "state": "OK", "country": "US", "coord": {"lon": -95.371094, "lat": 35.122879}}, {"id": 4549253, "name": "Ringling", "state": "OK", "country": "US", "coord": {"lon": -97.592529, "lat": 34.178429}}, {"id": 4549638, "name": "Rogers County", "state": "OK", "country": "US", "coord": {"lon": -95.583588, "lat": 36.36676}}, {"id": 4549656, "name": "Roland", "state": "OK", "country": "US", "coord": {"lon": -94.514664, "lat": 35.4212}}, {"id": 4549984, "name": "Rush Springs", "state": "OK", "country": "US", "coord": {"lon": -97.956978, "lat": 34.78257}}, {"id": 4550364, "name": "Salina", "state": "OK", "country": "US", "coord": {"lon": -95.153297, "lat": 36.29287}}, {"id": 4550374, "name": "Sallisaw", "state": "OK", "country": "US", "coord": {"lon": -94.787453, "lat": 35.460369}}, {"id": 4550659, "name": "Sand Springs", "state": "OK", "country": "US", "coord": {"lon": -96.108887, "lat": 36.139809}}, {"id": 4550881, "name": "Sapulpa", "state": "OK", "country": "US", "coord": {"lon": -96.114166, "lat": 35.998699}}, {"id": 4550928, "name": "Sayre", "state": "OK", "country": "US", "coord": {"lon": -99.640099, "lat": 35.291161}}, {"id": 4550954, "name": "Schoolton", "state": "OK", "country": "US", "coord": {"lon": -96.458618, "lat": 35.391739}}, {"id": 4551042, "name": "Seminole", "state": "OK", "country": "US", "coord": {"lon": -96.67057, "lat": 35.224522}}, {"id": 4551046, "name": "Seminole County", "state": "OK", "country": "US", "coord": {"lon": -96.600288, "lat": 35.150082}}, {"id": 4551141, "name": "Shady Point", "state": "OK", "country": "US", "coord": {"lon": -94.658562, "lat": 35.1301}}, {"id": 4551173, "name": "Shattuck", "state": "OK", "country": "US", "coord": {"lon": -99.881233, "lat": 36.275871}}, {"id": 4551177, "name": "Shawnee", "state": "OK", "country": "US", "coord": {"lon": -96.925301, "lat": 35.32729}}, {"id": 4551201, "name": "Shea", "state": "OK", "country": "US", "coord": {"lon": -97.780891, "lat": 36.384201}}, {"id": 4551408, "name": "Skiatook", "state": "OK", "country": "US", "coord": {"lon": -96.001381, "lat": 36.36842}}, {"id": 4551448, "name": "Slaughterville", "state": "OK", "country": "US", "coord": {"lon": -97.33503, "lat": 35.087292}}, {"id": 4551532, "name": "Snyder", "state": "OK", "country": "US", "coord": {"lon": -98.951736, "lat": 34.658958}}, {"id": 4551915, "name": "Spencer", "state": "OK", "country": "US", "coord": {"lon": -97.377258, "lat": 35.522839}}, {"id": 4551928, "name": "Sperry", "state": "OK", "country": "US", "coord": {"lon": -95.991386, "lat": 36.29731}}, {"id": 4551934, "name": "Spiro", "state": "OK", "country": "US", "coord": {"lon": -94.619942, "lat": 35.241211}}, {"id": 4552182, "name": "Stephens County", "state": "OK", "country": "US", "coord": {"lon": -97.850311, "lat": 34.466751}}, {"id": 4552206, "name": "Stigler", "state": "OK", "country": "US", "coord": {"lon": -95.123016, "lat": 35.253712}}, {"id": 4552215, "name": "Stillwater", "state": "OK", "country": "US", "coord": {"lon": -97.058372, "lat": 36.115608}}, {"id": 4552280, "name": "Stilwell", "state": "OK", "country": "US", "coord": {"lon": -94.628563, "lat": 35.814529}}, {"id": 4552339, "name": "Stratford", "state": "OK", "country": "US", "coord": {"lon": -96.959457, "lat": 34.796749}}, {"id": 4552361, "name": "Stroud", "state": "OK", "country": "US", "coord": {"lon": -96.658073, "lat": 35.74868}}, {"id": 4552519, "name": "Sulphur", "state": "OK", "country": "US", "coord": {"lon": -96.968353, "lat": 34.50787}}, {"id": 4552546, "name": "Summit", "state": "OK", "country": "US", "coord": {"lon": -95.422752, "lat": 35.665932}}, {"id": 4552646, "name": "Sweetwater", "state": "OK", "country": "US", "coord": {"lon": -99.911499, "lat": 35.422272}}, {"id": 4552707, "name": "Tahlequah", "state": "OK", "country": "US", "coord": {"lon": -94.969963, "lat": 35.915371}}, {"id": 4552725, "name": "Talihina", "state": "OK", "country": "US", "coord": {"lon": -95.048019, "lat": 34.751492}}, {"id": 4552740, "name": "Taloga", "state": "OK", "country": "US", "coord": {"lon": -98.963707, "lat": 36.038651}}, {"id": 4552751, "name": "Tangier", "state": "OK", "country": "US", "coord": {"lon": -99.533447, "lat": 36.420872}}, {"id": 4552820, "name": "Tecumseh", "state": "OK", "country": "US", "coord": {"lon": -96.936691, "lat": 35.257851}}, {"id": 4552840, "name": "Temple", "state": "OK", "country": "US", "coord": {"lon": -98.235878, "lat": 34.27203}}, {"id": 4552897, "name": "Texanna", "state": "OK", "country": "US", "coord": {"lon": -95.43692, "lat": 35.347321}}, {"id": 4552969, "name": "The Village", "state": "OK", "country": "US", "coord": {"lon": -97.55143, "lat": 35.56089}}, {"id": 4552981, "name": "Thomas", "state": "OK", "country": "US", "coord": {"lon": -98.747581, "lat": 35.744221}}, {"id": 4553073, "name": "Tillman County", "state": "OK", "country": "US", "coord": {"lon": -98.917023, "lat": 34.366749}}, {"id": 4553126, "name": "Tishomingo", "state": "OK", "country": "US", "coord": {"lon": -96.678612, "lat": 34.23621}}, {"id": 4553160, "name": "Tonkawa", "state": "OK", "country": "US", "coord": {"lon": -97.310043, "lat": 36.678371}}, {"id": 4553433, "name": "Tulsa", "state": "OK", "country": "US", "coord": {"lon": -95.992783, "lat": 36.15398}}, {"id": 4553440, "name": "Tulsa County", "state": "OK", "country": "US", "coord": {"lon": -95.900269, "lat": 36.100101}}, {"id": 4553549, "name": "Turley", "state": "OK", "country": "US", "coord": {"lon": -95.97583, "lat": 36.242039}}, {"id": 4553574, "name": "Tuttle", "state": "OK", "country": "US", "coord": {"lon": -97.812271, "lat": 35.29089}}, {"id": 4553709, "name": "Union City", "state": "OK", "country": "US", "coord": {"lon": -97.941437, "lat": 35.39172}}, {"id": 4554401, "name": "Verdigris", "state": "OK", "country": "US", "coord": {"lon": -95.691093, "lat": 36.234821}}, {"id": 4554418, "name": "Vian", "state": "OK", "country": "US", "coord": {"lon": -94.969673, "lat": 35.498428}}, {"id": 4554496, "name": "Vinita", "state": "OK", "country": "US", "coord": {"lon": -95.154129, "lat": 36.638691}}, {"id": 4554548, "name": "Wagoner", "state": "OK", "country": "US", "coord": {"lon": -95.369408, "lat": 35.959541}}, {"id": 4554634, "name": "Walters", "state": "OK", "country": "US", "coord": {"lon": -98.307831, "lat": 34.35981}}, {"id": 4554687, "name": "Warr Acres", "state": "OK", "country": "US", "coord": {"lon": -97.618927, "lat": 35.52256}}, {"id": 4554693, "name": "Warner", "state": "OK", "country": "US", "coord": {"lon": -95.305519, "lat": 35.494259}}, {"id": 4554708, "name": "Washington County", "state": "OK", "country": "US", "coord": {"lon": -95.900261, "lat": 36.716759}}, {"id": 4554753, "name": "Washita County", "state": "OK", "country": "US", "coord": {"lon": -99.000908, "lat": 35.300049}}, {"id": 4554800, "name": "Watonga", "state": "OK", "country": "US", "coord": {"lon": -98.413132, "lat": 35.844769}}, {"id": 4554823, "name": "Waukomis", "state": "OK", "country": "US", "coord": {"lon": -97.898109, "lat": 36.280312}}, {"id": 4554829, "name": "Waurika", "state": "OK", "country": "US", "coord": {"lon": -97.997543, "lat": 34.167042}}, {"id": 4554858, "name": "Weatherford", "state": "OK", "country": "US", "coord": {"lon": -98.707573, "lat": 35.526161}}, {"id": 4555189, "name": "Westville", "state": "OK", "country": "US", "coord": {"lon": -94.568001, "lat": 35.99258}}, {"id": 4555204, "name": "Wetumka", "state": "OK", "country": "US", "coord": {"lon": -96.241669, "lat": 35.237591}}, {"id": 4555211, "name": "Wewoka", "state": "OK", "country": "US", "coord": {"lon": -96.493347, "lat": 35.158691}}, {"id": 4555423, "name": "Wilburton", "state": "OK", "country": "US", "coord": {"lon": -95.309143, "lat": 34.918709}}, {"id": 4555778, "name": "Willow View", "state": "OK", "country": "US", "coord": {"lon": -97.26503, "lat": 35.058411}}, {"id": 4555790, "name": "Wilson", "state": "OK", "country": "US", "coord": {"lon": -97.425858, "lat": 34.162041}}, {"id": 4555791, "name": "Wilson", "state": "OK", "country": "US", "coord": {"lon": -96.034721, "lat": 35.507599}}, {"id": 4555925, "name": "Wister", "state": "OK", "country": "US", "coord": {"lon": -94.72467, "lat": 34.967319}}, {"id": 4556050, "name": "Woodward", "state": "OK", "country": "US", "coord": {"lon": -99.390388, "lat": 36.433651}}, {"id": 4556051, "name": "Woodward County", "state": "OK", "country": "US", "coord": {"lon": -99.217049, "lat": 36.516701}}, {"id": 4556096, "name": "Wynnewood", "state": "OK", "country": "US", "coord": {"lon": -97.164467, "lat": 34.643421}}, {"id": 4556110, "name": "Yale", "state": "OK", "country": "US", "coord": {"lon": -96.699188, "lat": 36.114231}}, {"id": 4556125, "name": "Yeager", "state": "OK", "country": "US", "coord": {"lon": -96.339447, "lat": 35.157581}}, {"id": 4556165, "name": "Yukon", "state": "OK", "country": "US", "coord": {"lon": -97.762543, "lat": 35.506721}}, {"id": 4556216, "name": "Abbottstown", "state": "PA", "country": "US", "coord": {"lon": -76.984703, "lat": 39.88649}}, {"id": 4556248, "name": "Aldan", "state": "PA", "country": "US", "coord": {"lon": -75.287956, "lat": 39.921501}}, {"id": 4556341, "name": "Atglen", "state": "PA", "country": "US", "coord": {"lon": -75.973557, "lat": 39.949268}}, {"id": 4556349, "name": "Avondale", "state": "PA", "country": "US", "coord": {"lon": -75.783272, "lat": 39.823441}}, {"id": 4556518, "name": "Berlin", "state": "PA", "country": "US", "coord": {"lon": -78.957802, "lat": 39.920639}}, {"id": 4556595, "name": "Biglerville", "state": "PA", "country": "US", "coord": {"lon": -77.248039, "lat": 39.93037}}, {"id": 4556694, "name": "Bonneauville", "state": "PA", "country": "US", "coord": {"lon": -77.137207, "lat": 39.812038}}, {"id": 4556702, "name": "Boothwyn", "state": "PA", "country": "US", "coord": {"lon": -75.441582, "lat": 39.830109}}, {"id": 4556793, "name": "Brookhaven", "state": "PA", "country": "US", "coord": {"lon": -75.382408, "lat": 39.869282}}, {"id": 4556802, "name": "Broomall", "state": "PA", "country": "US", "coord": {"lon": -75.356583, "lat": 39.981499}}, {"id": 4556939, "name": "Caln", "state": "PA", "country": "US", "coord": {"lon": -75.78022, "lat": 39.99094}}, {"id": 4557014, "name": "Carroll Valley", "state": "PA", "country": "US", "coord": {"lon": -77.383041, "lat": 39.74926}}, {"id": 4557109, "name": "Chambersburg", "state": "PA", "country": "US", "coord": {"lon": -77.661102, "lat": 39.937592}}, {"id": 4557137, "name": "Chester", "state": "PA", "country": "US", "coord": {"lon": -75.355751, "lat": 39.84956}}, {"id": 4557148, "name": "Chester Heights", "state": "PA", "country": "US", "coord": {"lon": -75.475479, "lat": 39.89011}}, {"id": 4557181, "name": "Christiana", "state": "PA", "country": "US", "coord": {"lon": -75.996887, "lat": 39.95483}}, {"id": 4557228, "name": "Clifton Heights", "state": "PA", "country": "US", "coord": {"lon": -75.296303, "lat": 39.929279}}, {"id": 4557247, "name": "Coatesville", "state": "PA", "country": "US", "coord": {"lon": -75.823837, "lat": 39.983158}}, {"id": 4557287, "name": "Collingdale", "state": "PA", "country": "US", "coord": {"lon": -75.27713, "lat": 39.911781}}, {"id": 4557296, "name": "Colwyn", "state": "PA", "country": "US", "coord": {"lon": -75.253792, "lat": 39.912338}}, {"id": 4557316, "name": "Conestoga", "state": "PA", "country": "US", "coord": {"lon": -76.346352, "lat": 39.940659}}, {"id": 4557477, "name": "Dallastown", "state": "PA", "country": "US", "coord": {"lon": -76.640251, "lat": 39.89954}}, {"id": 4557485, "name": "Darby", "state": "PA", "country": "US", "coord": {"lon": -75.259071, "lat": 39.918449}}, {"id": 4557606, "name": "Drexel Hill", "state": "PA", "country": "US", "coord": {"lon": -75.29213, "lat": 39.94706}}, {"id": 4557629, "name": "Dunbar", "state": "PA", "country": "US", "coord": {"lon": -79.614479, "lat": 39.977852}}, {"id": 4557666, "name": "East Berlin", "state": "PA", "country": "US", "coord": {"lon": -76.978592, "lat": 39.937599}}, {"id": 4557699, "name": "East Lansdowne", "state": "PA", "country": "US", "coord": {"lon": -75.261292, "lat": 39.945671}}, {"id": 4557707, "name": "East Prospect", "state": "PA", "country": "US", "coord": {"lon": -76.519974, "lat": 39.972038}}, {"id": 4557713, "name": "East Uniontown", "state": "PA", "country": "US", "coord": {"lon": -79.697823, "lat": 39.899799}}, {"id": 4557717, "name": "East York", "state": "PA", "country": "US", "coord": {"lon": -76.686363, "lat": 39.973709}}, {"id": 4557724, "name": "Eastwick", "state": "PA", "country": "US", "coord": {"lon": -75.242401, "lat": 39.890388}}, {"id": 4557760, "name": "Eddystone", "state": "PA", "country": "US", "coord": {"lon": -75.34436, "lat": 39.860111}}, {"id": 4557851, "name": "Fairchance", "state": "PA", "country": "US", "coord": {"lon": -79.754494, "lat": 39.824799}}, {"id": 4557857, "name": "Fairdale", "state": "PA", "country": "US", "coord": {"lon": -79.968109, "lat": 39.88702}}, {"id": 4557920, "name": "Fayetteville", "state": "PA", "country": "US", "coord": {"lon": -77.549988, "lat": 39.911201}}, {"id": 4558002, "name": "Folsom", "state": "PA", "country": "US", "coord": {"lon": -75.325188, "lat": 39.889832}}, {"id": 4558004, "name": "Folcroft", "state": "PA", "country": "US", "coord": {"lon": -75.283798, "lat": 39.890949}}, {"id": 4558131, "name": "Gap", "state": "PA", "country": "US", "coord": {"lon": -76.020508, "lat": 39.98732}}, {"id": 4558172, "name": "Georgetown", "state": "PA", "country": "US", "coord": {"lon": -76.08329, "lat": 39.937599}}, {"id": 4558183, "name": "Gettysburg", "state": "PA", "country": "US", "coord": {"lon": -77.231102, "lat": 39.830929}}, {"id": 4558236, "name": "Glen Rock", "state": "PA", "country": "US", "coord": {"lon": -76.730247, "lat": 39.793159}}, {"id": 4558247, "name": "Glenolden", "state": "PA", "country": "US", "coord": {"lon": -75.28907, "lat": 39.900108}}, {"id": 4558315, "name": "Grantley", "state": "PA", "country": "US", "coord": {"lon": -76.729134, "lat": 39.94038}}, {"id": 4558369, "name": "Greencastle", "state": "PA", "country": "US", "coord": {"lon": -77.727768, "lat": 39.790371}}, {"id": 4558439, "name": "Guilford Siding", "state": "PA", "country": "US", "coord": {"lon": -77.612488, "lat": 39.865372}}, {"id": 4558475, "name": "Hanover", "state": "PA", "country": "US", "coord": {"lon": -76.98304, "lat": 39.800659}}, {"id": 4558703, "name": "Hopwood", "state": "PA", "country": "US", "coord": {"lon": -79.701988, "lat": 39.877022}}, {"id": 4558838, "name": "Jacobus", "state": "PA", "country": "US", "coord": {"lon": -76.710518, "lat": 39.88316}}, {"id": 4558942, "name": "Kennett Square", "state": "PA", "country": "US", "coord": {"lon": -75.711601, "lat": 39.846779}}, {"id": 4559042, "name": "Lake Heritage", "state": "PA", "country": "US", "coord": {"lon": -77.183868, "lat": 39.80954}}, {"id": 4559053, "name": "Lake Meade", "state": "PA", "country": "US", "coord": {"lon": -77.037201, "lat": 39.9851}}, {"id": 4559065, "name": "Lampeter", "state": "PA", "country": "US", "coord": {"lon": -76.239677, "lat": 39.990101}}, {"id": 4559077, "name": "Lansdowne", "state": "PA", "country": "US", "coord": {"lon": -75.271851, "lat": 39.938171}}, {"id": 4559210, "name": "Lima", "state": "PA", "country": "US", "coord": {"lon": -75.440468, "lat": 39.917332}}, {"id": 4559225, "name": "Linwood", "state": "PA", "country": "US", "coord": {"lon": -75.425468, "lat": 39.8265}}, {"id": 4559273, "name": "Littlestown", "state": "PA", "country": "US", "coord": {"lon": -77.088043, "lat": 39.744541}}, {"id": 4559302, "name": "Loganville", "state": "PA", "country": "US", "coord": {"lon": -76.707474, "lat": 39.855659}}, {"id": 4559367, "name": "Luzerne", "state": "PA", "country": "US", "coord": {"lon": -79.96283, "lat": 39.999241}}, {"id": 4559431, "name": "Marcus Hook", "state": "PA", "country": "US", "coord": {"lon": -75.418533, "lat": 39.819279}}, {"id": 4559490, "name": "Masontown", "state": "PA", "country": "US", "coord": {"lon": -79.89978, "lat": 39.846741}}, {"id": 4559516, "name": "McConnellsburg", "state": "PA", "country": "US", "coord": {"lon": -77.998894, "lat": 39.93259}}, {"id": 4559553, "name": "McSherrystown", "state": "PA", "country": "US", "coord": {"lon": -77.011368, "lat": 39.80732}}, {"id": 4559575, "name": "Media", "state": "PA", "country": "US", "coord": {"lon": -75.387688, "lat": 39.916779}}, {"id": 4559600, "name": "Mercersburg", "state": "PA", "country": "US", "coord": {"lon": -77.903328, "lat": 39.827869}}, {"id": 4559619, "name": "Meyersdale", "state": "PA", "country": "US", "coord": {"lon": -79.02475, "lat": 39.81369}}, {"id": 4559639, "name": "Midway", "state": "PA", "country": "US", "coord": {"lon": -77.002762, "lat": 39.80843}}, {"id": 4559647, "name": "Milford", "state": "PA", "country": "US", "coord": {"lon": -79.104187, "lat": 39.953129}}, {"id": 4559666, "name": "Millbourne", "state": "PA", "country": "US", "coord": {"lon": -75.250183, "lat": 39.963451}}, {"id": 4559685, "name": "Millersville", "state": "PA", "country": "US", "coord": {"lon": -76.354134, "lat": 39.997879}}, {"id": 4559730, "name": "Mont Alto", "state": "PA", "country": "US", "coord": {"lon": -77.558319, "lat": 39.844261}}, {"id": 4559761, "name": "Morrisville", "state": "PA", "country": "US", "coord": {"lon": -80.161728, "lat": 39.894798}}, {"id": 4559762, "name": "Morton", "state": "PA", "country": "US", "coord": {"lon": -75.323517, "lat": 39.909828}}, {"id": 4559831, "name": "Mount Pleasant", "state": "PA", "country": "US", "coord": {"lon": -77.075539, "lat": 39.733711}}, {"id": 4559967, "name": "New Freedom", "state": "PA", "country": "US", "coord": {"lon": -76.701363, "lat": 39.737881}}, {"id": 4559983, "name": "New Oxford", "state": "PA", "country": "US", "coord": {"lon": -77.055809, "lat": 39.863708}}, {"id": 4560048, "name": "North York", "state": "PA", "country": "US", "coord": {"lon": -76.733017, "lat": 39.978149}}, {"id": 4560057, "name": "Norwood", "state": "PA", "country": "US", "coord": {"lon": -75.299629, "lat": 39.891781}}, {"id": 4560152, "name": "Oliver", "state": "PA", "country": "US", "coord": {"lon": -79.717819, "lat": 39.91869}}, {"id": 4560185, "name": "Oxford", "state": "PA", "country": "US", "coord": {"lon": -75.978828, "lat": 39.785389}}, {"id": 4560229, "name": "Parkesburg", "state": "PA", "country": "US", "coord": {"lon": -75.919388, "lat": 39.958721}}, {"id": 4560233, "name": "Parkside", "state": "PA", "country": "US", "coord": {"lon": -75.378532, "lat": 39.864281}}, {"id": 4560237, "name": "Parkville", "state": "PA", "country": "US", "coord": {"lon": -76.96331, "lat": 39.781212}}, {"id": 4560291, "name": "Penn Wynne", "state": "PA", "country": "US", "coord": {"lon": -75.275459, "lat": 39.986221}}, {"id": 4560318, "name": "Pennville", "state": "PA", "country": "US", "coord": {"lon": -76.998039, "lat": 39.789539}}, {"id": 4560349, "name": "Philadelphia", "state": "PA", "country": "US", "coord": {"lon": -75.163788, "lat": 39.952339}}, {"id": 4560492, "name": "Point Marion", "state": "PA", "country": "US", "coord": {"lon": -79.898666, "lat": 39.738972}}, {"id": 4560549, "name": "Prospect Park", "state": "PA", "country": "US", "coord": {"lon": -75.308243, "lat": 39.88789}}, {"id": 4560577, "name": "Quarryville", "state": "PA", "country": "US", "coord": {"lon": -76.163567, "lat": 39.897049}}, {"id": 4560639, "name": "Red Lion", "state": "PA", "country": "US", "coord": {"lon": -76.605797, "lat": 39.900928}}, {"id": 4560671, "name": "Republic", "state": "PA", "country": "US", "coord": {"lon": -79.876709, "lat": 39.962582}}, {"id": 4560709, "name": "Ridley Park", "state": "PA", "country": "US", "coord": {"lon": -75.323799, "lat": 39.881222}}, {"id": 4561120, "name": "Scotland", "state": "PA", "country": "US", "coord": {"lon": -77.587212, "lat": 39.9687}}, {"id": 4561188, "name": "Sharon Hill", "state": "PA", "country": "US", "coord": {"lon": -75.271568, "lat": 39.906502}}, {"id": 4561215, "name": "Shiloh", "state": "PA", "country": "US", "coord": {"lon": -76.797188, "lat": 39.978149}}, {"id": 4561233, "name": "Shrewsbury", "state": "PA", "country": "US", "coord": {"lon": -76.679688, "lat": 39.768711}}, {"id": 4561342, "name": "South Connellsville", "state": "PA", "country": "US", "coord": {"lon": -79.585869, "lat": 39.996738}}, {"id": 4561345, "name": "South Coatesville", "state": "PA", "country": "US", "coord": {"lon": -75.819946, "lat": 39.97427}}, {"id": 4561362, "name": "South Uniontown", "state": "PA", "country": "US", "coord": {"lon": -79.746986, "lat": 39.892849}}, {"id": 4561391, "name": "Spring Grove", "state": "PA", "country": "US", "coord": {"lon": -76.865807, "lat": 39.874538}}, {"id": 4561407, "name": "Springfield", "state": "PA", "country": "US", "coord": {"lon": -75.32019, "lat": 39.930672}}, {"id": 4561435, "name": "Spry", "state": "PA", "country": "US", "coord": {"lon": -76.684967, "lat": 39.91843}}, {"id": 4561477, "name": "State Line", "state": "PA", "country": "US", "coord": {"lon": -77.724442, "lat": 39.724819}}, {"id": 4561484, "name": "Steelville", "state": "PA", "country": "US", "coord": {"lon": -75.993561, "lat": 39.904831}}, {"id": 4561501, "name": "Stewartstown", "state": "PA", "country": "US", "coord": {"lon": -76.591362, "lat": 39.753712}}, {"id": 4561530, "name": "Stonybrook", "state": "PA", "country": "US", "coord": {"lon": -76.644127, "lat": 39.987041}}, {"id": 4561542, "name": "Strasburg", "state": "PA", "country": "US", "coord": {"lon": -76.18412, "lat": 39.983158}}, {"id": 4561620, "name": "Susquehanna Trails", "state": "PA", "country": "US", "coord": {"lon": -76.368019, "lat": 39.75872}}, {"id": 4561628, "name": "Swarthmore", "state": "PA", "country": "US", "coord": {"lon": -75.349907, "lat": 39.902061}}, {"id": 4561716, "name": "Thorndale", "state": "PA", "country": "US", "coord": {"lon": -75.745216, "lat": 39.992882}}, {"id": 4561755, "name": "Toughkenamon", "state": "PA", "country": "US", "coord": {"lon": -75.757439, "lat": 39.831501}}, {"id": 4561768, "name": "Trainer", "state": "PA", "country": "US", "coord": {"lon": -75.41436, "lat": 39.82761}}, {"id": 4561859, "name": "Uniontown", "state": "PA", "country": "US", "coord": {"lon": -79.716431, "lat": 39.900082}}, {"id": 4561873, "name": "Upland", "state": "PA", "country": "US", "coord": {"lon": -75.774391, "lat": 39.886501}}, {"id": 4561874, "name": "Upland", "state": "PA", "country": "US", "coord": {"lon": -75.38269, "lat": 39.852612}}, {"id": 4561892, "name": "Upton", "state": "PA", "country": "US", "coord": {"lon": -77.806664, "lat": 39.80537}}, {"id": 4561909, "name": "Valley View", "state": "PA", "country": "US", "coord": {"lon": -76.70108, "lat": 39.9501}}, {"id": 4562065, "name": "Wayne Heights", "state": "PA", "country": "US", "coord": {"lon": -77.553879, "lat": 39.74371}}, {"id": 4562070, "name": "Waynesboro", "state": "PA", "country": "US", "coord": {"lon": -77.577766, "lat": 39.755932}}, {"id": 4562078, "name": "Waynesburg", "state": "PA", "country": "US", "coord": {"lon": -80.17923, "lat": 39.896461}}, {"id": 4562088, "name": "Weigelstown", "state": "PA", "country": "US", "coord": {"lon": -76.822472, "lat": 39.983711}}, {"id": 4562144, "name": "West Chester", "state": "PA", "country": "US", "coord": {"lon": -75.605492, "lat": 39.960659}}, {"id": 4562145, "name": "West Goshen", "state": "", "country": "US", "coord": {"lon": -75.572708, "lat": 39.968159}}, {"id": 4562148, "name": "West Grove", "state": "PA", "country": "US", "coord": {"lon": -75.827438, "lat": 39.822048}}, {"id": 4562174, "name": "West York", "state": "PA", "country": "US", "coord": {"lon": -76.751358, "lat": 39.952599}}, {"id": 4562275, "name": "Willow Street", "state": "PA", "country": "US", "coord": {"lon": -76.276352, "lat": 39.979271}}, {"id": 4562311, "name": "Windsor", "state": "PA", "country": "US", "coord": {"lon": -76.584412, "lat": 39.91621}}, {"id": 4562366, "name": "Woodlyn", "state": "PA", "country": "US", "coord": {"lon": -75.337128, "lat": 39.87233}}, {"id": 4562405, "name": "Yoe", "state": "PA", "country": "US", "coord": {"lon": -76.636909, "lat": 39.908989}}, {"id": 4562407, "name": "York", "state": "PA", "country": "US", "coord": {"lon": -76.727737, "lat": 39.962601}}, {"id": 4562430, "name": "Yeadon", "state": "PA", "country": "US", "coord": {"lon": -75.255463, "lat": 39.938999}}, {"id": 4562441, "name": "Yorklyn", "state": "PA", "country": "US", "coord": {"lon": -76.646347, "lat": 39.992321}}, {"id": 4562483, "name": "Aceitunas", "state": "", "country": "PR", "coord": {"lon": -67.064903, "lat": 18.443279}}, {"id": 4562485, "name": "Adjuntas", "state": "", "country": "PR", "coord": {"lon": -66.801773, "lat": 18.158489}}, {"id": 4562487, "name": "Adjuntas", "state": "", "country": "PR", "coord": {"lon": -66.722122, "lat": 18.162741}}, {"id": 4562502, "name": "Aguada", "state": "", "country": "PR", "coord": {"lon": -67.18824, "lat": 18.379391}}, {"id": 4562503, "name": "Aguada", "state": "", "country": "PR", "coord": {"lon": -67.174629, "lat": 18.3605}}, {"id": 4562506, "name": "Aguadilla", "state": "", "country": "PR", "coord": {"lon": -67.154068, "lat": 18.42745}}, {"id": 4562512, "name": "Aguadilla", "state": "", "country": "PR", "coord": {"lon": -67.154068, "lat": 18.42745}}, {"id": 4562513, "name": "Aguas Buenas", "state": "", "country": "PR", "coord": {"lon": -66.102943, "lat": 18.256901}}, {"id": 4562516, "name": "Aguas Buenas", "state": "", "country": "PR", "coord": {"lon": -66.102943, "lat": 18.256901}}, {"id": 4562517, "name": "Aguas Claras", "state": "", "country": "PR", "coord": {"lon": -65.653503, "lat": 18.252729}}, {"id": 4562524, "name": "Aguilita", "state": "", "country": "PR", "coord": {"lon": -66.534622, "lat": 18.0233}}, {"id": 4562529, "name": "Aibonito", "state": "", "country": "PR", "coord": {"lon": -66.265999, "lat": 18.139959}}, {"id": 4562531, "name": "Aibonito", "state": "", "country": "PR", "coord": {"lon": -66.265999, "lat": 18.139959}}, {"id": 4562550, "name": "Alm\u00e1cigo Bajo", "state": "", "country": "PR", "coord": {"lon": -66.866287, "lat": 18.054689}}, {"id": 4562600, "name": "A\u00f1asco", "state": "", "country": "PR", "coord": {"lon": -67.139618, "lat": 18.28273}}, {"id": 4562605, "name": "A\u00f1asco", "state": "", "country": "PR", "coord": {"lon": -67.127403, "lat": 18.28134}}, {"id": 4562615, "name": "Animas", "state": "", "country": "PR", "coord": {"lon": -66.634903, "lat": 18.445499}}, {"id": 4562623, "name": "Ant\u00f3n Ruiz", "state": "", "country": "PR", "coord": {"lon": -65.808502, "lat": 18.18524}}, {"id": 4562635, "name": "Arecibo", "state": "", "country": "PR", "coord": {"lon": -66.715729, "lat": 18.472441}}, {"id": 4562640, "name": "Arecibo", "state": "", "country": "PR", "coord": {"lon": -66.674622, "lat": 18.40411}}, {"id": 4562681, "name": "Arroyo", "state": "", "country": "PR", "coord": {"lon": -66.061279, "lat": 17.965799}}, {"id": 4562695, "name": "Atenas", "state": "", "country": "PR", "coord": {"lon": -66.480453, "lat": 18.434389}}, {"id": 4562705, "name": "Bairoa", "state": "", "country": "PR", "coord": {"lon": -66.040443, "lat": 18.259121}}, {"id": 4562709, "name": "Bajadero", "state": "", "country": "PR", "coord": {"lon": -66.683228, "lat": 18.426611}}, {"id": 4562710, "name": "Bajandas", "state": "", "country": "PR", "coord": {"lon": -65.781548, "lat": 18.15774}}, {"id": 4562765, "name": "Barahona", "state": "", "country": "PR", "coord": {"lon": -66.44545, "lat": 18.351339}}, {"id": 4562768, "name": "Barceloneta", "state": "", "country": "PR", "coord": {"lon": -66.538513, "lat": 18.4505}}, {"id": 4562771, "name": "Barceloneta", "state": "", "country": "PR", "coord": {"lon": -66.541283, "lat": 18.456329}}, {"id": 4562778, "name": "Barranquitas", "state": "", "country": "PR", "coord": {"lon": -66.306282, "lat": 18.186621}}, {"id": 4562779, "name": "Barranquitas", "state": "", "country": "PR", "coord": {"lon": -66.312111, "lat": 18.203569}}, {"id": 4562783, "name": "Barriada Chinto Rodon", "state": "", "country": "PR", "coord": {"lon": -66.991013, "lat": 18.340231}}, {"id": 4562796, "name": "Barriada San Luis", "state": "", "country": "PR", "coord": {"lon": -66.351837, "lat": 18.084681}}, {"id": 4562812, "name": "Bartolo", "state": "", "country": "PR", "coord": {"lon": -65.838501, "lat": 18.36134}}, {"id": 4562831, "name": "Bayam\u00f3n", "state": "", "country": "PR", "coord": {"lon": -66.155724, "lat": 18.39856}}, {"id": 4562832, "name": "Bayamon", "state": "", "country": "PR", "coord": {"lon": -66.11322, "lat": 18.17774}}, {"id": 4562837, "name": "Bayam\u00f3n Municipio", "state": "", "country": "PR", "coord": {"lon": -66.170441, "lat": 18.352171}}, {"id": 4562860, "name": "Benitez", "state": "", "country": "PR", "coord": {"lon": -65.879051, "lat": 18.273569}}, {"id": 4562868, "name": "Bi\u00e1fara", "state": "", "country": "PR", "coord": {"lon": -66.661842, "lat": 18.40856}}, {"id": 4562903, "name": "Boquer\u00f3n", "state": "", "country": "PR", "coord": {"lon": -67.169067, "lat": 18.026911}}, {"id": 4562904, "name": "Boquer\u00f3n", "state": "", "country": "PR", "coord": {"lon": -66.504059, "lat": 18.06385}}, {"id": 4562905, "name": "Boqueron", "state": "", "country": "PR", "coord": {"lon": -65.848503, "lat": 18.20746}}, {"id": 4562939, "name": "Boulevarda Korea", "state": "", "country": "PR", "coord": {"lon": -66.331284, "lat": 18.40884}}, {"id": 4562946, "name": "Boulevardo Tomas de Castro II", "state": "", "country": "PR", "coord": {"lon": -66.011551, "lat": 18.20857}}, {"id": 4562955, "name": "Brenas", "state": "", "country": "PR", "coord": {"lon": -66.341003, "lat": 18.467171}}, {"id": 4562966, "name": "Bucan\u00e1", "state": "", "country": "PR", "coord": {"lon": -66.591278, "lat": 18.005239}}, {"id": 4562972, "name": "Buena Vista", "state": "", "country": "PR", "coord": {"lon": -66.051826, "lat": 17.996349}}, {"id": 4562980, "name": "Buenaventura", "state": "", "country": "PR", "coord": {"lon": -65.939888, "lat": 18.37467}}, {"id": 4562983, "name": "Bufalo", "state": "", "country": "PR", "coord": {"lon": -66.573227, "lat": 18.41828}}, {"id": 4562989, "name": "Caban", "state": "", "country": "PR", "coord": {"lon": -67.136009, "lat": 18.443279}}, {"id": 4562996, "name": "Cabo Rojo", "state": "", "country": "PR", "coord": {"lon": -67.145729, "lat": 18.08663}}, {"id": 4562997, "name": "Cabo Rojo Municipio", "state": "", "country": "PR", "coord": {"lon": -67.146851, "lat": 18.056351}}, {"id": 4563003, "name": "Cacao", "state": "", "country": "PR", "coord": {"lon": -66.937119, "lat": 18.436609}}, {"id": 4563008, "name": "Caguas", "state": "", "country": "PR", "coord": {"lon": -66.0485, "lat": 18.234119}}, {"id": 4563011, "name": "Caguas Municipio", "state": "", "country": "PR", "coord": {"lon": -66.049606, "lat": 18.213289}}, {"id": 4563045, "name": "Campamento Pi\u00f1ones", "state": "", "country": "PR", "coord": {"lon": -65.95739, "lat": 18.441891}}, {"id": 4563047, "name": "Campamento Radley", "state": "", "country": "PR", "coord": {"lon": -66.717117, "lat": 18.333561}}, {"id": 4563048, "name": "Campamento Real", "state": "", "country": "PR", "coord": {"lon": -66.055161, "lat": 18.074961}}, {"id": 4563053, "name": "Campanilla", "state": "", "country": "PR", "coord": {"lon": -66.236832, "lat": 18.421341}}, {"id": 4563059, "name": "Campo Rico", "state": "", "country": "PR", "coord": {"lon": -65.897942, "lat": 18.33717}}, {"id": 4563060, "name": "Campo Rico", "state": "", "country": "PR", "coord": {"lon": -65.895439, "lat": 18.33967}}, {"id": 4563064, "name": "Camuy", "state": "", "country": "PR", "coord": {"lon": -66.844902, "lat": 18.483829}}, {"id": 4563065, "name": "Camuy Municipio", "state": "", "country": "PR", "coord": {"lon": -66.859337, "lat": 18.425779}}, {"id": 4563122, "name": "Candelaria", "state": "", "country": "PR", "coord": {"lon": -66.208778, "lat": 18.40411}}, {"id": 4563123, "name": "Candelaria Arenas", "state": "", "country": "PR", "coord": {"lon": -66.217392, "lat": 18.41717}}, {"id": 4563124, "name": "Candelero Arriba", "state": "", "country": "PR", "coord": {"lon": -65.83683, "lat": 18.10191}}, {"id": 4563168, "name": "Canovanas", "state": "", "country": "PR", "coord": {"lon": -65.906281, "lat": 18.377729}}, {"id": 4563183, "name": "Cap\u00e1", "state": "", "country": "PR", "coord": {"lon": -67.057404, "lat": 18.37689}}, {"id": 4563220, "name": "Capitanejo", "state": "", "country": "PR", "coord": {"lon": -66.494621, "lat": 17.99135}}, {"id": 4563243, "name": "Carolina", "state": "", "country": "PR", "coord": {"lon": -65.95739, "lat": 18.380779}}, {"id": 4563244, "name": "Carolina Municipio", "state": "", "country": "PR", "coord": {"lon": -65.957939, "lat": 18.37578}}, {"id": 4563249, "name": "Carrizales", "state": "", "country": "PR", "coord": {"lon": -66.789902, "lat": 18.48189}}, {"id": 4563298, "name": "Cata\u00f1o", "state": "", "country": "PR", "coord": {"lon": -66.118217, "lat": 18.441339}}, {"id": 4563299, "name": "Cata\u00f1o Municipio", "state": "", "country": "PR", "coord": {"lon": -66.137108, "lat": 18.435499}}, {"id": 4563308, "name": "Cayey", "state": "", "country": "PR", "coord": {"lon": -66.166, "lat": 18.11191}}, {"id": 4563309, "name": "Cayey Municipio", "state": "", "country": "PR", "coord": {"lon": -66.153778, "lat": 18.103571}}, {"id": 4563376, "name": "Cayuco", "state": "", "country": "PR", "coord": {"lon": -66.739342, "lat": 18.291059}}, {"id": 4563378, "name": "Ceiba", "state": "", "country": "PR", "coord": {"lon": -65.648499, "lat": 18.26412}}, {"id": 4563379, "name": "Ceiba", "state": "", "country": "PR", "coord": {"lon": -66.350731, "lat": 18.446341}}, {"id": 4563380, "name": "Ceiba Municipio", "state": "", "country": "PR", "coord": {"lon": -65.671829, "lat": 18.260509}}, {"id": 4563382, "name": "Celada", "state": "", "country": "PR", "coord": {"lon": -65.966003, "lat": 18.27162}}, {"id": 4563411, "name": "Central Aguirre", "state": "", "country": "PR", "coord": {"lon": -66.222939, "lat": 17.953581}}, {"id": 4563482, "name": "Centro Palmar", "state": "", "country": "PR", "coord": {"lon": -67.130463, "lat": 18.39856}}, {"id": 4563484, "name": "Centro Puntas", "state": "", "country": "PR", "coord": {"lon": -67.263512, "lat": 18.363279}}, {"id": 4563773, "name": "Ciales", "state": "", "country": "PR", "coord": {"lon": -66.468781, "lat": 18.33606}}, {"id": 4563774, "name": "Ciales Municipio", "state": "", "country": "PR", "coord": {"lon": -66.516281, "lat": 18.29162}}, {"id": 4563777, "name": "Cidra", "state": "", "country": "PR", "coord": {"lon": -66.161278, "lat": 18.175791}}, {"id": 4563778, "name": "Cidra Municipio", "state": "", "country": "PR", "coord": {"lon": -66.162109, "lat": 18.175791}}, {"id": 4563793, "name": "Cimarrona", "state": "", "country": "PR", "coord": {"lon": -66.19017, "lat": 17.99608}}, {"id": 4563811, "name": "Coamo", "state": "", "country": "PR", "coord": {"lon": -66.357948, "lat": 18.07996}}, {"id": 4563812, "name": "Coamo Municipio", "state": "", "country": "PR", "coord": {"lon": -66.362106, "lat": 18.098021}}, {"id": 4563816, "name": "Coco", "state": "", "country": "PR", "coord": {"lon": -66.259331, "lat": 18.007191}}, {"id": 4563907, "name": "Colonia Dolores", "state": "", "country": "PR", "coord": {"lon": -67.140739, "lat": 18.26412}}, {"id": 4563919, "name": "Comer\u00edo", "state": "", "country": "PR", "coord": {"lon": -66.225998, "lat": 18.21801}}, {"id": 4563921, "name": "Comer\u00edo Municipio", "state": "", "country": "PR", "coord": {"lon": -66.221832, "lat": 18.22718}}, {"id": 4563939, "name": "Comunas", "state": "", "country": "PR", "coord": {"lon": -65.843773, "lat": 18.087191}}, {"id": 4563988, "name": "Coqu\u00ed", "state": "", "country": "PR", "coord": {"lon": -66.227112, "lat": 17.974131}}, {"id": 4563990, "name": "Coraz\u00f3n", "state": "", "country": "PR", "coord": {"lon": -66.084892, "lat": 17.992741}}, {"id": 4563994, "name": "Corcovado", "state": "", "country": "PR", "coord": {"lon": -66.776291, "lat": 18.458561}}, {"id": 4564003, "name": "Corozal", "state": "", "country": "PR", "coord": {"lon": -66.316841, "lat": 18.341061}}, {"id": 4564004, "name": "Corozal Municipio", "state": "", "country": "PR", "coord": {"lon": -66.325996, "lat": 18.30912}}, {"id": 4564026, "name": "Coto Laurel", "state": "", "country": "PR", "coord": {"lon": -66.551277, "lat": 18.04969}}, {"id": 4564028, "name": "Coto Norte", "state": "", "country": "PR", "coord": {"lon": -66.439888, "lat": 18.43078}}, {"id": 4564046, "name": "Cuatro Calles (historical)", "state": "", "country": "PR", "coord": {"lon": -67.116852, "lat": 18.490219}}, {"id": 4564070, "name": "Culebra", "state": "", "country": "PR", "coord": {"lon": -65.300987, "lat": 18.303011}}, {"id": 4564071, "name": "Culebra Municipio", "state": "", "country": "PR", "coord": {"lon": -65.287102, "lat": 18.31884}}, {"id": 4564085, "name": "Daguao", "state": "", "country": "PR", "coord": {"lon": -65.68322, "lat": 18.226351}}, {"id": 4564108, "name": "Destino", "state": "", "country": "PR", "coord": {"lon": -65.436272, "lat": 18.1283}}, {"id": 4564133, "name": "Dorado", "state": "", "country": "PR", "coord": {"lon": -66.26767, "lat": 18.45883}}, {"id": 4564134, "name": "Dorado Municipio", "state": "", "country": "PR", "coord": {"lon": -66.282951, "lat": 18.439671}}, {"id": 4564149, "name": "Duque", "state": "", "country": "PR", "coord": {"lon": -65.750443, "lat": 18.239401}}, {"id": 4564156, "name": "El Arrendado", "state": "", "country": "PR", "coord": {"lon": -66.954071, "lat": 18.086349}}, {"id": 4564161, "name": "El Bosque", "state": "", "country": "PR", "coord": {"lon": -66.989342, "lat": 18.249121}}, {"id": 4564175, "name": "El Cinco", "state": "", "country": "PR", "coord": {"lon": -67.12101, "lat": 18.137739}}, {"id": 4564206, "name": "El Mang\u00f3", "state": "", "country": "PR", "coord": {"lon": -65.879608, "lat": 18.234119}}, {"id": 4564214, "name": "El Negro", "state": "", "country": "PR", "coord": {"lon": -65.851273, "lat": 18.03747}}, {"id": 4564216, "name": "El Ojo", "state": "", "country": "PR", "coord": {"lon": -66.391563, "lat": 18.003851}}, {"id": 4564223, "name": "El Plantino", "state": "", "country": "PR", "coord": {"lon": -66.210999, "lat": 18.42272}}, {"id": 4564236, "name": "El Saco", "state": "", "country": "PR", "coord": {"lon": -66.796837, "lat": 18.411341}}, {"id": 4564256, "name": "Emajagua", "state": "", "country": "PR", "coord": {"lon": -65.88266, "lat": 18.000521}}, {"id": 4564263, "name": "Ensenada", "state": "", "country": "PR", "coord": {"lon": -66.93351, "lat": 17.968861}}, {"id": 4564861, "name": "Esperanza", "state": "", "country": "PR", "coord": {"lon": -65.470711, "lat": 18.097191}}, {"id": 4564862, "name": "Espino", "state": "", "country": "PR", "coord": {"lon": -67.119347, "lat": 18.27634}}, {"id": 4564869, "name": "Estaci\u00f3n Santa Isabel", "state": "", "country": "PR", "coord": {"lon": -66.399612, "lat": 17.985241}}, {"id": 4564899, "name": "Estancias de Degetau I", "state": "", "country": "PR", "coord": {"lon": -66.05822, "lat": 18.22496}}, {"id": 4564901, "name": "Estancias de Florida", "state": "", "country": "PR", "coord": {"lon": -66.569618, "lat": 18.366619}}, {"id": 4564946, "name": "Fajardo", "state": "", "country": "PR", "coord": {"lon": -65.652382, "lat": 18.32579}}, {"id": 4564949, "name": "Fajardo Municipio", "state": "", "country": "PR", "coord": {"lon": -65.676003, "lat": 18.310511}}, {"id": 4564974, "name": "Finca Juanita", "state": "", "country": "PR", "coord": {"lon": -67.053513, "lat": 18.00219}}, {"id": 4564991, "name": "Florida", "state": "", "country": "PR", "coord": {"lon": -66.561279, "lat": 18.36245}}, {"id": 4565018, "name": "Franquez", "state": "", "country": "PR", "coord": {"lon": -66.427673, "lat": 18.340231}}, {"id": 4565020, "name": "Freire", "state": "", "country": "PR", "coord": {"lon": -66.164062, "lat": 18.18079}}, {"id": 4565031, "name": "Fuig", "state": "", "country": "PR", "coord": {"lon": -66.916008, "lat": 17.98774}}, {"id": 4565032, "name": "G. L. Garcia", "state": "", "country": "PR", "coord": {"lon": -66.10405, "lat": 18.12746}}, {"id": 4565033, "name": "Galateo", "state": "", "country": "PR", "coord": {"lon": -66.258781, "lat": 18.36245}}, {"id": 4565047, "name": "Garona", "state": "", "country": "PR", "coord": {"lon": -65.926003, "lat": 18.010799}}, {"id": 4565049, "name": "Garrochales", "state": "", "country": "PR", "coord": {"lon": -66.566277, "lat": 18.45356}}, {"id": 4565059, "name": "Gidralter", "state": "", "country": "PR", "coord": {"lon": -66.111549, "lat": 17.979691}}, {"id": 4565090, "name": "Gu\u00e1nica", "state": "", "country": "PR", "coord": {"lon": -66.907951, "lat": 17.97163}}, {"id": 4565091, "name": "Gu\u00e1nica Municipio", "state": "", "country": "PR", "coord": {"lon": -66.912117, "lat": 17.9883}}, {"id": 4565101, "name": "Guayabal", "state": "", "country": "PR", "coord": {"lon": -66.501282, "lat": 18.08135}}, {"id": 4565105, "name": "Guayama", "state": "", "country": "PR", "coord": {"lon": -66.113777, "lat": 17.984131}}, {"id": 4565107, "name": "Guayama Municipio", "state": "", "country": "PR", "coord": {"lon": -66.130722, "lat": 18.01663}}, {"id": 4565111, "name": "Guayanilla", "state": "", "country": "PR", "coord": {"lon": -66.79184, "lat": 18.019131}}, {"id": 4565112, "name": "Guayanilla Municipio", "state": "", "country": "PR", "coord": {"lon": -66.789902, "lat": 18.054131}}, {"id": 4565119, "name": "Guaynabo", "state": "", "country": "PR", "coord": {"lon": -66.111, "lat": 18.35745}}, {"id": 4565120, "name": "Guaynabo Municipio", "state": "", "country": "PR", "coord": {"lon": -66.11628, "lat": 18.341061}}, {"id": 4565125, "name": "Gurabo", "state": "", "country": "PR", "coord": {"lon": -65.972939, "lat": 18.2544}}, {"id": 4565126, "name": "Gurabo Municipio", "state": "", "country": "PR", "coord": {"lon": -65.971832, "lat": 18.27162}}, {"id": 4565130, "name": "H. Rivera Colon", "state": "", "country": "PR", "coord": {"lon": -66.273781, "lat": 18.347731}}, {"id": 4565173, "name": "Hacienda Colom", "state": "", "country": "PR", "coord": {"lon": -66.51989, "lat": 18.27606}}, {"id": 4565176, "name": "Hacienda Constanza", "state": "", "country": "PR", "coord": {"lon": -67.090736, "lat": 18.20829}}, {"id": 4565191, "name": "Hacienda Esperanza", "state": "", "country": "PR", "coord": {"lon": -66.873787, "lat": 18.27634}}, {"id": 4565276, "name": "Hacienda Para\u00edso", "state": "", "country": "PR", "coord": {"lon": -66.572388, "lat": 18.101629}}, {"id": 4565279, "name": "Hacienda Pietri", "state": "", "country": "PR", "coord": {"lon": -66.771294, "lat": 18.17218}}, {"id": 4565314, "name": "Hacienda Santa Barbara (historical)", "state": "", "country": "PR", "coord": {"lon": -66.931572, "lat": 18.18107}}, {"id": 4565346, "name": "Hatillo", "state": "", "country": "PR", "coord": {"lon": -66.825447, "lat": 18.48633}}, {"id": 4565348, "name": "Hatillo Municipio", "state": "", "country": "PR", "coord": {"lon": -66.793228, "lat": 18.40773}}, {"id": 4565353, "name": "Hato Candal", "state": "", "country": "PR", "coord": {"lon": -65.787109, "lat": 18.37439}}, {"id": 4565376, "name": "Honduras", "state": "", "country": "PR", "coord": {"lon": -65.869614, "lat": 18.43189}}, {"id": 4565380, "name": "Hormigueros", "state": "", "country": "PR", "coord": {"lon": -67.127403, "lat": 18.139681}}, {"id": 4565381, "name": "Hormigueros Municipio", "state": "", "country": "PR", "coord": {"lon": -67.116287, "lat": 18.141621}}, {"id": 4565449, "name": "Humacao Municipio", "state": "", "country": "PR", "coord": {"lon": -65.812111, "lat": 18.14802}}, {"id": 4565540, "name": "Imbery", "state": "", "country": "PR", "coord": {"lon": -66.552391, "lat": 18.43689}}, {"id": 4565544, "name": "Indios", "state": "", "country": "PR", "coord": {"lon": -66.819344, "lat": 17.994129}}, {"id": 4565551, "name": "Ingenio", "state": "", "country": "PR", "coord": {"lon": -66.225998, "lat": 18.442169}}, {"id": 4565564, "name": "Humacao", "state": "", "country": "PR", "coord": {"lon": -65.827377, "lat": 18.149679}}, {"id": 4565575, "name": "Isabel Segunda", "state": "", "country": "PR", "coord": {"lon": -65.442657, "lat": 18.14913}}, {"id": 4565577, "name": "Isabela", "state": "", "country": "PR", "coord": {"lon": -67.024353, "lat": 18.50078}}, {"id": 4565621, "name": "Jagual", "state": "", "country": "PR", "coord": {"lon": -65.995438, "lat": 18.161631}}, {"id": 4565636, "name": "Jardines de Anasco", "state": "", "country": "PR", "coord": {"lon": -67.136848, "lat": 18.288839}}, {"id": 4565676, "name": "Jauca", "state": "", "country": "PR", "coord": {"lon": -66.365723, "lat": 17.96913}}, {"id": 4565679, "name": "Jayuya", "state": "", "country": "PR", "coord": {"lon": -66.59156, "lat": 18.218571}}, {"id": 4565684, "name": "Municipio de Jayuya", "state": "", "country": "PR", "coord": {"lon": -66.59156, "lat": 18.218571}}, {"id": 4565689, "name": "Jobos", "state": "", "country": "PR", "coord": {"lon": -66.165443, "lat": 17.95524}}, {"id": 4565712, "name": "Juana D\u00edaz", "state": "", "country": "PR", "coord": {"lon": -66.506561, "lat": 18.05246}}, {"id": 4565713, "name": "Juana D\u00edaz Municipio", "state": "", "country": "PR", "coord": {"lon": -66.492668, "lat": 18.048019}}, {"id": 4565717, "name": "Juncal", "state": "", "country": "PR", "coord": {"lon": -66.919067, "lat": 18.313841}}, {"id": 4565718, "name": "Juncos", "state": "", "country": "PR", "coord": {"lon": -65.920998, "lat": 18.227461}}, {"id": 4565720, "name": "Municipio de Juncos", "state": "", "country": "PR", "coord": {"lon": -65.920998, "lat": 18.227461}}, {"id": 4565731, "name": "La Alianza", "state": "", "country": "PR", "coord": {"lon": -66.602402, "lat": 18.397449}}, {"id": 4565755, "name": "La Dolores", "state": "", "country": "PR", "coord": {"lon": -65.855721, "lat": 18.3755}}, {"id": 4565760, "name": "La Fermina", "state": "", "country": "PR", "coord": {"lon": -65.8535, "lat": 18.17551}}, {"id": 4565764, "name": "La Gonz\u00e1lez", "state": "", "country": "PR", "coord": {"lon": -66.997398, "lat": 18.331619}}, {"id": 4565780, "name": "La Luisa", "state": "", "country": "PR", "coord": {"lon": -66.509888, "lat": 18.448839}}, {"id": 4565796, "name": "La Parguera", "state": "", "country": "PR", "coord": {"lon": -67.04657, "lat": 17.97497}}, {"id": 4565804, "name": "La Playa", "state": "", "country": "PR", "coord": {"lon": -67.186852, "lat": 18.287451}}, {"id": 4565807, "name": "La Plena", "state": "", "country": "PR", "coord": {"lon": -66.204613, "lat": 18.046631}}, {"id": 4565814, "name": "La Quinta", "state": "", "country": "PR", "coord": {"lon": -66.862396, "lat": 18.02635}}, {"id": 4565898, "name": "Lajas", "state": "", "country": "PR", "coord": {"lon": -67.059341, "lat": 18.049959}}, {"id": 4565900, "name": "Lajas Municipio", "state": "", "country": "PR", "coord": {"lon": -67.039902, "lat": 18.0133}}, {"id": 4565904, "name": "Lamboglia", "state": "", "country": "PR", "coord": {"lon": -65.985718, "lat": 17.981359}}, {"id": 4565908, "name": "Lares", "state": "", "country": "PR", "coord": {"lon": -66.877121, "lat": 18.29467}}]