[{"id": 5179696, "name": "Beechton", "state": "PA", "country": "US", "coord": {"lon": -78.850594, "lat": 41.234779}}, {"id": 5179751, "name": "Bell Acres", "state": "PA", "country": "US", "coord": {"lon": -80.166451, "lat": 40.590069}}, {"id": 5179756, "name": "Belfast", "state": "PA", "country": "US", "coord": {"lon": -75.277962, "lat": 40.780651}}, {"id": 5179794, "name": "Belle Vernon", "state": "PA", "country": "US", "coord": {"lon": -79.86644, "lat": 40.125069}}, {"id": 5179799, "name": "Bellefonte", "state": "PA", "country": "US", "coord": {"lon": -77.778328, "lat": 40.913391}}, {"id": 5179809, "name": "Belleville", "state": "PA", "country": "US", "coord": {"lon": -77.725548, "lat": 40.605068}}, {"id": 5179811, "name": "Bellevue", "state": "PA", "country": "US", "coord": {"lon": -80.05172, "lat": 40.493961}}, {"id": 5179845, "name": "Bellwood", "state": "PA", "country": "US", "coord": {"lon": -78.324738, "lat": 40.603401}}, {"id": 5179856, "name": "Belmont", "state": "PA", "country": "US", "coord": {"lon": -78.889473, "lat": 40.2873}}, {"id": 5179911, "name": "Ben Avon", "state": "PA", "country": "US", "coord": {"lon": -80.083107, "lat": 40.508121}}, {"id": 5180021, "name": "Bentleyville", "state": "PA", "country": "US", "coord": {"lon": -80.008392, "lat": 40.116741}}, {"id": 5180052, "name": "Berks County", "state": "PA", "country": "US", "coord": {"lon": -75.874924, "lat": 40.62537}}, {"id": 5180102, "name": "Berwyn", "state": "PA", "country": "US", "coord": {"lon": -75.438812, "lat": 40.04483}}, {"id": 5180106, "name": "Bessemer", "state": "PA", "country": "US", "coord": {"lon": -80.493683, "lat": 40.974781}}, {"id": 5180119, "name": "Berwick", "state": "PA", "country": "US", "coord": {"lon": -76.233269, "lat": 41.054531}}, {"id": 5180199, "name": "Bethel Park", "state": "PA", "country": "US", "coord": {"lon": -80.039497, "lat": 40.327572}}, {"id": 5180225, "name": "Bethlehem", "state": "PA", "country": "US", "coord": {"lon": -75.370461, "lat": 40.625931}}, {"id": 5180308, "name": "Big Beaver", "state": "PA", "country": "US", "coord": {"lon": -80.362839, "lat": 40.824509}}, {"id": 5180607, "name": "Birchwood Lakes", "state": "PA", "country": "US", "coord": {"lon": -74.918503, "lat": 41.254539}}, {"id": 5180620, "name": "Birdsboro", "state": "PA", "country": "US", "coord": {"lon": -75.804092, "lat": 40.264542}}, {"id": 5180709, "name": "Black Lick", "state": "PA", "country": "US", "coord": {"lon": -79.19976, "lat": 40.479229}}, {"id": 5180809, "name": "Blair County", "state": "PA", "country": "US", "coord": {"lon": -78.375023, "lat": 40.625069}}, {"id": 5180834, "name": "Blairsville", "state": "PA", "country": "US", "coord": {"lon": -79.260872, "lat": 40.431179}}, {"id": 5180843, "name": "Blakely", "state": "PA", "country": "US", "coord": {"lon": -75.594627, "lat": 41.480911}}, {"id": 5180859, "name": "Blandon", "state": "PA", "country": "US", "coord": {"lon": -75.886871, "lat": 40.4412}}, {"id": 5180876, "name": "Blawnox", "state": "PA", "country": "US", "coord": {"lon": -79.860611, "lat": 40.493401}}, {"id": 5180905, "name": "Bloomfield", "state": "PA", "country": "US", "coord": {"lon": -79.95089, "lat": 40.460899}}, {"id": 5180934, "name": "Bloomsburg", "state": "PA", "country": "US", "coord": {"lon": -76.454948, "lat": 41.0037}}, {"id": 5180948, "name": "Blossburg", "state": "PA", "country": "US", "coord": {"lon": -77.063858, "lat": 41.67952}}, {"id": 5180958, "name": "Blue Ball", "state": "PA", "country": "US", "coord": {"lon": -76.047173, "lat": 40.11871}}, {"id": 5180961, "name": "Blue Bell", "state": "PA", "country": "US", "coord": {"lon": -75.266289, "lat": 40.152328}}, {"id": 5181056, "name": "Blytheburn", "state": "PA", "country": "US", "coord": {"lon": -75.953529, "lat": 41.125641}}, {"id": 5181063, "name": "Boalsburg", "state": "PA", "country": "US", "coord": {"lon": -77.792503, "lat": 40.77562}}, {"id": 5181134, "name": "Boiling Springs", "state": "PA", "country": "US", "coord": {"lon": -77.128311, "lat": 40.149811}}, {"id": 5181222, "name": "Borie", "state": "PA", "country": "US", "coord": {"lon": -77.952217, "lat": 41.685902}}, {"id": 5181248, "name": "Boswell", "state": "PA", "country": "US", "coord": {"lon": -79.028923, "lat": 40.161469}}, {"id": 5181326, "name": "Bowmansville", "state": "PA", "country": "US", "coord": {"lon": -76.017441, "lat": 40.196758}}, {"id": 5181375, "name": "Boyertown", "state": "PA", "country": "US", "coord": {"lon": -75.637413, "lat": 40.33371}}, {"id": 5181390, "name": "Brackenridge", "state": "PA", "country": "US", "coord": {"lon": -79.741158, "lat": 40.60812}}, {"id": 5181396, "name": "Braddock", "state": "PA", "country": "US", "coord": {"lon": -79.868378, "lat": 40.4034}}, {"id": 5181400, "name": "Braddock Hills", "state": "PA", "country": "US", "coord": {"lon": -79.865051, "lat": 40.41729}}, {"id": 5181407, "name": "Bradford", "state": "PA", "country": "US", "coord": {"lon": -78.643921, "lat": 41.955898}}, {"id": 5181416, "name": "Bradford County", "state": "PA", "country": "US", "coord": {"lon": -76.874962, "lat": 41.875351}}, {"id": 5181428, "name": "Bradford Woods", "state": "PA", "country": "US", "coord": {"lon": -80.081718, "lat": 40.637569}}, {"id": 5181553, "name": "Brentwood", "state": "PA", "country": "US", "coord": {"lon": -79.97477, "lat": 40.370628}}, {"id": 5181562, "name": "Bressler", "state": "PA", "country": "US", "coord": {"lon": -76.819969, "lat": 40.22953}}, {"id": 5181570, "name": "Breinigsville", "state": "PA", "country": "US", "coord": {"lon": -75.631302, "lat": 40.536758}}, {"id": 5181605, "name": "Brickerville", "state": "PA", "country": "US", "coord": {"lon": -76.30246, "lat": 40.225929}}, {"id": 5181624, "name": "Bridgeport", "state": "PA", "country": "US", "coord": {"lon": -75.345177, "lat": 40.10511}}, {"id": 5181636, "name": "Bridgeville", "state": "PA", "country": "US", "coord": {"lon": -80.110062, "lat": 40.356178}}, {"id": 5181688, "name": "Bristol", "state": "PA", "country": "US", "coord": {"lon": -74.85183, "lat": 40.10067}}, {"id": 5181752, "name": "Brockway", "state": "PA", "country": "US", "coord": {"lon": -78.799469, "lat": 41.249229}}, {"id": 5181761, "name": "Brodheadsville", "state": "PA", "country": "US", "coord": {"lon": -75.393791, "lat": 40.924541}}, {"id": 5181828, "name": "Brookville", "state": "PA", "country": "US", "coord": {"lon": -79.083092, "lat": 41.161171}}, {"id": 5181940, "name": "Brownstown", "state": "PA", "country": "US", "coord": {"lon": -76.213837, "lat": 40.123711}}, {"id": 5181946, "name": "Brownsville", "state": "PA", "country": "US", "coord": {"lon": -79.883942, "lat": 40.023689}}, {"id": 5181950, "name": "Browntown", "state": "PA", "country": "US", "coord": {"lon": -75.787422, "lat": 41.309799}}, {"id": 5182059, "name": "Bryn Athyn", "state": "PA", "country": "US", "coord": {"lon": -75.06739, "lat": 40.1315}}, {"id": 5182063, "name": "Bryn Mawr", "state": "PA", "country": "US", "coord": {"lon": -80.086723, "lat": 40.303959}}, {"id": 5182064, "name": "Bryn Mawr", "state": "PA", "country": "US", "coord": {"lon": -75.304626, "lat": 40.019829}}, {"id": 5182201, "name": "Bucks County", "state": "PA", "country": "US", "coord": {"lon": -75.374901, "lat": 40.500381}}, {"id": 5182414, "name": "Burgettstown", "state": "PA", "country": "US", "coord": {"lon": -80.392838, "lat": 40.382011}}, {"id": 5182434, "name": "Burnham", "state": "PA", "country": "US", "coord": {"lon": -77.568604, "lat": 40.63868}}, {"id": 5182534, "name": "Butler", "state": "PA", "country": "US", "coord": {"lon": -79.895332, "lat": 40.861179}}, {"id": 5182733, "name": "California", "state": "PA", "country": "US", "coord": {"lon": -79.891708, "lat": 40.065632}}, {"id": 5182768, "name": "Calumet", "state": "PA", "country": "US", "coord": {"lon": -79.485321, "lat": 40.210899}}, {"id": 5182829, "name": "Cambria County", "state": "PA", "country": "US", "coord": {"lon": -78.750031, "lat": 40.625351}}, {"id": 5182842, "name": "Cambridge Springs", "state": "PA", "country": "US", "coord": {"lon": -80.056442, "lat": 41.803669}}, {"id": 5182858, "name": "Cameron County", "state": "PA", "country": "US", "coord": {"lon": -78.375023, "lat": 41.50034}}, {"id": 5182928, "name": "Camp Hill", "state": "PA", "country": "US", "coord": {"lon": -76.919968, "lat": 40.239811}}, {"id": 5183096, "name": "Campbelltown", "state": "PA", "country": "US", "coord": {"lon": -76.585251, "lat": 40.277592}}, {"id": 5183161, "name": "Canonsburg", "state": "PA", "country": "US", "coord": {"lon": -80.187279, "lat": 40.262569}}, {"id": 5183169, "name": "Canton", "state": "PA", "country": "US", "coord": {"lon": -76.853287, "lat": 41.65646}}, {"id": 5183193, "name": "Carbon County", "state": "PA", "country": "US", "coord": {"lon": -75.674629, "lat": 41.125359}}, {"id": 5183204, "name": "Carbondale", "state": "PA", "country": "US", "coord": {"lon": -75.501846, "lat": 41.573689}}, {"id": 5183234, "name": "Carlisle", "state": "PA", "country": "US", "coord": {"lon": -77.188873, "lat": 40.201481}}, {"id": 5183416, "name": "Castanea", "state": "PA", "country": "US", "coord": {"lon": -77.429703, "lat": 41.12479}}, {"id": 5183428, "name": "Castle Shannon", "state": "PA", "country": "US", "coord": {"lon": -80.022278, "lat": 40.364792}}, {"id": 5183438, "name": "Catasauqua", "state": "PA", "country": "US", "coord": {"lon": -75.474632, "lat": 40.654819}}, {"id": 5183443, "name": "Catawissa", "state": "PA", "country": "US", "coord": {"lon": -76.459671, "lat": 40.95203}}, {"id": 5183576, "name": "Cementon", "state": "PA", "country": "US", "coord": {"lon": -75.507683, "lat": 40.689259}}, {"id": 5183683, "name": "Centerville", "state": "PA", "country": "US", "coord": {"lon": -79.975609, "lat": 40.045349}}, {"id": 5183709, "name": "Central City", "state": "PA", "country": "US", "coord": {"lon": -78.801971, "lat": 40.11063}}, {"id": 5183763, "name": "Centre County", "state": "PA", "country": "US", "coord": {"lon": -77.899719, "lat": 41.25034}}, {"id": 5183766, "name": "Centre Hall", "state": "PA", "country": "US", "coord": {"lon": -77.686111, "lat": 40.847561}}, {"id": 5183803, "name": "Chalfont", "state": "PA", "country": "US", "coord": {"lon": -75.209061, "lat": 40.288441}}, {"id": 5183891, "name": "Charleroi", "state": "PA", "country": "US", "coord": {"lon": -79.898102, "lat": 40.137852}}, {"id": 5184071, "name": "Cherryville", "state": "PA", "country": "US", "coord": {"lon": -75.538521, "lat": 40.753979}}, {"id": 5184079, "name": "Chester County", "state": "PA", "country": "US", "coord": {"lon": -75.874939, "lat": 40.125381}}, {"id": 5184086, "name": "Chesterbrook", "state": "PA", "country": "US", "coord": {"lon": -75.459084, "lat": 40.075661}}, {"id": 5184151, "name": "Chestnut Ridge Acres", "state": "PA", "country": "US", "coord": {"lon": -75.102951, "lat": 40.54705}}, {"id": 5184178, "name": "Cheswick", "state": "PA", "country": "US", "coord": {"lon": -79.799217, "lat": 40.541729}}, {"id": 5184181, "name": "Chevy Chase Heights", "state": "PA", "country": "US", "coord": {"lon": -79.144203, "lat": 40.63673}}, {"id": 5184197, "name": "Chicora", "state": "PA", "country": "US", "coord": {"lon": -79.742828, "lat": 40.94812}}, {"id": 5184233, "name": "Chinchilla", "state": "PA", "country": "US", "coord": {"lon": -75.677132, "lat": 41.475079}}, {"id": 5184309, "name": "Church Hill", "state": "PA", "country": "US", "coord": {"lon": -77.59861, "lat": 40.682011}}, {"id": 5184346, "name": "Churchill", "state": "PA", "country": "US", "coord": {"lon": -79.843102, "lat": 40.4384}}, {"id": 5184359, "name": "Churchville", "state": "PA", "country": "US", "coord": {"lon": -75.018784, "lat": 40.186218}}, {"id": 5184396, "name": "Clairton", "state": "PA", "country": "US", "coord": {"lon": -79.881721, "lat": 40.29229}}, {"id": 5184422, "name": "Clarion", "state": "PA", "country": "US", "coord": {"lon": -79.385323, "lat": 41.21479}}, {"id": 5184469, "name": "Clarks Green", "state": "PA", "country": "US", "coord": {"lon": -75.699638, "lat": 41.492859}}, {"id": 5184490, "name": "Clarks Summit", "state": "PA", "country": "US", "coord": {"lon": -75.708519, "lat": 41.488689}}, {"id": 5184494, "name": "Clay", "state": "PA", "country": "US", "coord": {"lon": -76.255508, "lat": 40.21843}}, {"id": 5184505, "name": "Claysburg", "state": "PA", "country": "US", "coord": {"lon": -78.449738, "lat": 40.296741}}, {"id": 5184541, "name": "Clearfield", "state": "PA", "country": "US", "coord": {"lon": -78.439194, "lat": 41.027279}}, {"id": 5184546, "name": "Clearfield County", "state": "PA", "country": "US", "coord": {"lon": -78.750031, "lat": 41.12534}}, {"id": 5184584, "name": "Cleona", "state": "PA", "country": "US", "coord": {"lon": -76.475517, "lat": 40.337311}}, {"id": 5184594, "name": "Cleversburg Junction", "state": "PA", "country": "US", "coord": {"lon": -77.464706, "lat": 40.050369}}, {"id": 5184686, "name": "Clymer", "state": "PA", "country": "US", "coord": {"lon": -79.011703, "lat": 40.668121}}, {"id": 5184748, "name": "Coaldale", "state": "PA", "country": "US", "coord": {"lon": -75.906868, "lat": 40.822868}}, {"id": 5184806, "name": "Cochranton", "state": "PA", "country": "US", "coord": {"lon": -80.048393, "lat": 41.52005}}, {"id": 5184966, "name": "Collegeville", "state": "PA", "country": "US", "coord": {"lon": -75.451569, "lat": 40.185661}}, {"id": 5184984, "name": "Collinsburg", "state": "PA", "country": "US", "coord": {"lon": -79.768379, "lat": 40.224239}}, {"id": 5185006, "name": "Colonial Park", "state": "PA", "country": "US", "coord": {"lon": -76.809692, "lat": 40.30064}}, {"id": 5185029, "name": "Columbia", "state": "PA", "country": "US", "coord": {"lon": -76.50441, "lat": 40.03371}}, {"id": 5185128, "name": "Conemaugh", "state": "PA", "country": "US", "coord": {"lon": -78.908081, "lat": 40.32674}}, {"id": 5185135, "name": "Conashaugh Lakes", "state": "PA", "country": "US", "coord": {"lon": -74.989616, "lat": 41.305931}}, {"id": 5185237, "name": "Connellsville", "state": "PA", "country": "US", "coord": {"lon": -79.589478, "lat": 40.017849}}, {"id": 5185267, "name": "Conshohocken", "state": "PA", "country": "US", "coord": {"lon": -75.301567, "lat": 40.079281}}, {"id": 5185284, "name": "Conway", "state": "PA", "country": "US", "coord": {"lon": -80.239227, "lat": 40.65979}}, {"id": 5185289, "name": "Conyngham", "state": "PA", "country": "US", "coord": {"lon": -76.056587, "lat": 40.992031}}, {"id": 5185380, "name": "Coopersburg", "state": "PA", "country": "US", "coord": {"lon": -75.390457, "lat": 40.51149}}, {"id": 5185397, "name": "Coplay", "state": "PA", "country": "US", "coord": {"lon": -75.495461, "lat": 40.670101}}, {"id": 5185408, "name": "Coraopolis", "state": "PA", "country": "US", "coord": {"lon": -80.166718, "lat": 40.518398}}, {"id": 5185465, "name": "Cornwall", "state": "PA", "country": "US", "coord": {"lon": -76.406067, "lat": 40.273701}}, {"id": 5185480, "name": "Cornwells Heights", "state": "PA", "country": "US", "coord": {"lon": -74.948776, "lat": 40.076778}}, {"id": 5185490, "name": "Corry", "state": "PA", "country": "US", "coord": {"lon": -79.640327, "lat": 41.92033}}, {"id": 5185531, "name": "Coudersport", "state": "PA", "country": "US", "coord": {"lon": -78.020561, "lat": 41.774792}}, {"id": 5185721, "name": "Crafton", "state": "PA", "country": "US", "coord": {"lon": -80.06617, "lat": 40.43507}}, {"id": 5185801, "name": "Crawford County", "state": "PA", "country": "US", "coord": {"lon": -80.500069, "lat": 41.750332}}, {"id": 5185861, "name": "Cresson", "state": "PA", "country": "US", "coord": {"lon": -78.591682, "lat": 40.459789}}, {"id": 5185866, "name": "Cressona", "state": "PA", "country": "US", "coord": {"lon": -76.192719, "lat": 40.626759}}, {"id": 5186053, "name": "Croydon", "state": "PA", "country": "US", "coord": {"lon": -74.903503, "lat": 40.08733}}, {"id": 5186106, "name": "Cumberland County", "state": "PA", "country": "US", "coord": {"lon": -77.374977, "lat": 40.250359}}, {"id": 5186171, "name": "Curtisville", "state": "PA", "country": "US", "coord": {"lon": -79.850891, "lat": 40.642288}}, {"id": 5186172, "name": "Curwensville", "state": "PA", "country": "US", "coord": {"lon": -78.525017, "lat": 40.975609}}, {"id": 5186244, "name": "Dale", "state": "PA", "country": "US", "coord": {"lon": -78.90419, "lat": 40.312851}}, {"id": 5186266, "name": "Dallas", "state": "PA", "country": "US", "coord": {"lon": -75.963249, "lat": 41.336189}}, {"id": 5186267, "name": "Dalton", "state": "PA", "country": "US", "coord": {"lon": -75.736031, "lat": 41.534241}}, {"id": 5186327, "name": "Danville", "state": "PA", "country": "US", "coord": {"lon": -76.612732, "lat": 40.963421}}, {"id": 5186395, "name": "Dauphin County", "state": "PA", "country": "US", "coord": {"lon": -76.752472, "lat": 40.627861}}, {"id": 5186420, "name": "Davidsville", "state": "PA", "country": "US", "coord": {"lon": -78.936409, "lat": 40.22702}}, {"id": 5186451, "name": "Dawson", "state": "PA", "country": "US", "coord": {"lon": -80.403122, "lat": 40.701729}}, {"id": 5186677, "name": "Delaware County", "state": "PA", "country": "US", "coord": {"lon": -75.374908, "lat": 40.000389}}, {"id": 5186715, "name": "Dellville", "state": "PA", "country": "US", "coord": {"lon": -77.115807, "lat": 40.363972}}, {"id": 5186717, "name": "Delmont", "state": "PA", "country": "US", "coord": {"lon": -79.57032, "lat": 40.41312}}, {"id": 5186775, "name": "Derry", "state": "PA", "country": "US", "coord": {"lon": -79.299759, "lat": 40.333961}}, {"id": 5186794, "name": "Denver", "state": "PA", "country": "US", "coord": {"lon": -76.137169, "lat": 40.23315}}, {"id": 5186852, "name": "Devon", "state": "PA", "country": "US", "coord": {"lon": -75.429077, "lat": 40.049278}}, {"id": 5186862, "name": "Dewart", "state": "PA", "country": "US", "coord": {"lon": -76.876633, "lat": 41.109249}}, {"id": 5186924, "name": "Dickson City", "state": "PA", "country": "US", "coord": {"lon": -75.607689, "lat": 41.47147}}, {"id": 5186962, "name": "Dillsburg", "state": "PA", "country": "US", "coord": {"lon": -77.034981, "lat": 40.110931}}, {"id": 5187080, "name": "Dogtown", "state": "PA", "country": "US", "coord": {"lon": -76.863861, "lat": 40.80508}}, {"id": 5187134, "name": "Donora", "state": "PA", "country": "US", "coord": {"lon": -79.857552, "lat": 40.173401}}, {"id": 5187150, "name": "Dormont", "state": "PA", "country": "US", "coord": {"lon": -80.033112, "lat": 40.395901}}, {"id": 5187157, "name": "Dorneyville", "state": "PA", "country": "US", "coord": {"lon": -75.51963, "lat": 40.5751}}, {"id": 5187215, "name": "Dover", "state": "PA", "country": "US", "coord": {"lon": -76.85025, "lat": 40.001759}}, {"id": 5187232, "name": "Downingtown", "state": "PA", "country": "US", "coord": {"lon": -75.70327, "lat": 40.0065}}, {"id": 5187247, "name": "Doylestown", "state": "PA", "country": "US", "coord": {"lon": -75.12989, "lat": 40.310108}}, {"id": 5187248, "name": "Doylestown", "state": "PA", "country": "US", "coord": {"lon": -77.721382, "lat": 40.197578}}, {"id": 5187286, "name": "Dravosburg", "state": "PA", "country": "US", "coord": {"lon": -79.886162, "lat": 40.350632}}, {"id": 5187432, "name": "DuBois", "state": "PA", "country": "US", "coord": {"lon": -78.760033, "lat": 41.119228}}, {"id": 5187443, "name": "Dublin", "state": "PA", "country": "US", "coord": {"lon": -75.201561, "lat": 40.371769}}, {"id": 5187453, "name": "Duboistown", "state": "PA", "country": "US", "coord": {"lon": -77.036911, "lat": 41.22258}}, {"id": 5187506, "name": "Duncannon", "state": "PA", "country": "US", "coord": {"lon": -77.023033, "lat": 40.39814}}, {"id": 5187508, "name": "Duncansville", "state": "PA", "country": "US", "coord": {"lon": -78.433899, "lat": 40.423409}}, {"id": 5187542, "name": "Dunmore", "state": "PA", "country": "US", "coord": {"lon": -75.632408, "lat": 41.4198}}, {"id": 5187573, "name": "Dunnstown", "state": "PA", "country": "US", "coord": {"lon": -77.421371, "lat": 41.145901}}, {"id": 5187577, "name": "Dupont", "state": "PA", "country": "US", "coord": {"lon": -75.745468, "lat": 41.325081}}, {"id": 5187580, "name": "Duquesne", "state": "PA", "country": "US", "coord": {"lon": -79.859772, "lat": 40.381458}}, {"id": 5187611, "name": "Duryea", "state": "PA", "country": "US", "coord": {"lon": -75.738533, "lat": 41.343971}}, {"id": 5187727, "name": "Eagleville", "state": "PA", "country": "US", "coord": {"lon": -75.408241, "lat": 40.15955}}, {"id": 5187745, "name": "Earlston", "state": "PA", "country": "US", "coord": {"lon": -78.370018, "lat": 40.006191}}, {"id": 5187760, "name": "East Bangor", "state": "PA", "country": "US", "coord": {"lon": -75.183792, "lat": 40.879539}}, {"id": 5187767, "name": "East Berwick", "state": "PA", "country": "US", "coord": {"lon": -76.222427, "lat": 41.062031}}, {"id": 5187874, "name": "East Conemaugh", "state": "PA", "country": "US", "coord": {"lon": -78.883636, "lat": 40.348679}}, {"id": 5187889, "name": "East Earl", "state": "PA", "country": "US", "coord": {"lon": -76.032722, "lat": 40.1101}}, {"id": 5187925, "name": "East Greenville", "state": "PA", "country": "US", "coord": {"lon": -75.501846, "lat": 40.40649}}, {"id": 5187987, "name": "East McKeesport", "state": "PA", "country": "US", "coord": {"lon": -79.806442, "lat": 40.383121}}, {"id": 5188004, "name": "East Norriton", "state": "", "country": "US", "coord": {"lon": -75.336571, "lat": 40.151772}}, {"id": 5188022, "name": "East Petersburg", "state": "PA", "country": "US", "coord": {"lon": -76.354134, "lat": 40.100101}}, {"id": 5188029, "name": "East Pittsburgh", "state": "PA", "country": "US", "coord": {"lon": -79.838661, "lat": 40.395618}}, {"id": 5188075, "name": "East Stroudsburg", "state": "PA", "country": "US", "coord": {"lon": -75.18129, "lat": 40.999538}}, {"id": 5188105, "name": "East Washington", "state": "PA", "country": "US", "coord": {"lon": -80.237556, "lat": 40.173679}}, {"id": 5188133, "name": "Eastlawn Gardens", "state": "PA", "country": "US", "coord": {"lon": -75.295731, "lat": 40.750648}}, {"id": 5188140, "name": "Easton", "state": "PA", "country": "US", "coord": {"lon": -75.220734, "lat": 40.688431}}, {"id": 5188193, "name": "Ebensburg", "state": "PA", "country": "US", "coord": {"lon": -78.724739, "lat": 40.485069}}, {"id": 5188236, "name": "Economy", "state": "PA", "country": "US", "coord": {"lon": -80.224777, "lat": 40.600071}}, {"id": 5188243, "name": "Eddington", "state": "PA", "country": "US", "coord": {"lon": -74.944893, "lat": 40.08456}}, {"id": 5188284, "name": "Edgewood", "state": "PA", "country": "US", "coord": {"lon": -79.881439, "lat": 40.432011}}, {"id": 5188287, "name": "Edgewood", "state": "PA", "country": "US", "coord": {"lon": -76.572456, "lat": 40.788422}}, {"id": 5188302, "name": "Edgeworth", "state": "PA", "country": "US", "coord": {"lon": -80.192841, "lat": 40.551182}}, {"id": 5188306, "name": "Edinboro", "state": "PA", "country": "US", "coord": {"lon": -80.131721, "lat": 41.874222}}, {"id": 5188339, "name": "Effort", "state": "PA", "country": "US", "coord": {"lon": -75.434914, "lat": 40.939259}}, {"id": 5188347, "name": "Edwardsville", "state": "PA", "country": "US", "coord": {"lon": -75.916313, "lat": 41.269531}}, {"id": 5188351, "name": "Egypt", "state": "PA", "country": "US", "coord": {"lon": -75.529907, "lat": 40.680099}}, {"id": 5188465, "name": "Elizabeth", "state": "PA", "country": "US", "coord": {"lon": -79.889771, "lat": 40.269241}}, {"id": 5188469, "name": "Elim", "state": "PA", "country": "US", "coord": {"lon": -78.942528, "lat": 40.297852}}, {"id": 5188474, "name": "Elizabethtown", "state": "PA", "country": "US", "coord": {"lon": -76.602753, "lat": 40.15287}}, {"id": 5188482, "name": "Elizabethville", "state": "PA", "country": "US", "coord": {"lon": -76.81192, "lat": 40.548969}}, {"id": 5188549, "name": "Elkland", "state": "PA", "country": "US", "coord": {"lon": -77.310806, "lat": 41.986179}}, {"id": 5188602, "name": "Ellsworth", "state": "PA", "country": "US", "coord": {"lon": -80.017273, "lat": 40.112019}}, {"id": 5188607, "name": "Ellport", "state": "PA", "country": "US", "coord": {"lon": -80.258949, "lat": 40.863949}}, {"id": 5188609, "name": "Ellwood City", "state": "PA", "country": "US", "coord": {"lon": -80.286453, "lat": 40.861729}}, {"id": 5188659, "name": "Elverson", "state": "PA", "country": "US", "coord": {"lon": -75.83271, "lat": 40.156761}}, {"id": 5188667, "name": "Elysburg", "state": "PA", "country": "US", "coord": {"lon": -76.55246, "lat": 40.864529}}, {"id": 5188682, "name": "Emerald Lakes", "state": "PA", "country": "US", "coord": {"lon": -75.419632, "lat": 41.088421}}, {"id": 5188708, "name": "Emigsville", "state": "PA", "country": "US", "coord": {"lon": -76.72802, "lat": 40.021759}}, {"id": 5188726, "name": "Emmaus", "state": "PA", "country": "US", "coord": {"lon": -75.496849, "lat": 40.539539}}, {"id": 5188737, "name": "Emporium", "state": "PA", "country": "US", "coord": {"lon": -78.235291, "lat": 41.511452}}, {"id": 5188743, "name": "Emsworth", "state": "PA", "country": "US", "coord": {"lon": -80.094498, "lat": 40.510071}}, {"id": 5188784, "name": "Enhaut", "state": "PA", "country": "US", "coord": {"lon": -76.82692, "lat": 40.231758}}, {"id": 5188787, "name": "Enlow", "state": "PA", "country": "US", "coord": {"lon": -80.233109, "lat": 40.454239}}, {"id": 5188793, "name": "Enola", "state": "PA", "country": "US", "coord": {"lon": -76.933861, "lat": 40.290089}}, {"id": 5188815, "name": "Ephrata", "state": "PA", "country": "US", "coord": {"lon": -76.178841, "lat": 40.179821}}, {"id": 5188843, "name": "Erie", "state": "PA", "country": "US", "coord": {"lon": -80.08506, "lat": 42.129219}}, {"id": 5188847, "name": "Erie County", "state": "PA", "country": "US", "coord": {"lon": -79.875053, "lat": 42.125332}}, {"id": 5188890, "name": "Espy", "state": "PA", "country": "US", "coord": {"lon": -76.409943, "lat": 41.006199}}, {"id": 5188904, "name": "Etna", "state": "PA", "country": "US", "coord": {"lon": -79.948936, "lat": 40.504238}}, {"id": 5188935, "name": "Evans City", "state": "PA", "country": "US", "coord": {"lon": -80.062843, "lat": 40.76923}}, {"id": 5188948, "name": "Evansburg", "state": "PA", "country": "US", "coord": {"lon": -75.42907, "lat": 40.180939}}, {"id": 5188960, "name": "Everett", "state": "PA", "country": "US", "coord": {"lon": -78.373352, "lat": 40.011471}}, {"id": 5189004, "name": "Exeter", "state": "PA", "country": "US", "coord": {"lon": -75.819077, "lat": 41.320641}}, {"id": 5189022, "name": "Exton", "state": "PA", "country": "US", "coord": {"lon": -75.620773, "lat": 40.028999}}, {"id": 5189041, "name": "Factoryville", "state": "PA", "country": "US", "coord": {"lon": -75.209618, "lat": 40.824821}}, {"id": 5189042, "name": "Factoryville", "state": "PA", "country": "US", "coord": {"lon": -75.782692, "lat": 41.563129}}, {"id": 5189085, "name": "Fairhope", "state": "PA", "country": "US", "coord": {"lon": -79.839767, "lat": 40.113682}}, {"id": 5189091, "name": "Fairless Hills", "state": "PA", "country": "US", "coord": {"lon": -74.855164, "lat": 40.17955}}, {"id": 5189122, "name": "Fairview", "state": "PA", "country": "US", "coord": {"lon": -78.231956, "lat": 41.0345}}, {"id": 5189124, "name": "Fairview", "state": "PA", "country": "US", "coord": {"lon": -80.255341, "lat": 42.031448}}, {"id": 5189308, "name": "Falls Creek", "state": "PA", "country": "US", "coord": {"lon": -78.804466, "lat": 41.145061}}, {"id": 5189377, "name": "Farrell", "state": "PA", "country": "US", "coord": {"lon": -80.496742, "lat": 41.21228}}, {"id": 5189408, "name": "Faxon", "state": "PA", "country": "US", "coord": {"lon": -76.977188, "lat": 41.248409}}, {"id": 5189414, "name": "Fayette County", "state": "PA", "country": "US", "coord": {"lon": -79.750038, "lat": 40.125351}}, {"id": 5189420, "name": "Feasterville", "state": "PA", "country": "US", "coord": {"lon": -75.005173, "lat": 40.144001}}, {"id": 5189445, "name": "Fellsburg", "state": "PA", "country": "US", "coord": {"lon": -79.824211, "lat": 40.183128}}, {"id": 5189482, "name": "Ferndale", "state": "PA", "country": "US", "coord": {"lon": -78.914749, "lat": 40.28896}}, {"id": 5189493, "name": "Fernway", "state": "PA", "country": "US", "coord": {"lon": -80.13089, "lat": 40.69479}}, {"id": 5189796, "name": "Fivepointville", "state": "PA", "country": "US", "coord": {"lon": -76.051064, "lat": 40.182869}}, {"id": 5189828, "name": "Fleetwood", "state": "PA", "country": "US", "coord": {"lon": -75.817978, "lat": 40.453979}}, {"id": 5189839, "name": "Flemington", "state": "PA", "country": "US", "coord": {"lon": -77.471649, "lat": 41.126461}}, {"id": 5189872, "name": "Flourtown", "state": "PA", "country": "US", "coord": {"lon": -75.212402, "lat": 40.103439}}, {"id": 5189888, "name": "Flying Hills", "state": "PA", "country": "US", "coord": {"lon": -75.914101, "lat": 40.27676}}, {"id": 5189947, "name": "Ford City", "state": "PA", "country": "US", "coord": {"lon": -79.52977, "lat": 40.772289}}, {"id": 5189963, "name": "Forest City", "state": "PA", "country": "US", "coord": {"lon": -75.466568, "lat": 41.65147}}, {"id": 5189981, "name": "Forest Hills", "state": "PA", "country": "US", "coord": {"lon": -79.850052, "lat": 40.419788}}, {"id": 5190089, "name": "Fort Washington", "state": "PA", "country": "US", "coord": {"lon": -75.209061, "lat": 40.141781}}, {"id": 5190115, "name": "Forty Fort", "state": "PA", "country": "US", "coord": {"lon": -75.87825, "lat": 41.278969}}, {"id": 5190117, "name": "Foster Brook", "state": "PA", "country": "US", "coord": {"lon": -78.617249, "lat": 41.97506}}, {"id": 5190150, "name": "Fountain Hill", "state": "PA", "country": "US", "coord": {"lon": -75.39518, "lat": 40.60149}}, {"id": 5190213, "name": "Fox Chapel", "state": "PA", "country": "US", "coord": {"lon": -79.879768, "lat": 40.513401}}, {"id": 5190247, "name": "Fox Run", "state": "PA", "country": "US", "coord": {"lon": -80.08284, "lat": 40.70229}}, {"id": 5190282, "name": "Frackville", "state": "PA", "country": "US", "coord": {"lon": -76.230217, "lat": 40.783981}}, {"id": 5190323, "name": "Franklin", "state": "PA", "country": "US", "coord": {"lon": -79.831444, "lat": 41.397839}}, {"id": 5190337, "name": "Franklin County", "state": "PA", "country": "US", "coord": {"lon": -77.666382, "lat": 40.250359}}, {"id": 5190360, "name": "Franklin Park", "state": "PA", "country": "US", "coord": {"lon": -80.087837, "lat": 40.583401}}, {"id": 5190438, "name": "Fredericksburg", "state": "PA", "country": "US", "coord": {"lon": -76.428291, "lat": 40.443699}}, {"id": 5190462, "name": "Freedom", "state": "PA", "country": "US", "coord": {"lon": -80.251732, "lat": 40.685619}}, {"id": 5190469, "name": "Freeland", "state": "PA", "country": "US", "coord": {"lon": -75.897141, "lat": 41.01675}}, {"id": 5190486, "name": "Freeport", "state": "PA", "country": "US", "coord": {"lon": -79.684769, "lat": 40.67395}}, {"id": 5190503, "name": "Freemansburg", "state": "PA", "country": "US", "coord": {"lon": -75.345741, "lat": 40.626492}}, {"id": 5190547, "name": "Friedens", "state": "PA", "country": "US", "coord": {"lon": -78.99836, "lat": 40.050079}}, {"id": 5190679, "name": "Fullerton", "state": "PA", "country": "US", "coord": {"lon": -75.473244, "lat": 40.63176}}, {"id": 5190743, "name": "Galeton", "state": "PA", "country": "US", "coord": {"lon": -77.64193, "lat": 41.73312}}, {"id": 5190747, "name": "Galilee", "state": "PA", "country": "US", "coord": {"lon": -75.139618, "lat": 41.735088}}, {"id": 5190769, "name": "Gallitzin", "state": "PA", "country": "US", "coord": {"lon": -78.551682, "lat": 40.482288}}, {"id": 5190808, "name": "Garden View", "state": "PA", "country": "US", "coord": {"lon": -77.046082, "lat": 41.254238}}, {"id": 5190870, "name": "Gastonville", "state": "PA", "country": "US", "coord": {"lon": -79.99588, "lat": 40.25729}}, {"id": 5190928, "name": "Geistown", "state": "PA", "country": "US", "coord": {"lon": -78.868912, "lat": 40.290909}}, {"id": 5190988, "name": "Georgetown", "state": "PA", "country": "US", "coord": {"lon": -75.868813, "lat": 41.227299}}, {"id": 5191070, "name": "Gibsonia", "state": "PA", "country": "US", "coord": {"lon": -79.969498, "lat": 40.63007}}, {"id": 5191093, "name": "Gilbertsville", "state": "PA", "country": "US", "coord": {"lon": -75.610184, "lat": 40.320099}}, {"id": 5191161, "name": "Girard", "state": "PA", "country": "US", "coord": {"lon": -80.318123, "lat": 42.000332}}, {"id": 5191169, "name": "Girardville", "state": "PA", "country": "US", "coord": {"lon": -76.283562, "lat": 40.791481}}, {"id": 5191236, "name": "Glassport", "state": "PA", "country": "US", "coord": {"lon": -79.892273, "lat": 40.324791}}, {"id": 5191279, "name": "Glen Lyon", "state": "PA", "country": "US", "coord": {"lon": -76.074654, "lat": 41.175079}}, {"id": 5191327, "name": "Glenside", "state": "PA", "country": "US", "coord": {"lon": -75.152122, "lat": 40.102329}}, {"id": 5191335, "name": "Glenshaw", "state": "PA", "country": "US", "coord": {"lon": -79.967552, "lat": 40.532848}}, {"id": 5191389, "name": "Gold Key Lake", "state": "PA", "country": "US", "coord": {"lon": -74.938499, "lat": 41.305931}}, {"id": 5191598, "name": "Grafton", "state": "PA", "country": "US", "coord": {"lon": -79.208923, "lat": 40.4734}}, {"id": 5191925, "name": "Green Tree", "state": "PA", "country": "US", "coord": {"lon": -80.045609, "lat": 40.411739}}, {"id": 5192000, "name": "Greenock", "state": "PA", "country": "US", "coord": {"lon": -79.806709, "lat": 40.31229}}, {"id": 5192019, "name": "Greenville", "state": "PA", "country": "US", "coord": {"lon": -80.391182, "lat": 41.404499}}, {"id": 5192029, "name": "Greensburg", "state": "PA", "country": "US", "coord": {"lon": -79.538933, "lat": 40.30146}}, {"id": 5192035, "name": "Greenwood", "state": "PA", "country": "US", "coord": {"lon": -78.357513, "lat": 40.5359}}, {"id": 5192134, "name": "Grill", "state": "PA", "country": "US", "coord": {"lon": -75.940491, "lat": 40.298698}}, {"id": 5192184, "name": "Grove City", "state": "PA", "country": "US", "coord": {"lon": -80.088669, "lat": 41.157841}}, {"id": 5192391, "name": "Halfway House", "state": "PA", "country": "US", "coord": {"lon": -75.643242, "lat": 40.28204}}, {"id": 5192413, "name": "Hallam", "state": "PA", "country": "US", "coord": {"lon": -76.604134, "lat": 40.004822}}, {"id": 5192431, "name": "Hallstead", "state": "PA", "country": "US", "coord": {"lon": -75.74324, "lat": 41.961189}}, {"id": 5192444, "name": "Hamburg", "state": "PA", "country": "US", "coord": {"lon": -75.98188, "lat": 40.555649}}, {"id": 5192657, "name": "Harleigh", "state": "PA", "country": "US", "coord": {"lon": -75.971313, "lat": 40.98064}}, {"id": 5192662, "name": "Harleysville", "state": "PA", "country": "US", "coord": {"lon": -75.387123, "lat": 40.279549}}, {"id": 5192726, "name": "Harrisburg", "state": "PA", "country": "US", "coord": {"lon": -76.884422, "lat": 40.273701}}, {"id": 5192840, "name": "Harveys Lake", "state": "PA", "country": "US", "coord": {"lon": -76.024651, "lat": 41.383411}}, {"id": 5192858, "name": "Hastings", "state": "PA", "country": "US", "coord": {"lon": -78.71225, "lat": 40.66507}}, {"id": 5192861, "name": "Hasson Heights", "state": "PA", "country": "US", "coord": {"lon": -79.677002, "lat": 41.448952}}, {"id": 5192863, "name": "Hatboro", "state": "PA", "country": "US", "coord": {"lon": -75.106842, "lat": 40.174278}}, {"id": 5192878, "name": "Hatfield", "state": "PA", "country": "US", "coord": {"lon": -75.299339, "lat": 40.279831}}, {"id": 5192925, "name": "Hawley", "state": "PA", "country": "US", "coord": {"lon": -75.182121, "lat": 41.475922}}, {"id": 5192993, "name": "Hays", "state": "PA", "country": "US", "coord": {"lon": -79.933937, "lat": 40.389511}}, {"id": 5193011, "name": "Hazleton", "state": "PA", "country": "US", "coord": {"lon": -75.974648, "lat": 40.95842}}, {"id": 5193056, "name": "Hebron", "state": "PA", "country": "US", "coord": {"lon": -76.399399, "lat": 40.338982}}, {"id": 5193133, "name": "Heidelberg", "state": "PA", "country": "US", "coord": {"lon": -80.090889, "lat": 40.392288}}, {"id": 5193149, "name": "Hellertown", "state": "PA", "country": "US", "coord": {"lon": -75.340729, "lat": 40.57954}}, {"id": 5193169, "name": "Hemlock Farms", "state": "PA", "country": "US", "coord": {"lon": -75.03656, "lat": 41.326759}}, {"id": 5193309, "name": "Hermitage", "state": "PA", "country": "US", "coord": {"lon": -80.448677, "lat": 41.233391}}, {"id": 5193342, "name": "Hershey", "state": "PA", "country": "US", "coord": {"lon": -76.650253, "lat": 40.285919}}, {"id": 5193599, "name": "Highland Park", "state": "PA", "country": "US", "coord": {"lon": -77.568047, "lat": 40.620911}}, {"id": 5193622, "name": "Highspire", "state": "PA", "country": "US", "coord": {"lon": -76.791077, "lat": 40.210918}}, {"id": 5193682, "name": "Hilldale", "state": "PA", "country": "US", "coord": {"lon": -75.836311, "lat": 41.289249}}, {"id": 5193684, "name": "Hiller", "state": "PA", "country": "US", "coord": {"lon": -79.900879, "lat": 40.010349}}, {"id": 5193863, "name": "Hokendauqua", "state": "PA", "country": "US", "coord": {"lon": -75.49102, "lat": 40.662041}}, {"id": 5193920, "name": "Hollidaysburg", "state": "PA", "country": "US", "coord": {"lon": -78.388901, "lat": 40.427292}}, {"id": 5194057, "name": "Homer City", "state": "PA", "country": "US", "coord": {"lon": -79.162262, "lat": 40.5434}}, {"id": 5194067, "name": "Homestead", "state": "PA", "country": "US", "coord": {"lon": -79.911987, "lat": 40.405899}}, {"id": 5194076, "name": "Hometown", "state": "PA", "country": "US", "coord": {"lon": -75.980202, "lat": 40.8237}}, {"id": 5194099, "name": "Honesdale", "state": "PA", "country": "US", "coord": {"lon": -75.258789, "lat": 41.576759}}, {"id": 5194100, "name": "Honey Brook", "state": "PA", "country": "US", "coord": {"lon": -75.911331, "lat": 40.094269}}, {"id": 5194302, "name": "Horsham", "state": "PA", "country": "US", "coord": {"lon": -75.12851, "lat": 40.17844}}, {"id": 5194366, "name": "Houserville", "state": "PA", "country": "US", "coord": {"lon": -77.828888, "lat": 40.823952}}, {"id": 5194369, "name": "Houston", "state": "PA", "country": "US", "coord": {"lon": -80.211449, "lat": 40.24646}}, {"id": 5194450, "name": "Hudson", "state": "PA", "country": "US", "coord": {"lon": -75.836029, "lat": 41.274799}}, {"id": 5194479, "name": "Hughestown", "state": "PA", "country": "US", "coord": {"lon": -75.773247, "lat": 41.327019}}, {"id": 5194481, "name": "Hughesville", "state": "PA", "country": "US", "coord": {"lon": -76.723846, "lat": 41.241192}}, {"id": 5194498, "name": "Hulmeville", "state": "PA", "country": "US", "coord": {"lon": -74.911003, "lat": 40.143169}}, {"id": 5194512, "name": "Hummels Wharf", "state": "PA", "country": "US", "coord": {"lon": -76.8358, "lat": 40.831749}}, {"id": 5194513, "name": "Hummelstown", "state": "PA", "country": "US", "coord": {"lon": -76.708298, "lat": 40.265369}}, {"id": 5194556, "name": "Hunter Park", "state": "PA", "country": "US", "coord": {"lon": -77.852219, "lat": 40.872002}}, {"id": 5194590, "name": "Huntingdon", "state": "PA", "country": "US", "coord": {"lon": -78.010277, "lat": 40.484798}}, {"id": 5194656, "name": "Hyde", "state": "PA", "country": "US", "coord": {"lon": -78.462517, "lat": 41.00256}}, {"id": 5194658, "name": "Hyde Park", "state": "PA", "country": "US", "coord": {"lon": -75.925209, "lat": 40.377319}}, {"id": 5194741, "name": "Imperial", "state": "PA", "country": "US", "coord": {"lon": -80.244499, "lat": 40.449509}}, {"id": 5194748, "name": "Independence", "state": "PA", "country": "US", "coord": {"lon": -80.309227, "lat": 40.572289}}, {"id": 5194821, "name": "Indian Mountain Lake", "state": "PA", "country": "US", "coord": {"lon": -75.50824, "lat": 41.003139}}, {"id": 5194823, "name": "Indian Mountain Lake", "state": "", "country": "US", "coord": {"lon": -75.499352, "lat": 41.00481}}, {"id": 5194868, "name": "Indiana", "state": "PA", "country": "US", "coord": {"lon": -79.152527, "lat": 40.62146}}, {"id": 5194872, "name": "Indiana County", "state": "PA", "country": "US", "coord": {"lon": -79.125038, "lat": 40.87534}}, {"id": 5194892, "name": "Industry", "state": "PA", "country": "US", "coord": {"lon": -80.416183, "lat": 40.644508}}, {"id": 5194912, "name": "Ingram", "state": "PA", "country": "US", "coord": {"lon": -80.067558, "lat": 40.446178}}, {"id": 5194914, "name": "Industry", "state": "PA", "country": "US", "coord": {"lon": -79.792267, "lat": 40.264511}}, {"id": 5194915, "name": "Inkerman", "state": "PA", "country": "US", "coord": {"lon": -75.812691, "lat": 41.298969}}, {"id": 5194941, "name": "Intercourse", "state": "PA", "country": "US", "coord": {"lon": -76.10495, "lat": 40.037601}}, {"id": 5195010, "name": "Irvine", "state": "PA", "country": "US", "coord": {"lon": -79.268379, "lat": 41.83923}}, {"id": 5195024, "name": "Irwin", "state": "PA", "country": "US", "coord": {"lon": -79.701149, "lat": 40.324509}}, {"id": 5195068, "name": "Ivyland", "state": "PA", "country": "US", "coord": {"lon": -75.07267, "lat": 40.20789}}, {"id": 5195186, "name": "Jacksonwald", "state": "PA", "country": "US", "coord": {"lon": -75.849648, "lat": 40.324539}}, {"id": 5195283, "name": "Jeannette", "state": "PA", "country": "US", "coord": {"lon": -79.615318, "lat": 40.328121}}, {"id": 5195293, "name": "Jednota", "state": "PA", "country": "US", "coord": {"lon": -76.758583, "lat": 40.20454}}, {"id": 5195297, "name": "Jefferson Hills", "state": "PA", "country": "US", "coord": {"lon": -79.931992, "lat": 40.29118}}, {"id": 5195307, "name": "Jefferson County", "state": "PA", "country": "US", "coord": {"lon": -79.125038, "lat": 41.25034}}, {"id": 5195363, "name": "Jenkintown", "state": "PA", "country": "US", "coord": {"lon": -75.125168, "lat": 40.09594}}, {"id": 5195399, "name": "Jermyn", "state": "PA", "country": "US", "coord": {"lon": -75.545464, "lat": 41.53091}}, {"id": 5195405, "name": "Jerome", "state": "PA", "country": "US", "coord": {"lon": -78.983643, "lat": 40.208961}}, {"id": 5195416, "name": "Jersey Shore", "state": "PA", "country": "US", "coord": {"lon": -77.26442, "lat": 41.202019}}, {"id": 5195437, "name": "Jessup", "state": "PA", "country": "US", "coord": {"lon": -75.562134, "lat": 41.468689}}, {"id": 5195460, "name": "Jim Thorpe", "state": "PA", "country": "US", "coord": {"lon": -75.732407, "lat": 40.875919}}, {"id": 5195549, "name": "Johnsonburg", "state": "PA", "country": "US", "coord": {"lon": -78.675034, "lat": 41.49062}}, {"id": 5195550, "name": "Johnsonburg", "state": "PA", "country": "US", "coord": {"lon": -78.877808, "lat": 40.886181}}, {"id": 5195561, "name": "Johnstown", "state": "PA", "country": "US", "coord": {"lon": -78.921967, "lat": 40.32674}}, {"id": 5195606, "name": "Jonestown", "state": "PA", "country": "US", "coord": {"lon": -76.478302, "lat": 40.4137}}, {"id": 5195728, "name": "Kane", "state": "PA", "country": "US", "coord": {"lon": -78.811142, "lat": 41.662842}}, {"id": 5195978, "name": "Kenhorst", "state": "PA", "country": "US", "coord": {"lon": -75.939377, "lat": 40.31065}}, {"id": 5195980, "name": "Kenilworth", "state": "PA", "country": "US", "coord": {"lon": -75.634079, "lat": 40.231491}}, {"id": 5195982, "name": "Kenmar", "state": "PA", "country": "US", "coord": {"lon": -76.959412, "lat": 41.25341}}, {"id": 5196220, "name": "King of Prussia", "state": "PA", "country": "US", "coord": {"lon": -75.396019, "lat": 40.089272}}, {"id": 5196245, "name": "Kingston", "state": "PA", "country": "US", "coord": {"lon": -75.896858, "lat": 41.261749}}, {"id": 5196336, "name": "Kissell Hill", "state": "PA", "country": "US", "coord": {"lon": -76.297462, "lat": 40.139259}}, {"id": 5196357, "name": "Kittanning", "state": "PA", "country": "US", "coord": {"lon": -79.521988, "lat": 40.816448}}, {"id": 5196465, "name": "Knox", "state": "PA", "country": "US", "coord": {"lon": -79.53727, "lat": 41.234509}}, {"id": 5196601, "name": "Kulpmont", "state": "PA", "country": "US", "coord": {"lon": -76.47245, "lat": 40.793419}}, {"id": 5196605, "name": "Kulpsville", "state": "PA", "country": "US", "coord": {"lon": -75.336563, "lat": 40.242882}}, {"id": 5196621, "name": "Kutztown", "state": "PA", "country": "US", "coord": {"lon": -75.77742, "lat": 40.517319}}, {"id": 5196674, "name": "Lackawanna County", "state": "PA", "country": "US", "coord": {"lon": -75.624908, "lat": 41.625359}}, {"id": 5196713, "name": "Laflin", "state": "PA", "country": "US", "coord": {"lon": -75.805473, "lat": 41.288971}}, {"id": 5196767, "name": "Lake City", "state": "PA", "country": "US", "coord": {"lon": -80.345337, "lat": 42.014221}}, {"id": 5196977, "name": "Lake Wynonah", "state": "PA", "country": "US", "coord": {"lon": -76.163834, "lat": 40.599258}}, {"id": 5196994, "name": "Lakemont", "state": "PA", "country": "US", "coord": {"lon": -78.388351, "lat": 40.472851}}, {"id": 5197025, "name": "Lakewood", "state": "PA", "country": "US", "coord": {"lon": -80.173668, "lat": 42.091999}}, {"id": 5197079, "name": "Lancaster", "state": "PA", "country": "US", "coord": {"lon": -76.305511, "lat": 40.03788}}, {"id": 5197085, "name": "Lancaster County", "state": "PA", "country": "US", "coord": {"lon": -76.249947, "lat": 40.25037}}, {"id": 5197120, "name": "Landisville", "state": "PA", "country": "US", "coord": {"lon": -76.409958, "lat": 40.095371}}, {"id": 5197140, "name": "Langhorne", "state": "PA", "country": "US", "coord": {"lon": -74.922668, "lat": 40.174549}}, {"id": 5197145, "name": "Langhorne Manor", "state": "PA", "country": "US", "coord": {"lon": -74.917671, "lat": 40.167049}}, {"id": 5197159, "name": "Lansdale", "state": "PA", "country": "US", "coord": {"lon": -75.283791, "lat": 40.241501}}, {"id": 5197163, "name": "Lansford", "state": "PA", "country": "US", "coord": {"lon": -75.882423, "lat": 40.83176}}, {"id": 5197171, "name": "Laporte", "state": "PA", "country": "US", "coord": {"lon": -76.49411, "lat": 41.423969}}, {"id": 5197190, "name": "Larksville", "state": "PA", "country": "US", "coord": {"lon": -75.930748, "lat": 41.245079}}, {"id": 5197227, "name": "Latrobe", "state": "PA", "country": "US", "coord": {"lon": -79.379478, "lat": 40.321178}}, {"id": 5197398, "name": "Laureldale", "state": "PA", "country": "US", "coord": {"lon": -75.917976, "lat": 40.388149}}, {"id": 5197413, "name": "Laurys Station", "state": "PA", "country": "US", "coord": {"lon": -75.530182, "lat": 40.723148}}, {"id": 5197435, "name": "Lawnton", "state": "PA", "country": "US", "coord": {"lon": -76.803864, "lat": 40.258419}}, {"id": 5197440, "name": "Lawrence County", "state": "PA", "country": "US", "coord": {"lon": -80.500069, "lat": 41.00034}}, {"id": 5197445, "name": "Lawrence Park", "state": "PA", "country": "US", "coord": {"lon": -76.800797, "lat": 40.345638}}, {"id": 5197446, "name": "Lawrence Park", "state": "PA", "country": "US", "coord": {"lon": -80.023109, "lat": 42.152279}}, {"id": 5197463, "name": "Lawson Heights", "state": "PA", "country": "US", "coord": {"lon": -79.389198, "lat": 40.29174}}, {"id": 5197517, "name": "Lebanon", "state": "PA", "country": "US", "coord": {"lon": -76.411346, "lat": 40.340931}}, {"id": 5197522, "name": "Lebanon County", "state": "PA", "country": "US", "coord": {"lon": -76.624969, "lat": 40.50037}}, {"id": 5197568, "name": "Leechburg", "state": "PA", "country": "US", "coord": {"lon": -79.605598, "lat": 40.62701}}, {"id": 5197590, "name": "Leesport", "state": "PA", "country": "US", "coord": {"lon": -75.966316, "lat": 40.447041}}, {"id": 5197594, "name": "Leetsdale", "state": "PA", "country": "US", "coord": {"lon": -80.208389, "lat": 40.563122}}, {"id": 5197646, "name": "Lehigh County", "state": "PA", "country": "US", "coord": {"lon": -75.624908, "lat": 40.75037}}, {"id": 5197673, "name": "Lehighton", "state": "PA", "country": "US", "coord": {"lon": -75.713799, "lat": 40.833698}}, {"id": 5197723, "name": "Lemont", "state": "PA", "country": "US", "coord": {"lon": -77.818329, "lat": 40.810619}}, {"id": 5197725, "name": "Lemoyne", "state": "PA", "country": "US", "coord": {"lon": -76.894142, "lat": 40.241199}}, {"id": 5197732, "name": "Lenape Heights", "state": "PA", "country": "US", "coord": {"lon": -79.520599, "lat": 40.764229}}, {"id": 5197791, "name": "Level Green", "state": "PA", "country": "US", "coord": {"lon": -79.720322, "lat": 40.393398}}, {"id": 5197796, "name": "Levittown", "state": "PA", "country": "US", "coord": {"lon": -74.828773, "lat": 40.155109}}, {"id": 5197842, "name": "Lewisburg", "state": "PA", "country": "US", "coord": {"lon": -76.884407, "lat": 40.964531}}, {"id": 5197850, "name": "Lewistown", "state": "PA", "country": "US", "coord": {"lon": -77.571381, "lat": 40.599239}}, {"id": 5197865, "name": "Liberty", "state": "PA", "country": "US", "coord": {"lon": -79.856163, "lat": 40.325352}}, {"id": 5197978, "name": "Light Street", "state": "PA", "country": "US", "coord": {"lon": -76.423561, "lat": 41.036201}}, {"id": 5197989, "name": "Ligonier", "state": "PA", "country": "US", "coord": {"lon": -79.237534, "lat": 40.24313}}, {"id": 5198034, "name": "Limerick", "state": "PA", "country": "US", "coord": {"lon": -75.522118, "lat": 40.23093}}, {"id": 5198062, "name": "Lincoln", "state": "PA", "country": "US", "coord": {"lon": -79.854767, "lat": 40.318958}}, {"id": 5198089, "name": "Lincoln Park", "state": "PA", "country": "US", "coord": {"lon": -75.985489, "lat": 40.314812}}, {"id": 5198094, "name": "Lincoln Place", "state": "PA", "country": "US", "coord": {"lon": -79.917267, "lat": 40.367851}}, {"id": 5198166, "name": "Linesville", "state": "PA", "country": "US", "coord": {"lon": -80.423958, "lat": 41.65617}}, {"id": 5198180, "name": "Linglestown", "state": "PA", "country": "US", "coord": {"lon": -76.789139, "lat": 40.333981}}, {"id": 5198192, "name": "Linntown", "state": "PA", "country": "US", "coord": {"lon": -76.899132, "lat": 40.958969}}, {"id": 5198218, "name": "Lititz", "state": "PA", "country": "US", "coord": {"lon": -76.3069, "lat": 40.157318}}, {"id": 5198635, "name": "Lock Haven", "state": "PA", "country": "US", "coord": {"lon": -77.44693, "lat": 41.137009}}, {"id": 5198980, "name": "Lorane", "state": "PA", "country": "US", "coord": {"lon": -75.854652, "lat": 40.288429}}, {"id": 5198988, "name": "Loretto", "state": "PA", "country": "US", "coord": {"lon": -78.630302, "lat": 40.503132}}, {"id": 5199075, "name": "Lower Allen", "state": "PA", "country": "US", "coord": {"lon": -76.900528, "lat": 40.226479}}, {"id": 5199087, "name": "Lower Burrell", "state": "PA", "country": "US", "coord": {"lon": -79.757271, "lat": 40.55312}}, {"id": 5199209, "name": "Loyalhanna", "state": "PA", "country": "US", "coord": {"lon": -79.362259, "lat": 40.322571}}, {"id": 5199308, "name": "Luzerne", "state": "PA", "country": "US", "coord": {"lon": -75.901031, "lat": 41.285641}}, {"id": 5199309, "name": "Luzerne County", "state": "PA", "country": "US", "coord": {"lon": -76.249931, "lat": 41.375359}}, {"id": 5199318, "name": "Lycoming County", "state": "PA", "country": "US", "coord": {"lon": -77.499977, "lat": 41.500351}}, {"id": 5199324, "name": "Lykens", "state": "PA", "country": "US", "coord": {"lon": -76.700523, "lat": 40.56675}}, {"id": 5199439, "name": "Macungie", "state": "PA", "country": "US", "coord": {"lon": -75.555191, "lat": 40.51593}}, {"id": 5199494, "name": "Mahanoy City", "state": "PA", "country": "US", "coord": {"lon": -76.141602, "lat": 40.812592}}, {"id": 5199600, "name": "Malvern", "state": "PA", "country": "US", "coord": {"lon": -75.513809, "lat": 40.036221}}, {"id": 5199634, "name": "Manchester", "state": "PA", "country": "US", "coord": {"lon": -76.7183, "lat": 40.063148}}, {"id": 5199648, "name": "Manheim", "state": "PA", "country": "US", "coord": {"lon": -76.394958, "lat": 40.163429}}, {"id": 5199677, "name": "Manor", "state": "PA", "country": "US", "coord": {"lon": -79.670036, "lat": 40.333961}}, {"id": 5199710, "name": "Mansfield", "state": "PA", "country": "US", "coord": {"lon": -77.077469, "lat": 41.807301}}, {"id": 5199740, "name": "Maple Glen", "state": "PA", "country": "US", "coord": {"lon": -79.976723, "lat": 40.015629}}, {"id": 5199781, "name": "Maple Glen", "state": "PA", "country": "US", "coord": {"lon": -75.18045, "lat": 40.179279}}, {"id": 5199873, "name": "Marianne", "state": "PA", "country": "US", "coord": {"lon": -79.428932, "lat": 41.246449}}, {"id": 5199876, "name": "Marienville", "state": "PA", "country": "US", "coord": {"lon": -79.1231, "lat": 41.468948}}, {"id": 5199879, "name": "Marietta", "state": "PA", "country": "US", "coord": {"lon": -76.552193, "lat": 40.057041}}, {"id": 5199944, "name": "Mars", "state": "PA", "country": "US", "coord": {"lon": -80.011726, "lat": 40.6959}}, {"id": 5199994, "name": "Marshallton", "state": "PA", "country": "US", "coord": {"lon": -76.539398, "lat": 40.786751}}, {"id": 5200055, "name": "Martinsburg", "state": "PA", "country": "US", "coord": {"lon": -78.324181, "lat": 40.311192}}, {"id": 5200081, "name": "Marysville", "state": "PA", "country": "US", "coord": {"lon": -76.92997, "lat": 40.34259}}, {"id": 5200122, "name": "Matamoras", "state": "PA", "country": "US", "coord": {"lon": -76.933311, "lat": 40.44009}}, {"id": 5200123, "name": "Matamoras", "state": "PA", "country": "US", "coord": {"lon": -74.700157, "lat": 41.368698}}, {"id": 5200194, "name": "Mayfield", "state": "PA", "country": "US", "coord": {"lon": -75.536018, "lat": 41.538139}}, {"id": 5200195, "name": "Mayfield", "state": "PA", "country": "US", "coord": {"lon": -79.597816, "lat": 40.136181}}, {"id": 5200208, "name": "Maytown", "state": "PA", "country": "US", "coord": {"lon": -76.582191, "lat": 40.075371}}, {"id": 5200220, "name": "McAdoo", "state": "PA", "country": "US", "coord": {"lon": -75.991318, "lat": 40.910091}}, {"id": 5200318, "name": "McConnellstown", "state": "PA", "country": "US", "coord": {"lon": -78.081673, "lat": 40.452572}}, {"id": 5200371, "name": "McDonald", "state": "PA", "country": "US", "coord": {"lon": -80.234779, "lat": 40.370899}}, {"id": 5200422, "name": "McGovern", "state": "PA", "country": "US", "coord": {"lon": -80.216454, "lat": 40.228958}}, {"id": 5200448, "name": "McKean County", "state": "PA", "country": "US", "coord": {"lon": -78.875038, "lat": 41.87534}}, {"id": 5200474, "name": "McKees Rocks", "state": "PA", "country": "US", "coord": {"lon": -80.065613, "lat": 40.465618}}, {"id": 5200499, "name": "McKeesport", "state": "PA", "country": "US", "coord": {"lon": -79.86422, "lat": 40.347851}}, {"id": 5200544, "name": "McMurray", "state": "PA", "country": "US", "coord": {"lon": -80.083939, "lat": 40.277851}}, {"id": 5200639, "name": "Meadowood", "state": "PA", "country": "US", "coord": {"lon": -79.893944, "lat": 40.84201}}, {"id": 5200644, "name": "Meadville", "state": "PA", "country": "US", "coord": {"lon": -80.151451, "lat": 41.641441}}, {"id": 5200657, "name": "Mechanicsburg", "state": "PA", "country": "US", "coord": {"lon": -77.008591, "lat": 40.21426}}, {"id": 5200669, "name": "Mechanicsville", "state": "PA", "country": "US", "coord": {"lon": -76.586617, "lat": 40.96648}}, {"id": 5200798, "name": "Mercer", "state": "PA", "country": "US", "coord": {"lon": -80.239792, "lat": 41.227001}}, {"id": 5200801, "name": "Mercer County", "state": "PA", "country": "US", "coord": {"lon": -80.500069, "lat": 41.375332}}, {"id": 5200837, "name": "Meridian", "state": "PA", "country": "US", "coord": {"lon": -79.961998, "lat": 40.8484}}, {"id": 5201006, "name": "Middleburg", "state": "PA", "country": "US", "coord": {"lon": -77.047203, "lat": 40.785919}}, {"id": 5201027, "name": "Middletown", "state": "PA", "country": "US", "coord": {"lon": -76.731079, "lat": 40.19981}}, {"id": 5201031, "name": "Middletown", "state": "PA", "country": "US", "coord": {"lon": -75.332397, "lat": 40.64399}}, {"id": 5201045, "name": "Midland", "state": "PA", "country": "US", "coord": {"lon": -80.446449, "lat": 40.632568}}, {"id": 5201046, "name": "Midland", "state": "PA", "country": "US", "coord": {"lon": -80.218109, "lat": 40.258961}}, {"id": 5201080, "name": "Mifflinburg", "state": "PA", "country": "US", "coord": {"lon": -77.047752, "lat": 40.91758}}, {"id": 5201085, "name": "Mifflintown", "state": "PA", "country": "US", "coord": {"lon": -77.396927, "lat": 40.569801}}, {"id": 5201088, "name": "Mifflinville", "state": "PA", "country": "US", "coord": {"lon": -76.307991, "lat": 41.03231}}, {"id": 5201115, "name": "Milesburg", "state": "PA", "country": "US", "coord": {"lon": -77.785004, "lat": 40.94173}}, {"id": 5201117, "name": "Milford", "state": "PA", "country": "US", "coord": {"lon": -74.802391, "lat": 41.322319}}, {"id": 5201245, "name": "Mill Hall", "state": "PA", "country": "US", "coord": {"lon": -77.484428, "lat": 41.107288}}, {"id": 5201405, "name": "Millersburg", "state": "PA", "country": "US", "coord": {"lon": -76.960808, "lat": 40.539532}}, {"id": 5201452, "name": "Millvale", "state": "PA", "country": "US", "coord": {"lon": -79.978394, "lat": 40.480068}}, {"id": 5201468, "name": "Milroy", "state": "PA", "country": "US", "coord": {"lon": -77.590553, "lat": 40.713959}}, {"id": 5201470, "name": "Milton", "state": "PA", "country": "US", "coord": {"lon": -76.84774, "lat": 41.012032}}, {"id": 5201518, "name": "Minersville", "state": "PA", "country": "US", "coord": {"lon": -76.262169, "lat": 40.690651}}, {"id": 5201641, "name": "Mohnton", "state": "PA", "country": "US", "coord": {"lon": -75.984383, "lat": 40.285931}}, {"id": 5201658, "name": "Monaca", "state": "PA", "country": "US", "coord": {"lon": -80.271446, "lat": 40.68729}}, {"id": 5201665, "name": "Monessen", "state": "PA", "country": "US", "coord": {"lon": -79.887833, "lat": 40.148411}}, {"id": 5201688, "name": "Monongahela", "state": "PA", "country": "US", "coord": {"lon": -79.926163, "lat": 40.203129}}, {"id": 5201707, "name": "Monroe County", "state": "PA", "country": "US", "coord": {"lon": -75.14962, "lat": 41.25037}}, {"id": 5201733, "name": "Monroeton", "state": "PA", "country": "US", "coord": {"lon": -76.474663, "lat": 41.712582}}, {"id": 5201734, "name": "Monroeville", "state": "PA", "country": "US", "coord": {"lon": -79.788101, "lat": 40.421181}}, {"id": 5201752, "name": "Montgomery", "state": "PA", "country": "US", "coord": {"lon": -76.876907, "lat": 41.170361}}, {"id": 5201756, "name": "Montgomery County", "state": "PA", "country": "US", "coord": {"lon": -75.499901, "lat": 40.375381}}, {"id": 5201776, "name": "Montgomeryville", "state": "PA", "country": "US", "coord": {"lon": -75.24379, "lat": 40.24733}}, {"id": 5201801, "name": "Montoursville", "state": "PA", "country": "US", "coord": {"lon": -76.920517, "lat": 41.25425}}, {"id": 5201804, "name": "Montrose", "state": "PA", "country": "US", "coord": {"lon": -75.987709, "lat": 40.30648}}, {"id": 5201805, "name": "Montrose", "state": "PA", "country": "US", "coord": {"lon": -75.877136, "lat": 41.833969}}, {"id": 5201874, "name": "Moorheadville", "state": "PA", "country": "US", "coord": {"lon": -79.910049, "lat": 42.192001}}, {"id": 5201901, "name": "Moosic", "state": "PA", "country": "US", "coord": {"lon": -75.738251, "lat": 41.353409}}, {"id": 5201996, "name": "Morrisville", "state": "PA", "country": "US", "coord": {"lon": -74.787941, "lat": 40.211498}}, {"id": 5202009, "name": "Moscow", "state": "PA", "country": "US", "coord": {"lon": -75.518517, "lat": 41.33675}}, {"id": 5202090, "name": "Mount Alton", "state": "PA", "country": "US", "coord": {"lon": -78.6278, "lat": 41.794231}}, {"id": 5202114, "name": "Mount Carmel", "state": "PA", "country": "US", "coord": {"lon": -76.411903, "lat": 40.797031}}, {"id": 5202141, "name": "Mount Cobb", "state": "PA", "country": "US", "coord": {"lon": -75.49324, "lat": 41.413422}}, {"id": 5202164, "name": "Mount Holly Springs", "state": "PA", "country": "US", "coord": {"lon": -77.18998, "lat": 40.11842}}, {"id": 5202202, "name": "Mount Joy", "state": "PA", "country": "US", "coord": {"lon": -76.503304, "lat": 40.109821}}, {"id": 5202215, "name": "Mount Lebanon", "state": "PA", "country": "US", "coord": {"lon": -80.0495, "lat": 40.35535}}, {"id": 5202251, "name": "Mount Oliver", "state": "PA", "country": "US", "coord": {"lon": -79.987831, "lat": 40.414242}}, {"id": 5202264, "name": "Mount Penn", "state": "PA", "country": "US", "coord": {"lon": -75.890762, "lat": 40.328152}}, {"id": 5202286, "name": "Mount Pleasant", "state": "PA", "country": "US", "coord": {"lon": -79.541153, "lat": 40.14896}}, {"id": 5202340, "name": "Mount Pocono", "state": "PA", "country": "US", "coord": {"lon": -75.364632, "lat": 41.122028}}, {"id": 5202382, "name": "Mount Union", "state": "PA", "country": "US", "coord": {"lon": -77.882217, "lat": 40.384521}}, {"id": 5202421, "name": "Mount Wolf", "state": "PA", "country": "US", "coord": {"lon": -76.703857, "lat": 40.063148}}, {"id": 5202534, "name": "Mountain Top", "state": "PA", "country": "US", "coord": {"lon": -75.952721, "lat": 40.10677}}, {"id": 5202535, "name": "Mountain Top", "state": "PA", "country": "US", "coord": {"lon": -75.877419, "lat": 41.169529}}, {"id": 5202551, "name": "Mountainhome", "state": "PA", "country": "US", "coord": {"lon": -75.271019, "lat": 41.173698}}, {"id": 5202566, "name": "Mountville", "state": "PA", "country": "US", "coord": {"lon": -76.430801, "lat": 40.039261}}, {"id": 5202691, "name": "Muhlenberg Park", "state": "PA", "country": "US", "coord": {"lon": -75.941322, "lat": 40.384819}}, {"id": 5202715, "name": "Muncy", "state": "PA", "country": "US", "coord": {"lon": -76.785522, "lat": 41.205639}}, {"id": 5202734, "name": "Munhall", "state": "PA", "country": "US", "coord": {"lon": -79.900047, "lat": 40.392288}}, {"id": 5202740, "name": "Mundys Corner", "state": "PA", "country": "US", "coord": {"lon": -78.841133, "lat": 40.44479}}, {"id": 5202765, "name": "Murrysville", "state": "PA", "country": "US", "coord": {"lon": -79.69754, "lat": 40.428398}}, {"id": 5202776, "name": "Muse", "state": "PA", "country": "US", "coord": {"lon": -80.20034, "lat": 40.29285}}, {"id": 5202820, "name": "Myerstown", "state": "PA", "country": "US", "coord": {"lon": -76.302727, "lat": 40.374538}}, {"id": 5202855, "name": "Nanticoke", "state": "PA", "country": "US", "coord": {"lon": -76.004921, "lat": 41.20536}}, {"id": 5202860, "name": "Nanty Glo", "state": "PA", "country": "US", "coord": {"lon": -78.833359, "lat": 40.47229}}, {"id": 5202869, "name": "Narberth", "state": "PA", "country": "US", "coord": {"lon": -75.26046, "lat": 40.00845}}, {"id": 5202938, "name": "Nazareth", "state": "PA", "country": "US", "coord": {"lon": -75.309624, "lat": 40.740379}}, {"id": 5203030, "name": "Nescopeck", "state": "PA", "country": "US", "coord": {"lon": -76.220772, "lat": 41.052029}}, {"id": 5203071, "name": "Nesquehoning", "state": "PA", "country": "US", "coord": {"lon": -75.811028, "lat": 40.864529}}, {"id": 5203099, "name": "New Beaver", "state": "PA", "country": "US", "coord": {"lon": -80.370621, "lat": 40.87645}}, {"id": 5203105, "name": "New Berlinville", "state": "PA", "country": "US", "coord": {"lon": -75.632957, "lat": 40.345371}}, {"id": 5203112, "name": "New Bloomfield", "state": "PA", "country": "US", "coord": {"lon": -77.186371, "lat": 40.419811}}, {"id": 5203116, "name": "New Brighton", "state": "PA", "country": "US", "coord": {"lon": -80.310059, "lat": 40.730339}}, {"id": 5203118, "name": "New Britain", "state": "PA", "country": "US", "coord": {"lon": -75.181007, "lat": 40.299}}, {"id": 5203127, "name": "New Castle", "state": "PA", "country": "US", "coord": {"lon": -80.347008, "lat": 41.00367}}, {"id": 5203143, "name": "New Columbia", "state": "PA", "country": "US", "coord": {"lon": -76.866913, "lat": 41.04092}}, {"id": 5203155, "name": "New Eagle", "state": "PA", "country": "US", "coord": {"lon": -79.946991, "lat": 40.207851}}, {"id": 5203164, "name": "New Cumberland", "state": "PA", "country": "US", "coord": {"lon": -76.884697, "lat": 40.232311}}, {"id": 5203197, "name": "New Hope", "state": "PA", "country": "US", "coord": {"lon": -74.951279, "lat": 40.364269}}, {"id": 5203211, "name": "New Kensington", "state": "PA", "country": "US", "coord": {"lon": -79.764771, "lat": 40.56979}}, {"id": 5203221, "name": "New Holland", "state": "PA", "country": "US", "coord": {"lon": -76.085228, "lat": 40.101761}}, {"id": 5203231, "name": "New Market", "state": "PA", "country": "US", "coord": {"lon": -76.852188, "lat": 40.223148}}, {"id": 5203241, "name": "New Morgan", "state": "PA", "country": "US", "coord": {"lon": -75.890213, "lat": 40.180931}}, {"id": 5203246, "name": "New Philadelphia", "state": "PA", "country": "US", "coord": {"lon": -76.115768, "lat": 40.719528}}, {"id": 5203263, "name": "New Stanton", "state": "PA", "country": "US", "coord": {"lon": -79.609482, "lat": 40.219238}}, {"id": 5203277, "name": "New Wilmington", "state": "PA", "country": "US", "coord": {"lon": -80.33284, "lat": 41.12228}}, {"id": 5203307, "name": "Newkirk", "state": "PA", "country": "US", "coord": {"lon": -75.992981, "lat": 40.790642}}, {"id": 5203311, "name": "Newmanstown", "state": "PA", "country": "US", "coord": {"lon": -76.21328, "lat": 40.349541}}, {"id": 5203317, "name": "Newport", "state": "PA", "country": "US", "coord": {"lon": -77.130539, "lat": 40.477859}}, {"id": 5203354, "name": "Newtown", "state": "PA", "country": "US", "coord": {"lon": -74.936829, "lat": 40.229279}}, {"id": 5203369, "name": "Newtown Grant", "state": "PA", "country": "US", "coord": {"lon": -74.954887, "lat": 40.260109}}, {"id": 5203377, "name": "Newville", "state": "PA", "country": "US", "coord": {"lon": -77.398598, "lat": 40.173141}}, {"id": 5203468, "name": "Nixon", "state": "PA", "country": "US", "coord": {"lon": -79.929497, "lat": 40.783401}}, {"id": 5203506, "name": "Norristown", "state": "PA", "country": "US", "coord": {"lon": -75.339897, "lat": 40.121498}}, {"id": 5203519, "name": "North Apollo", "state": "PA", "country": "US", "coord": {"lon": -79.555603, "lat": 40.59618}}, {"id": 5203529, "name": "North Belle Vernon", "state": "PA", "country": "US", "coord": {"lon": -79.868103, "lat": 40.129238}}, {"id": 5203537, "name": "North Braddock", "state": "PA", "country": "US", "coord": {"lon": -79.840881, "lat": 40.39896}}, {"id": 5203609, "name": "North Charleroi", "state": "PA", "country": "US", "coord": {"lon": -79.907547, "lat": 40.15118}}, {"id": 5203618, "name": "North Catasauqua", "state": "PA", "country": "US", "coord": {"lon": -75.476852, "lat": 40.659821}}, {"id": 5203634, "name": "North East", "state": "PA", "country": "US", "coord": {"lon": -79.834221, "lat": 42.215611}}, {"id": 5203785, "name": "North Versailles", "state": "PA", "country": "US", "coord": {"lon": -79.809486, "lat": 40.379791}}, {"id": 5203788, "name": "North Wales", "state": "PA", "country": "US", "coord": {"lon": -75.278229, "lat": 40.210941}}, {"id": 5203791, "name": "North Warren", "state": "PA", "country": "US", "coord": {"lon": -79.152267, "lat": 41.874229}}, {"id": 5203804, "name": "Northampton", "state": "PA", "country": "US", "coord": {"lon": -75.496849, "lat": 40.686211}}, {"id": 5203809, "name": "Northampton County", "state": "PA", "country": "US", "coord": {"lon": -75.249901, "lat": 40.87537}}, {"id": 5203837, "name": "Northern Cambria", "state": "PA", "country": "US", "coord": {"lon": -78.781693, "lat": 40.659229}}, {"id": 5203859, "name": "Northumberland", "state": "PA", "country": "US", "coord": {"lon": -76.79747, "lat": 40.89175}}, {"id": 5204107, "name": "Oak Hills", "state": "PA", "country": "US", "coord": {"lon": -79.913109, "lat": 40.824791}}, {"id": 5204143, "name": "Oakdale", "state": "PA", "country": "US", "coord": {"lon": -80.185608, "lat": 40.398121}}, {"id": 5204144, "name": "Oakdale", "state": "PA", "country": "US", "coord": {"lon": -75.920197, "lat": 40.992031}}, {"id": 5204166, "name": "Oakland", "state": "PA", "country": "US", "coord": {"lon": -78.88752, "lat": 40.306461}}, {"id": 5204168, "name": "Oakland", "state": "PA", "country": "US", "coord": {"lon": -80.369507, "lat": 40.98978}}, {"id": 5204203, "name": "Oakmont", "state": "PA", "country": "US", "coord": {"lon": -79.84227, "lat": 40.521729}}, {"id": 5204220, "name": "Oakwood", "state": "PA", "country": "US", "coord": {"lon": -80.379509, "lat": 41.01062}}, {"id": 5204273, "name": "Ohioville", "state": "PA", "country": "US", "coord": {"lon": -80.494789, "lat": 40.67923}}, {"id": 5204278, "name": "Oil City", "state": "PA", "country": "US", "coord": {"lon": -79.706444, "lat": 41.433949}}, {"id": 5204331, "name": "Old Forge", "state": "PA", "country": "US", "coord": {"lon": -75.734909, "lat": 41.371189}}, {"id": 5204339, "name": "Old Furnace", "state": "PA", "country": "US", "coord": {"lon": -76.934967, "lat": 41.073971}}, {"id": 5204368, "name": "Old Orchard", "state": "PA", "country": "US", "coord": {"lon": -75.262123, "lat": 40.657879}}, {"id": 5204432, "name": "Oley", "state": "PA", "country": "US", "coord": {"lon": -75.789642, "lat": 40.387589}}, {"id": 5204476, "name": "Olyphant", "state": "PA", "country": "US", "coord": {"lon": -75.602966, "lat": 41.46841}}, {"id": 5204552, "name": "Orchard Hills", "state": "PA", "country": "US", "coord": {"lon": -79.531433, "lat": 40.586182}}, {"id": 5204575, "name": "Oreland", "state": "PA", "country": "US", "coord": {"lon": -75.177681, "lat": 40.118439}}, {"id": 5204608, "name": "Orwigsburg", "state": "PA", "country": "US", "coord": {"lon": -76.100769, "lat": 40.654812}}, {"id": 5204622, "name": "Osceola Mills", "state": "PA", "country": "US", "coord": {"lon": -78.270569, "lat": 40.85006}}, {"id": 5204895, "name": "Paint", "state": "PA", "country": "US", "coord": {"lon": -78.848907, "lat": 40.24369}}, {"id": 5204944, "name": "Palmdale", "state": "PA", "country": "US", "coord": {"lon": -76.618584, "lat": 40.297871}}, {"id": 5204947, "name": "Palmer Heights", "state": "PA", "country": "US", "coord": {"lon": -75.262398, "lat": 40.687321}}, {"id": 5204957, "name": "Palmerton", "state": "PA", "country": "US", "coord": {"lon": -75.610191, "lat": 40.801479}}, {"id": 5204964, "name": "Palmyra", "state": "PA", "country": "US", "coord": {"lon": -76.5933, "lat": 40.308979}}, {"id": 5204971, "name": "Palo Alto", "state": "PA", "country": "US", "coord": {"lon": -76.172157, "lat": 40.687309}}, {"id": 5205037, "name": "Paoli", "state": "PA", "country": "US", "coord": {"lon": -75.476311, "lat": 40.042049}}, {"id": 5205052, "name": "Paradise", "state": "PA", "country": "US", "coord": {"lon": -76.128571, "lat": 40.009819}}, {"id": 5205094, "name": "Park Forest Village", "state": "PA", "country": "US", "coord": {"lon": -77.916946, "lat": 40.806728}}, {"id": 5205105, "name": "Park Place", "state": "PA", "country": "US", "coord": {"lon": -76.097992, "lat": 40.838421}}, {"id": 5205152, "name": "Parkside", "state": "PA", "country": "US", "coord": {"lon": -75.250458, "lat": 41.1012}}, {"id": 5205215, "name": "Patton", "state": "PA", "country": "US", "coord": {"lon": -78.650299, "lat": 40.633961}}, {"id": 5205249, "name": "Paxtang", "state": "PA", "country": "US", "coord": {"lon": -76.831917, "lat": 40.25898}}, {"id": 5205267, "name": "Paxtonia", "state": "PA", "country": "US", "coord": {"lon": -76.794418, "lat": 40.31731}}, {"id": 5205310, "name": "Pecks Pond", "state": "PA", "country": "US", "coord": {"lon": -75.092117, "lat": 41.28315}}, {"id": 5205339, "name": "Pen Argyl", "state": "PA", "country": "US", "coord": {"lon": -75.254898, "lat": 40.86871}}, {"id": 5205343, "name": "Penbrook", "state": "PA", "country": "US", "coord": {"lon": -76.84803, "lat": 40.275372}}, {"id": 5205377, "name": "Penn Hills", "state": "PA", "country": "US", "coord": {"lon": -79.839218, "lat": 40.501179}}, {"id": 5205451, "name": "Penndel", "state": "PA", "country": "US", "coord": {"lon": -74.916557, "lat": 40.15205}}, {"id": 5205484, "name": "Pennsburg", "state": "PA", "country": "US", "coord": {"lon": -75.492119, "lat": 40.39093}}, {"id": 5205497, "name": "Pennside", "state": "PA", "country": "US", "coord": {"lon": -75.87854, "lat": 40.337318}}, {"id": 5205613, "name": "Penryn", "state": "PA", "country": "US", "coord": {"lon": -76.368294, "lat": 40.20509}}, {"id": 5205638, "name": "Perkasie", "state": "PA", "country": "US", "coord": {"lon": -75.292679, "lat": 40.372051}}, {"id": 5205669, "name": "Perry County", "state": "PA", "country": "US", "coord": {"lon": -77.249992, "lat": 40.500359}}, {"id": 5205704, "name": "Perryopolis", "state": "PA", "country": "US", "coord": {"lon": -79.750603, "lat": 40.087021}}, {"id": 5205788, "name": "Philadelphia County", "state": "PA", "country": "US", "coord": {"lon": -74.999893, "lat": 40.125389}}, {"id": 5205806, "name": "Philipsburg", "state": "PA", "country": "US", "coord": {"lon": -78.220573, "lat": 40.89645}}, {"id": 5205849, "name": "Phoenixville", "state": "PA", "country": "US", "coord": {"lon": -75.514908, "lat": 40.130379}}, {"id": 5205930, "name": "Pike County", "state": "PA", "country": "US", "coord": {"lon": -75.124893, "lat": 41.50037}}, {"id": 5206038, "name": "Pine Grove", "state": "PA", "country": "US", "coord": {"lon": -76.384682, "lat": 40.54842}}, {"id": 5206070, "name": "Pine Grove Mills", "state": "PA", "country": "US", "coord": {"lon": -77.885559, "lat": 40.733669}}, {"id": 5206361, "name": "Pitcairn", "state": "PA", "country": "US", "coord": {"lon": -79.778099, "lat": 40.403118}}, {"id": 5206379, "name": "Pittsburgh", "state": "PA", "country": "US", "coord": {"lon": -79.995888, "lat": 40.44062}}, {"id": 5206397, "name": "Pittston", "state": "PA", "country": "US", "coord": {"lon": -75.78936, "lat": 41.325909}}, {"id": 5206422, "name": "Plains", "state": "PA", "country": "US", "coord": {"lon": -75.850197, "lat": 41.27536}}, {"id": 5206463, "name": "Pleasant Gap", "state": "PA", "country": "US", "coord": {"lon": -77.746674, "lat": 40.868118}}, {"id": 5206487, "name": "Pleasant Hill", "state": "PA", "country": "US", "coord": {"lon": -76.441628, "lat": 40.336201}}, {"id": 5206510, "name": "Pleasant Hills", "state": "PA", "country": "US", "coord": {"lon": -79.960609, "lat": 40.335629}}, {"id": 5206511, "name": "Pleasant Hills", "state": "PA", "country": "US", "coord": {"lon": -76.918587, "lat": 40.5662}}, {"id": 5206606, "name": "Plum", "state": "PA", "country": "US", "coord": {"lon": -79.749489, "lat": 40.500351}}, {"id": 5206647, "name": "Plumsteadville", "state": "PA", "country": "US", "coord": {"lon": -75.146561, "lat": 40.387329}}, {"id": 5206659, "name": "Plymouth", "state": "PA", "country": "US", "coord": {"lon": -75.944641, "lat": 41.24036}}, {"id": 5206666, "name": "Plymouth Meeting", "state": "PA", "country": "US", "coord": {"lon": -75.274353, "lat": 40.102329}}, {"id": 5206718, "name": "Pocono Pines", "state": "PA", "country": "US", "coord": {"lon": -75.454353, "lat": 41.10675}}, {"id": 5206727, "name": "Pocono Summit Estates", "state": "PA", "country": "US", "coord": {"lon": -75.379913, "lat": 41.122311}}, {"id": 5206933, "name": "Port Carbon", "state": "PA", "country": "US", "coord": {"lon": -76.168831, "lat": 40.69648}}, {"id": 5206956, "name": "Port Allegany", "state": "PA", "country": "US", "coord": {"lon": -78.279739, "lat": 41.810902}}, {"id": 5206958, "name": "Port Vue", "state": "PA", "country": "US", "coord": {"lon": -79.869766, "lat": 40.335899}}, {"id": 5206961, "name": "Portage", "state": "PA", "country": "US", "coord": {"lon": -78.672241, "lat": 40.38868}}, {"id": 5207042, "name": "Potter County", "state": "PA", "country": "US", "coord": {"lon": -78.125008, "lat": 42.00034}}, {"id": 5207065, "name": "Pottsgrove", "state": "PA", "country": "US", "coord": {"lon": -75.611847, "lat": 40.26482}}, {"id": 5207069, "name": "Pottstown", "state": "PA", "country": "US", "coord": {"lon": -75.649628, "lat": 40.245369}}, {"id": 5207080, "name": "Pottsville", "state": "PA", "country": "US", "coord": {"lon": -76.195503, "lat": 40.68565}}, {"id": 5207214, "name": "Progress", "state": "PA", "country": "US", "coord": {"lon": -76.83136, "lat": 40.285091}}, {"id": 5207247, "name": "Prospect Park", "state": "PA", "country": "US", "coord": {"lon": -78.215561, "lat": 41.51701}}, {"id": 5207263, "name": "Prospect", "state": "PA", "country": "US", "coord": {"lon": -80.046448, "lat": 40.90451}}, {"id": 5207292, "name": "Pulaski", "state": "PA", "country": "US", "coord": {"lon": -80.432289, "lat": 41.113392}}, {"id": 5207307, "name": "Punxsutawney", "state": "PA", "country": "US", "coord": {"lon": -78.970871, "lat": 40.94368}}, {"id": 5207381, "name": "Quakertown", "state": "PA", "country": "US", "coord": {"lon": -75.341568, "lat": 40.441769}}, {"id": 5207490, "name": "Radnor", "state": "PA", "country": "US", "coord": {"lon": -75.359909, "lat": 40.046219}}, {"id": 5207563, "name": "Pocono Ranch Lands", "state": "PA", "country": "US", "coord": {"lon": -74.952118, "lat": 41.164539}}, {"id": 5207581, "name": "Rankin", "state": "PA", "country": "US", "coord": {"lon": -79.879219, "lat": 40.412571}}, {"id": 5207660, "name": "Raubsville", "state": "PA", "country": "US", "coord": {"lon": -75.192947, "lat": 40.635658}}, {"id": 5207728, "name": "Reading", "state": "PA", "country": "US", "coord": {"lon": -75.926872, "lat": 40.335651}}, {"id": 5207745, "name": "Reamstown", "state": "PA", "country": "US", "coord": {"lon": -76.123283, "lat": 40.211479}}, {"id": 5207780, "name": "Red Hill", "state": "PA", "country": "US", "coord": {"lon": -75.48101, "lat": 40.372879}}, {"id": 5207794, "name": "Red Lion", "state": "PA", "country": "US", "coord": {"lon": -75.61602, "lat": 40.480652}}, {"id": 5207976, "name": "Reiffton", "state": "PA", "country": "US", "coord": {"lon": -75.873543, "lat": 40.31982}}, {"id": 5207989, "name": "Reinholds", "state": "PA", "country": "US", "coord": {"lon": -76.115501, "lat": 40.266762}}, {"id": 5208015, "name": "Rennerdale", "state": "PA", "country": "US", "coord": {"lon": -80.141449, "lat": 40.398399}}, {"id": 5208028, "name": "Renovo", "state": "PA", "country": "US", "coord": {"lon": -77.750816, "lat": 41.326462}}, {"id": 5208100, "name": "Reynolds Heights", "state": "PA", "country": "US", "coord": {"lon": -80.394234, "lat": 41.345058}}, {"id": 5208111, "name": "Reynoldsville", "state": "PA", "country": "US", "coord": {"lon": -78.888641, "lat": 41.097012}}, {"id": 5208119, "name": "Rheems", "state": "PA", "country": "US", "coord": {"lon": -76.570518, "lat": 40.130089}}, {"id": 5208166, "name": "Richboro", "state": "PA", "country": "US", "coord": {"lon": -75.010719, "lat": 40.215111}}, {"id": 5208177, "name": "Richland", "state": "PA", "country": "US", "coord": {"lon": -76.258278, "lat": 40.359261}}, {"id": 5208198, "name": "Richlandtown", "state": "PA", "country": "US", "coord": {"lon": -75.320457, "lat": 40.4701}}, {"id": 5208292, "name": "Ridgway", "state": "PA", "country": "US", "coord": {"lon": -78.728638, "lat": 41.420341}}, {"id": 5208454, "name": "River View Park", "state": "PA", "country": "US", "coord": {"lon": -75.958817, "lat": 40.39259}}, {"id": 5208462, "name": "Riverside", "state": "PA", "country": "US", "coord": {"lon": -76.628853, "lat": 40.95536}}, {"id": 5208552, "name": "Roaring Spring", "state": "PA", "country": "US", "coord": {"lon": -78.390846, "lat": 40.335911}}, {"id": 5208600, "name": "Robesonia", "state": "PA", "country": "US", "coord": {"lon": -76.134392, "lat": 40.351761}}, {"id": 5208641, "name": "Rochester", "state": "PA", "country": "US", "coord": {"lon": -80.286453, "lat": 40.70229}}, {"id": 5208767, "name": "Rockledge", "state": "PA", "country": "US", "coord": {"lon": -75.089622, "lat": 40.081219}}, {"id": 5208851, "name": "Rocky Valley", "state": "PA", "country": "US", "coord": {"lon": -75.367119, "lat": 40.50177}}, {"id": 5209036, "name": "Roseto", "state": "PA", "country": "US", "coord": {"lon": -75.214622, "lat": 40.88065}}, {"id": 5209110, "name": "Rothsville", "state": "PA", "country": "US", "coord": {"lon": -76.251068, "lat": 40.151211}}, {"id": 5209240, "name": "Royersford", "state": "PA", "country": "US", "coord": {"lon": -75.537956, "lat": 40.184269}}, {"id": 5209332, "name": "Russell", "state": "PA", "country": "US", "coord": {"lon": -79.135048, "lat": 41.941448}}, {"id": 5209347, "name": "Russellton", "state": "PA", "country": "US", "coord": {"lon": -79.836998, "lat": 40.611462}}, {"id": 5209362, "name": "Rutherford", "state": "PA", "country": "US", "coord": {"lon": -76.768028, "lat": 40.268978}}, {"id": 5209621, "name": "Saint Clair", "state": "PA", "country": "US", "coord": {"lon": -76.191048, "lat": 40.72065}}, {"id": 5210029, "name": "Saint Lawrence", "state": "PA", "country": "US", "coord": {"lon": -75.871872, "lat": 40.327042}}, {"id": 5210117, "name": "Saint Marys", "state": "PA", "country": "US", "coord": {"lon": -78.56086, "lat": 41.427841}}, {"id": 5210699, "name": "Salix", "state": "PA", "country": "US", "coord": {"lon": -78.765297, "lat": 40.300079}}, {"id": 5210741, "name": "Salunga", "state": "PA", "country": "US", "coord": {"lon": -76.42469, "lat": 40.100929}}, {"id": 5210764, "name": "Sanatoga", "state": "PA", "country": "US", "coord": {"lon": -75.595177, "lat": 40.245098}}, {"id": 5210779, "name": "Sand Hill", "state": "PA", "country": "US", "coord": {"lon": -76.431633, "lat": 40.359539}}, {"id": 5210847, "name": "Sandy", "state": "PA", "country": "US", "coord": {"lon": -78.771141, "lat": 41.107841}}, {"id": 5210973, "name": "Saw Creek", "state": "PA", "country": "US", "coord": {"lon": -75.050728, "lat": 41.112591}}, {"id": 5211020, "name": "Saxonburg", "state": "PA", "country": "US", "coord": {"lon": -79.810051, "lat": 40.753948}}, {"id": 5211033, "name": "Saylorsburg", "state": "PA", "country": "US", "coord": {"lon": -75.323517, "lat": 40.895649}}, {"id": 5211037, "name": "Sayre", "state": "PA", "country": "US", "coord": {"lon": -76.515503, "lat": 41.978958}}, {"id": 5211113, "name": "Schlusser", "state": "PA", "country": "US", "coord": {"lon": -77.176933, "lat": 40.241749}}, {"id": 5211128, "name": "Schnecksville", "state": "PA", "country": "US", "coord": {"lon": -75.607132, "lat": 40.66787}}, {"id": 5211129, "name": "Schoeneck", "state": "PA", "country": "US", "coord": {"lon": -76.17411, "lat": 40.241482}}, {"id": 5211208, "name": "Schuylkill County", "state": "PA", "country": "US", "coord": {"lon": -76.249939, "lat": 40.875359}}, {"id": 5211212, "name": "Schuylkill Haven", "state": "PA", "country": "US", "coord": {"lon": -76.171051, "lat": 40.63065}}, {"id": 5211230, "name": "Schwenksville", "state": "PA", "country": "US", "coord": {"lon": -75.463791, "lat": 40.25621}}, {"id": 5211256, "name": "Scotrun", "state": "PA", "country": "US", "coord": {"lon": -75.319908, "lat": 41.065922}}, {"id": 5211279, "name": "Scottdale", "state": "PA", "country": "US", "coord": {"lon": -79.586983, "lat": 40.100349}}, {"id": 5211303, "name": "Scranton", "state": "PA", "country": "US", "coord": {"lon": -75.662407, "lat": 41.40897}}, {"id": 5211411, "name": "Selinsgrove", "state": "PA", "country": "US", "coord": {"lon": -76.86219, "lat": 40.798969}}, {"id": 5211420, "name": "Sellersville", "state": "PA", "country": "US", "coord": {"lon": -75.304901, "lat": 40.353989}}, {"id": 5211432, "name": "Seneca", "state": "PA", "country": "US", "coord": {"lon": -79.703941, "lat": 41.37867}}, {"id": 5211465, "name": "Seven Fields", "state": "PA", "country": "US", "coord": {"lon": -80.062561, "lat": 40.69173}}, {"id": 5211506, "name": "Sewickley", "state": "PA", "country": "US", "coord": {"lon": -80.184502, "lat": 40.536461}}, {"id": 5211518, "name": "Sewickley Hills", "state": "PA", "country": "US", "coord": {"lon": -80.136719, "lat": 40.58173}}, {"id": 5211622, "name": "Shamokin", "state": "PA", "country": "US", "coord": {"lon": -76.558853, "lat": 40.788971}}, {"id": 5211637, "name": "Shamokin Dam", "state": "PA", "country": "US", "coord": {"lon": -76.819687, "lat": 40.848701}}, {"id": 5211683, "name": "Sharon", "state": "PA", "country": "US", "coord": {"lon": -80.493401, "lat": 41.233109}}, {"id": 5211708, "name": "Sharpsburg", "state": "PA", "country": "US", "coord": {"lon": -79.926437, "lat": 40.494511}}, {"id": 5211712, "name": "Sharpsville", "state": "PA", "country": "US", "coord": {"lon": -80.472008, "lat": 41.25922}}, {"id": 5211730, "name": "Shavertown", "state": "PA", "country": "US", "coord": {"lon": -75.937981, "lat": 41.319801}}, {"id": 5211804, "name": "Sheffield", "state": "PA", "country": "US", "coord": {"lon": -79.035599, "lat": 41.703949}}, {"id": 5211846, "name": "Shenandoah", "state": "PA", "country": "US", "coord": {"lon": -76.200768, "lat": 40.82037}}, {"id": 5211850, "name": "Shenandoah Heights", "state": "PA", "country": "US", "coord": {"lon": -76.206879, "lat": 40.827591}}, {"id": 5211953, "name": "Shillington", "state": "PA", "country": "US", "coord": {"lon": -75.965492, "lat": 40.307869}}, {"id": 5211957, "name": "Shiloh", "state": "PA", "country": "US", "coord": {"lon": -78.291397, "lat": 41.041721}}, {"id": 5212002, "name": "Shinglehouse", "state": "PA", "country": "US", "coord": {"lon": -78.190842, "lat": 41.96368}}, {"id": 5212033, "name": "Shiremanstown", "state": "PA", "country": "US", "coord": {"lon": -76.95359, "lat": 40.223419}}, {"id": 5212038, "name": "Shippensburg", "state": "PA", "country": "US", "coord": {"lon": -77.520264, "lat": 40.050652}}, {"id": 5212072, "name": "Shoemakersville", "state": "PA", "country": "US", "coord": {"lon": -75.969933, "lat": 40.500931}}, {"id": 5212312, "name": "Simpson", "state": "PA", "country": "US", "coord": {"lon": -75.485184, "lat": 41.591751}}, {"id": 5212342, "name": "Sinking Spring", "state": "PA", "country": "US", "coord": {"lon": -76.011047, "lat": 40.327309}}, {"id": 5212412, "name": "Skippack", "state": "PA", "country": "US", "coord": {"lon": -75.398788, "lat": 40.222881}}, {"id": 5212430, "name": "Skyline View", "state": "PA", "country": "US", "coord": {"lon": -76.725517, "lat": 40.33926}}, {"id": 5212477, "name": "Slatington", "state": "PA", "country": "US", "coord": {"lon": -75.611847, "lat": 40.748428}}, {"id": 5212532, "name": "Slippery Rock", "state": "PA", "country": "US", "coord": {"lon": -80.05645, "lat": 41.06395}}, {"id": 5212582, "name": "Smethport", "state": "PA", "country": "US", "coord": {"lon": -78.44474, "lat": 41.811169}}, {"id": 5212772, "name": "Snyder County", "state": "PA", "country": "US", "coord": {"lon": -77.084427, "lat": 40.77092}}, {"id": 5212853, "name": "Somerset", "state": "PA", "country": "US", "coord": {"lon": -79.078079, "lat": 40.008411}}, {"id": 5212897, "name": "Souderton", "state": "PA", "country": "US", "coord": {"lon": -75.32518, "lat": 40.311771}}, {"id": 5213024, "name": "South Greensburg", "state": "PA", "country": "US", "coord": {"lon": -79.544762, "lat": 40.2784}}, {"id": 5213096, "name": "South Pottstown", "state": "PA", "country": "US", "coord": {"lon": -75.651016, "lat": 40.23954}}, {"id": 5213115, "name": "South Temple", "state": "PA", "country": "US", "coord": {"lon": -75.900002, "lat": 40.400002}}, {"id": 5213126, "name": "South Waverly", "state": "PA", "country": "US", "coord": {"lon": -76.53717, "lat": 41.99757}}, {"id": 5213130, "name": "South Williamsport", "state": "PA", "country": "US", "coord": {"lon": -76.99913, "lat": 41.232021}}, {"id": 5213155, "name": "Southmont", "state": "PA", "country": "US", "coord": {"lon": -78.938637, "lat": 40.310631}}, {"id": 5213167, "name": "Southwest Greensburg", "state": "PA", "country": "US", "coord": {"lon": -79.546982, "lat": 40.29118}}, {"id": 5213188, "name": "Spangler", "state": "PA", "country": "US", "coord": {"lon": -78.772797, "lat": 40.642849}}, {"id": 5213220, "name": "Speers", "state": "PA", "country": "US", "coord": {"lon": -79.879768, "lat": 40.124519}}, {"id": 5213251, "name": "Spilt Rock", "state": "PA", "country": "US", "coord": {"lon": -75.612694, "lat": 41.061749}}, {"id": 5213257, "name": "Spinnerstown", "state": "PA", "country": "US", "coord": {"lon": -75.437119, "lat": 40.438992}}, {"id": 5213317, "name": "Spring City", "state": "PA", "country": "US", "coord": {"lon": -75.547691, "lat": 40.176769}}, {"id": 5213370, "name": "Spring House", "state": "PA", "country": "US", "coord": {"lon": -75.227676, "lat": 40.18539}}, {"id": 5213393, "name": "Spring Mount", "state": "PA", "country": "US", "coord": {"lon": -75.456573, "lat": 40.275661}}, {"id": 5213397, "name": "Spring Ridge", "state": "PA", "country": "US", "coord": {"lon": -75.989937, "lat": 40.352871}}, {"id": 5213447, "name": "Springdale", "state": "PA", "country": "US", "coord": {"lon": -79.783943, "lat": 40.540901}}, {"id": 5213520, "name": "Sproul", "state": "PA", "country": "US", "coord": {"lon": -78.460571, "lat": 40.272579}}, {"id": 5213675, "name": "Star Junction", "state": "PA", "country": "US", "coord": {"lon": -79.763649, "lat": 40.062569}}, {"id": 5213681, "name": "State College", "state": "PA", "country": "US", "coord": {"lon": -77.860001, "lat": 40.7934}}, {"id": 5214040, "name": "Steelton", "state": "PA", "country": "US", "coord": {"lon": -76.841362, "lat": 40.235371}}, {"id": 5214175, "name": "Stiles", "state": "PA", "country": "US", "coord": {"lon": -75.50824, "lat": 40.665371}}, {"id": 5214311, "name": "Stoneboro", "state": "PA", "country": "US", "coord": {"lon": -80.105057, "lat": 41.339218}}, {"id": 5214346, "name": "Stony Creek Mills", "state": "PA", "country": "US", "coord": {"lon": -75.869926, "lat": 40.34565}}, {"id": 5214416, "name": "Stormstown", "state": "PA", "country": "US", "coord": {"lon": -78.01667, "lat": 40.793388}}, {"id": 5214449, "name": "Stowe", "state": "PA", "country": "US", "coord": {"lon": -75.677406, "lat": 40.252602}}, {"id": 5214543, "name": "Stroudsburg", "state": "PA", "country": "US", "coord": {"lon": -75.194618, "lat": 40.986759}}, {"id": 5214576, "name": "Sturgeon", "state": "PA", "country": "US", "coord": {"lon": -80.210892, "lat": 40.384789}}, {"id": 5214696, "name": "Sugarcreek", "state": "PA", "country": "US", "coord": {"lon": -79.881172, "lat": 41.421452}}, {"id": 5214775, "name": "Summit Hill", "state": "PA", "country": "US", "coord": {"lon": -75.871033, "lat": 40.82481}}, {"id": 5214809, "name": "Sun Valley", "state": "PA", "country": "US", "coord": {"lon": -75.466019, "lat": 40.982029}}, {"id": 5214810, "name": "Sun Valley", "state": "PA", "country": "US", "coord": {"lon": -75.469627, "lat": 41.0112}}, {"id": 5214814, "name": "Sunbury", "state": "PA", "country": "US", "coord": {"lon": -76.794411, "lat": 40.862591}}, {"id": 5214867, "name": "Sunrise Lake", "state": "PA", "country": "US", "coord": {"lon": -74.96656, "lat": 41.309811}}, {"id": 5214936, "name": "Susquehanna", "state": "PA", "country": "US", "coord": {"lon": -75.599632, "lat": 41.943409}}, {"id": 5214999, "name": "Swartzville", "state": "PA", "country": "US", "coord": {"lon": -76.078278, "lat": 40.23315}}, {"id": 5215064, "name": "Swissvale", "state": "PA", "country": "US", "coord": {"lon": -79.882828, "lat": 40.423679}}, {"id": 5215076, "name": "Swoyersville", "state": "PA", "country": "US", "coord": {"lon": -75.874641, "lat": 41.291752}}, {"id": 5215087, "name": "Sykesville", "state": "PA", "country": "US", "coord": {"lon": -78.82225, "lat": 41.050339}}, {"id": 5215142, "name": "Tamaqua", "state": "PA", "country": "US", "coord": {"lon": -75.969368, "lat": 40.79731}}, {"id": 5215178, "name": "Tanglewood", "state": "PA", "country": "US", "coord": {"lon": -75.170448, "lat": 41.415089}}, {"id": 5215193, "name": "Tannersville", "state": "PA", "country": "US", "coord": {"lon": -75.30574, "lat": 41.040089}}, {"id": 5215215, "name": "Tarentum", "state": "PA", "country": "US", "coord": {"lon": -79.759773, "lat": 40.60146}}, {"id": 5215235, "name": "Tatamy", "state": "PA", "country": "US", "coord": {"lon": -75.257118, "lat": 40.740929}}, {"id": 5215247, "name": "Taylor", "state": "PA", "country": "US", "coord": {"lon": -75.706581, "lat": 41.394798}}, {"id": 5215317, "name": "Telford", "state": "PA", "country": "US", "coord": {"lon": -75.32795, "lat": 40.322048}}, {"id": 5215325, "name": "Temple", "state": "PA", "country": "US", "coord": {"lon": -75.9216, "lat": 40.408699}}, {"id": 5215373, "name": "Terre Hill", "state": "PA", "country": "US", "coord": {"lon": -76.050499, "lat": 40.157318}}, {"id": 5215541, "name": "Thompsonville", "state": "PA", "country": "US", "coord": {"lon": -80.108109, "lat": 40.290901}}, {"id": 5215611, "name": "Throop", "state": "PA", "country": "US", "coord": {"lon": -75.611847, "lat": 41.451469}}, {"id": 5215664, "name": "Tinicum", "state": "PA", "country": "US", "coord": {"lon": -75.107674, "lat": 40.448441}}, {"id": 5215696, "name": "Tionesta", "state": "PA", "country": "US", "coord": {"lon": -79.455879, "lat": 41.495338}}, {"id": 5215715, "name": "Tipton", "state": "PA", "country": "US", "coord": {"lon": -78.295853, "lat": 40.635899}}, {"id": 5215726, "name": "Titusville", "state": "PA", "country": "US", "coord": {"lon": -79.67366, "lat": 41.626999}}, {"id": 5215826, "name": "Topton", "state": "PA", "country": "US", "coord": {"lon": -75.701302, "lat": 40.503429}}, {"id": 5215856, "name": "Towamensing Trails", "state": "PA", "country": "US", "coord": {"lon": -75.584633, "lat": 41.00787}}, {"id": 5215859, "name": "Towanda", "state": "PA", "country": "US", "coord": {"lon": -76.442719, "lat": 41.767578}}, {"id": 5215886, "name": "Tower City", "state": "PA", "country": "US", "coord": {"lon": -76.55246, "lat": 40.589249}}, {"id": 5215921, "name": "Trafford", "state": "PA", "country": "US", "coord": {"lon": -79.758926, "lat": 40.38562}}, {"id": 5215947, "name": "Trappe", "state": "PA", "country": "US", "coord": {"lon": -75.476288, "lat": 40.19899}}, {"id": 5215968, "name": "Treasure Lake", "state": "PA", "country": "US", "coord": {"lon": -78.715858, "lat": 41.173389}}, {"id": 5215983, "name": "Tremont", "state": "PA", "country": "US", "coord": {"lon": -76.387177, "lat": 40.628422}}, {"id": 5215995, "name": "Trevorton", "state": "PA", "country": "US", "coord": {"lon": -76.673019, "lat": 40.7812}}, {"id": 5216000, "name": "Trevose", "state": "PA", "country": "US", "coord": {"lon": -74.981003, "lat": 40.139278}}, {"id": 5216013, "name": "Trexlertown", "state": "PA", "country": "US", "coord": {"lon": -75.605743, "lat": 40.548149}}, {"id": 5216092, "name": "Trooper", "state": "PA", "country": "US", "coord": {"lon": -75.401848, "lat": 40.14983}}, {"id": 5216182, "name": "Troy", "state": "PA", "country": "US", "coord": {"lon": -76.78801, "lat": 41.785912}}, {"id": 5216183, "name": "Troy", "state": "PA", "country": "US", "coord": {"lon": -78.2164, "lat": 40.915058}}, {"id": 5216205, "name": "Trucksville", "state": "PA", "country": "US", "coord": {"lon": -75.932137, "lat": 41.30397}}, {"id": 5216241, "name": "Tullytown", "state": "PA", "country": "US", "coord": {"lon": -74.814613, "lat": 40.139278}}, {"id": 5216260, "name": "Tunkhannock", "state": "PA", "country": "US", "coord": {"lon": -75.946587, "lat": 41.538689}}, {"id": 5216343, "name": "Turtle Creek", "state": "PA", "country": "US", "coord": {"lon": -79.82505, "lat": 40.405899}}, {"id": 5216514, "name": "Tyrone", "state": "PA", "country": "US", "coord": {"lon": -78.238617, "lat": 40.67062}}, {"id": 5216639, "name": "Union City", "state": "PA", "country": "US", "coord": {"lon": -79.845329, "lat": 41.899502}}, {"id": 5216649, "name": "Union County", "state": "PA", "country": "US", "coord": {"lon": -76.916351, "lat": 41.125359}}, {"id": 5216895, "name": "Upper Saint Clair", "state": "PA", "country": "US", "coord": {"lon": -80.083389, "lat": 40.335899}}, {"id": 5217005, "name": "Valley Green", "state": "PA", "country": "US", "coord": {"lon": -76.792747, "lat": 40.15731}}, {"id": 5217039, "name": "Valley View", "state": "PA", "country": "US", "coord": {"lon": -76.539131, "lat": 40.64592}}, {"id": 5217103, "name": "Vandergrift", "state": "PA", "country": "US", "coord": {"lon": -79.564774, "lat": 40.60284}}, {"id": 5217179, "name": "Verona", "state": "PA", "country": "US", "coord": {"lon": -79.843102, "lat": 40.506458}}, {"id": 5217183, "name": "Versailles", "state": "PA", "country": "US", "coord": {"lon": -79.831161, "lat": 40.315632}}, {"id": 5217238, "name": "Village Shires", "state": "PA", "country": "US", "coord": {"lon": -74.970451, "lat": 40.203159}}, {"id": 5217260, "name": "Vinco", "state": "PA", "country": "US", "coord": {"lon": -78.855583, "lat": 40.405071}}, {"id": 5217887, "name": "Walnutport", "state": "PA", "country": "US", "coord": {"lon": -75.598801, "lat": 40.754261}}, {"id": 5217970, "name": "Warminster Heights", "state": "PA", "country": "US", "coord": {"lon": -75.081558, "lat": 40.18705}}, {"id": 5217991, "name": "Warren County", "state": "PA", "country": "US", "coord": {"lon": -79.500053, "lat": 41.87534}}, {"id": 5218023, "name": "Warren", "state": "PA", "country": "US", "coord": {"lon": -79.145042, "lat": 41.843948}}, {"id": 5218069, "name": "Washington", "state": "PA", "country": "US", "coord": {"lon": -80.24617, "lat": 40.173962}}, {"id": 5218198, "name": "Waterford", "state": "PA", "country": "US", "coord": {"lon": -79.984497, "lat": 41.942829}}, {"id": 5218199, "name": "Waterford", "state": "PA", "country": "US", "coord": {"lon": -79.167526, "lat": 40.25452}}, {"id": 5218246, "name": "Watsontown", "state": "PA", "country": "US", "coord": {"lon": -76.863853, "lat": 41.08453}}, {"id": 5218268, "name": "Waymart", "state": "PA", "country": "US", "coord": {"lon": -75.408241, "lat": 41.58036}}, {"id": 5218273, "name": "Wayne County", "state": "PA", "country": "US", "coord": {"lon": -75.374901, "lat": 41.875359}}, {"id": 5218305, "name": "Weatherly", "state": "PA", "country": "US", "coord": {"lon": -75.829643, "lat": 40.94175}}, {"id": 5218450, "name": "Wellsboro", "state": "PA", "country": "US", "coord": {"lon": -77.300529, "lat": 41.74868}}, {"id": 5218485, "name": "Wernersville", "state": "PA", "country": "US", "coord": {"lon": -76.080498, "lat": 40.33009}}, {"id": 5218505, "name": "Wescosville", "state": "PA", "country": "US", "coord": {"lon": -75.552963, "lat": 40.566761}}, {"id": 5218531, "name": "Wesleyville", "state": "PA", "country": "US", "coord": {"lon": -80.01506, "lat": 42.140331}}, {"id": 5218652, "name": "West Conshohocken", "state": "PA", "country": "US", "coord": {"lon": -75.316299, "lat": 40.069832}}, {"id": 5218678, "name": "West Easton", "state": "PA", "country": "US", "coord": {"lon": -75.236839, "lat": 40.678711}}, {"id": 5218702, "name": "West Fairview", "state": "PA", "country": "US", "coord": {"lon": -76.915527, "lat": 40.275089}}, {"id": 5218726, "name": "West Hamburg", "state": "PA", "country": "US", "coord": {"lon": -76.002159, "lat": 40.547588}}, {"id": 5218730, "name": "West Hazleton", "state": "PA", "country": "US", "coord": {"lon": -75.99604, "lat": 40.958698}}, {"id": 5218745, "name": "West Hills", "state": "PA", "country": "US", "coord": {"lon": -79.543098, "lat": 40.82423}}, {"id": 5218750, "name": "West Homestead", "state": "PA", "country": "US", "coord": {"lon": -79.911987, "lat": 40.393959}}, {"id": 5218758, "name": "West Kittanning", "state": "PA", "country": "US", "coord": {"lon": -79.529488, "lat": 40.810341}}, {"id": 5218765, "name": "West Lawn", "state": "PA", "country": "US", "coord": {"lon": -75.994377, "lat": 40.329811}}, {"id": 5218773, "name": "West Leechburg", "state": "PA", "country": "US", "coord": {"lon": -79.612823, "lat": 40.622292}}, {"id": 5218793, "name": "West Mayfield", "state": "PA", "country": "US", "coord": {"lon": -80.338402, "lat": 40.78006}}, {"id": 5218802, "name": "West Mifflin", "state": "PA", "country": "US", "coord": {"lon": -79.86644, "lat": 40.3634}}, {"id": 5218822, "name": "West Newton", "state": "PA", "country": "US", "coord": {"lon": -79.766991, "lat": 40.209789}}, {"id": 5218827, "name": "West Norriton", "state": "PA", "country": "US", "coord": {"lon": -75.378517, "lat": 40.129551}}, {"id": 5218853, "name": "West Pittston", "state": "PA", "country": "US", "coord": {"lon": -75.792969, "lat": 41.327579}}, {"id": 5218867, "name": "West Reading", "state": "PA", "country": "US", "coord": {"lon": -75.947433, "lat": 40.333698}}, {"id": 5218918, "name": "West View", "state": "PA", "country": "US", "coord": {"lon": -80.034218, "lat": 40.522289}}, {"id": 5218938, "name": "West Wyoming", "state": "PA", "country": "US", "coord": {"lon": -75.846031, "lat": 41.319801}}, {"id": 5218940, "name": "West Wyomissing", "state": "PA", "country": "US", "coord": {"lon": -75.990768, "lat": 40.324539}}, {"id": 5218969, "name": "Westfield", "state": "PA", "country": "US", "coord": {"lon": -77.538872, "lat": 41.919239}}, {"id": 5219003, "name": "Westmont", "state": "PA", "country": "US", "coord": {"lon": -78.951691, "lat": 40.315632}}, {"id": 5219013, "name": "Westmoreland County", "state": "PA", "country": "US", "coord": {"lon": -79.625053, "lat": 40.62534}}, {"id": 5219140, "name": "Whitaker", "state": "PA", "country": "US", "coord": {"lon": -79.889771, "lat": 40.398399}}, {"id": 5219189, "name": "White Haven", "state": "PA", "country": "US", "coord": {"lon": -75.774078, "lat": 41.060638}}, {"id": 5219216, "name": "White Oak", "state": "PA", "country": "US", "coord": {"lon": -79.809212, "lat": 40.33757}}, {"id": 5219271, "name": "Whitehall", "state": "PA", "country": "US", "coord": {"lon": -79.990891, "lat": 40.361179}}, {"id": 5219287, "name": "Whitehall Township", "state": "PA", "country": "US", "coord": {"lon": -75.499908, "lat": 40.666759}}, {"id": 5219331, "name": "Whitfield", "state": "PA", "country": "US", "coord": {"lon": -76.00605, "lat": 40.33593}}, {"id": 5219488, "name": "Wilkes-Barre", "state": "PA", "country": "US", "coord": {"lon": -75.88131, "lat": 41.245911}}, {"id": 5219501, "name": "Wilkinsburg", "state": "PA", "country": "US", "coord": {"lon": -79.881989, "lat": 40.441738}}, {"id": 5219574, "name": "Williamsburg", "state": "PA", "country": "US", "coord": {"lon": -78.19973, "lat": 40.462021}}, {"id": 5219585, "name": "Williamsport", "state": "PA", "country": "US", "coord": {"lon": -77.001083, "lat": 41.241192}}, {"id": 5219592, "name": "Williamstown", "state": "PA", "country": "US", "coord": {"lon": -76.617737, "lat": 40.58009}}, {"id": 5219619, "name": "Willow Grove", "state": "PA", "country": "US", "coord": {"lon": -75.11573, "lat": 40.144001}}, {"id": 5219653, "name": "Wilmerding", "state": "PA", "country": "US", "coord": {"lon": -79.810051, "lat": 40.3909}}, {"id": 5219667, "name": "Wilson", "state": "PA", "country": "US", "coord": {"lon": -79.891441, "lat": 40.31007}}, {"id": 5219668, "name": "Wilson", "state": "PA", "country": "US", "coord": {"lon": -75.241837, "lat": 40.68399}}, {"id": 5219720, "name": "Wind Gap", "state": "PA", "country": "US", "coord": {"lon": -75.291573, "lat": 40.848148}}, {"id": 5219722, "name": "Windber", "state": "PA", "country": "US", "coord": {"lon": -78.835022, "lat": 40.239799}}, {"id": 5219842, "name": "Wissingertown", "state": "PA", "country": "US", "coord": {"lon": -78.847519, "lat": 40.342018}}, {"id": 5219949, "name": "Wolfdale", "state": "PA", "country": "US", "coord": {"lon": -80.287842, "lat": 40.192848}}, {"id": 5219972, "name": "Womelsdorf", "state": "PA", "country": "US", "coord": {"lon": -76.184113, "lat": 40.361759}}, {"id": 5219994, "name": "Woodbourne", "state": "PA", "country": "US", "coord": {"lon": -74.888779, "lat": 40.192329}}, {"id": 5220040, "name": "Woodland Heights", "state": "PA", "country": "US", "coord": {"lon": -79.711723, "lat": 41.409779}}, {"id": 5220093, "name": "Woodside", "state": "PA", "country": "US", "coord": {"lon": -74.875443, "lat": 40.221779}}, {"id": 5220137, "name": "Wormleysburg", "state": "PA", "country": "US", "coord": {"lon": -76.913857, "lat": 40.262871}}, {"id": 5220150, "name": "Woxall", "state": "PA", "country": "US", "coord": {"lon": -75.448792, "lat": 40.310661}}, {"id": 5220180, "name": "Wrightsville", "state": "PA", "country": "US", "coord": {"lon": -76.529968, "lat": 40.02565}}, {"id": 5220217, "name": "Wyncote", "state": "PA", "country": "US", "coord": {"lon": -75.148788, "lat": 40.094551}}, {"id": 5220221, "name": "Wyndmoor", "state": "PA", "country": "US", "coord": {"lon": -75.189339, "lat": 40.081219}}, {"id": 5220236, "name": "Wyoming", "state": "PA", "country": "US", "coord": {"lon": -75.837418, "lat": 41.311749}}, {"id": 5220248, "name": "Wyomissing", "state": "PA", "country": "US", "coord": {"lon": -75.96521, "lat": 40.32954}}, {"id": 5220276, "name": "Wyomissing Hills", "state": "PA", "country": "US", "coord": {"lon": -75.97966, "lat": 40.337589}}, {"id": 5220281, "name": "Yardley", "state": "PA", "country": "US", "coord": {"lon": -74.846001, "lat": 40.245659}}, {"id": 5220310, "name": "Yeagertown", "state": "PA", "country": "US", "coord": {"lon": -77.580551, "lat": 40.643131}}, {"id": 5220355, "name": "York County", "state": "PA", "country": "US", "coord": {"lon": -76.999977, "lat": 40.12537}}, {"id": 5220400, "name": "Youngsville", "state": "PA", "country": "US", "coord": {"lon": -75.476852, "lat": 40.781212}}, {"id": 5220401, "name": "Youngsville", "state": "PA", "country": "US", "coord": {"lon": -79.318657, "lat": 41.85228}}, {"id": 5220405, "name": "Youngwood", "state": "PA", "country": "US", "coord": {"lon": -79.576714, "lat": 40.240349}}, {"id": 5220432, "name": "Zelienople", "state": "PA", "country": "US", "coord": {"lon": -80.136726, "lat": 40.79451}}, {"id": 5220463, "name": "Zion", "state": "PA", "country": "US", "coord": {"lon": -77.684723, "lat": 40.91423}}, {"id": 5220705, "name": "Ashaway", "state": "RI", "country": "US", "coord": {"lon": -71.785622, "lat": 41.423431}}, {"id": 5220798, "name": "Barrington", "state": "RI", "country": "US", "coord": {"lon": -71.308662, "lat": 41.740662}}, {"id": 5221030, "name": "Bradford", "state": "RI", "country": "US", "coord": {"lon": -71.737007, "lat": 41.398991}}, {"id": 5221077, "name": "Bristol", "state": "RI", "country": "US", "coord": {"lon": -71.266159, "lat": 41.677052}}, {"id": 5221078, "name": "Bristol County", "state": "RI", "country": "US", "coord": {"lon": -71.271721, "lat": 41.71677}}, {"id": 5221341, "name": "Central Falls", "state": "RI", "country": "US", "coord": {"lon": -71.392281, "lat": 41.890659}}, {"id": 5221384, "name": "Charlestown", "state": "RI", "country": "US", "coord": {"lon": -71.641731, "lat": 41.38316}}, {"id": 5221401, "name": "Chepachet", "state": "RI", "country": "US", "coord": {"lon": -71.671463, "lat": 41.9151}}, {"id": 5221637, "name": "Coventry", "state": "RI", "country": "US", "coord": {"lon": -71.682838, "lat": 41.7001}}, {"id": 5221659, "name": "Cranston", "state": "RI", "country": "US", "coord": {"lon": -71.437279, "lat": 41.779819}}, {"id": 5221703, "name": "Cumberland", "state": "RI", "country": "US", "coord": {"lon": -71.432838, "lat": 41.96677}}, {"id": 5221705, "name": "Cumberland Hill", "state": "RI", "country": "US", "coord": {"lon": -71.467003, "lat": 41.974541}}, {"id": 5221846, "name": "Dunn Corner", "state": "RI", "country": "US", "coord": {"lon": -71.768677, "lat": 41.35149}}, {"id": 5221875, "name": "East Greenwich", "state": "RI", "country": "US", "coord": {"lon": -71.455887, "lat": 41.660381}}, {"id": 5221931, "name": "East Providence", "state": "RI", "country": "US", "coord": {"lon": -71.370049, "lat": 41.813709}}, {"id": 5222019, "name": "Exeter", "state": "RI", "country": "US", "coord": {"lon": -71.53756, "lat": 41.577599}}, {"id": 5222169, "name": "Foster", "state": "RI", "country": "US", "coord": {"lon": -71.758118, "lat": 41.85371}}, {"id": 5222476, "name": "Greenville", "state": "RI", "country": "US", "coord": {"lon": -71.55201, "lat": 41.871208}}, {"id": 5222569, "name": "Harrisville", "state": "RI", "country": "US", "coord": {"lon": -71.674507, "lat": 41.965649}}, {"id": 5222627, "name": "Hillsgrove", "state": "RI", "country": "US", "coord": {"lon": -71.439217, "lat": 41.726212}}, {"id": 5222665, "name": "Hope Valley", "state": "RI", "country": "US", "coord": {"lon": -71.716179, "lat": 41.507599}}, {"id": 5222680, "name": "Hopkinton", "state": "RI", "country": "US", "coord": {"lon": -71.777573, "lat": 41.461208}}, {"id": 5222866, "name": "Jamestown", "state": "RI", "country": "US", "coord": {"lon": -71.367279, "lat": 41.497051}}, {"id": 5222961, "name": "Kent County", "state": "RI", "country": "US", "coord": {"lon": -71.59951, "lat": 41.666771}}, {"id": 5223006, "name": "Kingston", "state": "RI", "country": "US", "coord": {"lon": -71.52256, "lat": 41.480381}}, {"id": 5223136, "name": "Lippitt Estate", "state": "RI", "country": "US", "coord": {"lon": -71.420059, "lat": 41.956211}}, {"id": 5223324, "name": "Melville", "state": "RI", "country": "US", "coord": {"lon": -71.283379, "lat": 41.587051}}, {"id": 5223358, "name": "Middletown", "state": "RI", "country": "US", "coord": {"lon": -71.291443, "lat": 41.545658}}, {"id": 5223525, "name": "Narragansett Pier", "state": "RI", "country": "US", "coord": {"lon": -71.456444, "lat": 41.43232}}, {"id": 5223593, "name": "Newport", "state": "RI", "country": "US", "coord": {"lon": -71.312828, "lat": 41.490101}}, {"id": 5223601, "name": "Newport County", "state": "RI", "country": "US", "coord": {"lon": -71.249489, "lat": 41.583439}}, {"id": 5223672, "name": "North Kingstown", "state": "RI", "country": "US", "coord": {"lon": -71.466171, "lat": 41.550098}}, {"id": 5223681, "name": "North Providence", "state": "RI", "country": "US", "coord": {"lon": -71.466171, "lat": 41.850101}}, {"id": 5223685, "name": "North Scituate", "state": "RI", "country": "US", "coord": {"lon": -71.587288, "lat": 41.831772}}, {"id": 5223687, "name": "North Smithfield", "state": "RI", "country": "US", "coord": {"lon": -71.549507, "lat": 41.96677}}, {"id": 5223854, "name": "Pascoag", "state": "RI", "country": "US", "coord": {"lon": -71.702293, "lat": 41.95565}}, {"id": 5223869, "name": "Pawtucket", "state": "RI", "country": "US", "coord": {"lon": -71.382561, "lat": 41.878712}}, {"id": 5224082, "name": "Portsmouth", "state": "RI", "country": "US", "coord": {"lon": -71.250328, "lat": 41.602322}}, {"id": 5224151, "name": "Providence", "state": "RI", "country": "US", "coord": {"lon": -71.412827, "lat": 41.82399}}, {"id": 5224162, "name": "Providence County", "state": "RI", "country": "US", "coord": {"lon": -71.59951, "lat": 41.833431}}, {"id": 5224323, "name": "Rhode Island", "state": "RI", "country": "US", "coord": {"lon": -71.499779, "lat": 41.750381}}, {"id": 5224949, "name": "Smithfield", "state": "RI", "country": "US", "coord": {"lon": -71.549507, "lat": 41.922039}}, {"id": 5225245, "name": "Tiverton", "state": "RI", "country": "US", "coord": {"lon": -71.213379, "lat": 41.625938}}, {"id": 5225388, "name": "Valley Falls", "state": "RI", "country": "US", "coord": {"lon": -71.39061, "lat": 41.906769}}, {"id": 5225502, "name": "Warren", "state": "RI", "country": "US", "coord": {"lon": -71.282547, "lat": 41.730381}}, {"id": 5225507, "name": "Warwick", "state": "RI", "country": "US", "coord": {"lon": -71.416168, "lat": 41.7001}}, {"id": 5225535, "name": "Washington County", "state": "RI", "country": "US", "coord": {"lon": -71.616173, "lat": 41.50066}}, {"id": 5225627, "name": "West Warwick", "state": "RI", "country": "US", "coord": {"lon": -71.521942, "lat": 41.696892}}, {"id": 5225631, "name": "Westerly", "state": "RI", "country": "US", "coord": {"lon": -71.827293, "lat": 41.377602}}, {"id": 5225809, "name": "Woonsocket", "state": "RI", "country": "US", "coord": {"lon": -71.514778, "lat": 42.00288}}, {"id": 5225857, "name": "Aberdeen", "state": "SD", "country": "US", "coord": {"lon": -98.486481, "lat": 45.464699}}, {"id": 5225919, "name": "Alexandria", "state": "SD", "country": "US", "coord": {"lon": -97.782852, "lat": 43.653591}}, {"id": 5226045, "name": "Armour", "state": "SD", "country": "US", "coord": {"lon": -98.346748, "lat": 43.3186}}, {"id": 5226143, "name": "Baltic", "state": "SD", "country": "US", "coord": {"lon": -96.740334, "lat": 43.76136}}, {"id": 5226183, "name": "Beadle County", "state": "SD", "country": "US", "coord": {"lon": -98.280922, "lat": 44.386101}}, {"id": 5226250, "name": "Beresford", "state": "SD", "country": "US", "coord": {"lon": -96.773659, "lat": 43.08054}}, {"id": 5226489, "name": "Brandon", "state": "SD", "country": "US", "coord": {"lon": -96.571991, "lat": 43.5947}}, {"id": 5226523, "name": "Britton", "state": "SD", "country": "US", "coord": {"lon": -97.750938, "lat": 45.791618}}, {"id": 5226534, "name": "Brookings", "state": "SD", "country": "US", "coord": {"lon": -96.798393, "lat": 44.311359}}, {"id": 5226536, "name": "Brookings County", "state": "SD", "country": "US", "coord": {"lon": -96.817001, "lat": 44.3083}}, {"id": 5226553, "name": "Brown County", "state": "SD", "country": "US", "coord": {"lon": -98.308708, "lat": 45.55275}}, {"id": 5226625, "name": "Burke", "state": "SD", "country": "US", "coord": {"lon": -99.292053, "lat": 43.182499}}, {"id": 5226716, "name": "Canton", "state": "SD", "country": "US", "coord": {"lon": -96.592819, "lat": 43.300812}}, {"id": 5226824, "name": "Chamberlain", "state": "SD", "country": "US", "coord": {"lon": -99.330658, "lat": 43.810829}}, {"id": 5226849, "name": "Charles Mix County", "state": "SD", "country": "US", "coord": {"lon": -98.503143, "lat": 43.191662}}, {"id": 5226901, "name": "Clark", "state": "SD", "country": "US", "coord": {"lon": -97.733139, "lat": 44.877739}}, {"id": 5226932, "name": "Clear Lake", "state": "SD", "country": "US", "coord": {"lon": -96.682564, "lat": 44.7458}}, {"id": 5226970, "name": "Codington County", "state": "SD", "country": "US", "coord": {"lon": -97.186462, "lat": 44.958302}}, {"id": 5227129, "name": "Crooks", "state": "SD", "country": "US", "coord": {"lon": -96.81089, "lat": 43.6647}}, {"id": 5227180, "name": "Dakota Dunes", "state": "SD", "country": "US", "coord": {"lon": -96.48642, "lat": 42.487492}}, {"id": 5227222, "name": "Davison County", "state": "SD", "country": "US", "coord": {"lon": -98.175362, "lat": 43.666649}}, {"id": 5227237, "name": "De Smet", "state": "SD", "country": "US", "coord": {"lon": -97.550346, "lat": 44.38747}}, {"id": 5227240, "name": "Day County", "state": "SD", "country": "US", "coord": {"lon": -97.583702, "lat": 45.31662}}, {"id": 5227270, "name": "Dell Rapids", "state": "SD", "country": "US", "coord": {"lon": -96.706161, "lat": 43.82608}}, {"id": 5227567, "name": "Elk Point", "state": "SD", "country": "US", "coord": {"lon": -96.683647, "lat": 42.683331}}, {"id": 5227753, "name": "Faulkton", "state": "SD", "country": "US", "coord": {"lon": -99.124001, "lat": 45.034969}}, {"id": 5227802, "name": "Flandreau", "state": "SD", "country": "US", "coord": {"lon": -96.595322, "lat": 44.049419}}, {"id": 5227856, "name": "Fort Thompson", "state": "SD", "country": "US", "coord": {"lon": -99.437881, "lat": 44.0686}}, {"id": 5227913, "name": "Freeman", "state": "SD", "country": "US", "coord": {"lon": -97.437286, "lat": 43.352489}}, {"id": 5227996, "name": "Garretson", "state": "SD", "country": "US", "coord": {"lon": -96.502823, "lat": 43.717468}}, {"id": 5228053, "name": "Gettysburg", "state": "SD", "country": "US", "coord": {"lon": -99.955673, "lat": 45.01165}}, {"id": 5228222, "name": "Gregory", "state": "SD", "country": "US", "coord": {"lon": -99.430382, "lat": 43.23222}}, {"id": 5228242, "name": "Groton", "state": "SD", "country": "US", "coord": {"lon": -98.098709, "lat": 45.44746}}, {"id": 5228340, "name": "Harrisburg", "state": "SD", "country": "US", "coord": {"lon": -96.697273, "lat": 43.43137}}, {"id": 5228353, "name": "Hartford", "state": "SD", "country": "US", "coord": {"lon": -96.942558, "lat": 43.623032}}, {"id": 5228476, "name": "Highmore", "state": "SD", "country": "US", "coord": {"lon": -99.441498, "lat": 44.52137}}, {"id": 5228623, "name": "Howard", "state": "SD", "country": "US", "coord": {"lon": -97.526741, "lat": 44.010811}}, {"id": 5228654, "name": "Hughes County", "state": "SD", "country": "US", "coord": {"lon": -99.983727, "lat": 44.416649}}, {"id": 5228673, "name": "Huron", "state": "SD", "country": "US", "coord": {"lon": -98.214256, "lat": 44.363319}}, {"id": 5228693, "name": "Hyde County", "state": "SD", "country": "US", "coord": {"lon": -99.461502, "lat": 44.54998}}, {"id": 5228733, "name": "Iona", "state": "SD", "country": "US", "coord": {"lon": -99.42482, "lat": 43.54306}}, {"id": 5228742, "name": "Ipswich", "state": "SD", "country": "US", "coord": {"lon": -99.029282, "lat": 45.44442}}, {"id": 5228827, "name": "Jobee Acres", "state": "SD", "country": "US", "coord": {"lon": -98.394257, "lat": 45.446079}}, {"id": 5228958, "name": "Kennebec", "state": "SD", "country": "US", "coord": {"lon": -99.861778, "lat": 43.903599}}, {"id": 5229007, "name": "Klein Subdivision", "state": "SD", "country": "US", "coord": {"lon": -96.826721, "lat": 43.518311}}, {"id": 5229103, "name": "Lake Andes", "state": "SD", "country": "US", "coord": {"lon": -98.541473, "lat": 43.15638}}, {"id": 5229128, "name": "Lake County", "state": "SD", "country": "US", "coord": {"lon": -97.125343, "lat": 44.036079}}, {"id": 5229271, "name": "Lennox", "state": "SD", "country": "US", "coord": {"lon": -96.891998, "lat": 43.354149}}, {"id": 5229276, "name": "Leola", "state": "SD", "country": "US", "coord": {"lon": -98.940941, "lat": 45.722752}}, {"id": 5229494, "name": "Lyman County", "state": "SD", "country": "US", "coord": {"lon": -99.875389, "lat": 43.933319}}, {"id": 5229524, "name": "Macs Corner", "state": "SD", "country": "US", "coord": {"lon": -99.441498, "lat": 44.25193}}, {"id": 5229526, "name": "Madison", "state": "SD", "country": "US", "coord": {"lon": -97.113953, "lat": 44.006081}}, {"id": 5229584, "name": "Martindale Addition", "state": "SD", "country": "US", "coord": {"lon": -96.76561, "lat": 43.588589}}, {"id": 5229737, "name": "Milbank", "state": "SD", "country": "US", "coord": {"lon": -96.63562, "lat": 45.219131}}, {"id": 5229751, "name": "Miller", "state": "SD", "country": "US", "coord": {"lon": -98.988426, "lat": 44.518311}}, {"id": 5229782, "name": "Minnehaha County", "state": "SD", "country": "US", "coord": {"lon": -96.758659, "lat": 43.666641}}, {"id": 5229794, "name": "Mitchell", "state": "SD", "country": "US", "coord": {"lon": -98.0298, "lat": 43.709431}}, {"id": 5230076, "name": "North Sioux City", "state": "SD", "country": "US", "coord": {"lon": -96.483093, "lat": 42.527222}}, {"id": 5230092, "name": "Northville", "state": "SD", "country": "US", "coord": {"lon": -98.579262, "lat": 45.155529}}, {"id": 5230213, "name": "Olivet", "state": "SD", "country": "US", "coord": {"lon": -97.675339, "lat": 43.240822}}, {"id": 5230309, "name": "Parker", "state": "SD", "country": "US", "coord": {"lon": -97.136452, "lat": 43.39748}}, {"id": 5230313, "name": "Parkston", "state": "SD", "country": "US", "coord": {"lon": -97.983681, "lat": 43.39888}}, {"id": 5230463, "name": "Plankinton", "state": "SD", "country": "US", "coord": {"lon": -98.485092, "lat": 43.715549}}, {"id": 5230472, "name": "Platte", "state": "SD", "country": "US", "coord": {"lon": -98.844528, "lat": 43.38694}}]