[{"id": 3983058, "name": "Silao", "state": "", "country": "MX", "coord": {"lon": -101.433327, "lat": 20.933331}}, {"id": 3983135, "name": "Sentispac", "state": "", "country": "MX", "coord": {"lon": -105.349998, "lat": 21.816669}}, {"id": 3983139, "name": "Senec\u00fa", "state": "", "country": "MX", "coord": {"lon": -106.383331, "lat": 31.716669}}, {"id": 3983210, "name": "Sayulita", "state": "", "country": "MX", "coord": {"lon": -105.433327, "lat": 20.866671}}, {"id": 3983216, "name": "Sayula", "state": "", "country": "MX", "coord": {"lon": -103.616669, "lat": 19.866671}}, {"id": 3983312, "name": "Saucillo", "state": "", "country": "MX", "coord": {"lon": -105.283333, "lat": 28.01667}}, {"id": 3983481, "name": "San Vicente", "state": "", "country": "MX", "coord": {"lon": -105.300003, "lat": 21.950001}}, {"id": 3983524, "name": "Santo Tom\u00e1s", "state": "", "country": "MX", "coord": {"lon": -103.25, "lat": 25.533331}}, {"id": 3983630, "name": "Santiago Tangamandapio", "state": "", "country": "MX", "coord": {"lon": -102.433327, "lat": 19.950001}}, {"id": 3983635, "name": "Santiago Maravat\u00edo", "state": "", "country": "MX", "coord": {"lon": -101, "lat": 20.16667}}, {"id": 3983636, "name": "Santiago Ixcuintla", "state": "", "country": "MX", "coord": {"lon": -105.216667, "lat": 21.816669}}, {"id": 3983641, "name": "Santiago de Cuenda", "state": "", "country": "MX", "coord": {"lon": -100.98333, "lat": 20.6}}, {"id": 3983671, "name": "Santiago", "state": "", "country": "MX", "coord": {"lon": -100.150002, "lat": 25.41667}}, {"id": 3983689, "name": "Santiago", "state": "", "country": "MX", "coord": {"lon": -104.349998, "lat": 19.116671}}, {"id": 3983764, "name": "Santa Teresa", "state": "", "country": "MX", "coord": {"lon": -101.316673, "lat": 20.950001}}, {"id": 3983805, "name": "Santa Rosal\u00eda", "state": "", "country": "MX", "coord": {"lon": -112.283333, "lat": 27.316669}}, {"id": 3983820, "name": "Santa Rosa Jauregui", "state": "", "country": "MX", "coord": {"lon": -100.449997, "lat": 20.73333}}, {"id": 3984027, "name": "Santa Rita", "state": "", "country": "MX", "coord": {"lon": -102.383331, "lat": 20.450001}}, {"id": 3984074, "name": "Santa Mar\u00eda del R\u00edo", "state": "", "country": "MX", "coord": {"lon": -100.75, "lat": 21.799999}}, {"id": 3984077, "name": "Santa Mar\u00eda de los \u00c1ngeles", "state": "", "country": "MX", "coord": {"lon": -103.23333, "lat": 22.183331}}, {"id": 3984078, "name": "Santa Mar\u00eda del Oro", "state": "", "country": "MX", "coord": {"lon": -105.366669, "lat": 25.933331}}, {"id": 3984079, "name": "Santa Mar\u00eda del Oro", "state": "", "country": "MX", "coord": {"lon": -104.583328, "lat": 21.33333}}, {"id": 3984237, "name": "Santa Isabel", "state": "", "country": "MX", "coord": {"lon": -113.349998, "lat": 28.383329}}, {"id": 3984340, "name": "Santa F\u00e9 de la Laguna", "state": "", "country": "MX", "coord": {"lon": -101.550003, "lat": 19.66667}}, {"id": 3984437, "name": "Santa Cruz del Valle", "state": "", "country": "MX", "coord": {"lon": -103.433327, "lat": 20.533331}}, {"id": 3984444, "name": "Santa Cruz de las Flores", "state": "", "country": "MX", "coord": {"lon": -103.5, "lat": 20.48333}}, {"id": 3984558, "name": "Santa Clara", "state": "", "country": "MX", "coord": {"lon": -103.356941, "lat": 24.475}}, {"id": 3984571, "name": "Santa Catarina de Tepehuanes", "state": "", "country": "MX", "coord": {"lon": -105.73333, "lat": 25.35}}, {"id": 3984583, "name": "Santa Catarina", "state": "", "country": "MX", "coord": {"lon": -100.45813, "lat": 25.67325}}, {"id": 3984629, "name": "Santa B\u00e1rbara", "state": "", "country": "MX", "coord": {"lon": -105.816673, "lat": 26.799999}}, {"id": 3984677, "name": "Santa Anita", "state": "", "country": "MX", "coord": {"lon": -109.716667, "lat": 23.15}}, {"id": 3984679, "name": "Santa Anita", "state": "", "country": "MX", "coord": {"lon": -103.466667, "lat": 20.549999}}, {"id": 3984680, "name": "Santa Anita", "state": "", "country": "MX", "coord": {"lon": -103.449997, "lat": 20.549999}}, {"id": 3984690, "name": "Santa Ana Pacueco", "state": "", "country": "MX", "coord": {"lon": -102, "lat": 20.366671}}, {"id": 3984691, "name": "Santa Ana Maya", "state": "", "country": "MX", "coord": {"lon": -101.01667, "lat": 20}}, {"id": 3984717, "name": "Santa Ana", "state": "", "country": "MX", "coord": {"lon": -111.116669, "lat": 30.549999}}, {"id": 3984771, "name": "San Sim\u00f3n de la Laguna", "state": "", "country": "MX", "coord": {"lon": -100.083328, "lat": 19.299999}}, {"id": 3984772, "name": "San Sim\u00f3n de Guerrero", "state": "", "country": "MX", "coord": {"lon": -100.01667, "lat": 18.966669}}, {"id": 3984791, "name": "San Sebastian el Grande", "state": "", "country": "MX", "coord": {"lon": -103.416672, "lat": 20.51667}}, {"id": 3984832, "name": "San Roque de Torres", "state": "", "country": "MX", "coord": {"lon": -101.849998, "lat": 20.966669}}, {"id": 3984997, "name": "San Quint\u00edn", "state": "", "country": "MX", "coord": {"lon": -115.949997, "lat": 30.48333}}, {"id": 3985008, "name": "San Pedro Piedra Gorda", "state": "", "country": "MX", "coord": {"lon": -102.349998, "lat": 22.450001}}, {"id": 3985019, "name": "San Pedro Lagunillas", "state": "", "country": "MX", "coord": {"lon": -104.76667, "lat": 21.216669}}, {"id": 3985024, "name": "San Pedro Itzic\u00e1n", "state": "", "country": "MX", "coord": {"lon": -102.949997, "lat": 20.33333}}, {"id": 3985031, "name": "San Pedro de los Naranjos", "state": "", "country": "MX", "coord": {"lon": -100.98333, "lat": 20.25}}, {"id": 3985129, "name": "San Pedro", "state": "", "country": "MX", "coord": {"lon": -103.216667, "lat": 25.433331}}, {"id": 3985168, "name": "San Patricio", "state": "", "country": "MX", "coord": {"lon": -104.699997, "lat": 19.216669}}, {"id": 3985241, "name": "San Nicol\u00e1s de los Garza", "state": "", "country": "MX", "coord": {"lon": -100.300003, "lat": 25.75}}, {"id": 3985301, "name": "San Miguel Zapotitlan", "state": "", "country": "MX", "coord": {"lon": -109.050003, "lat": 25.933331}}, {"id": 3985307, "name": "San Miguel Octopan", "state": "", "country": "MX", "coord": {"lon": -100.73333, "lat": 20.566669}}, {"id": 3985323, "name": "San Miguel el Alto", "state": "", "country": "MX", "coord": {"lon": -102.349998, "lat": 21.01667}}, {"id": 3985327, "name": "San Miguel de Papasquiaro", "state": "", "country": "MX", "coord": {"lon": -105.336388, "lat": 24.8325}}, {"id": 3985344, "name": "San Miguel de Allende", "state": "", "country": "MX", "coord": {"lon": -100.75, "lat": 20.91667}}, {"id": 3985504, "name": "San Mart\u00edn Hidalgo", "state": "", "country": "MX", "coord": {"lon": -103.92878, "lat": 20.435381}}, {"id": 3985573, "name": "San Marcos", "state": "", "country": "MX", "coord": {"lon": -104.183327, "lat": 20.783331}}, {"id": 3985603, "name": "San Luis Soyatl\u00e1n", "state": "", "country": "MX", "coord": {"lon": -103.300003, "lat": 20.200001}}, {"id": 3985604, "name": "San Luis R\u00edo Colorado", "state": "", "country": "MX", "coord": {"lon": -114.776672, "lat": 32.463058}}, {"id": 3985605, "name": "Estado de San Luis Potos\u00ed", "state": "", "country": "MX", "coord": {"lon": -100.5, "lat": 22.5}}, {"id": 3985606, "name": "San Luis Potos\u00ed", "state": "", "country": "MX", "coord": {"lon": -100.98333, "lat": 22.15}}, {"id": 3985620, "name": "San Luis de la Paz", "state": "", "country": "MX", "coord": {"lon": -100.51667, "lat": 21.299999}}, {"id": 3985621, "name": "San Luis de la Paz", "state": "", "country": "MX", "coord": {"lon": -100.51667, "lat": 21.299999}}, {"id": 3985665, "name": "San Luis", "state": "", "country": "MX", "coord": {"lon": -113.75, "lat": 28.433331}}, {"id": 3985710, "name": "Cabo San Lucas", "state": "", "country": "MX", "coord": {"lon": -109.912376, "lat": 22.890881}}, {"id": 3985716, "name": "San Lucas", "state": "", "country": "MX", "coord": {"lon": -100.783333, "lat": 18.566669}}, {"id": 3985797, "name": "San Juli\u00e1n", "state": "", "country": "MX", "coord": {"lon": -102.166672, "lat": 21.01667}}, {"id": 3985806, "name": "San Juan de Ocot\u00e1n", "state": "", "country": "MX", "coord": {"lon": -103.449997, "lat": 20.716669}}, {"id": 3985819, "name": "San Juanito", "state": "", "country": "MX", "coord": {"lon": -107.583328, "lat": 28}}, {"id": 3985846, "name": "San Juan de Sabinas", "state": "", "country": "MX", "coord": {"lon": -101.300003, "lat": 27.91667}}, {"id": 3985865, "name": "San Juan de los Lagos", "state": "", "country": "MX", "coord": {"lon": -102.300003, "lat": 21.25}}, {"id": 3985878, "name": "San Juan de la Vega", "state": "", "country": "MX", "coord": {"lon": -100.76667, "lat": 20.633329}}, {"id": 3985912, "name": "San Juan de Abajo", "state": "", "country": "MX", "coord": {"lon": -105.183327, "lat": 20.816669}}, {"id": 3985913, "name": "San Juan Cosal\u00e1", "state": "", "country": "MX", "coord": {"lon": -103.366669, "lat": 20.299999}}, {"id": 3986082, "name": "San Jos\u00e9 Temascat\u00edo", "state": "", "country": "MX", "coord": {"lon": -101.26667, "lat": 20.683331}}, {"id": 3986088, "name": "San Jos\u00e9 Iturbide", "state": "", "country": "MX", "coord": {"lon": -100.383331, "lat": 21}}, {"id": 3986090, "name": "San Jos\u00e9 el Alto", "state": "", "country": "MX", "coord": {"lon": -100.366669, "lat": 20.65}}, {"id": 3986139, "name": "San Jos\u00e9 de los Nuncios", "state": "", "country": "MX", "coord": {"lon": -100.833328, "lat": 25.549999}}, {"id": 3986148, "name": "San Jos\u00e9 de los Arce", "state": "", "country": "MX", "coord": {"lon": -112.150002, "lat": 26.383329}}, {"id": 3986165, "name": "San Jos\u00e9 del Castillo", "state": "", "country": "MX", "coord": {"lon": -103.23333, "lat": 20.533331}}, {"id": 3986172, "name": "San Jos\u00e9 del Cabo", "state": "", "country": "MX", "coord": {"lon": -109.697708, "lat": 23.05888}}, {"id": 3986228, "name": "San Jos\u00e9 de Gracia", "state": "", "country": "MX", "coord": {"lon": -102.583328, "lat": 20.66667}}, {"id": 3986553, "name": "San Jer\u00f3nimo de Ju\u00e1rez", "state": "", "country": "MX", "coord": {"lon": -100.466667, "lat": 17.133329}}, {"id": 3986600, "name": "San Jeronimito", "state": "", "country": "MX", "coord": {"lon": -101.333328, "lat": 17.549999}}, {"id": 3986643, "name": "San Isidro Mazatepec", "state": "", "country": "MX", "coord": {"lon": -103.616669, "lat": 20.51667}}, {"id": 3986862, "name": "San Ignacio", "state": "", "country": "MX", "coord": {"lon": -106.416672, "lat": 23.91667}}, {"id": 3986870, "name": "San Ignacio Cerro Gordo", "state": "", "country": "MX", "coord": {"lon": -102.533333, "lat": 20.75}}, {"id": 3986931, "name": "San Germ\u00e1n", "state": "", "country": "MX", "coord": {"lon": -110.933327, "lat": 27.98333}}, {"id": 3986954, "name": "San Gabriel", "state": "", "country": "MX", "coord": {"lon": -103.033333, "lat": 21.01667}}, {"id": 3986970, "name": "Pich\u00e1taro", "state": "", "country": "MX", "coord": {"lon": -101.800003, "lat": 19.566669}}, {"id": 3986984, "name": "San Francisco del Rinc\u00f3n", "state": "", "country": "MX", "coord": {"lon": -101.849998, "lat": 21.01667}}, {"id": 3986985, "name": "San Francisco de los Romo", "state": "", "country": "MX", "coord": {"lon": -102.26667, "lat": 22.08333}}, {"id": 3986990, "name": "El Oro", "state": "", "country": "MX", "coord": {"lon": -105.849998, "lat": 26.866671}}, {"id": 3987224, "name": "San Felipe", "state": "", "country": "MX", "coord": {"lon": -114.866669, "lat": 31}}, {"id": 3987245, "name": "San Felipe Aztat\u00e1n", "state": "", "country": "MX", "coord": {"lon": -105.415833, "lat": 22.382219}}, {"id": 3987246, "name": "San Felipe", "state": "", "country": "MX", "coord": {"lon": -101.216667, "lat": 21.48333}}, {"id": 3987309, "name": "San Diego de la Uni\u00f3n", "state": "", "country": "MX", "coord": {"lon": -100.866669, "lat": 21.466669}}, {"id": 3987310, "name": "San Diego de Alejandr\u00eda", "state": "", "country": "MX", "coord": {"lon": -101.98333, "lat": 20.98333}}, {"id": 3987342, "name": "San Diego", "state": "", "country": "MX", "coord": {"lon": -102.316673, "lat": 22.466669}}, {"id": 3987383, "name": "San Crist\u00f3bal", "state": "", "country": "MX", "coord": {"lon": -101.466667, "lat": 20.65}}, {"id": 3987402, "name": "Tlaltenango de S\u00e1nchez Rom\u00e1n", "state": "", "country": "MX", "coord": {"lon": -103.316673, "lat": 21.783331}}, {"id": 3987500, "name": "San Buenaventura", "state": "", "country": "MX", "coord": {"lon": -101.533333, "lat": 27.08333}}, {"id": 3987538, "name": "San Blas", "state": "", "country": "MX", "coord": {"lon": -108.76667, "lat": 26.08333}}, {"id": 3987544, "name": "San Blas", "state": "", "country": "MX", "coord": {"lon": -105.26667, "lat": 21.51667}}, {"id": 3987619, "name": "San Bartolo", "state": "", "country": "MX", "coord": {"lon": -100.050003, "lat": 19.183331}}, {"id": 3987870, "name": "San Antonio", "state": "", "country": "MX", "coord": {"lon": -102.699997, "lat": 22.866671}}, {"id": 3987897, "name": "San Antonio Tlayacapan", "state": "", "country": "MX", "coord": {"lon": -103.25, "lat": 20.299999}}, {"id": 3987923, "name": "San Andr\u00e9s Ixtl\u00e1n", "state": "", "country": "MX", "coord": {"lon": -103.466667, "lat": 19.816669}}, {"id": 3988025, "name": "Nicol\u00e1s R Casillas", "state": "", "country": "MX", "coord": {"lon": -103.466667, "lat": 20.533331}}, {"id": 3988050, "name": "Salvatierra", "state": "", "country": "MX", "coord": {"lon": -100.883331, "lat": 20.216669}}, {"id": 3988086, "name": "Saltillo", "state": "", "country": "MX", "coord": {"lon": -101, "lat": 25.41667}}, {"id": 3988153, "name": "Salitral de Carrera", "state": "", "country": "MX", "coord": {"lon": -102.083328, "lat": 22.85}}, {"id": 3988163, "name": "Salinas Victoria", "state": "", "country": "MX", "coord": {"lon": -100.283333, "lat": 25.950001}}, {"id": 3988169, "name": "Salinas de Hidalgo", "state": "", "country": "MX", "coord": {"lon": -101.716667, "lat": 22.633329}}, {"id": 3988214, "name": "Salamanca", "state": "", "country": "MX", "coord": {"lon": -101.199997, "lat": 20.566669}}, {"id": 3988219, "name": "Salagua", "state": "", "country": "MX", "coord": {"lon": -104.333328, "lat": 19.1}}, {"id": 3988251, "name": "Sain Alto", "state": "", "country": "MX", "coord": {"lon": -103.25, "lat": 23.58333}}, {"id": 3988258, "name": "Sahuayo de Morelos", "state": "", "country": "MX", "coord": {"lon": -102.716667, "lat": 20.066669}}, {"id": 3988265, "name": "Sahuaripa", "state": "", "country": "MX", "coord": {"lon": -109.23333, "lat": 29.049999}}, {"id": 3988327, "name": "Ciudad Sabinas Hidalgo", "state": "", "country": "MX", "coord": {"lon": -100.166672, "lat": 26.5}}, {"id": 3988333, "name": "Sabinas", "state": "", "country": "MX", "coord": {"lon": -101.116669, "lat": 27.85}}, {"id": 3988361, "name": "Ru\u00edz", "state": "", "country": "MX", "coord": {"lon": -105.150002, "lat": 21.950001}}, {"id": 3988392, "name": "Rosarito", "state": "", "country": "MX", "coord": {"lon": -117.033333, "lat": 32.333328}}, {"id": 3988416, "name": "El Rosario", "state": "", "country": "MX", "coord": {"lon": -105.866669, "lat": 23}}, {"id": 3988421, "name": "Rosamorada", "state": "", "country": "MX", "coord": {"lon": -105.205833, "lat": 22.122219}}, {"id": 3988430, "name": "Rosales", "state": "", "country": "MX", "coord": {"lon": -105.550003, "lat": 28.200001}}, {"id": 3988462, "name": "Romita", "state": "", "country": "MX", "coord": {"lon": -101.51667, "lat": 20.866671}}, {"id": 3988515, "name": "Rodeo", "state": "", "country": "MX", "coord": {"lon": -104.550003, "lat": 25.183331}}, {"id": 3988594, "name": "R\u00edo Grande", "state": "", "country": "MX", "coord": {"lon": -103.033333, "lat": 23.83333}}, {"id": 3988648, "name": "Rinc\u00f3n de Tamayo", "state": "", "country": "MX", "coord": {"lon": -100.75, "lat": 20.41667}}, {"id": 3988651, "name": "Rinc\u00f3n de Romos", "state": "", "country": "MX", "coord": {"lon": -102.300003, "lat": 22.23333}}, {"id": 3989590, "name": "Montecarlo", "state": "", "country": "MX", "coord": {"lon": -111.316673, "lat": 28.98333}}, {"id": 3989695, "name": "Rancho Los Encinitos", "state": "", "country": "MX", "coord": {"lon": -100.199997, "lat": 25.883329}}, {"id": 3989898, "name": "Rancho la Noria", "state": "", "country": "MX", "coord": {"lon": -104.51667, "lat": 24.116671}}, {"id": 3989950, "name": "La Pachona", "state": "", "country": "MX", "coord": {"lon": -100.400002, "lat": 25.73333}}, {"id": 3990190, "name": "Guadalupe", "state": "", "country": "MX", "coord": {"lon": -110.966667, "lat": 31.200001}}, {"id": 3990419, "name": "El Papalote", "state": "", "country": "MX", "coord": {"lon": -101.5, "lat": 26.950001}}, {"id": 3990668, "name": "El Aguajito", "state": "", "country": "MX", "coord": {"lon": -116.966667, "lat": 32.416672}}, {"id": 3991043, "name": "Ramos Arizpe", "state": "", "country": "MX", "coord": {"lon": -100.966667, "lat": 25.549999}}, {"id": 3991110, "name": "Quiroga", "state": "", "country": "MX", "coord": {"lon": -101.533333, "lat": 19.66667}}, {"id": 3991116, "name": "Quiringu\u00edcharo", "state": "", "country": "MX", "coord": {"lon": -102.166672, "lat": 20.200001}}, {"id": 3991148, "name": "Quila", "state": "", "country": "MX", "coord": {"lon": -107.220001, "lat": 24.422779}}, {"id": 3991164, "name": "Santiago de Quer\u00e9taro", "state": "", "country": "MX", "coord": {"lon": -100.383331, "lat": 20.6}}, {"id": 3991169, "name": "Estaci\u00f3n Quer\u00e9ndaro", "state": "", "country": "MX", "coord": {"lon": -100.916672, "lat": 19.866671}}, {"id": 3991170, "name": "Quer\u00e9ndaro", "state": "", "country": "MX", "coord": {"lon": -100.883331, "lat": 19.799999}}, {"id": 3991218, "name": "Puruar\u00e1n", "state": "", "country": "MX", "coord": {"lon": -101.533333, "lat": 19.1}}, {"id": 3991219, "name": "Puru\u00e1ndiro", "state": "", "country": "MX", "coord": {"lon": -101.5, "lat": 20.08333}}, {"id": 3991246, "name": "Purificaci\u00f3n", "state": "", "country": "MX", "coord": {"lon": -104.605339, "lat": 19.717381}}, {"id": 3991253, "name": "Pur\u00e9pero de Ech\u00e1iz", "state": "", "country": "MX", "coord": {"lon": -102.01667, "lat": 19.91667}}, {"id": 3991323, "name": "Puga", "state": "", "country": "MX", "coord": {"lon": -104.816673, "lat": 21.58333}}, {"id": 3991328, "name": "Puerto Vallarta", "state": "", "country": "MX", "coord": {"lon": -105.230659, "lat": 20.620411}}, {"id": 3991347, "name": "Puerto Pe\u00f1asco", "state": "", "country": "MX", "coord": {"lon": -113.533333, "lat": 31.316669}}, {"id": 3991350, "name": "Puerto Palomas", "state": "", "country": "MX", "coord": {"lon": -107.616669, "lat": 31.76667}}, {"id": 3991469, "name": "Puerta Pesada", "state": "", "country": "MX", "coord": {"lon": -103.650002, "lat": 19.283331}}, {"id": 3991547, "name": "Pueblo Yaqui", "state": "", "country": "MX", "coord": {"lon": -110.033333, "lat": 27.35}}, {"id": 3991567, "name": "Pueblo Nuevo", "state": "", "country": "MX", "coord": {"lon": -101.366669, "lat": 20.51667}}, {"id": 3991602, "name": "Pu\u00e1cuaro", "state": "", "country": "MX", "coord": {"lon": -101.683327, "lat": 19.58333}}, {"id": 3991622, "name": "La Providencia", "state": "", "country": "MX", "coord": {"lon": -111.583328, "lat": 28.716669}}, {"id": 3991930, "name": "Pozos de Gamboa", "state": "", "country": "MX", "coord": {"lon": -102.566673, "lat": 22.950001}}, {"id": 3991939, "name": "Hacienda de Pozo de Luna", "state": "", "country": "MX", "coord": {"lon": -100.916672, "lat": 22.26667}}, {"id": 3991986, "name": "La Poza", "state": "", "country": "MX", "coord": {"lon": -110.98333, "lat": 28.85}}, {"id": 3992154, "name": "Potam", "state": "", "country": "MX", "coord": {"lon": -110.383331, "lat": 27.6}}, {"id": 3992212, "name": "Poncitl\u00e1n", "state": "", "country": "MX", "coord": {"lon": -102.916672, "lat": 20.366671}}, {"id": 3992278, "name": "Poanas", "state": "", "country": "MX", "coord": {"lon": -103.616669, "lat": 25.76667}}, {"id": 3992327, "name": "Plateros", "state": "", "country": "MX", "coord": {"lon": -102.849998, "lat": 23.216669}}, {"id": 3992405, "name": "Pitiquito", "state": "", "country": "MX", "coord": {"lon": -112.083328, "lat": 30.700001}}, {"id": 3992485, "name": "Pinos", "state": "", "country": "MX", "coord": {"lon": -101.566673, "lat": 22.299999}}, {"id": 3992589, "name": "Pilar", "state": "", "country": "MX", "coord": {"lon": -110.883331, "lat": 28.6}}, {"id": 3992599, "name": "Pihuamo", "state": "", "country": "MX", "coord": {"lon": -103.382751, "lat": 19.24991}}, {"id": 3992619, "name": "Piedras Negras", "state": "", "country": "MX", "coord": {"lon": -100.51667, "lat": 28.700001}}, {"id": 3992842, "name": "Petatl\u00e1n", "state": "", "country": "MX", "coord": {"lon": -101.26667, "lat": 17.51667}}, {"id": 3992846, "name": "Petacalco", "state": "", "country": "MX", "coord": {"lon": -102.099998, "lat": 17.98333}}, {"id": 3992857, "name": "Pesquer\u00eda", "state": "", "country": "MX", "coord": {"lon": -100.050003, "lat": 25.783331}}, {"id": 3992908, "name": "Pericos", "state": "", "country": "MX", "coord": {"lon": -107.699997, "lat": 25.049999}}, {"id": 3992919, "name": "Perib\u00e1n de Ramos", "state": "", "country": "MX", "coord": {"lon": -102.416672, "lat": 19.51667}}, {"id": 3992967, "name": "Pe\u00f1\u00f3n Blanco", "state": "", "country": "MX", "coord": {"lon": -104.036942, "lat": 24.789721}}, {"id": 3992986, "name": "P\u00e9njamo", "state": "", "country": "MX", "coord": {"lon": -101.73333, "lat": 20.433331}}, {"id": 3992987, "name": "Penjamillo de Degollado", "state": "", "country": "MX", "coord": {"lon": -101.900002, "lat": 20.1}}, {"id": 3992996, "name": "La Pe\u00f1ita de Jaltomba", "state": "", "country": "MX", "coord": {"lon": -105.25, "lat": 21.033331}}, {"id": 3993118, "name": "Pegueros", "state": "", "country": "MX", "coord": {"lon": -102.666672, "lat": 20.950001}}, {"id": 3993126, "name": "Pedro Escobedo", "state": "", "country": "MX", "coord": {"lon": -100.133331, "lat": 20.5}}, {"id": 3993155, "name": "Pedernales", "state": "", "country": "MX", "coord": {"lon": -101.466667, "lat": 19.133329}}, {"id": 3993179, "name": "P\u00e1tzcuaro", "state": "", "country": "MX", "coord": {"lon": -101.599998, "lat": 19.51667}}, {"id": 3993335, "name": "Parras de la Fuente", "state": "", "country": "MX", "coord": {"lon": -102.183327, "lat": 25.41667}}, {"id": 3993455, "name": "Par\u00e1cuaro", "state": "", "country": "MX", "coord": {"lon": -100.76667, "lat": 20.15}}, {"id": 3993456, "name": "Paracuaro", "state": "", "country": "MX", "coord": {"lon": -102.133331, "lat": 19.16667}}, {"id": 3993457, "name": "Paracho de Verduzco", "state": "", "country": "MX", "coord": {"lon": -102.066673, "lat": 19.65}}, {"id": 3993475, "name": "Papanoa", "state": "", "country": "MX", "coord": {"lon": -101.033333, "lat": 17.35}}, {"id": 3993492, "name": "P\u00e1nuco de Coronado", "state": "", "country": "MX", "coord": {"lon": -104.333328, "lat": 24.533331}}, {"id": 3993514, "name": "Pantanal", "state": "", "country": "MX", "coord": {"lon": -104.866669, "lat": 21.433331}}, {"id": 3993519, "name": "Panind\u00edcuaro", "state": "", "country": "MX", "coord": {"lon": -101.76667, "lat": 19.966669}}, {"id": 3993566, "name": "Los Cochitos Palo Verde", "state": "", "country": "MX", "coord": {"lon": -110.966667, "lat": 29.049999}}, {"id": 3993763, "name": "Palo Alto", "state": "", "country": "MX", "coord": {"lon": -101.966667, "lat": 21.91667}}, {"id": 3993857, "name": "Palmar Chico", "state": "", "country": "MX", "coord": {"lon": -100.349998, "lat": 18.683331}}, {"id": 3993893, "name": "Palau", "state": "", "country": "MX", "coord": {"lon": -101.416672, "lat": 27.91667}}, {"id": 3993926, "name": "Pajacuar\u00e1n", "state": "", "country": "MX", "coord": {"lon": -102.566673, "lat": 20.116671}}, {"id": 3993984, "name": "Pabell\u00f3n de Hidalgo", "state": "", "country": "MX", "coord": {"lon": -102.349998, "lat": 22.16667}}, {"id": 3993985, "name": "Pabell\u00f3n de Arteaga", "state": "", "country": "MX", "coord": {"lon": -102.25, "lat": 22.15}}, {"id": 3994164, "name": "Opopeo", "state": "", "country": "MX", "coord": {"lon": -101.599998, "lat": 19.4}}, {"id": 3994216, "name": "Ojuelos de Jalisco", "state": "", "country": "MX", "coord": {"lon": -101.583328, "lat": 21.866671}}, {"id": 3994469, "name": "Ojinaga", "state": "", "country": "MX", "coord": {"lon": -104.416672, "lat": 29.566669}}, {"id": 3994489, "name": "Ocotl\u00e1n", "state": "", "country": "MX", "coord": {"lon": -102.76667, "lat": 20.35}}, {"id": 3994534, "name": "Ocampo", "state": "", "country": "MX", "coord": {"lon": -102.400002, "lat": 27.316669}}, {"id": 3994535, "name": "Ocampo", "state": "", "country": "MX", "coord": {"lon": -101.5, "lat": 21.65}}, {"id": 3994536, "name": "Ocampo", "state": "", "country": "MX", "coord": {"lon": -100.333328, "lat": 19.58333}}, {"id": 3994581, "name": "Numar\u00e1n", "state": "", "country": "MX", "coord": {"lon": -101.933327, "lat": 20.25}}, {"id": 3994594, "name": "Nuevo San Juan Parangaricutiro", "state": "", "country": "MX", "coord": {"lon": -102.133331, "lat": 19.4}}, {"id": 3994604, "name": "Nuevo M\u00e9xico", "state": "", "country": "MX", "coord": {"lon": -103.433327, "lat": 20.75}}, {"id": 3994607, "name": "Nuevo Ideal", "state": "", "country": "MX", "coord": {"lon": -105.072777, "lat": 24.887501}}, {"id": 3994614, "name": "Churumuco de Morelos", "state": "", "country": "MX", "coord": {"lon": -101.633331, "lat": 18.616671}}, {"id": 3994616, "name": "Nuevo Casas Grandes", "state": "", "country": "MX", "coord": {"lon": -107.916672, "lat": 30.41667}}, {"id": 3994667, "name": "Nueva Rosita", "state": "", "country": "MX", "coord": {"lon": -101.216667, "lat": 27.950001}}, {"id": 3994674, "name": "Nueva Italia de Ruiz", "state": "", "country": "MX", "coord": {"lon": -102.099998, "lat": 19.01667}}, {"id": 3994858, "name": "Nonoava", "state": "", "country": "MX", "coord": {"lon": -106.73333, "lat": 27.466669}}, {"id": 3994863, "name": "Nombre de Dios", "state": "", "country": "MX", "coord": {"lon": -104.23333, "lat": 23.85}}, {"id": 3994911, "name": "Nocup\u00e9taro", "state": "", "country": "MX", "coord": {"lon": -101.150002, "lat": 19.049999}}, {"id": 3994912, "name": "Nochistl\u00e1n de Mej\u00eda", "state": "", "country": "MX", "coord": {"lon": -102.849998, "lat": 21.366671}}, {"id": 3994939, "name": "Nieves", "state": "", "country": "MX", "coord": {"lon": -103.01667, "lat": 24}}, {"id": 3994978, "name": "Neji", "state": "", "country": "MX", "coord": {"lon": -116.26667, "lat": 32.383331}}, {"id": 3995005, "name": "Nazas", "state": "", "country": "MX", "coord": {"lon": -104.133331, "lat": 25.23333}}, {"id": 3995006, "name": "Nazas", "state": "", "country": "MX", "coord": {"lon": -104.099998, "lat": 25.216669}}, {"id": 3995010, "name": "Nazareno", "state": "", "country": "MX", "coord": {"lon": -103.416672, "lat": 25.383329}}, {"id": 3995012, "name": "Estado de Nayarit", "state": "", "country": "MX", "coord": {"lon": -105, "lat": 22}}, {"id": 3995017, "name": "Navolato", "state": "", "country": "MX", "coord": {"lon": -107.694443, "lat": 24.76722}}, {"id": 3995019, "name": "Navojoa", "state": "", "country": "MX", "coord": {"lon": -109.433327, "lat": 27.1}}, {"id": 3995050, "name": "Nava", "state": "", "country": "MX", "coord": {"lon": -100.76667, "lat": 28.41667}}, {"id": 3995134, "name": "Namiquipa", "state": "", "country": "MX", "coord": {"lon": -107.416672, "lat": 29.25}}, {"id": 3995142, "name": "Naica", "state": "", "country": "MX", "coord": {"lon": -105.48333, "lat": 27.85}}, {"id": 3995146, "name": "Nahuatz\u00e9n", "state": "", "country": "MX", "coord": {"lon": -101.833328, "lat": 19.700001}}, {"id": 3995154, "name": "Nadadores", "state": "", "country": "MX", "coord": {"lon": -101.599998, "lat": 27.049999}}, {"id": 3995155, "name": "Nacozari Viejo", "state": "", "country": "MX", "coord": {"lon": -109.650002, "lat": 30.4}}, {"id": 3995171, "name": "Naco", "state": "", "country": "MX", "coord": {"lon": -109.948334, "lat": 31.334721}}, {"id": 3995236, "name": "Muleg\u00e9", "state": "", "country": "MX", "coord": {"lon": -111.98333, "lat": 26.883329}}, {"id": 3995343, "name": "Morole\u00f3n", "state": "", "country": "MX", "coord": {"lon": -101.199997, "lat": 20.133329}}, {"id": 3995398, "name": "Morelos", "state": "", "country": "MX", "coord": {"lon": -102.616669, "lat": 22.883329}}, {"id": 3995402, "name": "Morelia", "state": "", "country": "MX", "coord": {"lon": -101.184433, "lat": 19.700781}}, {"id": 3995465, "name": "Monterrey", "state": "", "country": "MX", "coord": {"lon": -100.316673, "lat": 25.66667}}, {"id": 3995472, "name": "Monte\u00f3n", "state": "", "country": "MX", "coord": {"lon": -105.283333, "lat": 20.98333}}, {"id": 3995490, "name": "Monte Escobedo", "state": "", "country": "MX", "coord": {"lon": -103.583328, "lat": 22.299999}}, {"id": 3995523, "name": "Monclova", "state": "", "country": "MX", "coord": {"lon": -101.416672, "lat": 26.9}}, {"id": 3995647, "name": "Moctezuma", "state": "", "country": "MX", "coord": {"lon": -109.666672, "lat": 29.799999}}, {"id": 3995648, "name": "Moctezuma", "state": "", "country": "MX", "coord": {"lon": -101.083328, "lat": 22.75}}, {"id": 3995652, "name": "Mocorito", "state": "", "country": "MX", "coord": {"lon": -107.916672, "lat": 25.48333}}, {"id": 3995667, "name": "Mochis", "state": "", "country": "MX", "coord": {"lon": -108.98333, "lat": 25.9}}, {"id": 3995671, "name": "Mochicahui", "state": "", "country": "MX", "coord": {"lon": -108.933327, "lat": 25.933331}}, {"id": 3995789, "name": "Mineral de Angangueo", "state": "", "country": "MX", "coord": {"lon": -100.284363, "lat": 19.62056}}, {"id": 3995794, "name": "Minatitl\u00e1n", "state": "", "country": "MX", "coord": {"lon": -104.066673, "lat": 19.366671}}, {"id": 3995847, "name": "Mina", "state": "", "country": "MX", "coord": {"lon": -100.529877, "lat": 26.001101}}, {"id": 3995938, "name": "Miguel Hidalgo", "state": "", "country": "MX", "coord": {"lon": -103.300003, "lat": 20.51667}}, {"id": 3995943, "name": "Miguel Auza", "state": "", "country": "MX", "coord": {"lon": -103.450279, "lat": 24.293329}}, {"id": 3995955, "name": "Estado de Michoac\u00e1n de Ocampo", "state": "", "country": "MX", "coord": {"lon": -101.833328, "lat": 19.16667}}, {"id": 3995980, "name": "Mezquite de Ch\u00e1vez", "state": "", "country": "MX", "coord": {"lon": -101.48333, "lat": 20.98333}}, {"id": 3996038, "name": "Mezcala", "state": "", "country": "MX", "coord": {"lon": -102.75, "lat": 20.933331}}, {"id": 3996047, "name": "Mexticac\u00e1n", "state": "", "country": "MX", "coord": {"lon": -102.779846, "lat": 21.265381}}, {"id": 3996063, "name": "Mexico", "state": "", "country": "MX", "coord": {"lon": -102, "lat": 23}}, {"id": 3996069, "name": "Mexicali", "state": "", "country": "MX", "coord": {"lon": -115.46833, "lat": 32.651939}}, {"id": 3996234, "name": "Meoqui", "state": "", "country": "MX", "coord": {"lon": -105.48333, "lat": 28.283331}}, {"id": 3996271, "name": "Ciudad Melchor M\u00fazquiz", "state": "", "country": "MX", "coord": {"lon": -101.51667, "lat": 27.883329}}, {"id": 3996299, "name": "Medina", "state": "", "country": "MX", "coord": {"lon": -101.616669, "lat": 21.15}}, {"id": 3996322, "name": "Mazatl\u00e1n", "state": "", "country": "MX", "coord": {"lon": -106.416672, "lat": 23.216669}}, {"id": 3996332, "name": "Mazapil", "state": "", "country": "MX", "coord": {"lon": -101.550003, "lat": 24.633329}}, {"id": 3996336, "name": "Mazamitla", "state": "", "country": "MX", "coord": {"lon": -103.033333, "lat": 19.91667}}, {"id": 3996387, "name": "Matehuala", "state": "", "country": "MX", "coord": {"lon": -100.650002, "lat": 23.65}}, {"id": 3996426, "name": "Matamoros", "state": "", "country": "MX", "coord": {"lon": -103.25, "lat": 25.533331}}, {"id": 3996472, "name": "Mascota", "state": "", "country": "MX", "coord": {"lon": -104.783333, "lat": 20.51667}}, {"id": 3996548, "name": "Mar\u00edn", "state": "", "country": "MX", "coord": {"lon": -100.050003, "lat": 25.866671}}, {"id": 3996585, "name": "Jes\u00fas G\u00f3mez Portugal", "state": "", "country": "MX", "coord": {"lon": -102.300003, "lat": 22}}, {"id": 3996595, "name": "Marfil", "state": "", "country": "MX", "coord": {"lon": -101.283333, "lat": 21}}, {"id": 3996626, "name": "Maravat\u00edo de Ocampo", "state": "", "country": "MX", "coord": {"lon": -100.449997, "lat": 19.9}}, {"id": 3996647, "name": "Mapim\u00ed", "state": "", "country": "MX", "coord": {"lon": -103.849998, "lat": 25.816669}}, {"id": 3996663, "name": "Manzanillo", "state": "", "country": "MX", "coord": {"lon": -104.318787, "lat": 19.05011}}, {"id": 3996681, "name": "Manuel F. Mart\u00ednez", "state": "", "country": "MX", "coord": {"lon": -106.416672, "lat": 31.683331}}, {"id": 3996737, "name": "Rodolfo S\u00e1nchez Taboada", "state": "", "country": "MX", "coord": {"lon": -116.566673, "lat": 31.716669}}, {"id": 3996776, "name": "Malpaso", "state": "", "country": "MX", "coord": {"lon": -102.76667, "lat": 22.616671}}, {"id": 3996893, "name": "Magdalena de Kino", "state": "", "country": "MX", "coord": {"lon": -110.949997, "lat": 30.633329}}, {"id": 3996933, "name": "Madrid", "state": "", "country": "MX", "coord": {"lon": -103.866669, "lat": 19.08333}}, {"id": 3996956, "name": "Madera", "state": "", "country": "MX", "coord": {"lon": -108.116669, "lat": 29.200001}}, {"id": 3997000, "name": "Villa Luvianos", "state": "", "country": "MX", "coord": {"lon": -100.400002, "lat": 18.91667}}, {"id": 3997017, "name": "Luis Moya", "state": "", "country": "MX", "coord": {"lon": -102.248642, "lat": 22.432369}}, {"id": 3997041, "name": "Los Sauces", "state": "", "country": "MX", "coord": {"lon": -101.98333, "lat": 20.16667}}, {"id": 3997113, "name": "Taxtes", "state": "", "country": "MX", "coord": {"lon": -108.933327, "lat": 25.933331}}, {"id": 3997211, "name": "Los Reyes de Salgado", "state": "", "country": "MX", "coord": {"lon": -102.48333, "lat": 19.58333}}, {"id": 3997220, "name": "Los Reyes", "state": "", "country": "MX", "coord": {"lon": -100.26667, "lat": 19.73333}}, {"id": 3997238, "name": "Los Ranchos", "state": "", "country": "MX", "coord": {"lon": -102.73333, "lat": 21.200001}}, {"id": 3997479, "name": "Los Mochis", "state": "", "country": "MX", "coord": {"lon": -108.966667, "lat": 25.76667}}, {"id": 3997586, "name": "Los Lirios", "state": "", "country": "MX", "coord": {"lon": -100.633331, "lat": 25.366671}}, {"id": 3997723, "name": "Los Guajes", "state": "", "country": "MX", "coord": {"lon": -102.783333, "lat": 20.33333}}, {"id": 3997747, "name": "Los Garza", "state": "", "country": "MX", "coord": {"lon": -100.366669, "lat": 28.08333}}, {"id": 3997773, "name": "Los Fresnos", "state": "", "country": "MX", "coord": {"lon": -104.900002, "lat": 21.5}}, {"id": 3997995, "name": "Los Catorce", "state": "", "country": "MX", "coord": {"lon": -100.916672, "lat": 23.700001}}, {"id": 3998025, "name": "Los Camotes", "state": "", "country": "MX", "coord": {"lon": -108.833328, "lat": 27.26667}}, {"id": 3998075, "name": "Los Barriles", "state": "", "country": "MX", "coord": {"lon": -109.699997, "lat": 23.65}}, {"id": 3998086, "name": "Balcones", "state": "", "country": "MX", "coord": {"lon": -100.900002, "lat": 29.283331}}, {"id": 3998214, "name": "Los Algodones", "state": "", "country": "MX", "coord": {"lon": -114.73333, "lat": 32.700001}}, {"id": 3998287, "name": "Loreto", "state": "", "country": "MX", "coord": {"lon": -111.349998, "lat": 26.01667}}, {"id": 3998291, "name": "Loreto", "state": "", "country": "MX", "coord": {"lon": -101.966667, "lat": 22.26667}}, {"id": 3998318, "name": "Lombard\u00eda", "state": "", "country": "MX", "coord": {"lon": -102.033333, "lat": 19.15}}, {"id": 3998473, "name": "Lo Arado", "state": "", "country": "MX", "coord": {"lon": -104.583328, "lat": 19.616671}}, {"id": 3998655, "name": "Le\u00f3n de los Aldama", "state": "", "country": "MX", "coord": {"lon": -101.666672, "lat": 21.116671}}, {"id": 3998858, "name": "La Venta del Astillero", "state": "", "country": "MX", "coord": {"lon": -103.533333, "lat": 20.716669}}, {"id": 3998913, "name": "La Uni\u00f3n", "state": "", "country": "MX", "coord": {"lon": -109.599998, "lat": 26.816669}}, {"id": 3998919, "name": "La Uni\u00f3n", "state": "", "country": "MX", "coord": {"lon": -101.816673, "lat": 17.966669}}, {"id": 3998956, "name": "La Trinidad", "state": "", "country": "MX", "coord": {"lon": -108.48333, "lat": 25.73333}}, {"id": 3999056, "name": "La Tijera", "state": "", "country": "MX", "coord": {"lon": -104.400002, "lat": 19.9}}, {"id": 3999162, "name": "Las Varas", "state": "", "country": "MX", "coord": {"lon": -105.166672, "lat": 21.16667}}, {"id": 3999325, "name": "Las Pintas de Arriba", "state": "", "country": "MX", "coord": {"lon": -103.316673, "lat": 20.566669}}, {"id": 3999450, "name": "Las Palmas", "state": "", "country": "MX", "coord": {"lon": -109.716667, "lat": 23.700001}}, {"id": 3999707, "name": "Las Ladrilleras", "state": "", "country": "MX", "coord": {"lon": -100.083328, "lat": 25.799999}}, {"id": 3999741, "name": "Las Juntas", "state": "", "country": "MX", "coord": {"lon": -104.699997, "lat": 19.41667}}, {"id": 3999886, "name": "Las Fuentes", "state": "", "country": "MX", "coord": {"lon": -102.933327, "lat": 20.616671}}, {"id": 4000119, "name": "Las Casitas", "state": "", "country": "MX", "coord": {"lon": -109.73333, "lat": 23.26667}}, {"id": 4000490, "name": "La Reforma", "state": "", "country": "MX", "coord": {"lon": -108.050003, "lat": 25.08333}}, {"id": 4000524, "name": "Queser\u00eda", "state": "", "country": "MX", "coord": {"lon": -103.583328, "lat": 19.366671}}, {"id": 4000657, "name": "La Primavera", "state": "", "country": "MX", "coord": {"lon": -108.183327, "lat": 25.366671}}, {"id": 4000811, "name": "La Pila", "state": "", "country": "MX", "coord": {"lon": -100.866669, "lat": 22.049999}}, {"id": 4000821, "name": "La Piedad", "state": "", "country": "MX", "coord": {"lon": -102, "lat": 20.35}}, {"id": 4000900, "name": "La Paz", "state": "", "country": "MX", "coord": {"lon": -110.300003, "lat": 24.16667}}, {"id": 4000901, "name": "Villa de la Paz", "state": "", "country": "MX", "coord": {"lon": -100.716667, "lat": 23.683331}}, {"id": 4000915, "name": "La Partida", "state": "", "country": "MX", "coord": {"lon": -103.283333, "lat": 25.58333}}, {"id": 4001037, "name": "La Palma", "state": "", "country": "MX", "coord": {"lon": -103.583328, "lat": 19.283331}}, {"id": 4001056, "name": "La Orilla", "state": "", "country": "MX", "coord": {"lon": -102.23333, "lat": 17.98333}}, {"id": 4001240, "name": "Lampazos de Naranjo", "state": "", "country": "MX", "coord": {"lon": -100.51667, "lat": 27.01667}}, {"id": 4001301, "name": "La Moncada", "state": "", "country": "MX", "coord": {"lon": -100.800003, "lat": 20.26667}}, {"id": 4001325, "name": "La Mira Tumbiscatio", "state": "", "country": "MX", "coord": {"lon": -102.283333, "lat": 18.683331}}, {"id": 4001464, "name": "La Manzanilla", "state": "", "country": "MX", "coord": {"lon": -103.849998, "lat": 18.799999}}, {"id": 4001478, "name": "La Manga", "state": "", "country": "MX", "coord": {"lon": -111.033333, "lat": 29.08333}}, {"id": 4001593, "name": "La Llave", "state": "", "country": "MX", "coord": {"lon": -102.533333, "lat": 21.033331}}, {"id": 4001597, "name": "La Lira", "state": "", "country": "MX", "coord": {"lon": -100.150002, "lat": 20.466669}}, {"id": 4001610, "name": "La Libertad", "state": "", "country": "MX", "coord": {"lon": -112.691788, "lat": 29.91313}}, {"id": 4001811, "name": "La Julia", "state": "", "country": "MX", "coord": {"lon": -117.066673, "lat": 32.48333}}, {"id": 4001829, "name": "La Joya", "state": "", "country": "MX", "coord": {"lon": -116.616669, "lat": 32.51667}}, {"id": 4001830, "name": "La Joya", "state": "", "country": "MX", "coord": {"lon": -115.73333, "lat": 31.08333}}, {"id": 4001850, "name": "La Joya", "state": "", "country": "MX", "coord": {"lon": -102.616669, "lat": 21}}, {"id": 4001882, "name": "La Jarretadera", "state": "", "country": "MX", "coord": {"lon": -105.033333, "lat": 21.91667}}, {"id": 4001947, "name": "La Huerta", "state": "", "country": "MX", "coord": {"lon": -104.650002, "lat": 19.466669}}, {"id": 4001956, "name": "La Huacana", "state": "", "country": "MX", "coord": {"lon": -101.816673, "lat": 18.966669}}, {"id": 4002179, "name": "La Guayabilla", "state": "", "country": "MX", "coord": {"lon": -104.533333, "lat": 19.15}}, {"id": 4002224, "name": "Lagos de Moreno", "state": "", "country": "MX", "coord": {"lon": -101.916672, "lat": 21.35}}, {"id": 4002285, "name": "La Garita", "state": "", "country": "MX", "coord": {"lon": -103.116669, "lat": 19.75}}, {"id": 4002397, "name": "La Fama", "state": "", "country": "MX", "coord": {"lon": -100.466667, "lat": 25.716669}}, {"id": 4002462, "name": "La Estancia", "state": "", "country": "MX", "coord": {"lon": -100.066673, "lat": 20.41667}}, {"id": 4002745, "name": "La Cruz", "state": "", "country": "MX", "coord": {"lon": -106.900002, "lat": 23.91667}}, {"id": 4002901, "name": "La Ciudad", "state": "", "country": "MX", "coord": {"lon": -106.050003, "lat": 24.383329}}, {"id": 4003211, "name": "La Ca\u00f1ada", "state": "", "country": "MX", "coord": {"lon": -100.316673, "lat": 20.616671}}, {"id": 4003270, "name": "La Calera", "state": "", "country": "MX", "coord": {"lon": -101.316673, "lat": 20.783331}}, {"id": 4003273, "name": "La Calera", "state": "", "country": "MX", "coord": {"lon": -104.199997, "lat": 20.200001}}, {"id": 4003520, "name": "Barra de Navidad", "state": "", "country": "MX", "coord": {"lon": -104.683327, "lat": 19.200001}}, {"id": 4003526, "name": "La Barca", "state": "", "country": "MX", "coord": {"lon": -102.566673, "lat": 20.283331}}, {"id": 4003573, "name": "La Aurora", "state": "", "country": "MX", "coord": {"lon": -100.73333, "lat": 20.91667}}, {"id": 4003574, "name": "Puente Grande", "state": "", "country": "MX", "coord": {"lon": -103.150002, "lat": 20.566669}}, {"id": 4003618, "name": "La Aldea", "state": "", "country": "MX", "coord": {"lon": -101.48333, "lat": 20.9}}, {"id": 4003626, "name": "La Albarrada", "state": "", "country": "MX", "coord": {"lon": -103.716667, "lat": 19.23333}}, {"id": 4003662, "name": "Juventino Rosas", "state": "", "country": "MX", "coord": {"lon": -101, "lat": 20.65}}, {"id": 4003675, "name": "Juriquilla", "state": "", "country": "MX", "coord": {"lon": -100.449997, "lat": 20.716669}}, {"id": 4003677, "name": "Jurica", "state": "", "country": "MX", "coord": {"lon": -100.449997, "lat": 20.683331}}, {"id": 4003703, "name": "Jungapeo de Ju\u00e1rez", "state": "", "country": "MX", "coord": {"lon": -100.48333, "lat": 19.450001}}, {"id": 4003737, "name": "Juchitl\u00e1n", "state": "", "country": "MX", "coord": {"lon": -104.116669, "lat": 20.08333}}, {"id": 4003739, "name": "Juchipila", "state": "", "country": "MX", "coord": {"lon": -103.116669, "lat": 21.41667}}, {"id": 4003757, "name": "Ciudad Benito Ju\u00e1rez", "state": "", "country": "MX", "coord": {"lon": -100.083328, "lat": 25.65}}, {"id": 4003804, "name": "Juan Aldama", "state": "", "country": "MX", "coord": {"lon": -103.39444, "lat": 24.290831}}, {"id": 4003810, "name": "Juanacatl\u00e1n", "state": "", "country": "MX", "coord": {"lon": -103.166672, "lat": 20.51667}}, {"id": 4003908, "name": "Jocotepec", "state": "", "country": "MX", "coord": {"lon": -103.433327, "lat": 20.299999}}, {"id": 4003923, "name": "Jiqu\u00edlpan de Ju\u00e1rez", "state": "", "country": "MX", "coord": {"lon": -102.716667, "lat": 19.98333}}, {"id": 4003938, "name": "Jim\u00e9nez", "state": "", "country": "MX", "coord": {"lon": -105.400002, "lat": 28.33333}}, {"id": 4003945, "name": "Jilotl\u00e1n de los Dolores", "state": "", "country": "MX", "coord": {"lon": -103.216667, "lat": 19.200001}}, {"id": 4003957, "name": "Jical\u00e1n", "state": "", "country": "MX", "coord": {"lon": -102.033333, "lat": 19.383329}}, {"id": 4003995, "name": "Jes\u00fas Mar\u00eda", "state": "", "country": "MX", "coord": {"lon": -102.349998, "lat": 21.966669}}, {"id": 4004024, "name": "Jerez de Garc\u00eda Salinas", "state": "", "country": "MX", "coord": {"lon": -103, "lat": 22.65}}, {"id": 4004026, "name": "Jer\u00e9cuaro", "state": "", "country": "MX", "coord": {"lon": -100.51667, "lat": 20.15}}, {"id": 4004060, "name": "Jarretadera", "state": "", "country": "MX", "coord": {"lon": -105.26667, "lat": 20.683331}}, {"id": 4004092, "name": "Jaral del Progreso", "state": "", "country": "MX", "coord": {"lon": -101.066673, "lat": 20.366671}}, {"id": 4004126, "name": "Jamay", "state": "", "country": "MX", "coord": {"lon": -102.716667, "lat": 20.299999}}, {"id": 4004148, "name": "Jalpa", "state": "", "country": "MX", "coord": {"lon": -102.966667, "lat": 21.633329}}, {"id": 4004153, "name": "Jalostotitl\u00e1n", "state": "", "country": "MX", "coord": {"lon": -102.466667, "lat": 21.200001}}, {"id": 4004156, "name": "Estado de Jalisco", "state": "", "country": "MX", "coord": {"lon": -103.666672, "lat": 20.33333}}, {"id": 4004161, "name": "Jalcocot\u00e1n", "state": "", "country": "MX", "coord": {"lon": -105.116669, "lat": 21.466669}}, {"id": 4004170, "name": "Jala", "state": "", "country": "MX", "coord": {"lon": -104.433327, "lat": 21.08333}}, {"id": 4004267, "name": "Ixtl\u00e1n del R\u00edo", "state": "", "country": "MX", "coord": {"lon": -104.366669, "lat": 21.033331}}, {"id": 4004271, "name": "Ixtl\u00e1n de los Hervores", "state": "", "country": "MX", "coord": {"lon": -102.400002, "lat": 20.183331}}, {"id": 4004274, "name": "Ixtlahuac\u00e1n del R\u00edo", "state": "", "country": "MX", "coord": {"lon": -103.25, "lat": 20.866671}}, {"id": 4004275, "name": "Ixtlahuac\u00e1n de los Membrillos", "state": "", "country": "MX", "coord": {"lon": -103.183327, "lat": 20.35}}, {"id": 4004284, "name": "Ixtapan del Oro", "state": "", "country": "MX", "coord": {"lon": -100.25, "lat": 19.25}}, {"id": 4004293, "name": "Ixtapa", "state": "", "country": "MX", "coord": {"lon": -105.199997, "lat": 20.700001}}, {"id": 4004294, "name": "Ixtapa", "state": "", "country": "MX", "coord": {"lon": -101.641647, "lat": 17.66782}}, {"id": 4004330, "name": "Irapuato", "state": "", "country": "MX", "coord": {"lon": -101.349998, "lat": 20.683331}}, {"id": 4004331, "name": "Ir\u00e1muco", "state": "", "country": "MX", "coord": {"lon": -100.916672, "lat": 19.950001}}, {"id": 4004394, "name": "Indaparapeo", "state": "", "country": "MX", "coord": {"lon": -100.966667, "lat": 19.783331}}, {"id": 4004399, "name": "Imuris", "state": "", "country": "MX", "coord": {"lon": -110.866669, "lat": 30.783331}}, {"id": 4004419, "name": "Ignacio Zaragoza", "state": "", "country": "MX", "coord": {"lon": -107.216667, "lat": 28.383329}}, {"id": 4004493, "name": "Huitz\u00f3", "state": "", "country": "MX", "coord": {"lon": -102.066673, "lat": 19.966669}}, {"id": 4004529, "name": "Huimilpan", "state": "", "country": "MX", "coord": {"lon": -100.277367, "lat": 20.37199}}, {"id": 4004555, "name": "Huetamo de N\u00fa\u00f1ez", "state": "", "country": "MX", "coord": {"lon": -100.883331, "lat": 18.58333}}, {"id": 4004559, "name": "Huescalapa", "state": "", "country": "MX", "coord": {"lon": -103.433327, "lat": 19.633329}}, {"id": 4004616, "name": "Huejuquilla el Alto", "state": "", "country": "MX", "coord": {"lon": -103.866669, "lat": 22.6}}, {"id": 4004618, "name": "Huej\u00facar", "state": "", "country": "MX", "coord": {"lon": -103.216667, "lat": 22.35}}, {"id": 4004647, "name": "Huatabampo", "state": "", "country": "MX", "coord": {"lon": -109.633331, "lat": 26.83333}}, {"id": 4004685, "name": "Huanusco", "state": "", "country": "MX", "coord": {"lon": -102.966667, "lat": 21.76667}}, {"id": 4004687, "name": "Huaniqueo", "state": "", "country": "MX", "coord": {"lon": -101.683327, "lat": 19.299999}}, {"id": 4004688, "name": "Huan\u00edmaro", "state": "", "country": "MX", "coord": {"lon": -101.5, "lat": 20.366671}}, {"id": 4004690, "name": "Huandacareo", "state": "", "country": "MX", "coord": {"lon": -101.283333, "lat": 19.98333}}, {"id": 4004738, "name": "Hostotipaquillo", "state": "", "country": "MX", "coord": {"lon": -104.066673, "lat": 21.066669}}, {"id": 4004834, "name": "Higueras", "state": "", "country": "MX", "coord": {"lon": -100.01667, "lat": 25.966669}}, {"id": 4004850, "name": "Higuera de Zaragoza", "state": "", "country": "MX", "coord": {"lon": -109.283333, "lat": 25.950001}}, {"id": 4004867, "name": "Parral", "state": "", "country": "MX", "coord": {"lon": -105.666672, "lat": 26.933331}}, {"id": 4004885, "name": "Her\u00f3ica Zit\u00e1cuaro", "state": "", "country": "MX", "coord": {"lon": -100.366669, "lat": 19.4}}, {"id": 4004886, "name": "Nogales", "state": "", "country": "MX", "coord": {"lon": -110.942169, "lat": 31.30862}}, {"id": 4004887, "name": "Heroica Caborca", "state": "", "country": "MX", "coord": {"lon": -112.150002, "lat": 30.716669}}, {"id": 4004898, "name": "Hermosillo", "state": "", "country": "MX", "coord": {"lon": -110.966667, "lat": 29.066669}}, {"id": 4004930, "name": "Harry Manzo", "state": "", "country": "MX", "coord": {"lon": -117.066673, "lat": 32.416672}}, {"id": 4004949, "name": "Hacienda Toribio", "state": "", "country": "MX", "coord": {"lon": -102.683327, "lat": 23.08333}}, {"id": 4005143, "name": "Heroica Guaymas", "state": "", "country": "MX", "coord": {"lon": -110.900002, "lat": 27.933331}}, {"id": 4005219, "name": "Guasave", "state": "", "country": "MX", "coord": {"lon": -108.449997, "lat": 25.566669}}, {"id": 4005267, "name": "Estado de Guanajuato", "state": "", "country": "MX", "coord": {"lon": -101, "lat": 21}}, {"id": 4005270, "name": "Guanajuato", "state": "", "country": "MX", "coord": {"lon": -101.259102, "lat": 21.018579}}, {"id": 4005275, "name": "Guanacev\u00ed", "state": "", "country": "MX", "coord": {"lon": -105.949997, "lat": 25.933331}}, {"id": 4005297, "name": "Guam\u00fachil", "state": "", "country": "MX", "coord": {"lon": -108.099998, "lat": 25.466669}}, {"id": 4005299, "name": "Guam\u00fachil", "state": "", "country": "MX", "coord": {"lon": -108.366669, "lat": 25.366671}}, {"id": 4005370, "name": "Guadalupe y Calvo", "state": "", "country": "MX", "coord": {"lon": -106.966667, "lat": 26.1}}, {"id": 4005380, "name": "Ciudad Guadalupe Victoria", "state": "", "country": "MX", "coord": {"lon": -104.122498, "lat": 24.44972}}, {"id": 4005492, "name": "Guadalupe", "state": "", "country": "MX", "coord": {"lon": -100.25, "lat": 25.683331}}, {"id": 4005509, "name": "Guadalupe", "state": "", "country": "MX", "coord": {"lon": -102.51667, "lat": 22.75}}, {"id": 4005535, "name": "Guadalc\u00e1zar", "state": "", "country": "MX", "coord": {"lon": -100.400002, "lat": 22.616671}}, {"id": 4005539, "name": "Guadalajara", "state": "", "country": "MX", "coord": {"lon": -103.333328, "lat": 20.66667}}, {"id": 4005548, "name": "Guachinango", "state": "", "country": "MX", "coord": {"lon": -104.366669, "lat": 20.566669}}, {"id": 4005775, "name": "G\u00f3mez Palacio", "state": "", "country": "MX", "coord": {"lon": -103.5, "lat": 25.566669}}, {"id": 4005780, "name": "G\u00f3mez Far\u00edas", "state": "", "country": "MX", "coord": {"lon": -103.48333, "lat": 19.783331}}, {"id": 4005856, "name": "General Zuazua", "state": "", "country": "MX", "coord": {"lon": -100.116669, "lat": 25.9}}, {"id": 4005857, "name": "Vicente Guerrero", "state": "", "country": "MX", "coord": {"lon": -103.98333, "lat": 23.75}}, {"id": 4005864, "name": "Juan Jos\u00e9 R\u00edos", "state": "", "country": "MX", "coord": {"lon": -108.833328, "lat": 25.75}}, {"id": 4005867, "name": "Ciudad General Escobedo", "state": "", "country": "MX", "coord": {"lon": -100.333328, "lat": 25.816669}}, {"id": 4005870, "name": "General Cepeda", "state": "", "country": "MX", "coord": {"lon": -101.449997, "lat": 25.383329}}, {"id": 4005937, "name": "San Pedro Garza Garc\u00eda", "state": "", "country": "MX", "coord": {"lon": -100.400002, "lat": 25.66667}}, {"id": 4006081, "name": "Galeana", "state": "", "country": "MX", "coord": {"lon": -100.066673, "lat": 24.83333}}, {"id": 4006163, "name": "Fresnillo", "state": "", "country": "MX", "coord": {"lon": -102.883331, "lat": 23.16667}}, {"id": 4006337, "name": "Felipe Carrillo Puerto", "state": "", "country": "MX", "coord": {"lon": -102.699997, "lat": 19.15}}, {"id": 4006380, "name": "Etzatl\u00e1n", "state": "", "country": "MX", "coord": {"lon": -104.083328, "lat": 20.76667}}, {"id": 4006387, "name": "Etchoropo", "state": "", "country": "MX", "coord": {"lon": -109.666672, "lat": 26.76667}}, {"id": 4006388, "name": "Etchojoa", "state": "", "country": "MX", "coord": {"lon": -109.633331, "lat": 26.91667}}, {"id": 4006400, "name": "Estipa", "state": "", "country": "MX", "coord": {"lon": -103.699997, "lat": 20.366671}}, {"id": 4006532, "name": "Esqueda", "state": "", "country": "MX", "coord": {"lon": -109.583328, "lat": 30.716669}}, {"id": 4006622, "name": "Escuinapa", "state": "", "country": "MX", "coord": {"lon": -105.800003, "lat": 22.85}}, {"id": 4006663, "name": "Escobedo", "state": "", "country": "MX", "coord": {"lon": -100.699997, "lat": 25.33333}}, {"id": 4006677, "name": "Escalerillas", "state": "", "country": "MX", "coord": {"lon": -101.066673, "lat": 22.133329}}, {"id": 4006682, "name": "Erongar\u00edcuaro", "state": "", "country": "MX", "coord": {"lon": -101.716667, "lat": 19.58333}}, {"id": 4006702, "name": "Ensenada", "state": "", "country": "MX", "coord": {"lon": -116.616669, "lat": 31.866671}}, {"id": 4006727, "name": "Rancho de Enmedio", "state": "", "country": "MX", "coord": {"lon": -105.98333, "lat": 28.716669}}, {"id": 4006783, "name": "Encarnaci\u00f3n de D\u00edaz", "state": "", "country": "MX", "coord": {"lon": -102.23333, "lat": 21.51667}}, {"id": 4006804, "name": "Empalme Escobedo", "state": "", "country": "MX", "coord": {"lon": -100.73333, "lat": 20.683331}}, {"id": 4006806, "name": "Empalme", "state": "", "country": "MX", "coord": {"lon": -110.816673, "lat": 27.966669}}, {"id": 4006971, "name": "El Verde", "state": "", "country": "MX", "coord": {"lon": -103.26667, "lat": 20.549999}}, {"id": 4007102, "name": "El Tuito", "state": "", "country": "MX", "coord": {"lon": -105.316673, "lat": 20.316669}}, {"id": 4007210, "name": "El Tobarito", "state": "", "country": "MX", "coord": {"lon": -109.883331, "lat": 27.366671}}, {"id": 4007424, "name": "El Tajito", "state": "", "country": "MX", "coord": {"lon": -103.416672, "lat": 25.566669}}, {"id": 4007494, "name": "El Seri", "state": "", "country": "MX", "coord": {"lon": -110.966667, "lat": 29.066669}}, {"id": 4007503, "name": "El Sauzal de Rodr\u00edguez", "state": "", "country": "MX", "coord": {"lon": -116.683327, "lat": 31.9}}, {"id": 4007554, "name": "El Sa\u00faz", "state": "", "country": "MX", "coord": {"lon": -100.099998, "lat": 20.466669}}, {"id": 4007626, "name": "Santuaro", "state": "", "country": "MX", "coord": {"lon": -100.783333, "lat": 20.98333}}, {"id": 4007676, "name": "Pueblo Nuevo", "state": "", "country": "MX", "coord": {"lon": -105.383331, "lat": 23.383329}}, {"id": 4007684, "name": "El Salto", "state": "", "country": "MX", "coord": {"lon": -104.5, "lat": 20.33333}}, {"id": 4007812, "name": "El Rosario", "state": "", "country": "MX", "coord": {"lon": -107.182777, "lat": 24.25556}}, {"id": 4007849, "name": "El Rodeo", "state": "", "country": "MX", "coord": {"lon": -104.050003, "lat": 19.533331}}, {"id": 4008080, "name": "El Refugio", "state": "", "country": "MX", "coord": {"lon": -103.73333, "lat": 20.66667}}, {"id": 4008224, "name": "El Quince", "state": "", "country": "MX", "coord": {"lon": -103.283333, "lat": 20.533331}}, {"id": 4008303, "name": "El Pueblito", "state": "", "country": "MX", "coord": {"lon": -100.449997, "lat": 20.533331}}, {"id": 4008326, "name": "El Presidio", "state": "", "country": "MX", "coord": {"lon": -104.783333, "lat": 24.51667}}, {"id": 4008420, "name": "Catarino Rodr\u00edguez", "state": "", "country": "MX", "coord": {"lon": -100.316673, "lat": 24.85}}, {"id": 4008636, "name": "El Pescado", "state": "", "country": "MX", "coord": {"lon": -102.133331, "lat": 21.65}}, {"id": 4008868, "name": "El Oro de Hidalgo", "state": "", "country": "MX", "coord": {"lon": -100.133331, "lat": 19.799999}}, {"id": 4008901, "name": "El Ojuelo", "state": "", "country": "MX", "coord": {"lon": -100.900002, "lat": 25.533331}}, {"id": 4009252, "name": "El Mezquite", "state": "", "country": "MX", "coord": {"lon": -100.866669, "lat": 20.633329}}, {"id": 4009465, "name": "El Lim\u00f3n", "state": "", "country": "MX", "coord": {"lon": -104.183327, "lat": 19.816669}}, {"id": 4009697, "name": "El Grullo", "state": "", "country": "MX", "coord": {"lon": -104.216667, "lat": 19.799999}}, {"id": 4009710, "name": "El Gramal", "state": "", "country": "MX", "coord": {"lon": -105.400002, "lat": 28.33333}}, {"id": 4009788, "name": "El Fuerte", "state": "", "country": "MX", "coord": {"lon": -108.619438, "lat": 26.41889}}, {"id": 4009879, "name": "El Espinal", "state": "", "country": "MX", "coord": {"lon": -106.400002, "lat": 23.783331}}, {"id": 4009984, "name": "El Dorado", "state": "", "country": "MX", "coord": {"lon": -107.360283, "lat": 24.32028}}, {"id": 4010155, "name": "Coyote", "state": "", "country": "MX", "coord": {"lon": -103.26667, "lat": 25.700001}}, {"id": 4010207, "name": "El Confital", "state": "", "country": "MX", "coord": {"lon": -106.283333, "lat": 23.133329}}, {"id": 4010260, "name": "El Colorado", "state": "", "country": "MX", "coord": {"lon": -100.25, "lat": 20.566669}}, {"id": 4010273, "name": "El Colomo", "state": "", "country": "MX", "coord": {"lon": -104.25, "lat": 19.049999}}, {"id": 4010311, "name": "El Coacoyul", "state": "", "country": "MX", "coord": {"lon": -101.433327, "lat": 17.616671}}, {"id": 4010399, "name": "El Chinal", "state": "", "country": "MX", "coord": {"lon": -109.800003, "lat": 23.35}}, {"id": 4010589, "name": "El Carrizo", "state": "", "country": "MX", "coord": {"lon": -106.881393, "lat": 24.02611}}, {"id": 4010897, "name": "El Burri\u00f3n", "state": "", "country": "MX", "coord": {"lon": -108.400002, "lat": 25.533331}}, {"id": 4010969, "name": "El Bedito", "state": "", "country": "MX", "coord": {"lon": -109.76667, "lat": 22.98333}}, {"id": 4011119, "name": "El Arenal", "state": "", "country": "MX", "coord": {"lon": -103.699997, "lat": 20.783331}}, {"id": 4011469, "name": "Puebla", "state": "", "country": "MX", "coord": {"lon": -115.353333, "lat": 32.564442}}, {"id": 4011482, "name": "El Pantanito", "state": "", "country": "MX", "coord": {"lon": -111.050003, "lat": 30.6}}, {"id": 4011574, "name": "Ciudad Insurgentes", "state": "", "country": "MX", "coord": {"lon": -111.775284, "lat": 25.262501}}, {"id": 4011587, "name": "Hermosillo", "state": "", "country": "MX", "coord": {"lon": -114.923332, "lat": 32.510281}}, {"id": 4011631, "name": "Ejido El Largo", "state": "", "country": "MX", "coord": {"lon": -108.26667, "lat": 29.683331}}, {"id": 4011703, "name": "Ecuandureo", "state": "", "country": "MX", "coord": {"lon": -102.183327, "lat": 20.16667}}, {"id": 4011741, "name": "Estado de Durango", "state": "", "country": "MX", "coord": {"lon": -104.833328, "lat": 24.83333}}, {"id": 4011743, "name": "Victoria de Durango", "state": "", "country": "MX", "coord": {"lon": -104.666672, "lat": 24.033331}}, {"id": 4011754, "name": "Dubl\u00e1n", "state": "", "country": "MX", "coord": {"lon": -107.933327, "lat": 30.433331}}, {"id": 4011755, "name": "Duarte", "state": "", "country": "MX", "coord": {"lon": -101.51667, "lat": 21.08333}}, {"id": 4011770, "name": "Dos Ejidos", "state": "", "country": "MX", "coord": {"lon": -100.26667, "lat": 25.6}}, {"id": 4011865, "name": "Rancho Nuevo de Dolores (El Cuero)", "state": "", "country": "MX", "coord": {"lon": -101.416672, "lat": 20.616671}}, {"id": 4011873, "name": "Doctor Arroyo", "state": "", "country": "MX", "coord": {"lon": -100.183327, "lat": 23.66667}}, {"id": 4012045, "name": "Degollado", "state": "", "country": "MX", "coord": {"lon": -102.149757, "lat": 20.46702}}, {"id": 4012080, "name": "San Miguel Cuyutl\u00e1n", "state": "", "country": "MX", "coord": {"lon": -103.400002, "lat": 20.41667}}, {"id": 4012083, "name": "Cuxpala", "state": "", "country": "MX", "coord": {"lon": -103.633331, "lat": 20.549999}}, {"id": 4012085, "name": "Cutzamala de Pinz\u00f3n", "state": "", "country": "MX", "coord": {"lon": -100.566673, "lat": 18.466669}}, {"id": 4012121, "name": "Cuqu\u00edo", "state": "", "country": "MX", "coord": {"lon": -103.033333, "lat": 20.91667}}, {"id": 4012143, "name": "Cumpas", "state": "", "country": "MX", "coord": {"lon": -109.783333, "lat": 29.98333}}, {"id": 4012173, "name": "Culiacancito", "state": "", "country": "MX", "coord": {"lon": -107.533058, "lat": 24.82472}}, {"id": 4012176, "name": "Culiac\u00e1n", "state": "", "country": "MX", "coord": {"lon": -107.389717, "lat": 24.79944}}, {"id": 4012194, "name": "Cuitzeo del Porvenir", "state": "", "country": "MX", "coord": {"lon": -101.150002, "lat": 19.98333}}, {"id": 4012196, "name": "Cuitzeo (La Estancia)", "state": "", "country": "MX", "coord": {"lon": -102.783333, "lat": 20.33333}}, {"id": 4012202, "name": "San Bartolo Cuitareo", "state": "", "country": "MX", "coord": {"lon": -100.599998, "lat": 19.616671}}, {"id": 4012341, "name": "Cuer\u00e1maro", "state": "", "country": "MX", "coord": {"lon": -101.716667, "lat": 20.616671}}, {"id": 4012344, "name": "Cuencam\u00e9 de Ceniceros", "state": "", "country": "MX", "coord": {"lon": -103.696388, "lat": 24.871111}}, {"id": 4012406, "name": "Cuauht\u00e9moc", "state": "", "country": "MX", "coord": {"lon": -106.866669, "lat": 28.41667}}, {"id": 4012408, "name": "Cuauht\u00e9moc", "state": "", "country": "MX", "coord": {"lon": -103.599998, "lat": 19.33333}}, {"id": 4012421, "name": "Cuatro Ci\u00e9negas de Carranza", "state": "", "country": "MX", "coord": {"lon": -102.083328, "lat": 26.98333}}, {"id": 4012466, "name": "Cuanajo", "state": "", "country": "MX", "coord": {"lon": -101.51667, "lat": 19.48333}}, {"id": 4012559, "name": "El Crucero de Santa Mar\u00eda", "state": "", "country": "MX", "coord": {"lon": -103.861313, "lat": 20.383169}}, {"id": 4012593, "name": "Creel", "state": "", "country": "MX", "coord": {"lon": -107.633331, "lat": 27.75}}, {"id": 4012602, "name": "Coyuquilla", "state": "", "country": "MX", "coord": {"lon": -101.033333, "lat": 17.4}}, {"id": 4012606, "name": "Coyula", "state": "", "country": "MX", "coord": {"lon": -103.199997, "lat": 20.633329}}, {"id": 4012607, "name": "Coyuca de Catal\u00e1n", "state": "", "country": "MX", "coord": {"lon": -100.650002, "lat": 18.33333}}, {"id": 4012608, "name": "Coyuca de Ben\u00edtez", "state": "", "country": "MX", "coord": {"lon": -100.066673, "lat": 17.033331}}, {"id": 4012685, "name": "Cotija de la Paz", "state": "", "country": "MX", "coord": {"lon": -102.683327, "lat": 19.816669}}, {"id": 4012693, "name": "Villa de Costa Rica", "state": "", "country": "MX", "coord": {"lon": -107.387497, "lat": 24.5875}}, {"id": 4012699, "name": "Cos\u00edo", "state": "", "country": "MX", "coord": {"lon": -102.300003, "lat": 22.35}}, {"id": 4012707, "name": "Cosal\u00e1", "state": "", "country": "MX", "coord": {"lon": -106.690826, "lat": 24.4125}}, {"id": 4012721, "name": "Cortazar", "state": "", "country": "MX", "coord": {"lon": -100.933327, "lat": 20.48333}}, {"id": 4012842, "name": "Coroneo", "state": "", "country": "MX", "coord": {"lon": -100.333328, "lat": 20.133329}}, {"id": 4012905, "name": "Coquimatl\u00e1n", "state": "", "country": "MX", "coord": {"lon": -103.800003, "lat": 19.200001}}, {"id": 4012917, "name": "Cop\u00e1ndaro de Galeana", "state": "", "country": "MX", "coord": {"lon": -101.216667, "lat": 19.883329}}, {"id": 4012957, "name": "Contepec", "state": "", "country": "MX", "coord": {"lon": -100.116669, "lat": 20.01667}}, {"id": 4012966, "name": "La Constancia", "state": "", "country": "MX", "coord": {"lon": -107.186943, "lat": 24.223061}}, {"id": 4013024, "name": "Concordia", "state": "", "country": "MX", "coord": {"lon": -103.116669, "lat": 25.783331}}, {"id": 4013039, "name": "Concepci\u00f3n del Oro", "state": "", "country": "MX", "coord": {"lon": -101.416672, "lat": 24.633329}}, {"id": 4013045, "name": "Concepci\u00f3n de Buenos Aires", "state": "", "country": "MX", "coord": {"lon": -103.26667, "lat": 19.966669}}, {"id": 4013052, "name": "Concepci\u00f3n", "state": "", "country": "MX", "coord": {"lon": -117.116669, "lat": 32.533329}}, {"id": 4013076, "name": "Las Compuertas", "state": "", "country": "MX", "coord": {"lon": -108.349998, "lat": 25.450001}}, {"id": 4013085, "name": "Compostela", "state": "", "country": "MX", "coord": {"lon": -104.916672, "lat": 21.23333}}, {"id": 4013094, "name": "Comonfort", "state": "", "country": "MX", "coord": {"lon": -100.76667, "lat": 20.716669}}, {"id": 4013120, "name": "Comanj\u00e1", "state": "", "country": "MX", "coord": {"lon": -101.699997, "lat": 19.73333}}, {"id": 4013130, "name": "Comala", "state": "", "country": "MX", "coord": {"lon": -103.75, "lat": 19.316669}}, {"id": 4013131, "name": "Comachu\u00e9n", "state": "", "country": "MX", "coord": {"lon": -101.900002, "lat": 19.616671}}, {"id": 4013136, "name": "Colotl\u00e1n", "state": "", "country": "MX", "coord": {"lon": -103.26667, "lat": 22.1}}, {"id": 4013137, "name": "Colotitl\u00e1n", "state": "", "country": "MX", "coord": {"lon": -104.153267, "lat": 20.095671}}, {"id": 4013141, "name": "Colorines", "state": "", "country": "MX", "coord": {"lon": -100.166672, "lat": 19.200001}}, {"id": 4013292, "name": "Vicente Guerrero", "state": "", "country": "MX", "coord": {"lon": -116, "lat": 30.75}}, {"id": 4013297, "name": "Colonia Valle", "state": "", "country": "MX", "coord": {"lon": -100.366669, "lat": 25.65}}, {"id": 4013357, "name": "Colonia Mirador", "state": "", "country": "MX", "coord": {"lon": -100.300003, "lat": 25.616671}}, {"id": 4013377, "name": "Ampliaci\u00f3n Colonia L\u00e1zaro C\u00e1rdenas", "state": "", "country": "MX", "coord": {"lon": -105.616669, "lat": 28.383329}}, {"id": 4013392, "name": "Jecopaco", "state": "", "country": "MX", "coord": {"lon": -109.76667, "lat": 27.183331}}, {"id": 4013403, "name": "Colonia Herrera", "state": "", "country": "MX", "coord": {"lon": -117.066673, "lat": 32.51667}}, {"id": 4013476, "name": "Colonia Alto Vista", "state": "", "country": "MX", "coord": {"lon": -100.283333, "lat": 25.633329}}, {"id": 4013487, "name": "Col\u00f3n", "state": "", "country": "MX", "coord": {"lon": -100.050003, "lat": 20.799999}}, {"id": 4013513, "name": "Estado de Colima", "state": "", "country": "MX", "coord": {"lon": -104, "lat": 19.16667}}, {"id": 4013516, "name": "Colima", "state": "", "country": "MX", "coord": {"lon": -103.716667, "lat": 19.23333}}, {"id": 4013522, "name": "Cojumatl\u00e1n de R\u00e9gules", "state": "", "country": "MX", "coord": {"lon": -102.833328, "lat": 20.116671}}, {"id": 4013567, "name": "Cofrad\u00eda", "state": "", "country": "MX", "coord": {"lon": -103.550003, "lat": 19.433331}}, {"id": 4013568, "name": "Coeneo de la Libertad", "state": "", "country": "MX", "coord": {"lon": -101.583328, "lat": 19.816669}}, {"id": 4013579, "name": "Cocula", "state": "", "country": "MX", "coord": {"lon": -103.822151, "lat": 20.36517}}, {"id": 4013593, "name": "Cocorit", "state": "", "country": "MX", "coord": {"lon": -109.966667, "lat": 27.58333}}, {"id": 4013669, "name": "Coalcom\u00e1n de V\u00e1zquez Pallares", "state": "", "country": "MX", "coord": {"lon": -103.150002, "lat": 18.783331}}, {"id": 4013674, "name": "Estado de Coahuila de Zaragoza", "state": "", "country": "MX", "coord": {"lon": -102, "lat": 27.33333}}, {"id": 4013679, "name": "Coahuayana Viejo", "state": "", "country": "MX", "coord": {"lon": -103.683327, "lat": 18.73333}}, {"id": 4013688, "name": "Cloete", "state": "", "country": "MX", "coord": {"lon": -101.166672, "lat": 27.91667}}, {"id": 4013704, "name": "Ciudad Obreg\u00f3n", "state": "", "country": "MX", "coord": {"lon": -109.933327, "lat": 27.48333}}, {"id": 4013705, "name": "Ciudad Manuel Doblado", "state": "", "country": "MX", "coord": {"lon": -101.933327, "lat": 20.73333}}, {"id": 4013706, "name": "Ciudad Lerdo", "state": "", "country": "MX", "coord": {"lon": -103.533333, "lat": 25.533331}}, {"id": 4013708, "name": "Ju\u00e1rez", "state": "", "country": "MX", "coord": {"lon": -106.48333, "lat": 31.73333}}, {"id": 4013712, "name": "Ciudad Hidalgo", "state": "", "country": "MX", "coord": {"lon": -100.566673, "lat": 19.683331}}, {"id": 4013714, "name": "Ciudad Guzm\u00e1n", "state": "", "country": "MX", "coord": {"lon": -103.48333, "lat": 19.683331}}, {"id": 4013720, "name": "Ciudad Delicias", "state": "", "country": "MX", "coord": {"lon": -105.470123, "lat": 28.19013}}, {"id": 4013723, "name": "Ciudad Constituci\u00f3n", "state": "", "country": "MX", "coord": {"lon": -111.664436, "lat": 25.03694}}, {"id": 4013724, "name": "Camargo", "state": "", "country": "MX", "coord": {"lon": -105.166672, "lat": 27.66667}}, {"id": 4013726, "name": "An\u00e1huac", "state": "", "country": "MX", "coord": {"lon": -100.150002, "lat": 27.23333}}, {"id": 4013727, "name": "Ciudad Altamirano", "state": "", "country": "MX", "coord": {"lon": -100.650002, "lat": 18.316669}}, {"id": 4013728, "name": "Ciudad Acu\u00f1a", "state": "", "country": "MX", "coord": {"lon": -100.952171, "lat": 29.323219}}, {"id": 4013892, "name": "Ci\u00e9nega de Flores", "state": "", "country": "MX", "coord": {"lon": -100.183327, "lat": 25.950001}}, {"id": 4013960, "name": "Chuvichic", "state": "", "country": "MX", "coord": {"lon": -106.73333, "lat": 27.816669}}, {"id": 4013966, "name": "Churintzio", "state": "", "country": "MX", "coord": {"lon": -102.066673, "lat": 20.15}}, {"id": 4014031, "name": "Chuta", "state": "", "country": "MX", "coord": {"lon": -102.650002, "lat": 18.08333}}, {"id": 4014109, "name": "Choix", "state": "", "country": "MX", "coord": {"lon": -108.321938, "lat": 26.709169}}, {"id": 4014178, "name": "Chiquilistl\u00e1n", "state": "", "country": "MX", "coord": {"lon": -103.816673, "lat": 20.200001}}, {"id": 4014179, "name": "Chiquilistl\u00e1n", "state": "", "country": "MX", "coord": {"lon": -103.849998, "lat": 20.08333}}, {"id": 4014296, "name": "Chilchota", "state": "", "country": "MX", "coord": {"lon": -102.133331, "lat": 19.85}}, {"id": 4014336, "name": "Estado de Chihuahua", "state": "", "country": "MX", "coord": {"lon": -106, "lat": 28.5}}, {"id": 4014338, "name": "Chihuahua", "state": "", "country": "MX", "coord": {"lon": -106.083328, "lat": 28.633329}}, {"id": 4014409, "name": "Cher\u00e1n", "state": "", "country": "MX", "coord": {"lon": -101.949997, "lat": 19.683331}}, {"id": 4014420, "name": "Chavinda", "state": "", "country": "MX", "coord": {"lon": -102.449997, "lat": 20.01667}}, {"id": 4014450, "name": "Charo", "state": "", "country": "MX", "coord": {"lon": -101.050003, "lat": 19.75}}, {"id": 4014501, "name": "Charcas", "state": "", "country": "MX", "coord": {"lon": -101.116669, "lat": 23.133329}}, {"id": 4014508, "name": "Charap\u00e1n", "state": "", "country": "MX", "coord": {"lon": -102.23333, "lat": 19.66667}}, {"id": 4014553, "name": "Chapala", "state": "", "country": "MX", "coord": {"lon": -103.199997, "lat": 20.299999}}, {"id": 4014603, "name": "Chalchihuites", "state": "", "country": "MX", "coord": {"lon": -103.883331, "lat": 23.48333}}, {"id": 4014641, "name": "Chacala", "state": "", "country": "MX", "coord": {"lon": -105.23333, "lat": 21.16667}}, {"id": 4014740, "name": "Cerro Gordo", "state": "", "country": "MX", "coord": {"lon": -101.133331, "lat": 20.58333}}, {"id": 4014743, "name": "Cerro de Ortega", "state": "", "country": "MX", "coord": {"lon": -103.76667, "lat": 18.75}}, {"id": 4014795, "name": "Cerritos", "state": "", "country": "MX", "coord": {"lon": -100.283333, "lat": 22.433331}}, {"id": 4014842, "name": "Cerano", "state": "", "country": "MX", "coord": {"lon": -101.383331, "lat": 20.116671}}, {"id": 4014875, "name": "Celaya", "state": "", "country": "MX", "coord": {"lon": -100.816673, "lat": 20.51667}}, {"id": 4014914, "name": "Cedral", "state": "", "country": "MX", "coord": {"lon": -100.73333, "lat": 23.799999}}, {"id": 4015022, "name": "Casta\u00f1os", "state": "", "country": "MX", "coord": {"lon": -101.416672, "lat": 26.783331}}, {"id": 4015040, "name": "La Resolana", "state": "", "country": "MX", "coord": {"lon": -104.433327, "lat": 19.6}}, {"id": 4015076, "name": "Casas Grandes", "state": "", "country": "MX", "coord": {"lon": -107.949997, "lat": 30.366671}}, {"id": 4015304, "name": "Carricito", "state": "", "country": "MX", "coord": {"lon": -110.866669, "lat": 28.133329}}, {"id": 4015471, "name": "Car\u00e1cuaro", "state": "", "country": "MX", "coord": {"lon": -101.126389, "lat": 19.010559}}, {"id": 4015520, "name": "Capula", "state": "", "country": "MX", "coord": {"lon": -101.800003, "lat": 19.700001}}, {"id": 4015546, "name": "Capilla de Guadalupe", "state": "", "country": "MX", "coord": {"lon": -102.583328, "lat": 20.83333}}, {"id": 4015566, "name": "Cap\u00e1cuaro", "state": "", "country": "MX", "coord": {"lon": -102.050003, "lat": 19.549999}}, {"id": 4015633, "name": "Ca\u00f1itas de Felipe Pescador", "state": "", "country": "MX", "coord": {"lon": -102.716667, "lat": 23.6}}, {"id": 4015683, "name": "Canatl\u00e1n", "state": "", "country": "MX", "coord": {"lon": -104.783333, "lat": 24.51667}}, {"id": 4015700, "name": "Cananea", "state": "", "country": "MX", "coord": {"lon": -110.300003, "lat": 30.950001}}, {"id": 4015842, "name": "Campo Sesenta", "state": "", "country": "MX", "coord": {"lon": -110.099998, "lat": 27.450001}}, {"id": 4015938, "name": "Villa Ju\u00e1rez", "state": "", "country": "MX", "coord": {"lon": -107.541107, "lat": 24.65361}}, {"id": 4016086, "name": "Calvillo", "state": "", "country": "MX", "coord": {"lon": -102.716667, "lat": 21.85}}, {"id": 4016132, "name": "V\u00edctor Rosales", "state": "", "country": "MX", "coord": {"lon": -102.699997, "lat": 22.950001}}, {"id": 4016272, "name": "Cajititl\u00e1n", "state": "", "country": "MX", "coord": {"lon": -103.316673, "lat": 20.433331}}, {"id": 4016309, "name": "Cadua\u00f1o", "state": "", "country": "MX", "coord": {"lon": -109.833328, "lat": 23.33333}}, {"id": 4016363, "name": "Cabullona", "state": "", "country": "MX", "coord": {"lon": -109.566673, "lat": 31.16667}}, {"id": 4016397, "name": "Cabos", "state": "", "country": "MX", "coord": {"lon": -101.716667, "lat": 25.58333}}, {"id": 4016485, "name": "Bustamante", "state": "", "country": "MX", "coord": {"lon": -100.5, "lat": 26.533331}}, {"id": 4016589, "name": "Buenos Aires", "state": "", "country": "MX", "coord": {"lon": -102.166672, "lat": 19.066669}}, {"id": 4016599, "name": "Buenavista Tomatl\u00e1n", "state": "", "country": "MX", "coord": {"lon": -102.599998, "lat": 19.200001}}, {"id": 4016722, "name": "San Buenaventura", "state": "", "country": "MX", "coord": {"lon": -107.48333, "lat": 29.85}}, {"id": 4016734, "name": "Bucer\u00edas", "state": "", "country": "MX", "coord": {"lon": -105.333328, "lat": 20.75}}, {"id": 4016756, "name": "Brise\u00f1as de Matamoros", "state": "", "country": "MX", "coord": {"lon": -102.566673, "lat": 20.26667}}, {"id": 4017144, "name": "Bermejillo", "state": "", "country": "MX", "coord": {"lon": -103.616669, "lat": 25.883329}}, {"id": 4017152, "name": "Benjam\u00edn Hill", "state": "", "country": "MX", "coord": {"lon": -111.099998, "lat": 30.16667}}, {"id": 4017154, "name": "Benito Ju\u00e1rez", "state": "", "country": "MX", "coord": {"lon": -107.933327, "lat": 29.75}}, {"id": 4017164, "name": "Benito Ju\u00e1rez", "state": "", "country": "MX", "coord": {"lon": -100.466667, "lat": 19.23333}}, {"id": 4017199, "name": "Bellavista", "state": "", "country": "MX", "coord": {"lon": -103.650002, "lat": 20.433331}}, {"id": 4017277, "name": "Batiquitas", "state": "", "country": "MX", "coord": {"lon": -107.683327, "lat": 25.299999}}, {"id": 4017353, "name": "Basconcobe", "state": "", "country": "MX", "coord": {"lon": -109.666672, "lat": 26.950001}}, {"id": 4017354, "name": "Bacobampo", "state": "", "country": "MX", "coord": {"lon": -109.650002, "lat": 26.98333}}, {"id": 4017494, "name": "Barobampo", "state": "", "country": "MX", "coord": {"lon": -108.933327, "lat": 26.1}}, {"id": 4017546, "name": "Gonzales Ortega", "state": "", "country": "MX", "coord": {"lon": -102.48333, "lat": 23.183331}}, {"id": 4017549, "name": "Bandini", "state": "", "country": "MX", "coord": {"lon": -116.966667, "lat": 32.533329}}, {"id": 4017582, "name": "Ban\u00e1michi", "state": "", "country": "MX", "coord": {"lon": -110.216667, "lat": 30}}, {"id": 4017698, "name": "Estado de Baja California Sur", "state": "", "country": "MX", "coord": {"lon": -111.833328, "lat": 25.83333}}, {"id": 4017700, "name": "Estado de Baja California", "state": "", "country": "MX", "coord": {"lon": -115, "lat": 30}}, {"id": 4017728, "name": "Bah\u00eda de Kino", "state": "", "country": "MX", "coord": {"lon": -111.933327, "lat": 28.83333}}, {"id": 4017739, "name": "Bagojo Colectivo", "state": "", "country": "MX", "coord": {"lon": -109.116669, "lat": 25.866671}}, {"id": 4017743, "name": "Badiraguato", "state": "", "country": "MX", "coord": {"lon": -107.51667, "lat": 25.366671}}, {"id": 4017758, "name": "B\u00e1cum", "state": "", "country": "MX", "coord": {"lon": -110.083328, "lat": 27.549999}}, {"id": 4017764, "name": "Bacorehuis", "state": "", "country": "MX", "coord": {"lon": -109.083328, "lat": 26.316669}}, {"id": 4017924, "name": "Ayutla", "state": "", "country": "MX", "coord": {"lon": -104.333328, "lat": 20.116671}}, {"id": 4017957, "name": "Autl\u00e1n de Navarro", "state": "", "country": "MX", "coord": {"lon": -104.366669, "lat": 19.76667}}, {"id": 4017984, "name": "Atoyac de \u00c1lvarez", "state": "", "country": "MX", "coord": {"lon": -100.433327, "lat": 17.200001}}, {"id": 4017987, "name": "Atoyac", "state": "", "country": "MX", "coord": {"lon": -103.533333, "lat": 20.01667}}, {"id": 4017990, "name": "Atotonilquillo", "state": "", "country": "MX", "coord": {"lon": -103.133331, "lat": 20.4}}, {"id": 4017992, "name": "Atotonilco el Alto", "state": "", "country": "MX", "coord": {"lon": -102.51667, "lat": 20.549999}}, {"id": 4018025, "name": "Atequizatl\u00e1n", "state": "", "country": "MX", "coord": {"lon": -103.566673, "lat": 19.700001}}, {"id": 4018027, "name": "Atequiza", "state": "", "country": "MX", "coord": {"lon": -103.133331, "lat": 20.4}}, {"id": 4018043, "name": "Atemajac de Brizuela", "state": "", "country": "MX", "coord": {"lon": -103.699997, "lat": 20.183331}}, {"id": 4018100, "name": "Asientos", "state": "", "country": "MX", "coord": {"lon": -102.099998, "lat": 22.23333}}, {"id": 4018109, "name": "Ascenci\u00f3n", "state": "", "country": "MX", "coord": {"lon": -107.98333, "lat": 31.1}}, {"id": 4018127, "name": "Arteaga", "state": "", "country": "MX", "coord": {"lon": -100.849998, "lat": 25.466669}}, {"id": 4018128, "name": "Arteaga", "state": "", "country": "MX", "coord": {"lon": -102.416672, "lat": 18.466669}}, {"id": 4018227, "name": "Ciudad de Armer\u00eda", "state": "", "country": "MX", "coord": {"lon": -103.966667, "lat": 18.933331}}, {"id": 4018251, "name": "Villa de Arista", "state": "", "country": "MX", "coord": {"lon": -100.833328, "lat": 22.65}}, {"id": 4018254, "name": "Ario de Rosales", "state": "", "country": "MX", "coord": {"lon": -101.716667, "lat": 19.200001}}, {"id": 4018255, "name": "Ario de Ray\u00f3n", "state": "", "country": "MX", "coord": {"lon": -102.349998, "lat": 20.033331}}, {"id": 4018320, "name": "Arcelia", "state": "", "country": "MX", "coord": {"lon": -100.26667, "lat": 18.283331}}, {"id": 4018348, "name": "Arandas", "state": "", "country": "MX", "coord": {"lon": -102.349998, "lat": 20.700001}}, {"id": 4018380, "name": "Apozol", "state": "", "country": "MX", "coord": {"lon": -103.099998, "lat": 21.48333}}, {"id": 4018390, "name": "Ciudad Apodaca", "state": "", "country": "MX", "coord": {"lon": -100.199997, "lat": 25.76667}}, {"id": 4018400, "name": "Apatzing\u00e1n", "state": "", "country": "MX", "coord": {"lon": -102.349998, "lat": 19.08333}}, {"id": 4018403, "name": "Apaseo el Grande", "state": "", "country": "MX", "coord": {"lon": -100.699997, "lat": 20.566669}}, {"id": 4018404, "name": "Apaseo el Alto", "state": "", "country": "MX", "coord": {"lon": -100.616669, "lat": 20.450001}}, {"id": 4018430, "name": "Ant\u00fanez", "state": "", "country": "MX", "coord": {"lon": -102.199997, "lat": 19.01667}}, {"id": 4018435, "name": "Antonio Escobedo", "state": "", "country": "MX", "coord": {"lon": -104.01667, "lat": 20.799999}}, {"id": 4018436, "name": "San Juanito de Escobedo", "state": "", "country": "MX", "coord": {"lon": -103.949997, "lat": 20.76667}}, {"id": 4018499, "name": "Angostura", "state": "", "country": "MX", "coord": {"lon": -108.183327, "lat": 25.366671}}, {"id": 4018518, "name": "Angamacutiro de la Uni\u00f3n", "state": "", "country": "MX", "coord": {"lon": -101.683327, "lat": 20.16667}}, {"id": 4018519, "name": "Angahu\u00e1n", "state": "", "country": "MX", "coord": {"lon": -102.183327, "lat": 19.549999}}, {"id": 4018543, "name": "An\u00e1huac", "state": "", "country": "MX", "coord": {"lon": -106.75, "lat": 28.5}}, {"id": 4018582, "name": "Ameca", "state": "", "country": "MX", "coord": {"lon": -104.033333, "lat": 20.549999}}, {"id": 4018584, "name": "Amealco", "state": "", "country": "MX", "coord": {"lon": -100.150002, "lat": 20.183331}}, {"id": 4018592, "name": "Amatl\u00e1n de Ca\u00f1as", "state": "", "country": "MX", "coord": {"lon": -104.400002, "lat": 20.799999}}, {"id": 4018597, "name": "Amatit\u00e1n", "state": "", "country": "MX", "coord": {"lon": -103.716667, "lat": 20.83333}}, {"id": 4018599, "name": "Amatepec", "state": "", "country": "MX", "coord": {"lon": -100.150002, "lat": 18.65}}, {"id": 4018601, "name": "Amazcala", "state": "", "country": "MX", "coord": {"lon": -100.26667, "lat": 20.700001}}, {"id": 4018625, "name": "Amanalco de Becerra", "state": "", "country": "MX", "coord": {"lon": -100.01667, "lat": 19.316669}}, {"id": 4018648, "name": "\u00c1lvaro Obreg\u00f3n", "state": "", "country": "MX", "coord": {"lon": -101.083328, "lat": 19.83333}}, {"id": 4018654, "name": "Alvares", "state": "", "country": "MX", "coord": {"lon": -100.633331, "lat": 22.200001}}, {"id": 4018700, "name": "Altar", "state": "", "country": "MX", "coord": {"lon": -111.816673, "lat": 30.700001}}, {"id": 4018711, "name": "Altamirano", "state": "", "country": "MX", "coord": {"lon": -101.949997, "lat": 20.73333}}, {"id": 4018737, "name": "Almoloya de las Granadas", "state": "", "country": "MX", "coord": {"lon": -100.116669, "lat": 18.950001}}, {"id": 4018761, "name": "Allende", "state": "", "country": "MX", "coord": {"lon": -100.849998, "lat": 28.33333}}, {"id": 4018762, "name": "Ciudad de Allende", "state": "", "country": "MX", "coord": {"lon": -100.01667, "lat": 25.283331}}, {"id": 4018786, "name": "Alhuey", "state": "", "country": "MX", "coord": {"lon": -108.116669, "lat": 25.366671}}, {"id": 4018812, "name": "Alfajayucan", "state": "", "country": "MX", "coord": {"lon": -100.216667, "lat": 20.75}}, {"id": 4018833, "name": "Aldana", "state": "", "country": "MX", "coord": {"lon": -106.566673, "lat": 28.5}}, {"id": 4018835, "name": "Aldama", "state": "", "country": "MX", "coord": {"lon": -101.316673, "lat": 20.816669}}, {"id": 4018845, "name": "Alcaraces", "state": "", "country": "MX", "coord": {"lon": -103.583328, "lat": 19.35}}, {"id": 4018904, "name": "\u00c1lamos", "state": "", "country": "MX", "coord": {"lon": -108.933327, "lat": 27.01667}}, {"id": 4019039, "name": "Ajuchitl\u00e1n del Progreso", "state": "", "country": "MX", "coord": {"lon": -100.483528, "lat": 18.15189}}, {"id": 4019042, "name": "Ajuchitl\u00e1n", "state": "", "country": "MX", "coord": {"lon": -100.01667, "lat": 20.716669}}, {"id": 4019054, "name": "Ajijic", "state": "", "country": "MX", "coord": {"lon": -103.283333, "lat": 20.299999}}, {"id": 4019082, "name": "Ahualulco de Mercado", "state": "", "country": "MX", "coord": {"lon": -103.974609, "lat": 20.70137}}, {"id": 4019085, "name": "Ahualulco del Sonido Trece", "state": "", "country": "MX", "coord": {"lon": -101.166672, "lat": 22.4}}, {"id": 4019089, "name": "Ahuacatl\u00e1n", "state": "", "country": "MX", "coord": {"lon": -104.48333, "lat": 21.049999}}, {"id": 4019091, "name": "Ahuacap\u00e1n", "state": "", "country": "MX", "coord": {"lon": -104.333328, "lat": 19.66667}}, {"id": 4019098, "name": "Ahome", "state": "", "country": "MX", "coord": {"lon": -109.183327, "lat": 25.91667}}, {"id": 4019152, "name": "Aguililla", "state": "", "country": "MX", "coord": {"lon": -102.73333, "lat": 18.73333}}, {"id": 4019219, "name": "Agua Verde", "state": "", "country": "MX", "coord": {"lon": -106.050003, "lat": 22.9}}, {"id": 4019231, "name": "Estado de Aguascalientes", "state": "", "country": "MX", "coord": {"lon": -102.5, "lat": 22}}, {"id": 4019233, "name": "Aguascalientes", "state": "", "country": "MX", "coord": {"lon": -102.300003, "lat": 21.883329}}, {"id": 4019260, "name": "Agua Prieta", "state": "", "country": "MX", "coord": {"lon": -109.566673, "lat": 31.299999}}, {"id": 4019659, "name": "Agua Blanca", "state": "", "country": "MX", "coord": {"lon": -109.716667, "lat": 27.1}}, {"id": 4019727, "name": "Adolfo Ru\u00edz Cort\u00ednes", "state": "", "country": "MX", "coord": {"lon": -108.75, "lat": 25.75}}, {"id": 4019757, "name": "Acu\u00edtzio del Canje", "state": "", "country": "MX", "coord": {"lon": -101.333328, "lat": 19.48333}}, {"id": 4019790, "name": "Acatl\u00e1n de Ju\u00e1rez", "state": "", "country": "MX", "coord": {"lon": -103.583328, "lat": 20.41667}}, {"id": 4019807, "name": "Acatic", "state": "", "country": "MX", "coord": {"lon": -102.883331, "lat": 20.783331}}, {"id": 4019819, "name": "Acaponeta", "state": "", "country": "MX", "coord": {"lon": -105.359444, "lat": 22.496389}}, {"id": 4019827, "name": "Ac\u00e1mbaro", "state": "", "country": "MX", "coord": {"lon": -100.73333, "lat": 20.033331}}, {"id": 4019867, "name": "Abasolo", "state": "", "country": "MX", "coord": {"lon": -100.400002, "lat": 25.950001}}, {"id": 4019869, "name": "Abasolo", "state": "", "country": "MX", "coord": {"lon": -101.51667, "lat": 20.450001}}, {"id": 4020109, "name": "Atuona", "state": "", "country": "PF", "coord": {"lon": -139.033325, "lat": -9.8}}, {"id": 4020386, "name": "Colonia Ju\u00e1rez", "state": "", "country": "MX", "coord": {"lon": -104.027496, "lat": 24.82056}}, {"id": 4020409, "name": "Bachigualato", "state": "", "country": "MX", "coord": {"lon": -107.463058, "lat": 24.773331}}, {"id": 4020480, "name": "La Presa", "state": "", "country": "MX", "coord": {"lon": -105.392502, "lat": 22.343889}}, {"id": 4021223, "name": "San Jose de Gracia", "state": "", "country": "MX", "coord": {"lon": -102.416672, "lat": 22.15}}, {"id": 4021273, "name": "La Providencia de Arriba", "state": "", "country": "MX", "coord": {"lon": -102.32917, "lat": 21.716669}}, {"id": 4021449, "name": "Villa Ju\u00e1rez", "state": "", "country": "MX", "coord": {"lon": -102.066673, "lat": 22.116671}}, {"id": 4021858, "name": "Guerrero Negro", "state": "", "country": "MX", "coord": {"lon": -114.061111, "lat": 27.97694}}, {"id": 4022333, "name": "Chametla", "state": "", "country": "MX", "coord": {"lon": -110.377777, "lat": 24.09639}}, {"id": 4022452, "name": "Santa Rosa", "state": "", "country": "MX", "coord": {"lon": -109.717499, "lat": 23.093611}}, {"id": 4022970, "name": "Victoria", "state": "", "country": "MX", "coord": {"lon": -100.211937, "lat": 21.210831}}, {"id": 4022983, "name": "Doctor Mora", "state": "", "country": "MX", "coord": {"lon": -100.3125, "lat": 21.14167}}, {"id": 4023117, "name": "Dolores Hidalgo Cuna de la Independencia Nacional", "state": "", "country": "MX", "coord": {"lon": -100.930832, "lat": 21.156111}}, {"id": 4023305, "name": "San Felipe Torres Mochas [Ganader\u00eda]", "state": "", "country": "MX", "coord": {"lon": -101.492218, "lat": 21.27}}, {"id": 4023581, "name": "R\u00edo Verde", "state": "", "country": "MX", "coord": {"lon": -100.169441, "lat": 21.62417}}, {"id": 4023835, "name": "Maravat\u00edo del Encinal", "state": "", "country": "MX", "coord": {"lon": -100.960281, "lat": 20.206671}}, {"id": 4023964, "name": "Pastor Ort\u00edz", "state": "", "country": "MX", "coord": {"lon": -101.593613, "lat": 20.30389}}, {"id": 4024174, "name": "La Palmita", "state": "", "country": "MX", "coord": {"lon": -100.567497, "lat": 20.74472}}, {"id": 4024263, "name": "Sarabia", "state": "", "country": "MX", "coord": {"lon": -101.092499, "lat": 20.509171}}, {"id": 4024366, "name": "Rancho Nuevo de la Cruz", "state": "", "country": "MX", "coord": {"lon": -101.51944, "lat": 20.666109}}, {"id": 4024597, "name": "Colonia Nuevo M\u00e9xico", "state": "", "country": "MX", "coord": {"lon": -101.484169, "lat": 20.983061}}, {"id": 4024651, "name": "Ca\u00f1ada de la Virgen", "state": "", "country": "MX", "coord": {"lon": -100.938057, "lat": 20.83444}}, {"id": 4024861, "name": "La Ermita", "state": "", "country": "MX", "coord": {"lon": -101.993607, "lat": 20.413891}}, {"id": 4024910, "name": "San Crist\u00f3bal de Ayala", "state": "", "country": "MX", "coord": {"lon": -101.476387, "lat": 20.333611}}, {"id": 4024946, "name": "Victoria de Cortazar", "state": "", "country": "MX", "coord": {"lon": -101.029999, "lat": 20.336941}}, {"id": 4025025, "name": "Isaac Arriaga (Santa Ana Mancera)", "state": "", "country": "MX", "coord": {"lon": -101.5, "lat": 20.25}}, {"id": 4025093, "name": "Irimbo", "state": "", "country": "MX", "coord": {"lon": -100.479172, "lat": 19.700001}}, {"id": 4025177, "name": "El Venado", "state": "", "country": "MX", "coord": {"lon": -101.030563, "lat": 19.808331}}, {"id": 4025193, "name": "Jaripeo", "state": "", "country": "MX", "coord": {"lon": -101.086113, "lat": 19.674999}}, {"id": 4025707, "name": "Tecario", "state": "", "country": "MX", "coord": {"lon": -101.148613, "lat": 18.70278}}, {"id": 4025994, "name": "Coahuayana de Hidalgo", "state": "", "country": "MX", "coord": {"lon": -103.658333, "lat": 18.700001}}, {"id": 4026072, "name": "Playa Azul", "state": "", "country": "MX", "coord": {"lon": -102.344437, "lat": 17.98333}}, {"id": 4026075, "name": "Guacamayas", "state": "", "country": "MX", "coord": {"lon": -102.216667, "lat": 18.01667}}, {"id": 4026082, "name": "Ciudad L\u00e1zaro C\u00e1rdenas", "state": "", "country": "MX", "coord": {"lon": -102.199997, "lat": 17.95833}}, {"id": 4026719, "name": "San Nicol\u00e1s Guadalupe", "state": "", "country": "MX", "coord": {"lon": -100.033333, "lat": 19.612499}}, {"id": 4026952, "name": "Pantla", "state": "", "country": "MX", "coord": {"lon": -101.616669, "lat": 17.75}}, {"id": 4026977, "name": "Playa Blanca", "state": "", "country": "MX", "coord": {"lon": -101.45076, "lat": 17.579559}}, {"id": 4027138, "name": "San Jos\u00e9 Poliutla", "state": "", "country": "MX", "coord": {"lon": -100.400002, "lat": 18.26667}}, {"id": 4028129, "name": "Tecom\u00e1n", "state": "", "country": "MX", "coord": {"lon": -103.905563, "lat": 18.913891}}, {"id": 4029282, "name": "Las Lomas", "state": "", "country": "MX", "coord": {"lon": -105.383331, "lat": 20.92083}}, {"id": 4029478, "name": "Pe\u00f1uelas", "state": "", "country": "MX", "coord": {"lon": -100.400002, "lat": 20.633329}}, {"id": 4030556, "name": "Rikitea", "state": "", "country": "PF", "coord": {"lon": -134.969177, "lat": -23.120279}}, {"id": 4030656, "name": "French Polynesia", "state": "", "country": "PF", "coord": {"lon": -140, "lat": -15}}, {"id": 4030699, "name": "Pitcairn, Henderson, Ducie and Oeno Islands", "state": "", "country": "PN", "coord": {"lon": -130.100006, "lat": -25.066669}}, {"id": 4030723, "name": "Adamstown", "state": "", "country": "PN", "coord": {"lon": -130.101471, "lat": -25.065969}}, {"id": 4030754, "name": "Hanga Roa", "state": "", "country": "CL", "coord": {"lon": -109.433327, "lat": -27.15}}, {"id": 4030939, "name": "London Village", "state": "", "country": "KI", "coord": {"lon": -157.475021, "lat": 1.98487}}, {"id": 4030945, "name": "Republic of Kiribati", "state": "", "country": "KI", "coord": {"lon": 172.983994, "lat": 1.421}}, {"id": 4031110, "name": "Fale old settlement", "state": "", "country": "TK", "coord": {"lon": -171.24675, "lat": -9.38516}}, {"id": 4031574, "name": "Provideniya", "state": "", "country": "RU", "coord": {"lon": -173.300003, "lat": 64.383331}}, {"id": 4031625, "name": "Lorino", "state": "", "country": "RU", "coord": {"lon": -171.716675, "lat": 65.5}}, {"id": 4031637, "name": "Lavrentiya", "state": "", "country": "RU", "coord": {"lon": -171, "lat": 65.583328}}, {"id": 4031681, "name": "Urochishche Kelyuke", "state": "", "country": "RU", "coord": {"lon": -179.183334, "lat": 68.833328}}, {"id": 4031742, "name": "Egvekinot", "state": "", "country": "RU", "coord": {"lon": -179.166672, "lat": 66.316673}}, {"id": 4032231, "name": "Vava\u2018u", "state": "", "country": "TO", "coord": {"lon": -174, "lat": -18.66667}}, {"id": 4032243, "name": "Vaini", "state": "", "country": "TO", "coord": {"lon": -175.199997, "lat": -21.200001}}, {"id": 4032279, "name": "Tongatapu", "state": "", "country": "TO", "coord": {"lon": -175.166672, "lat": -21.16667}}, {"id": 4032283, "name": "Kingdom of Tonga", "state": "", "country": "TO", "coord": {"lon": -175, "lat": -20}}, {"id": 4032323, "name": "Talafo\u2018ou", "state": "", "country": "TO", "coord": {"lon": -175.100006, "lat": -21.133329}}, {"id": 4032369, "name": "Pangai", "state": "", "country": "TO", "coord": {"lon": -174.350006, "lat": -19.799999}}, {"id": 4032384, "name": "\u2018Ohonua", "state": "", "country": "TO", "coord": {"lon": -174.949997, "lat": -21.33333}}, {"id": 4032402, "name": "Nuku\u2018alofa", "state": "", "country": "TO", "coord": {"lon": -175.199997, "lat": -21.133329}}, {"id": 4032420, "name": "Neiafu", "state": "", "country": "TO", "coord": {"lon": -173.983337, "lat": -18.65}}, {"id": 4032623, "name": "Haveluloto", "state": "", "country": "TO", "coord": {"lon": -175.216675, "lat": -21.15}}, {"id": 4032804, "name": "Waitangi", "state": "", "country": "NZ", "coord": {"lon": -176.559723, "lat": -43.953529}}, {"id": 4032966, "name": "Karewa", "state": "", "country": "NZ", "coord": {"lon": -176.466675, "lat": -43.799999}}, {"id": 4033077, "name": "Vaitape", "state": "", "country": "PF", "coord": {"lon": -151.75, "lat": -16.51667}}, {"id": 4033094, "name": "Vairao", "state": "", "country": "PF", "coord": {"lon": -149.283325, "lat": -17.783331}}, {"id": 4033205, "name": "Uturoa", "state": "", "country": "PF", "coord": {"lon": -151.433334, "lat": -16.73333}}, {"id": 4033295, "name": "Tohautu", "state": "", "country": "PF", "coord": {"lon": -149.316666, "lat": -17.75}}, {"id": 4033356, "name": "Tiarei", "state": "", "country": "PF", "coord": {"lon": -149.333328, "lat": -17.533331}}, {"id": 4033375, "name": "Tevaitoa", "state": "", "country": "PF", "coord": {"lon": -151.5, "lat": -16.783331}}, {"id": 4033514, "name": "Teavaro", "state": "", "country": "PF", "coord": {"lon": -149.766663, "lat": -17.5}}, {"id": 4033543, "name": "Teahupoo", "state": "", "country": "PF", "coord": {"lon": -149.266663, "lat": -17.83333}}, {"id": 4033557, "name": "Tautira", "state": "", "country": "PF", "coord": {"lon": -149.149994, "lat": -17.73333}}, {"id": 4033566, "name": "Taunoa", "state": "", "country": "PF", "coord": {"lon": -149.350006, "lat": -17.75}}, {"id": 4033683, "name": "Sainte Am\u00e9lie", "state": "", "country": "PF", "coord": {"lon": -149.566666, "lat": -17.533331}}, {"id": 4033779, "name": "Punaauia", "state": "", "country": "PF", "coord": {"lon": -149.600006, "lat": -17.633329}}, {"id": 4033792, "name": "Pueu", "state": "", "country": "PF", "coord": {"lon": -149.216675, "lat": -17.73333}}, {"id": 4033838, "name": "Pirae", "state": "", "country": "PF", "coord": {"lon": -149.533325, "lat": -17.51667}}, {"id": 4033910, "name": "Papetoai", "state": "", "country": "PF", "coord": {"lon": -149.87291, "lat": -17.49613}}, {"id": 4033936, "name": "Papeete", "state": "", "country": "PF", "coord": {"lon": -149.566666, "lat": -17.533331}}, {"id": 4033951, "name": "Papao", "state": "", "country": "PF", "coord": {"lon": -149.550003, "lat": -17.75}}, {"id": 4033958, "name": "Paopao", "state": "", "country": "PF", "coord": {"lon": -149.816666, "lat": -17.5}}, {"id": 4034005, "name": "Paea", "state": "", "country": "PF", "coord": {"lon": -149.583328, "lat": -17.683331}}, {"id": 4034022, "name": "Otutara", "state": "", "country": "PF", "coord": {"lon": -149.416672, "lat": -17.76667}}, {"id": 4034036, "name": "Otepa", "state": "", "country": "PF", "coord": {"lon": -140.899994, "lat": -18.116671}}, {"id": 4034188, "name": "Moerai", "state": "", "country": "PF", "coord": {"lon": -151.333328, "lat": -22.433331}}, {"id": 4034307, "name": "Mahina", "state": "", "country": "PF", "coord": {"lon": -149.488983, "lat": -17.506479}}, {"id": 4034402, "name": "Hitiaa", "state": "", "country": "PF", "coord": {"lon": -149.300003, "lat": -17.6}}, {"id": 4034438, "name": "Haapiti", "state": "", "country": "PF", "coord": {"lon": -149.866669, "lat": -17.566669}}, {"id": 4034451, "name": "Fitii", "state": "", "country": "PF", "coord": {"lon": -151.033325, "lat": -16.73333}}, {"id": 4034496, "name": "Fare", "state": "", "country": "PF", "coord": {"lon": -151.016663, "lat": -16.700001}}, {"id": 4034548, "name": "Faone", "state": "", "country": "PF", "coord": {"lon": -149.300003, "lat": -17.66667}}, {"id": 4034551, "name": "Faanui", "state": "", "country": "PF", "coord": {"lon": -151.75, "lat": -16.48333}}, {"id": 4034561, "name": "Faaa", "state": "", "country": "PF", "coord": {"lon": -149.600006, "lat": -17.549999}}, {"id": 4034636, "name": "Arue", "state": "", "country": "PF", "coord": {"lon": -149.5, "lat": -17.51667}}, {"id": 4034684, "name": "Anua", "state": "", "country": "PF", "coord": {"lon": -149.5, "lat": -23.383329}}, {"id": 4034688, "name": "Anau", "state": "", "country": "PF", "coord": {"lon": -151.733337, "lat": -16.51667}}, {"id": 4034741, "name": "Afareaitu", "state": "", "country": "PF", "coord": {"lon": -149.783325, "lat": -17.549999}}, {"id": 4034745, "name": "Afaahiti", "state": "", "country": "PF", "coord": {"lon": -149.283325, "lat": -17.75}}, {"id": 4034749, "name": "Wallis et Futuna", "state": "", "country": "WF", "coord": {"lon": -176.199997, "lat": -13.3}}, {"id": 4034759, "name": "Circonscription d'Uv\u00e9a", "state": "", "country": "WF", "coord": {"lon": -176.199997, "lat": -13.3}}, {"id": 4034778, "name": "Sigav\u00e9", "state": "", "country": "WF", "coord": {"lon": -178.166672, "lat": -14.3}}, {"id": 4034821, "name": "Mata-Utu", "state": "", "country": "WF", "coord": {"lon": -176.17453, "lat": -13.28163}}, {"id": 4034858, "name": "Haafusia", "state": "", "country": "WF", "coord": {"lon": -176.149994, "lat": -13.3}}, {"id": 4034894, "name": "Independent State of Samoa", "state": "", "country": "WS", "coord": {"lon": -172.178314, "lat": -13.8031}}, {"id": 4034903, "name": "Vaiusu", "state": "", "country": "WS", "coord": {"lon": -171.79332, "lat": -13.82678}}, {"id": 4034908, "name": "Vaitele", "state": "", "country": "WS", "coord": {"lon": -171.802536, "lat": -13.81964}}, {"id": 4034948, "name": "Utuloa", "state": "", "country": "WS", "coord": {"lon": -172.63501, "lat": -13.50813}}, {"id": 4034977, "name": "Tuamasaga", "state": "", "country": "WS", "coord": {"lon": -171.800003, "lat": -13.91667}}, {"id": 4035013, "name": "Solosolo", "state": "", "country": "WS", "coord": {"lon": -171.641815, "lat": -13.87504}}, {"id": 4035019, "name": "Siusega", "state": "", "country": "WS", "coord": {"lon": -171.813965, "lat": -13.84432}}, {"id": 4035059, "name": "Satapuala", "state": "", "country": "WS", "coord": {"lon": -171.97963, "lat": -13.83535}}, {"id": 4035118, "name": "Safotu", "state": "", "country": "WS", "coord": {"lon": -172.401764, "lat": -13.45132}}, {"id": 4035174, "name": "Nofoalii", "state": "", "country": "WS", "coord": {"lon": -171.958725, "lat": -13.8217}}, {"id": 4035209, "name": "Matavai", "state": "", "country": "WS", "coord": {"lon": -171.647675, "lat": -14.03208}},