[{"id": 520204, "name": "Nizhnyaya Tura", "state": "", "country": "RU", "coord": {"lon": 59.811798, "lat": 58.629299}}, {"id": 520209, "name": "Nizhnyaya Toz\u2019ma", "state": "", "country": "RU", "coord": {"lon": 45.316666, "lat": 60.599998}}, {"id": 520273, "name": "Nizhnyaya Pel\u2019shma", "state": "", "country": "RU", "coord": {"lon": 43.24778, "lat": 60.144169}}, {"id": 520278, "name": "Nizhnepavlovka", "state": "", "country": "RU", "coord": {"lon": 54.80146, "lat": 51.713242}}, {"id": 520318, "name": "Nizhnyaya Maktama", "state": "", "country": "RU", "coord": {"lon": 52.428101, "lat": 54.86356}}, {"id": 520372, "name": "Nizhnekalinovskiy", "state": "", "country": "RU", "coord": {"lon": 42.789165, "lat": 48.59222}}, {"id": 520473, "name": "Nizhniy Ufaley", "state": "", "country": "RU", "coord": {"lon": 59.984169, "lat": 55.915279}}, {"id": 520494, "name": "Nizhny Tagil", "state": "", "country": "RU", "coord": {"lon": 59.965, "lat": 57.919441}}, {"id": 520552, "name": "Nizhniy Odes", "state": "", "country": "RU", "coord": {"lon": 54.85598, "lat": 63.644508}}, {"id": 520555, "name": "Nizhniy Novgorod", "state": "", "country": "RU", "coord": {"lon": 44.002048, "lat": 56.328674}}, {"id": 520564, "name": "Nizhniy Mamon", "state": "", "country": "RU", "coord": {"lon": 40.508301, "lat": 50.193699}}, {"id": 520574, "name": "Nizhniy Lomov", "state": "", "country": "RU", "coord": {"lon": 43.67664, "lat": 53.530411}}, {"id": 520588, "name": "Nizhniy Krasnyy Yar", "state": "", "country": "RU", "coord": {"lon": 45.302776, "lat": 56.150833}}, {"id": 520599, "name": "Nizhniy Kislyay", "state": "", "country": "RU", "coord": {"lon": 40.171902, "lat": 50.849701}}, {"id": 520627, "name": "Nizhnegoveynyy", "state": "", "country": "RU", "coord": {"lon": 40.34211, "lat": 48.28447}}, {"id": 520642, "name": "Nizhniye Vyazovyye", "state": "", "country": "RU", "coord": {"lon": 48.524761, "lat": 55.798771}}, {"id": 520667, "name": "Nizhniye Sergi", "state": "", "country": "RU", "coord": {"lon": 59.303329, "lat": 56.661388}}, {"id": 520718, "name": "Nizhniye Kotly", "state": "", "country": "RU", "coord": {"lon": 37.611668, "lat": 55.68639}}, {"id": 520749, "name": "Dubrovki", "state": "", "country": "RU", "coord": {"lon": 45.84861, "lat": 52.946667}}, {"id": 520769, "name": "Nizhniye Achaluki", "state": "", "country": "RU", "coord": {"lon": 44.759079, "lat": 43.402802}}, {"id": 520775, "name": "Nizhniy Dzhengutay", "state": "", "country": "RU", "coord": {"lon": 47.244881, "lat": 42.700081}}, {"id": 520783, "name": "Nizhniy Chir", "state": "", "country": "RU", "coord": {"lon": 43.086498, "lat": 48.35973}}, {"id": 520784, "name": "Nizhniy Cherek", "state": "", "country": "RU", "coord": {"lon": 43.913891, "lat": 43.513062}}, {"id": 520794, "name": "Nizhniy Bessovets", "state": "", "country": "RU", "coord": {"lon": 34.166672, "lat": 61.883331}}, {"id": 520798, "name": "Nizhniy Baskunchak", "state": "", "country": "RU", "coord": {"lon": 46.831051, "lat": 48.21978}}, {"id": 520806, "name": "Nizhniy Arkhyz", "state": "", "country": "RU", "coord": {"lon": 41.455559, "lat": 43.676331}}, {"id": 520841, "name": "Nizhneye Velino", "state": "", "country": "RU", "coord": {"lon": 38.211388, "lat": 55.433887}}, {"id": 520865, "name": "Nizhneye Shakhlovo", "state": "", "country": "RU", "coord": {"lon": 37.264999, "lat": 55.019722}}, {"id": 520907, "name": "Nizhneye Myachkovo", "state": "", "country": "RU", "coord": {"lon": 37.973331, "lat": 55.541111}}, {"id": 520948, "name": "Nizhneye Khoroshovo", "state": "", "country": "RU", "coord": {"lon": 38.793331, "lat": 55.144444}}, {"id": 520955, "name": "Nizhneye Kazanishche", "state": "", "country": "RU", "coord": {"lon": 47.160271, "lat": 42.763691}}, {"id": 520977, "name": "Nizhneye Dzhemete", "state": "", "country": "RU", "coord": {"lon": 37.32111, "lat": 44.921391}}, {"id": 521002, "name": "Nizhneye Akcherino", "state": "", "country": "RU", "coord": {"lon": 46.283333, "lat": 56.216667}}, {"id": 521020, "name": "Nizhnevo", "state": "", "country": "RU", "coord": {"lon": 37.099998, "lat": 56.533329}}, {"id": 521022, "name": "Vasil\u2019yevskoye", "state": "", "country": "RU", "coord": {"lon": 36.555401, "lat": 56.0298}}, {"id": 521031, "name": "Nizhnetroitskiy", "state": "", "country": "RU", "coord": {"lon": 53.683289, "lat": 54.33852}}, {"id": 521054, "name": "Nizhne-Romashkovo", "state": "", "country": "RU", "coord": {"lon": 37.333332, "lat": 55.733334}}, {"id": 521072, "name": "Nizhneosinovskiy", "state": "", "country": "RU", "coord": {"lon": 42.784721, "lat": 48.625557}}, {"id": 521118, "name": "Nizhnekamsk", "state": "", "country": "RU", "coord": {"lon": 51.824471, "lat": 55.63657}}, {"id": 521123, "name": "Nizhneivkino", "state": "", "country": "RU", "coord": {"lon": 49.52137, "lat": 58.193981}}, {"id": 521136, "name": "Nizhneglebovka", "state": "", "country": "RU", "coord": {"lon": 39.943611, "lat": 46.645832}}, {"id": 521148, "name": "Nizhnedevitsk", "state": "", "country": "RU", "coord": {"lon": 38.3657, "lat": 51.541901}}, {"id": 521149, "name": "Nizhne-Derevyannoye", "state": "", "country": "RU", "coord": {"lon": 34.633331, "lat": 61.616669}}, {"id": 521192, "name": "Nizhegorodskaya", "state": "", "country": "RU", "coord": {"lon": 39.923401, "lat": 44.269199}}, {"id": 521316, "name": "Niny", "state": "", "country": "RU", "coord": {"lon": 43.948891, "lat": 44.487782}}, {"id": 521374, "name": "Nikul\u2019skoye", "state": "", "country": "RU", "coord": {"lon": 37.683334, "lat": 56.016666}}, {"id": 521375, "name": "Nikul\u2019skoye", "state": "", "country": "RU", "coord": {"lon": 38.687222, "lat": 55.169724}}, {"id": 521402, "name": "Nikulino", "state": "", "country": "RU", "coord": {"lon": 44.232777, "lat": 58.093334}}, {"id": 521413, "name": "Nikulino", "state": "", "country": "RU", "coord": {"lon": 38.633331, "lat": 56.116669}}, {"id": 521420, "name": "Nikulino", "state": "", "country": "RU", "coord": {"lon": 37.435001, "lat": 55.343613}}, {"id": 521421, "name": "Nikulino", "state": "", "country": "RU", "coord": {"lon": 38.225555, "lat": 55.326111}}, {"id": 521428, "name": "Nikulino", "state": "", "country": "RU", "coord": {"lon": 31.533333, "lat": 54.599998}}, {"id": 521460, "name": "Nikonovskoye", "state": "", "country": "RU", "coord": {"lon": 38.162777, "lat": 55.279167}}, {"id": 521488, "name": "Nikolo-Uryupino", "state": "", "country": "RU", "coord": {"lon": 37.203609, "lat": 55.798328}}, {"id": 521513, "name": "Nikol\u2019skoye", "state": "", "country": "RU", "coord": {"lon": 42.524445, "lat": 59.493057}}, {"id": 521561, "name": "Nikol\u2019skoye", "state": "", "country": "RU", "coord": {"lon": 36.716667, "lat": 56.150002}}, {"id": 521569, "name": "Nikol\u2019sko-Trubetskoye", "state": "", "country": "RU", "coord": {"lon": 37.965, "lat": 55.835556}}, {"id": 521700, "name": "Nikol\u2019sko-Arkhangel\u2019skoye", "state": "", "country": "RU", "coord": {"lon": 37.899166, "lat": 55.753613}}, {"id": 521715, "name": "Nikol\u2019skiye Vyselki", "state": "", "country": "RU", "coord": {"lon": 38.733334, "lat": 55.366669}}, {"id": 521739, "name": "Nikol\u2019skoye", "state": "", "country": "RU", "coord": {"lon": 55.28397, "lat": 53.477211}}, {"id": 521773, "name": "Nikol\u2019sk", "state": "", "country": "RU", "coord": {"lon": 45.457432, "lat": 59.53532}}, {"id": 521776, "name": "Nikol\u2019sk", "state": "", "country": "RU", "coord": {"lon": 46.071178, "lat": 53.718861}}, {"id": 521801, "name": "Nikolo-Makarovo", "state": "", "country": "RU", "coord": {"lon": 43.58139, "lat": 57.655277}}, {"id": 521807, "name": "Nikologory", "state": "", "country": "RU", "coord": {"lon": 41.99218, "lat": 56.1413}}, {"id": 521814, "name": "Nikolo-Ber\u00ebzovka", "state": "", "country": "RU", "coord": {"lon": 54.155731, "lat": 56.124222}}, {"id": 521821, "name": "Nikolina Gora", "state": "", "country": "RU", "coord": {"lon": 37.041389, "lat": 55.734444}}, {"id": 521870, "name": "Nikolayevskaya", "state": "", "country": "RU", "coord": {"lon": 41.5023, "lat": 47.613911}}, {"id": 521874, "name": "Nikolayevsk", "state": "", "country": "RU", "coord": {"lon": 45.45953, "lat": 50.02824}}, {"id": 521901, "name": "Nikolayevka", "state": "", "country": "RU", "coord": {"lon": 37.933334, "lat": 55.799999}}, {"id": 521913, "name": "Nikolayevka", "state": "", "country": "RU", "coord": {"lon": 41.700001, "lat": 55.066666}}, {"id": 521931, "name": "Nikolayevka", "state": "", "country": "RU", "coord": {"lon": 45.144402, "lat": 54.1451}}, {"id": 521966, "name": "Nikolayevka", "state": "", "country": "RU", "coord": {"lon": 47.204102, "lat": 53.125702}}, {"id": 522021, "name": "Nikolayevka", "state": "", "country": "RU", "coord": {"lon": 56.017776, "lat": 51.989723}}, {"id": 522072, "name": "Nikola-Trostino", "state": "", "country": "RU", "coord": {"lon": 41.066666, "lat": 57.716667}}, {"id": 522080, "name": "Nikola-Lenivets", "state": "", "country": "RU", "coord": {"lon": 35.60133, "lat": 54.749432}}, {"id": 522103, "name": "Nikitskoye", "state": "", "country": "RU", "coord": {"lon": 36.716667, "lat": 56.083332}}, {"id": 522104, "name": "Nikitskoye", "state": "", "country": "RU", "coord": {"lon": 39.133331, "lat": 55.533333}}, {"id": 522106, "name": "Nikitskoye", "state": "", "country": "RU", "coord": {"lon": 38.465, "lat": 55.301666}}, {"id": 522163, "name": "Nikitino", "state": "", "country": "RU", "coord": {"lon": 44.433334, "lat": 58.166668}}, {"id": 522170, "name": "Nikitino", "state": "", "country": "RU", "coord": {"lon": 40.599998, "lat": 56.616669}}, {"id": 522212, "name": "Nikity", "state": "", "country": "RU", "coord": {"lon": 36.200001, "lat": 56.066666}}, {"id": 522239, "name": "Nikiforovo", "state": "", "country": "RU", "coord": {"lon": 38.950001, "lat": 56.049999}}, {"id": 522241, "name": "Nikiforovo", "state": "", "country": "RU", "coord": {"lon": 38.087502, "lat": 55.843613}}, {"id": 522243, "name": "Nikiforovo", "state": "", "country": "RU", "coord": {"lon": 37.746761, "lat": 54.855179}}, {"id": 522260, "name": "Nikel", "state": "", "country": "RU", "coord": {"lon": 30.221979, "lat": 69.412849}}, {"id": 522298, "name": "Neznanovo", "state": "", "country": "RU", "coord": {"lon": 40.107777, "lat": 54.024723}}, {"id": 522301, "name": "Nezlobnaya", "state": "", "country": "RU", "coord": {"lon": 43.402779, "lat": 44.118061}}, {"id": 522312, "name": "Nezhinka", "state": "", "country": "RU", "coord": {"lon": 55.3694, "lat": 51.767601}}, {"id": 522353, "name": "Neya", "state": "", "country": "RU", "coord": {"lon": 43.86808, "lat": 58.297192}}, {"id": 522377, "name": "Nevinnomyssk", "state": "", "country": "RU", "coord": {"lon": 41.945278, "lat": 44.626667}}, {"id": 522396, "name": "Neverovo", "state": "", "country": "RU", "coord": {"lon": 38.716667, "lat": 55.283333}}, {"id": 522402, "name": "Neverkino", "state": "", "country": "RU", "coord": {"lon": 46.741741, "lat": 52.785412}}, {"id": 522410, "name": "Nevel\u2019", "state": "", "country": "RU", "coord": {"lon": 29.92844, "lat": 56.020939}}, {"id": 522455, "name": "Nesvetay", "state": "", "country": "RU", "coord": {"lon": 39.663059, "lat": 47.452221}}, {"id": 522470, "name": "Nesterovskaya", "state": "", "country": "RU", "coord": {"lon": 45.050282, "lat": 43.238609}}, {"id": 522508, "name": "Nesterov", "state": "", "country": "RU", "coord": {"lon": 22.57139, "lat": 54.630562}}, {"id": 522565, "name": "Neroshchino", "state": "", "country": "RU", "coord": {"lon": 37.633331, "lat": 56.25}}, {"id": 522580, "name": "Nerl\u2019", "state": "", "country": "RU", "coord": {"lon": 40.389309, "lat": 56.662849}}, {"id": 522594, "name": "Nerekhta", "state": "", "country": "RU", "coord": {"lon": 40.574711, "lat": 57.458809}}, {"id": 522628, "name": "Neplyuyevo", "state": "", "country": "RU", "coord": {"lon": 36.467499, "lat": 52.86972}}, {"id": 522652, "name": "Nenetskiy Avtonomnyy Okrug", "state": "", "country": "RU", "coord": {"lon": 54, "lat": 67.5}}, {"id": 522674, "name": "Nemtsevo", "state": "", "country": "RU", "coord": {"lon": 37.9132, "lat": 55.168621}}, {"id": 522730, "name": "Nemchinovka", "state": "", "country": "RU", "coord": {"lon": 37.36639, "lat": 55.722778}}, {"id": 522742, "name": "Neman", "state": "", "country": "RU", "coord": {"lon": 22.02639, "lat": 55.031109}}, {"id": 522745, "name": "Nema", "state": "", "country": "RU", "coord": {"lon": 50.501148, "lat": 57.506748}}, {"id": 522775, "name": "Nelidovo", "state": "", "country": "RU", "coord": {"lon": 32.777382, "lat": 56.221069}}, {"id": 522799, "name": "Nekrasovskoye", "state": "", "country": "RU", "coord": {"lon": 40.365669, "lat": 57.67664}}, {"id": 522803, "name": "Nekrasovskiy", "state": "", "country": "RU", "coord": {"lon": 37.5, "lat": 56.066669}}, {"id": 522810, "name": "Nekrasovskaya", "state": "", "country": "RU", "coord": {"lon": 39.74868, "lat": 45.14468}}, {"id": 522839, "name": "Nekrasovka", "state": "", "country": "RU", "coord": {"lon": 37.91148, "lat": 55.693279}}, {"id": 522871, "name": "Neklyudovo", "state": "", "country": "RU", "coord": {"lon": 43.981388, "lat": 56.411388}}, {"id": 522902, "name": "Nekhayevskiy", "state": "", "country": "RU", "coord": {"lon": 41.7561, "lat": 50.410599}}, {"id": 522939, "name": "Neftyanaya", "state": "", "country": "RU", "coord": {"lon": 39.645561, "lat": 44.379169}}, {"id": 522941, "name": "Neftekumsk", "state": "", "country": "RU", "coord": {"lon": 44.916672, "lat": 44.666672}}, {"id": 522942, "name": "Neftekamsk", "state": "", "country": "RU", "coord": {"lon": 54.270321, "lat": 56.091991}}, {"id": 522945, "name": "Neftegorsk", "state": "", "country": "RU", "coord": {"lon": 51.166, "lat": 52.801998}}, {"id": 522946, "name": "Neftegorsk", "state": "", "country": "RU", "coord": {"lon": 39.707802, "lat": 44.365799}}, {"id": 522970, "name": "Nef\u00ebdovo", "state": "", "country": "RU", "coord": {"lon": 37.463463, "lat": 54.945908}}, {"id": 522981, "name": "Nedvigovka", "state": "", "country": "RU", "coord": {"lon": 39.348801, "lat": 47.26873}}, {"id": 523028, "name": "Nechayevka", "state": "", "country": "RU", "coord": {"lon": 38.972099, "lat": 52.487961}}, {"id": 523048, "name": "Nebug", "state": "", "country": "RU", "coord": {"lon": 39.003613, "lat": 44.171391}}, {"id": 523051, "name": "Nebolchi", "state": "", "country": "RU", "coord": {"lon": 33.345371, "lat": 59.123932}}, {"id": 523053, "name": "Nebogatkovo", "state": "", "country": "RU", "coord": {"lon": 36.933334, "lat": 55.966667}}, {"id": 523056, "name": "Neberdzhayevskaya", "state": "", "country": "RU", "coord": {"lon": 37.90501, "lat": 44.832909}}, {"id": 523064, "name": "Nazran\u2019", "state": "", "country": "RU", "coord": {"lon": 44.764999, "lat": 43.226109}}, {"id": 523069, "name": "Naziya", "state": "", "country": "RU", "coord": {"lon": 31.383329, "lat": 59.799999}}, {"id": 523077, "name": "Nazimikha", "state": "", "country": "RU", "coord": {"lon": 38.114445, "lat": 55.976665}}, {"id": 523081, "name": "Nazhitsy", "state": "", "country": "RU", "coord": {"lon": 38.853401, "lat": 55.791439}}, {"id": 523094, "name": "Nazar\u2019yevo", "state": "", "country": "RU", "coord": {"lon": 41.198334, "lat": 53.772499}}, {"id": 523110, "name": "Nazarovo", "state": "", "country": "RU", "coord": {"lon": 36.616669, "lat": 56.066666}}, {"id": 523112, "name": "Nazarovo", "state": "", "country": "RU", "coord": {"lon": 38.616669, "lat": 55.783333}}, {"id": 523113, "name": "Nazarovo", "state": "", "country": "RU", "coord": {"lon": 39.144348, "lat": 55.398029}}, {"id": 523137, "name": "Kaipkulovo", "state": "", "country": "RU", "coord": {"lon": 59.008202, "lat": 54.1077}}, {"id": 523161, "name": "Navoloki", "state": "", "country": "RU", "coord": {"lon": 41.96344, "lat": 57.465721}}, {"id": 523186, "name": "Navlya", "state": "", "country": "RU", "coord": {"lon": 34.49889, "lat": 52.828056}}, {"id": 523198, "name": "Navashino", "state": "", "country": "RU", "coord": {"lon": 42.200279, "lat": 55.529171}}, {"id": 523206, "name": "Naurskaya", "state": "", "country": "RU", "coord": {"lon": 45.313332, "lat": 43.651939}}, {"id": 523210, "name": "Alpatovo", "state": "", "country": "RU", "coord": {"lon": 45.241539, "lat": 43.702801}}, {"id": 523266, "name": "Nauka", "state": "", "country": "RU", "coord": {"lon": 49.7798, "lat": 51.976898}}, {"id": 523267, "name": "Naugol\u2019noye", "state": "", "country": "RU", "coord": {"lon": 38.183334, "lat": 56.366669}}, {"id": 523269, "name": "Natyrbovo", "state": "", "country": "RU", "coord": {"lon": 40.626389, "lat": 44.73}}, {"id": 523270, "name": "Natukhayevskaya", "state": "", "country": "RU", "coord": {"lon": 37.564999, "lat": 44.907223}}, {"id": 523292, "name": "Natal\u2019insk", "state": "", "country": "RU", "coord": {"lon": 57.869781, "lat": 56.4739}}, {"id": 523327, "name": "Nastas\u2019ino", "state": "", "country": "RU", "coord": {"lon": 38.651112, "lat": 55.197498}}, {"id": 523359, "name": "Nashch\u00ebkino", "state": "", "country": "RU", "coord": {"lon": 38.066666, "lat": 55.329445}}, {"id": 523382, "name": "Naryshkino", "state": "", "country": "RU", "coord": {"lon": 35.726768, "lat": 52.967781}}, {"id": 523392, "name": "Nar'yan-Mar", "state": "", "country": "RU", "coord": {"lon": 53.086971, "lat": 67.671257}}, {"id": 523405, "name": "Nartkala", "state": "", "country": "RU", "coord": {"lon": 43.85083, "lat": 43.557499}}, {"id": 523408, "name": "Nartan", "state": "", "country": "RU", "coord": {"lon": 43.69944, "lat": 43.51083}}, {"id": 523415, "name": "Narovchat", "state": "", "country": "RU", "coord": {"lon": 43.69458, "lat": 53.876541}}, {"id": 523426, "name": "Naro-Fominsk", "state": "", "country": "RU", "coord": {"lon": 36.73307, "lat": 55.38752}}, {"id": 523443, "name": "Narimanov", "state": "", "country": "RU", "coord": {"lon": 47.8498, "lat": 46.692699}}, {"id": 523476, "name": "Naputnovo", "state": "", "country": "RU", "coord": {"lon": 39.700001, "lat": 55.900002}}, {"id": 523523, "name": "Nal\u2019chik", "state": "", "country": "RU", "coord": {"lon": 43.618889, "lat": 43.498058}}, {"id": 523536, "name": "Nakhoy", "state": "", "country": "RU", "coord": {"lon": 46.783333, "lat": 51.283333}}, {"id": 523544, "name": "Nakhl\u00ebstovo", "state": "", "country": "RU", "coord": {"lon": 36.352219, "lat": 52.65472}}, {"id": 523553, "name": "Nakhabino", "state": "", "country": "RU", "coord": {"lon": 37.181389, "lat": 55.851391}}, {"id": 523560, "name": "Nagutskoye", "state": "", "country": "RU", "coord": {"lon": 42.876202, "lat": 44.441502}}, {"id": 523580, "name": "Nagorskoye", "state": "", "country": "RU", "coord": {"lon": 41.066666, "lat": 57.700001}}, {"id": 523583, "name": "Nagorsk", "state": "", "country": "RU", "coord": {"lon": 50.807781, "lat": 59.317219}}, {"id": 523600, "name": "Nagornovo", "state": "", "country": "RU", "coord": {"lon": 41.863056, "lat": 56.630833}}, {"id": 523605, "name": "Nagornaya", "state": "", "country": "RU", "coord": {"lon": 55.004719, "lat": 60.018059}}, {"id": 523644, "name": "Nadzhigo", "state": "", "country": "RU", "coord": {"lon": 39.263889, "lat": 44.048889}}, {"id": 523655, "name": "Lakha N\u00ebvre", "state": "", "country": "RU", "coord": {"lon": 45.339691, "lat": 43.622711}}, {"id": 523662, "name": "Nadvoitsy", "state": "", "country": "RU", "coord": {"lon": 34.316669, "lat": 63.866669}}, {"id": 523715, "name": "Nadezhda", "state": "", "country": "RU", "coord": {"lon": 44.599998, "lat": 44.099998}}, {"id": 523734, "name": "Nachalovo", "state": "", "country": "RU", "coord": {"lon": 48.201279, "lat": 46.338001}}, {"id": 523750, "name": "Naberezhnyye Chelny", "state": "", "country": "RU", "coord": {"lon": 52.42889, "lat": 55.756111}}, {"id": 523774, "name": "Myzgi", "state": "", "country": "RU", "coord": {"lon": 36.258057, "lat": 54.744373}}, {"id": 523790, "name": "Myurego", "state": "", "country": "RU", "coord": {"lon": 47.693039, "lat": 42.41087}}, {"id": 523812, "name": "Mytishchi", "state": "", "country": "RU", "coord": {"lon": 37.733891, "lat": 55.90889}}, {"id": 523816, "name": "Myt", "state": "", "country": "RU", "coord": {"lon": 42.312778, "lat": 56.814999}}, {"id": 523842, "name": "Myskhako", "state": "", "country": "RU", "coord": {"lon": 37.766109, "lat": 44.659168}}, {"id": 523859, "name": "Myshkin", "state": "", "country": "RU", "coord": {"lon": 38.454479, "lat": 57.78973}}, {"id": 523873, "name": "Mysh\u00ebnki", "state": "", "country": "RU", "coord": {"lon": 37.44413, "lat": 54.711311}}, {"id": 523917, "name": "Mykanino", "state": "", "country": "RU", "coord": {"lon": 36.783054, "lat": 55.925278}}, {"id": 523928, "name": "Myatlevo", "state": "", "country": "RU", "coord": {"lon": 35.676189, "lat": 54.896931}}, {"id": 523939, "name": "Myasnyankino", "state": "", "country": "RU", "coord": {"lon": 35.6586, "lat": 51.662498}}, {"id": 524020, "name": "Myakinino", "state": "", "country": "RU", "coord": {"lon": 38.406387, "lat": 55.134724}}, {"id": 524054, "name": "Myachkovo", "state": "", "country": "RU", "coord": {"lon": 39.049999, "lat": 56.349998}}, {"id": 524055, "name": "Myachkovo", "state": "", "country": "RU", "coord": {"lon": 42.799999, "lat": 56.233334}}, {"id": 524059, "name": "Myachikovo", "state": "", "country": "RU", "coord": {"lon": 39.266666, "lat": 56.083332}}, {"id": 524100, "name": "Muyezerskiy", "state": "", "country": "RU", "coord": {"lon": 31.65, "lat": 63.933331}}, {"id": 524113, "name": "Mutsalaul", "state": "", "country": "RU", "coord": {"lon": 46.730782, "lat": 43.275478}}, {"id": 524116, "name": "Mutovino", "state": "", "country": "RU", "coord": {"lon": 45.594444, "lat": 60.616669}}, {"id": 524177, "name": "Musorka", "state": "", "country": "RU", "coord": {"lon": 49.73222, "lat": 53.755562}}, {"id": 524183, "name": "Muslyumovo", "state": "", "country": "RU", "coord": {"lon": 53.194721, "lat": 55.303329}}, {"id": 524243, "name": "Murygino", "state": "", "country": "RU", "coord": {"lon": 49.458221, "lat": 58.738312}}, {"id": 524277, "name": "Muromtsevo", "state": "", "country": "RU", "coord": {"lon": 38.166668, "lat": 56.116669}}, {"id": 524294, "name": "Murom", "state": "", "country": "RU", "coord": {"lon": 42.041668, "lat": 55.565556}}, {"id": 524298, "name": "Murmino", "state": "", "country": "RU", "coord": {"lon": 40.054443, "lat": 54.603611}}, {"id": 524299, "name": "Murmashi", "state": "", "country": "RU", "coord": {"lon": 32.81147, "lat": 68.815422}}, {"id": 524304, "name": "Murmanskaya Oblast\u2019", "state": "", "country": "RU", "coord": {"lon": 34, "lat": 68}}, {"id": 524305, "name": "Murmansk", "state": "", "country": "RU", "coord": {"lon": 33.09251, "lat": 68.979172}}, {"id": 524311, "name": "Murino", "state": "", "country": "RU", "coord": {"lon": 30.445869, "lat": 60.049438}}, {"id": 524337, "name": "Murav\u2019y\u00ebvo", "state": "", "country": "RU", "coord": {"lon": 35.546349, "lat": 58.618259}}, {"id": 524341, "name": "Murav\u2019y\u00ebvo", "state": "", "country": "RU", "coord": {"lon": 36.933334, "lat": 56.266666}}, {"id": 524414, "name": "Murashi", "state": "", "country": "RU", "coord": {"lon": 48.961498, "lat": 59.399899}}, {"id": 524423, "name": "Muranovo", "state": "", "country": "RU", "coord": {"lon": 37.900002, "lat": 56.183334}}, {"id": 524489, "name": "Mullovka", "state": "", "country": "RU", "coord": {"lon": 49.400002, "lat": 54.200001}}, {"id": 524492, "name": "Mullino", "state": "", "country": "RU", "coord": {"lon": 53.4533, "lat": 54.461159}}, {"id": 524504, "name": "Mulino", "state": "", "country": "RU", "coord": {"lon": 42.920052, "lat": 56.28923}}, {"id": 524534, "name": "Mukhtolovo", "state": "", "country": "RU", "coord": {"lon": 43.195278, "lat": 55.464439}}, {"id": 524602, "name": "Mugi", "state": "", "country": "RU", "coord": {"lon": 47.420769, "lat": 42.299438}}, {"id": 524627, "name": "Muchkapskiy", "state": "", "country": "RU", "coord": {"lon": 42.471748, "lat": 51.85133}}, {"id": 524640, "name": "Mtsensk", "state": "", "country": "RU", "coord": {"lon": 36.573341, "lat": 53.276569}}, {"id": 524649, "name": "Mstikhino", "state": "", "country": "RU", "coord": {"lon": 36.127769, "lat": 54.559471}}, {"id": 524651, "name": "Mstera", "state": "", "country": "RU", "coord": {"lon": 41.919998, "lat": 56.378891}}, {"id": 524681, "name": "Mrakovo", "state": "", "country": "RU", "coord": {"lon": 56.624439, "lat": 52.71611}}, {"id": 524696, "name": "Mozhinka", "state": "", "country": "RU", "coord": {"lon": 36.900002, "lat": 55.733334}}, {"id": 524699, "name": "Mozhga", "state": "", "country": "RU", "coord": {"lon": 52.227631, "lat": 56.444691}}, {"id": 524700, "name": "Mozhga", "state": "", "country": "RU", "coord": {"lon": 52.255428, "lat": 56.374512}}, {"id": 524712, "name": "Mozhaysk", "state": "", "country": "RU", "coord": {"lon": 36.027222, "lat": 55.501942}}, {"id": 524736, "name": "Mozdok", "state": "", "country": "RU", "coord": {"lon": 44.688061, "lat": 43.749168}}, {"id": 524753, "name": "Motyakovo", "state": "", "country": "RU", "coord": {"lon": 38.009998, "lat": 55.700279}}, {"id": 524790, "name": "Mosyagino", "state": "", "country": "RU", "coord": {"lon": 38.902779, "lat": 55.404999}}, {"id": 524809, "name": "Mostovskoy", "state": "", "country": "RU", "coord": {"lon": 40.79361, "lat": 44.41222}}, {"id": 524843, "name": "Mostki", "state": "", "country": "RU", "coord": {"lon": 37.133331, "lat": 56.266666}}, {"id": 524844, "name": "Mostki", "state": "", "country": "RU", "coord": {"lon": 36.156666, "lat": 52.99139}}, {"id": 524877, "name": "Moslovo", "state": "", "country": "RU", "coord": {"lon": 44.539444, "lat": 58.191387}}, {"id": 524894, "name": "Moscow", "state": "", "country": "RU", "coord": {"lon": 37.606667, "lat": 55.761665}}, {"id": 524901, "name": "Moscow", "state": "", "country": "RU", "coord": {"lon": 37.615555, "lat": 55.75222}}, {"id": 524906, "name": "Moskovskoje", "state": "", "country": "RU", "coord": {"lon": 39.602779, "lat": 51.41111}}, {"id": 524907, "name": "Moskovskoye", "state": "", "country": "RU", "coord": {"lon": 41.910301, "lat": 45.284199}}, {"id": 524925, "name": "Moscow Oblast", "state": "", "country": "RU", "coord": {"lon": 37.628334, "lat": 55.75639}}, {"id": 525025, "name": "Moshenskoye", "state": "", "country": "RU", "coord": {"lon": 34.59108, "lat": 58.510159}}, {"id": 525084, "name": "Mosal\u2019sk", "state": "", "country": "RU", "coord": {"lon": 34.98167, "lat": 54.48806}}, {"id": 525138, "name": "Morshansk", "state": "", "country": "RU", "coord": {"lon": 41.81065, "lat": 53.443539}}, {"id": 525148, "name": "Morozovskoye", "state": "", "country": "RU", "coord": {"lon": 42.583332, "lat": 58.483334}}, {"id": 525162, "name": "Morozovsk", "state": "", "country": "RU", "coord": {"lon": 41.826111, "lat": 48.353889}}, {"id": 525179, "name": "Morozovo", "state": "", "country": "RU", "coord": {"lon": 38.049999, "lat": 56.25}}, {"id": 525184, "name": "Morozovo", "state": "", "country": "RU", "coord": {"lon": 38.343334, "lat": 55.386112}}, {"id": 525199, "name": "Morozovka", "state": "", "country": "RU", "coord": {"lon": 31.700001, "lat": 54.683334}}, {"id": 525218, "name": "Morozovitsa", "state": "", "country": "RU", "coord": {"lon": 46.266666, "lat": 60.716667}}, {"id": 525254, "name": "Morkvashi", "state": "", "country": "RU", "coord": {"lon": 49.534439, "lat": 53.421108}}, {"id": 525262, "name": "Morki", "state": "", "country": "RU", "coord": {"lon": 48.99472, "lat": 56.430279}}, {"id": 525273, "name": "Morgunovo", "state": "", "country": "RU", "coord": {"lon": 57.1754, "lat": 57.1973}}, {"id": 525280, "name": "Morgaushi", "state": "", "country": "RU", "coord": {"lon": 46.7743, "lat": 55.964298}}, {"id": 525291, "name": "Mor\u00ebvka", "state": "", "country": "RU", "coord": {"lon": 38.0583, "lat": 46.547901}}, {"id": 525365, "name": "Mordovo", "state": "", "country": "RU", "coord": {"lon": 40.77, "lat": 52.083401}}, {"id": 525369, "name": "Respublika Mordoviya", "state": "", "country": "RU", "coord": {"lon": 44, "lat": 54.5}}, {"id": 525371, "name": "Mordino", "state": "", "country": "RU", "coord": {"lon": 51.895741, "lat": 61.353271}}, {"id": 525396, "name": "Monino", "state": "", "country": "RU", "coord": {"lon": 38.194443, "lat": 55.838055}}, {"id": 525404, "name": "Monchegorsk", "state": "", "country": "RU", "coord": {"lon": 32.87389, "lat": 67.93972}}, {"id": 525426, "name": "Monastyrshchina", "state": "", "country": "RU", "coord": {"lon": 31.83795, "lat": 54.349609}}, {"id": 525432, "name": "Monastyr\u2019", "state": "", "country": "RU", "coord": {"lon": 40.009445, "lat": 43.592777}}, {"id": 525439, "name": "Monastyr\u2019", "state": "", "country": "RU", "coord": {"lon": 44.536869, "lat": 62.34874}}, {"id": 525447, "name": "Monaseyevo", "state": "", "country": "RU", "coord": {"lon": 38.111668, "lat": 55.841667}}, {"id": 525456, "name": "Molzino", "state": "", "country": "RU", "coord": {"lon": 38.3825, "lat": 55.891109}}, {"id": 525460, "name": "Malygino", "state": "", "country": "RU", "coord": {"lon": 38.599724, "lat": 55.711945}}, {"id": 525509, "name": "Molokovo", "state": "", "country": "RU", "coord": {"lon": 36.762779, "lat": 58.166111}}, {"id": 525510, "name": "Molokovo", "state": "", "country": "RU", "coord": {"lon": 37.871113, "lat": 55.561943}}, {"id": 525539, "name": "Molodniki", "state": "", "country": "RU", "coord": {"lon": 42.650002, "lat": 56.116669}}, {"id": 525554, "name": "Molodi", "state": "", "country": "RU", "coord": {"lon": 37.507221, "lat": 55.265835}}, {"id": 525568, "name": "Molodeyevo", "state": "", "country": "RU", "coord": {"lon": 41.071945, "lat": 57.834442}}, {"id": 525584, "name": "Molochnyy", "state": "", "country": "RU", "coord": {"lon": 42.094166, "lat": 44.267502}}, {"id": 525585, "name": "Molochnoye", "state": "", "country": "RU", "coord": {"lon": 39.67868, "lat": 59.29166}}, {"id": 525603, "name": "Mol\u2019kin", "state": "", "country": "RU", "coord": {"lon": 39.237221, "lat": 44.802223}}, {"id": 525620, "name": "Moldovka", "state": "", "country": "RU", "coord": {"lon": 39.943054, "lat": 43.449722}}, {"id": 525627, "name": "Moldavanka", "state": "", "country": "RU", "coord": {"lon": 38.368057, "lat": 44.550556}}, {"id": 525659, "name": "Mokshan", "state": "", "country": "RU", "coord": {"lon": 44.61322, "lat": 53.436501}}, {"id": 525668, "name": "Mokryy Michkas", "state": "", "country": "RU", "coord": {"lon": 43.59861, "lat": 53.342499}}, {"id": 525698, "name": "Mokrusha", "state": "", "country": "RU", "coord": {"lon": 36.483334, "lat": 56.450001}}, {"id": 525702, "name": "Mokroye", "state": "", "country": "RU", "coord": {"lon": 40.25, "lat": 55.450001}}, {"id": 525713, "name": "Mokroye", "state": "", "country": "RU", "coord": {"lon": 35.23056, "lat": 54.759441}}, {"id": 525719, "name": "Mokrous", "state": "", "country": "RU", "coord": {"lon": 47.516666, "lat": 51.233334}}, {"id": 525722, "name": "Mokrosarmatka", "state": "", "country": "RU", "coord": {"lon": 38.784801, "lat": 47.33604}}, {"id": 525724, "name": "Mokronazarov", "state": "", "country": "RU", "coord": {"lon": 39.957409, "lat": 44.982281}}, {"id": 525907, "name": "Mogil\u00ebvo", "state": "", "country": "RU", "coord": {"lon": 43.633331, "lat": 57.683334}}, {"id": 525936, "name": "Mochilki", "state": "", "country": "RU", "coord": {"lon": 37.483891, "lat": 52.535278}}, {"id": 525954, "name": "Mochal\u2019niki", "state": "", "country": "RU", "coord": {"lon": 40.583332, "lat": 56.583332}}, {"id": 525961, "name": "Mochalishche", "state": "", "country": "RU", "coord": {"lon": 48.354698, "lat": 56.330601}}, {"id": 525979, "name": "Mnevniki", "state": "", "country": "RU", "coord": {"lon": 37.486668, "lat": 55.772499}}, {"id": 525988, "name": "Mshinskaya", "state": "", "country": "RU", "coord": {"lon": 29.943331, "lat": 59.014999}}, {"id": 525990, "name": "Mizur", "state": "", "country": "RU", "coord": {"lon": 44.053059, "lat": 42.853062}}, {"id": 525991, "name": "Mizinovo", "state": "", "country": "RU", "coord": {"lon": 38.206944, "lat": 55.949722}}, {"id": 526046, "name": "Mitryayevo", "state": "", "country": "RU", "coord": {"lon": 46.200001, "lat": 56.166668}}, {"id": 526083, "name": "Mitrofanovka", "state": "", "country": "RU", "coord": {"lon": 39.69389, "lat": 49.970829}}, {"id": 526139, "name": "Mitino", "state": "", "country": "RU", "coord": {"lon": 42.161667, "lat": 58.146667}}, {"id": 526145, "name": "Mitino", "state": "", "country": "RU", "coord": {"lon": 38.400002, "lat": 56.366669}}, {"id": 526146, "name": "Mitino", "state": "", "country": "RU", "coord": {"lon": 37.983334, "lat": 56.25}}, {"id": 526157, "name": "Mitino", "state": "", "country": "RU", "coord": {"lon": 37.252396, "lat": 54.777386}}, {"id": 526160, "name": "Mitinka", "state": "", "country": "RU", "coord": {"lon": 36.600277, "lat": 55.028057}}, {"id": 526165, "name": "Mitino", "state": "", "country": "RU", "coord": {"lon": 38.796944, "lat": 55.661945}}, {"id": 526182, "name": "Mists\u00ebvskiy", "state": "", "country": "RU", "coord": {"lon": 39.083332, "lat": 55.633331}}, {"id": 526183, "name": "Mists\u00ebvo", "state": "", "country": "RU", "coord": {"lon": 39.116669, "lat": 55.599998}}, {"id": 526185, "name": "Miskindzha", "state": "", "country": "RU", "coord": {"lon": 47.84668, "lat": 41.424019}}, {"id": 526186, "name": "Misirevo", "state": "", "country": "RU", "coord": {"lon": 36.75, "lat": 56.266666}}, {"id": 526210, "name": "Mishukovo", "state": "", "country": "RU", "coord": {"lon": 41.700001, "lat": 54.966667}}, {"id": 526213, "name": "Mishuka", "state": "", "country": "RU", "coord": {"lon": 38.549999, "lat": 44.416668}}, {"id": 526222, "name": "Mishn\u00ebvo", "state": "", "country": "RU", "coord": {"lon": 38.200001, "lat": 55.991669}}, {"id": 526247, "name": "Mishkino", "state": "", "country": "RU", "coord": {"lon": 59.1064, "lat": 53.999699}}, {"id": 526262, "name": "Mishino", "state": "", "country": "RU", "coord": {"lon": 39.300835, "lat": 54.165558}}, {"id": 526270, "name": "Mishin", "state": "", "country": "RU", "coord": {"lon": 43.535, "lat": 50.359901}}, {"id": 526271, "name": "Misheronskiy", "state": "", "country": "RU", "coord": {"lon": 39.73835, "lat": 55.719269}}, {"id": 526274, "name": "Mishchukovo", "state": "", "country": "RU", "coord": {"lon": 38.26902, "lat": 55.908241}}, {"id": 526289, "name": "Misaylovo", "state": "", "country": "RU", "coord": {"lon": 37.82, "lat": 55.563332}}, {"id": 526296, "name": "Mirskoy", "state": "", "country": "RU", "coord": {"lon": 40.399799, "lat": 45.5439}}, {"id": 526331, "name": "Mironov", "state": "", "country": "RU", "coord": {"lon": 41.326488, "lat": 47.12664}}, {"id": 526346, "name": "Mirnyy", "state": "", "country": "RU", "coord": {"lon": 44.53598, "lat": 61.33289}}, {"id": 526347, "name": "Mirnyy", "state": "", "country": "RU", "coord": {"lon": 47.653889, "lat": 58.493328}}, {"id": 526354, "name": "Mirnyy", "state": "", "country": "RU", "coord": {"lon": 48.75, "lat": 54.366669}}, {"id": 526357, "name": "Mirnyy", "state": "", "country": "RU", "coord": {"lon": 50.216671, "lat": 53.549999}}, {"id": 526460, "name": "Minino", "state": "", "country": "RU", "coord": {"lon": 38.403057, "lat": 55.646389}}, {"id": 526461, "name": "Minino", "state": "", "country": "RU", "coord": {"lon": 38.644169, "lat": 55.588055}}, {"id": 526470, "name": "Mingrel\u2019skaya", "state": "", "country": "RU", "coord": {"lon": 38.340511, "lat": 45.013821}}, {"id": 526480, "name": "Mineralnye Vody", "state": "", "country": "RU", "coord": {"lon": 43.135277, "lat": 44.210278}}, {"id": 526489, "name": "Mindyak", "state": "", "country": "RU", "coord": {"lon": 58.789101, "lat": 54.023102}}, {"id": 526504, "name": "Milyutinskaya", "state": "", "country": "RU", "coord": {"lon": 41.667881, "lat": 48.62788}}, {"id": 526523, "name": "Milyagino", "state": "", "country": "RU", "coord": {"lon": 37.34861, "lat": 55.088612}}, {"id": 526528, "name": "Mil\u2019shino", "state": "", "country": "RU", "coord": {"lon": 38.100555, "lat": 54.398888}}, {"id": 526543, "name": "Miloslavskoye", "state": "", "country": "RU", "coord": {"lon": 39.439919, "lat": 53.58152}}, {"id": 526558, "name": "Millerovo", "state": "", "country": "RU", "coord": {"lon": 40.396729, "lat": 48.922649}}, {"id": 526565, "name": "Mil\u2019kovo", "state": "", "country": "RU", "coord": {"lon": 37.795555, "lat": 55.607777}}, {"id": 526570, "name": "Milino", "state": "", "country": "RU", "coord": {"lon": 43.135761, "lat": 56.618111}}, {"id": 526571, "name": "Milino", "state": "", "country": "RU", "coord": {"lon": 38.163891, "lat": 55.248611}}, {"id": 526600, "name": "Mikun\u2019", "state": "", "country": "RU", "coord": {"lon": 50.077141, "lat": 62.354721}}, {"id": 526601, "name": "Mikun\u2019", "state": "", "country": "RU", "coord": {"lon": 49.942768, "lat": 62.199379}}, {"id": 526604, "name": "Mikulino", "state": "", "country": "RU", "coord": {"lon": 37.483334, "lat": 57.033333}}, {"id": 526605, "name": "Mikulino", "state": "", "country": "RU", "coord": {"lon": 35.608704, "lat": 56.450459}}, {"id": 526619, "name": "Mikryakovo", "state": "", "country": "RU", "coord": {"lon": 46.25, "lat": 56.216667}}, {"id": 526644, "name": "Mikhnovka", "state": "", "country": "RU", "coord": {"lon": 31.964167, "lat": 54.756111}}, {"id": 526651, "name": "Mikhn\u00ebvo", "state": "", "country": "RU", "coord": {"lon": 37.944721, "lat": 55.134724}}, {"id": 526652, "name": "Mikhnevo", "state": "", "country": "RU", "coord": {"lon": 37.952221, "lat": 55.12722}}, {"id": 526701, "name": "Mikhel\u2019sonovskiy", "state": "", "country": "RU", "coord": {"lon": 37.900002, "lat": 55.700001}}, {"id": 526709, "name": "Mikhaylovskoye", "state": "", "country": "RU", "coord": {"lon": 42.400002, "lat": 58.383331}}, {"id": 526730, "name": "Mikhaylovskoye", "state": "", "country": "RU", "coord": {"lon": 36.75, "lat": 56.233334}}, {"id": 526731, "name": "Mikhaylovskoye", "state": "", "country": "RU", "coord": {"lon": 45.780277, "lat": 56.182499}}, {"id": 526736, "name": "Sed\u2019moy Mikrorayon", "state": "", "country": "RU", "coord": {"lon": 37.57972, "lat": 55.562222}}, {"id": 526739, "name": "Mikhaylovskoye", "state": "", "country": "RU", "coord": {"lon": 37.796112, "lat": 55.143612}}, {"id": 526749, "name": "Mikhaylovskoye", "state": "", "country": "RU", "coord": {"lon": 44.631641, "lat": 43.09972}}, {"id": 526757, "name": "Mikhaylovskiy Pereval", "state": "", "country": "RU", "coord": {"lon": 38.318054, "lat": 44.513332}}, {"id": 526801, "name": "Mikhaylovskaya Sloboda", "state": "", "country": "RU", "coord": {"lon": 38.074165, "lat": 55.551388}}, {"id": 526810, "name": "Mikhaylovskaya", "state": "", "country": "RU", "coord": {"lon": 36.625, "lat": 55.654446}}, {"id": 526814, "name": "Mikhaylovskaya", "state": "", "country": "RU", "coord": {"lon": 40.59639, "lat": 44.99472}}, {"id": 526815, "name": "Mikhaylovsk", "state": "", "country": "RU", "coord": {"lon": 59.119999, "lat": 56.435829}}, {"id": 526833, "name": "Mikhaylovka", "state": "", "country": "RU", "coord": {"lon": 37.469597, "lat": 54.862656}}, {"id": 526834, "name": "Mikhaylovo", "state": "", "country": "RU", "coord": {"lon": 31.566668, "lat": 54.633331}}, {"id": 526842, "name": "Mikhaylovka Pervaya", "state": "", "country": "RU", "coord": {"lon": 42.153057, "lat": 53.665279}}, {"id": 526875, "name": "Mikhaylovka", "state": "", "country": "RU", "coord": {"lon": 55.900002, "lat": 54.799999}}, {"id": 526972, "name": "Mikhaylovka", "state": "", "country": "RU", "coord": {"lon": 36.272781, "lat": 52.14278}}, {"id": 527009, "name": "Mikhaylovka", "state": "", "country": "RU", "coord": {"lon": 36.619579, "lat": 50.585289}}, {"id": 527012, "name": "Mikhaylovka", "state": "", "country": "RU", "coord": {"lon": 43.2379, "lat": 50.060001}}, {"id": 527034, "name": "Mikhaylov", "state": "", "country": "RU", "coord": {"lon": 39.018612, "lat": 54.229168}}, {"id": 527057, "name": "Mikhalkovo", "state": "", "country": "RU", "coord": {"lon": 37.433334, "lat": 55.683334}}, {"id": 527122, "name": "Mikhal\u00ebvo", "state": "", "country": "RU", "coord": {"lon": 40.916668, "lat": 56.883331}}, {"id": 527127, "name": "Mikhal\u00ebvo", "state": "", "country": "RU", "coord": {"lon": 37.700001, "lat": 56.083332}}, {"id": 527157, "name": "Migury", "state": "", "country": "RU", "coord": {"lon": 35.233334, "lat": 61.966667}}, {"id": 527169, "name": "Migalovo", "state": "", "country": "RU", "coord": {"lon": 35.77343, "lat": 56.841648}}, {"id": 527191, "name": "Michurinsk", "state": "", "country": "RU", "coord": {"lon": 40.4907, "lat": 52.8978}}, {"id": 527212, "name": "Miatli", "state": "", "country": "RU", "coord": {"lon": 46.828602, "lat": 43.08173}}, {"id": 527217, "name": "Mglin", "state": "", "country": "RU", "coord": {"lon": 32.84753, "lat": 53.059071}}, {"id": 527220, "name": "Mga", "state": "", "country": "RU", "coord": {"lon": 31.066669, "lat": 59.75}}, {"id": 527223, "name": "Mezmay", "state": "", "country": "RU", "coord": {"lon": 39.961109, "lat": 44.199722}}, {"id": 527224, "name": "Mezinovskiy", "state": "", "country": "RU", "coord": {"lon": 40.359322, "lat": 55.5042}}, {"id": 527237, "name": "Mezhoz\u00ebrnyy", "state": "", "country": "RU", "coord": {"lon": 59.373611, "lat": 54.146389}}, {"id": 527263, "name": "Mezhevoy", "state": "", "country": "RU", "coord": {"lon": 58.781391, "lat": 55.171108}}, {"id": 527299, "name": "Mezhdurechensk", "state": "", "country": "RU", "coord": {"lon": 48.553329, "lat": 63.24556}}, {"id": 527300, "name": "Mezhdurechensk", "state": "", "country": "RU", "coord": {"lon": 49.111599, "lat": 53.266499}}, {"id": 527321, "name": "Mezen\u2019", "state": "", "country": "RU", "coord": {"lon": 44.240002, "lat": 65.852219}}, {"id": 527336, "name": "Metrostroy", "state": "", "country": "RU", "coord": {"lon": 52.331848, "lat": 58.86322}}, {"id": 527342, "name": "Metkino", "state": "", "country": "RU", "coord": {"lon": 37.829445, "lat": 55.337502}}, {"id": 527361, "name": "Metallostroy", "state": "", "country": "RU", "coord": {"lon": 30.547779, "lat": 59.800831}}, {"id": 527370, "name": "Mesyagutovo", "state": "", "country": "RU", "coord": {"lon": 58.252781, "lat": 55.530281}}, {"id": 527382, "name": "Messazhay", "state": "", "country": "RU", "coord": {"lon": 39.122501, "lat": 44.140278}}, {"id": 527388, "name": "Mesker-Yurt", "state": "", "country": "RU", "coord": {"lon": 45.907162, "lat": 43.251469}}, {"id": 527405, "name": "Meshchovsk", "state": "", "country": "RU", "coord": {"lon": 35.28083, "lat": 54.32444}}, {"id": 527416, "name": "Meshcherskoye", "state": "", "country": "RU", "coord": {"lon": 37.62278, "lat": 55.277222}}, {"id": 527420, "name": "Meshch\u00ebrskiy", "state": "", "country": "RU", "coord": {"lon": 37.415558, "lat": 55.668056}}, {"id": 527429, "name": "Meshcherino", "state": "", "country": "RU", "coord": {"lon": 38.36002, "lat": 55.195671}}, {"id": 527436, "name": "Meshchery", "state": "", "country": "RU", "coord": {"lon": 38.599724, "lat": 55.607498}}, {"id": 527451, "name": "Mervino", "state": "", "country": "RU", "coord": {"lon": 39.669998, "lat": 54.642776}}, {"id": 527467, "name": "Merlino", "state": "", "country": "RU", "coord": {"lon": 31.586111, "lat": 54.601665}}, {"id": 527468, "name": "Merleyevo", "state": "", "country": "RU", "coord": {"lon": 37.214722, "lat": 55.078056}}, {"id": 527477, "name": "Merkulovskiy", "state": "", "country": "RU", "coord": {"lon": 41.53167, "lat": 49.610279}}, {"id": 527529, "name": "Menzelinsk", "state": "", "country": "RU", "coord": {"lon": 53.102581, "lat": 55.727058}}, {"id": 527573, "name": "Mendyukino", "state": "", "country": "RU", "coord": {"lon": 38.849998, "lat": 54.776943}}, {"id": 527578, "name": "Mendeleyevskiy", "state": "", "country": "RU", "coord": {"lon": 37.582218, "lat": 54.152779}}, {"id": 527579, "name": "Mendeleyevsk", "state": "", "country": "RU", "coord": {"lon": 52.29047, "lat": 55.90818}}, {"id": 527580, "name": "Mendeleyevo", "state": "", "country": "RU", "coord": {"lon": 54.996342, "lat": 58.169762}}, {"id": 527581, "name": "Mendeleyevo", "state": "", "country": "RU", "coord": {"lon": 37.216671, "lat": 56.033329}}, {"id": 527585, "name": "Menchakovo", "state": "", "country": "RU", "coord": {"lon": 40.383331, "lat": 56.5}}, {"id": 527697, "name": "Melikhovo", "state": "", "country": "RU", "coord": {"lon": 37.64827, "lat": 55.114399}}, {"id": 527706, "name": "Mel\u2019gunovo", "state": "", "country": "RU", "coord": {"lon": 37.433334, "lat": 56.950001}}, {"id": 527717, "name": "Meleuz", "state": "", "country": "RU", "coord": {"lon": 55.916672, "lat": 52.966671}}, {"id": 527740, "name": "Melenki", "state": "", "country": "RU", "coord": {"lon": 41.629501, "lat": 55.334301}}, {"id": 527751, "name": "Melikhovskaya", "state": "", "country": "RU", "coord": {"lon": 40.486691, "lat": 47.48106}}, {"id": 527761, "name": "Melekhovo", "state": "", "country": "RU", "coord": {"lon": 41.293461, "lat": 56.277302}}, {"id": 527789, "name": "Barskoye-Melechkino", "state": "", "country": "RU", "coord": {"lon": 36.766666, "lat": 56.116669}}, {"id": 527791, "name": "Mel\u2019dino", "state": "", "country": "RU", "coord": {"lon": 37.25, "lat": 56.666668}}, {"id": 527861, "name": "Mefodiyevka", "state": "", "country": "RU", "coord": {"lon": 37.783333, "lat": 44.75}}, {"id": 527869, "name": "Medyn\u2019", "state": "", "country": "RU", "coord": {"lon": 35.858608, "lat": 54.96917}}, {"id": 527888, "name": "Medvezh\u2019yegorsk", "state": "", "country": "RU", "coord": {"lon": 34.466667, "lat": 62.916668}}, {"id": 527900, "name": "Medvezh\u2019ye", "state": "", "country": "RU", "coord": {"lon": 42.483334, "lat": 59.216667}}, {"id": 527901, "name": "Medvezh\u2019ye", "state": "", "country": "RU", "coord": {"lon": 41.845833, "lat": 56.709999}}, {"id": 527933, "name": "Medvezhiy Stan", "state": "", "country": "RU", "coord": {"lon": 30.466667, "lat": 60.033333}}, {"id": 527955, "name": "Medvezh\u2019i Oz\u00ebra", "state": "", "country": "RU", "coord": {"lon": 37.98613, "lat": 55.86935}}, {"id": 527968, "name": "Medvedovskaya", "state": "", "country": "RU", "coord": {"lon": 39.025833, "lat": 45.453056}}, {"id": 527979, "name": "Medvedok", "state": "", "country": "RU", "coord": {"lon": 50.035099, "lat": 57.38913}}, {"id": 527981, "name": "Medvedkovo", "state": "", "country": "RU", "coord": {"lon": 37.650002, "lat": 55.866669}}, {"id": 527995, "name": "Medvedkovo", "state": "", "country": "RU", "coord": {"lon": 37.516666, "lat": 56.25}}, {"id": 528010, "name": "Medvedka", "state": "", "country": "RU", "coord": {"lon": 46.387001, "lat": 61.162941}}, {"id": 528015, "name": "Medveditskoye", "state": "", "country": "RU", "coord": {"lon": 37.516666, "lat": 57.083332}}, {"id": 528017, "name": "Medveditskiy", "state": "", "country": "RU", "coord": {"lon": 44.712872, "lat": 50.78521}}, {"id": 528044, "name": "Medvedevo", "state": "", "country": "RU", "coord": {"lon": 43.03389, "lat": 60.025555}}, {"id": 528056, "name": "Medvedevo", "state": "", "country": "RU", "coord": {"lon": 47.80405, "lat": 56.633881}}, {"id": 528060, "name": "Medvedevo", "state": "", "country": "RU", "coord": {"lon": 38.735001, "lat": 55.419445}}, {"id": 528075, "name": "Medvedev", "state": "", "country": "RU", "coord": {"lon": 45.316669, "lat": 49.150002}}, {"id": 528082, "name": "Medved\u2019", "state": "", "country": "RU", "coord": {"lon": 30.51054, "lat": 58.30088}}, {"id": 528106, "name": "Mednoye-Vlasovo", "state": "", "country": "RU", "coord": {"lon": 38.202221, "lat": 55.939167}}, {"id": 528109, "name": "Mednogorsk", "state": "", "country": "RU", "coord": {"lon": 57.595001, "lat": 51.4128}}, {"id": 528137, "name": "Mechetinskaya", "state": "", "country": "RU", "coord": {"lon": 40.455971, "lat": 46.771301}}, {"id": 528170, "name": "Mazlovo", "state": "", "country": "RU", "coord": {"lon": 35.684898, "lat": 56.363186}}, {"id": 528176, "name": "Mazilovo", "state": "", "country": "RU", "coord": {"lon": 37.463055, "lat": 55.731388}}, {"id": 528211, "name": "Mayskoye", "state": "", "country": "RU", "coord": {"lon": 37.916668, "lat": 56.133331}}, {"id": 528216, "name": "Mayskoye", "state": "", "country": "RU", "coord": {"lon": 50.033821, "lat": 52.272442}}, {"id": 528227, "name": "Mayskiy", "state": "", "country": "RU", "coord": {"lon": 38.716671, "lat": 56.400002}}, {"id": 528228, "name": "Mayskiy", "state": "", "country": "RU", "coord": {"lon": 54.150002, "lat": 56.25}}, {"id": 528233, "name": "Mayskiy", "state": "", "country": "RU", "coord": {"lon": 38.211651, "lat": 53.962158}}, {"id": 528239, "name": "Mayskiy", "state": "", "country": "RU", "coord": {"lon": 36.458778, "lat": 50.519878}}, {"id": 528242, "name": "Mayskiy", "state": "", "country": "RU", "coord": {"lon": 40.102501, "lat": 47.693054}}, {"id": 528248, "name": "Mayskiy", "state": "", "country": "RU", "coord": {"lon": 44.038509, "lat": 43.641399}}, {"id": 528258, "name": "Mayrtup", "state": "", "country": "RU", "coord": {"lon": 46.133331, "lat": 43.201672}}, {"id": 528278, "name": "Mayna", "state": "", "country": "RU", "coord": {"lon": 47.6231, "lat": 54.113499}}, {"id": 528288, "name": "Maykor", "state": "", "country": "RU", "coord": {"lon": 55.879978, "lat": 59.005859}}, {"id": 528289, "name": "Maykopskoye", "state": "", "country": "RU", "coord": {"lon": 40.765831, "lat": 45.393608}}, {"id": 528293, "name": "Maykop", "state": "", "country": "RU", "coord": {"lon": 40.105831, "lat": 44.60778}}, {"id": 528309, "name": "Maydarovo", "state": "", "country": "RU", "coord": {"lon": 37.150002, "lat": 56.083332}}, {"id": 528380, "name": "Mayachnyy", "state": "", "country": "RU", "coord": {"lon": 55.685001, "lat": 52.683899}}, {"id": 528412, "name": "Matyushino", "state": "", "country": "RU", "coord": {"lon": 37.849998, "lat": 56.099998}}, {"id": 528422, "name": "Matyunino", "state": "", "country": "RU", "coord": {"lon": 47.366669, "lat": 53.983334}}, {"id": 528423, "name": "Matyukovo", "state": "", "country": "RU", "coord": {"lon": 38.158054, "lat": 55.021942}}, {"id": 528451, "name": "Matveykovo", "state": "", "country": "RU", "coord": {"lon": 37.183334, "lat": 56.266666}}, {"id": 528454, "name": "Matveyevskoye", "state": "", "country": "RU", "coord": {"lon": 37.473057, "lat": 55.706944}}, {"id": 528465, "name": "Matveyevskiy", "state": "", "country": "RU", "coord": {"lon": 54.150002, "lat": 56.133331}}, {"id": 528495, "name": "Matveyev Kurgan", "state": "", "country": "RU", "coord": {"lon": 38.869469, "lat": 47.564499}}, {"id": 528521, "name": "Matveyevka", "state": "", "country": "RU", "coord": {"lon": 56.183331, "lat": 52.150002}}, {"id": 528523, "name": "Matveyevka", "state": "", "country": "RU", "coord": {"lon": 36.255001, "lat": 52.163891}}, {"id": 528559, "name": "Staraya Matsesta", "state": "", "country": "RU", "coord": {"lon": 39.802776, "lat": 43.568611}}, {"id": 528562, "name": "Matrosy", "state": "", "country": "RU", "coord": {"lon": 33.799999, "lat": 61.783333}}, {"id": 528632, "name": "Matchino", "state": "", "country": "RU", "coord": {"lon": 37.786388, "lat": 55.245277}}, {"id": 528688, "name": "Maslovo", "state": "", "country": "RU", "coord": {"lon": 29.533333, "lat": 60.983334}}, {"id": 528734, "name": "Maslovka", "state": "", "country": "RU", "coord": {"lon": 39.235729, "lat": 51.553459}}, {"id": 528741, "name": "Maslova Pristan\u2019", "state": "", "country": "RU", "coord": {"lon": 36.74081, "lat": 50.45874}}, {"id": 528804, "name": "Mashino", "state": "", "country": "RU", "coord": {"lon": 38.033333, "lat": 56.283333}}, {"id": 528917, "name": "Marusino", "state": "", "country": "RU", "coord": {"lon": 37.979721, "lat": 55.695278}}, {"id": 528919, "name": "Marushkino", "state": "", "country": "RU", "coord": {"lon": 37.209839, "lat": 55.593472}}, {"id": 528945, "name": "Martynovskoye", "state": "", "country": "RU", "coord": {"lon": 38.077778, "lat": 55.242222}}, {"id": 529051, "name": "Maromitsa", "state": "", "country": "RU", "coord": {"lon": 48.012272, "lat": 59.868279}}, {"id": 529052, "name": "Marochkovo", "state": "", "country": "RU", "coord": {"lon": 39.229778, "lat": 55.911331}}, {"id": 529060, "name": "Marmyli", "state": "", "country": "RU", "coord": {"lon": 35.789474, "lat": 56.271904}}, {"id": 529073, "name": "Marks", "state": "", "country": "RU", "coord": {"lon": 46.748611, "lat": 51.711109}}, {"id": 529112, "name": "Markovo", "state": "", "country": "RU", "coord": {"lon": 43.897499, "lat": 57.185001}}, {"id": 529113, "name": "Markovo", "state": "", "country": "RU", "coord": {"lon": 40.494652, "lat": 57.018501}}, {"id": 529118, "name": "Markovo", "state": "", "country": "RU", "coord": {"lon": 35.985592, "lat": 56.317966}}, {"id": 529123, "name": "Markovo", "state": "", "country": "RU", "coord": {"lon": 38.234722, "lat": 55.457779}}, {"id": 529137, "name": "Markovitsy", "state": "", "country": "RU", "coord": {"lon": 43.655834, "lat": 57.69389}}, {"id": 529195, "name": "Mari-Turek", "state": "", "country": "RU", "coord": {"lon": 49.623482, "lat": 56.789459}}, {"id": 529205, "name": "Marishkino", "state": "", "country": "RU", "coord": {"lon": 38.609722, "lat": 55.353333}}, {"id": 529222, "name": "Mar\u2019inskaya", "state": "", "country": "RU", "coord": {"lon": 43.49139, "lat": 43.8825}}, {"id": 529230, "name": "Mar\u2019ino Tret\u2019ye", "state": "", "country": "RU", "coord": {"lon": 38.25111, "lat": 55.887779}}, {"id": 529237, "name": "Mar\u2019ino", "state": "", "country": "RU", "coord": {"lon": 37.716667, "lat": 55.650002}}, {"id": 529274, "name": "Mar\u2019ino", "state": "", "country": "RU", "coord": {"lon": 37.016666, "lat": 56.016666}}, {"id": 529276, "name": "Mar\u2019ino", "state": "", "country": "RU", "coord": {"lon": 37.310089, "lat": 55.865009}}, {"id": 529281, "name": "Mar\u2019ino", "state": "", "country": "RU", "coord": {"lon": 38.200001, "lat": 55.099998}}, {"id": 529315, "name": "Marinki", "state": "", "country": "RU", "coord": {"lon": 37.029991, "lat": 55.094421}}, {"id": 529319, "name": "Mar\u2019inka", "state": "", "country": "RU", "coord": {"lon": 38.2425, "lat": 55.403889}}, {"id": 529334, "name": "Mar\u2019ina Roshcha", "state": "", "country": "RU", "coord": {"lon": 37.611111, "lat": 55.796391}}, {"id": 529335, "name": "Mar\u2019ina Roshcha", "state": "", "country": "RU", "coord": {"lon": 38.030556, "lat": 44.61972}}, {"id": 529343, "name": "Mariinskiy Posad", "state": "", "country": "RU", "coord": {"lon": 47.718048, "lat": 56.114971}}, {"id": 529352, "name": "Respublika Mariy-El", "state": "", "country": "RU", "coord": {"lon": 48, "lat": 56.5}}, {"id": 529368, "name": "Marfino", "state": "", "country": "RU", "coord": {"lon": 37.382221, "lat": 55.702778}}, {"id": 529376, "name": "Marfino", "state": "", "country": "RU", "coord": {"lon": 48.713982, "lat": 46.40852}}, {"id": 529387, "name": "Marevo", "state": "", "country": "RU", "coord": {"lon": 32.080448, "lat": 57.31461}}, {"id": 529409, "name": "Marchenkov", "state": "", "country": "RU", "coord": {"lon": 42.602699, "lat": 47.07}}, {"id": 529451, "name": "Manylovskoye", "state": "", "country": "RU", "coord": {"lon": 42.333332, "lat": 59.566666}}, {"id": 529452, "name": "Manylovo", "state": "", "country": "RU", "coord": {"lon": 42.318611, "lat": 59.580276}}, {"id": 529458, "name": "Manychstroy", "state": "", "country": "RU", "coord": {"lon": 41.655277, "lat": 46.617779}}, {"id": 529492, "name": "Manushkino", "state": "", "country": "RU", "coord": {"lon": 37.456944, "lat": 55.114445}}, {"id": 529505, "name": "Manturovo", "state": "", "country": "RU", "coord": {"lon": 44.761944, "lat": 58.335278}}, {"id": 529506, "name": "Manturovo", "state": "", "country": "RU", "coord": {"lon": 39.441387, "lat": 54.680557}}, {"id": 529507, "name": "Manturovo", "state": "", "country": "RU", "coord": {"lon": 37.128201, "lat": 51.4547}}, {"id": 529521, "name": "Mansurovo", "state": "", "country": "RU", "coord": {"lon": 35.855949, "lat": 55.005981}}, {"id": 529524, "name": "Mansurovka", "state": "", "country": "RU", "coord": {"lon": 46.712223, "lat": 52.694721}}, {"id": 529536, "name": "Manotskiy", "state": "", "country": "RU", "coord": {"lon": 39.723301, "lat": 48.6805}}, {"id": 529549, "name": "Man'ko", "state": "", "country": "RU", "coord": {"lon": 39.283054, "lat": 45.399723}}, {"id": 529577, "name": "Manikhino", "state": "", "country": "RU", "coord": {"lon": 36.959442, "lat": 55.886944}}, {"id": 529608, "name": "Manaskent", "state": "", "country": "RU", "coord": {"lon": 47.691399, "lat": 42.7402}}, {"id": 529610, "name": "Manas", "state": "", "country": "RU", "coord": {"lon": 47.678459, "lat": 42.727489}}, {"id": 529621, "name": "Mamyri", "state": "", "country": "RU", "coord": {"lon": 37.060833, "lat": 55.554722}}, {"id": 529638, "name": "Mamontovka", "state": "", "country": "RU", "coord": {"lon": 37.814167, "lat": 55.999443}}, {"id": 529644, "name": "Mamonovo", "state": "", "country": "RU", "coord": {"lon": 37.808613, "lat": 55.59639}}, {"id": 529679, "name": "Mamedkala", "state": "", "country": "RU", "coord": {"lon": 48.119881, "lat": 42.167728}}, {"id": 529709, "name": "Mamadysh", "state": "", "country": "RU", "coord": {"lon": 51.40797, "lat": 55.71524}}, {"id": 529746, "name": "Malyy Vetluzhskiy", "state": "", "country": "RU", "coord": {"lon": 45.5, "lat": 58.349998}}, {"id": 529773, "name": "Malyy Tolkish", "state": "", "country": "RU", "coord": {"lon": 50.934166, "lat": 55.343334}}, {"id": 529885, "name": "Malyy Kyl", "state": "", "country": "RU", "coord": {"lon": 59.133331, "lat": 54.900002}}, {"id": 529944, "name": "Malyy Irgiz", "state": "", "country": "RU", "coord": {"lon": 48.383331, "lat": 52.183334}}, {"id": 529981, "name": "Malyye Vyaz\u00ebmy", "state": "", "country": "RU", "coord": {"lon": 37.013889, "lat": 55.636112}}, {"id": 529990, "name": "Malyye Ugory", "state": "", "country": "RU", "coord": {"lon": 44.366669, "lat": 58.133331}}, {"id": 530031, "name": "Malyye Sem\u00ebnychi", "state": "", "country": "RU", "coord": {"lon": 36.69278, "lat": 55.47139}}, {"id": 530036, "name": "Malyye Rymy", "state": "", "country": "RU", "coord": {"lon": 43.889168, "lat": 57.490002}}, {"id": 530054, "name": "Malyye Petrishchi", "state": "", "country": "RU", "coord": {"lon": 38.316666, "lat": 56.083332}}, {"id": 530061, "name": "Malyye Paraty", "state": "", "country": "RU", "coord": {"lon": 48.383057, "lat": 55.915833}}, {"id": 530088, "name": "Yaroslavskiy", "state": "", "country": "RU", "coord": {"lon": 37.721668, "lat": 55.88139}}, {"id": 530091, "name": "Malyye Mosty", "state": "", "country": "RU", "coord": {"lon": 43.856388, "lat": 57.159443}}, {"id": 530123, "name": "Malyye Krutitsy", "state": "", "country": "RU", "coord": {"lon": 37.866669, "lat": 55.75}}, {"id": 530196, "name": "Malyye Derbety", "state": "", "country": "RU", "coord": {"lon": 44.680828, "lat": 47.95472}}, {"id": 530201, "name": "Malyye Chapurniki", "state": "", "country": "RU", "coord": {"lon": 44.577499, "lat": 48.449444}}, {"id": 530336, "name": "Malynchevskaya", "state": "", "country": "RU", "coord": {"lon": 40.833328, "lat": 64.48333}}, {"id": 530397, "name": "Mal'tsev", "state": "", "country": "RU", "coord": {"lon": 39.635277, "lat": 45.730556}}, {"id": 530441, "name": "Maloye Yusupovo", "state": "", "country": "RU", "coord": {"lon": 37.966671, "lat": 55.5}}, {"id": 530456, "name": "Maloye Yashcherevo", "state": "", "country": "RU", "coord": {"lon": 37.527718, "lat": 54.946533}}, {"id": 530480, "name": "Maloye Verevo", "state": "", "country": "RU", "coord": {"lon": 30.172779, "lat": 59.613609}}, {"id": 530547, "name": "Maloye Shul\u2019gino", "state": "", "country": "RU", "coord": {"lon": 42.450001, "lat": 59.533329}}, {"id": 530629, "name": "Maloye Ogryzlovo", "state": "", "country": "RU", "coord": {"lon": 37.200001, "lat": 57}}, {"id": 530631, "name": "Maloye Obraztsovo", "state": "", "country": "RU", "coord": {"lon": 38.150002, "lat": 54.916668}}, {"id": 530632, "name": "Maloye Obozero", "state": "", "country": "RU", "coord": {"lon": 35.216667, "lat": 61.900002}}, {"id": 530675, "name": "Maloluchinskoye", "state": "", "country": "RU", "coord": {"lon": 39.866669, "lat": 56.516666}}, {"id": 530759, "name": "Maloye Gridino", "state": "", "country": "RU", "coord": {"lon": 39.349998, "lat": 55.483334}}, {"id": 530803, "name": "Maloboriskovo", "state": "", "country": "RU", "coord": {"lon": 40.483334, "lat": 56.483334}}, {"id": 530849, "name": "Maloyaroslavets", "state": "", "country": "RU", "coord": {"lon": 36.471851, "lat": 55.014568}}, {"id": 530966, "name": "Maloarkhangel\u2019sk", "state": "", "country": "RU", "coord": {"lon": 36.503319, "lat": 52.400242}}, {"id": 530972, "name": "Malmyzh", "state": "", "country": "RU", "coord": {"lon": 50.681801, "lat": 56.5205}}, {"id": 530984, "name": "Mal\u2019kovo", "state": "", "country": "RU", "coord": {"lon": 39.166668, "lat": 55.516666}}, {"id": 530994, "name": "Malka", "state": "", "country": "RU", "coord": {"lon": 43.324169, "lat": 43.80389}}, {"id": 531012, "name": "Malinovo", "state": "", "country": "RU", "coord": {"lon": 42.666668, "lat": 56.133331}}, {"id": 531017, "name": "Malinovka", "state": "", "country": "RU", "coord": {"lon": 30.471666, "lat": 59.951668}}, {"id": 531098, "name": "Malino", "state": "", "country": "RU", "coord": {"lon": 38.18, "lat": 55.111111}}, {"id": 531116, "name": "Malininskiy", "state": "", "country": "RU", "coord": {"lon": 40.416672, "lat": 56.416672}}, {"id": 531129, "name": "Malgobek", "state": "", "country": "RU", "coord": {"lon": 44.59306, "lat": 43.509171}}, {"id": 531155, "name": "Malevanyy", "state": "", "country": "RU", "coord": {"lon": 39.447224, "lat": 45.536388}}, {"id": 531159, "name": "Mal\u00ebtino", "state": "", "country": "RU", "coord": {"lon": 46.466667, "lat": 60.916668}}, {"id": 531232, "name": "Malaya Yablonovka", "state": "", "country": "RU", "coord": {"lon": 30.433332, "lat": 59.933334}}, {"id": 531257, "name": "Malaya Vishera", "state": "", "country": "RU", "coord": {"lon": 32.222179, "lat": 58.845379}}, {"id": 531377, "name": "Malaya Setun\u2019", "state": "", "country": "RU", "coord": {"lon": 37.383331, "lat": 55.716667}}, {"id": 531383, "name": "Malaya Serdoba", "state": "", "country": "RU", "coord": {"lon": 44.951199, "lat": 52.466099}}, {"id": 531426, "name": "Malaya Purga", "state": "", "country": "RU", "coord": {"lon": 53.004341, "lat": 56.55666}}, {"id": 531478, "name": "Malaya Orlovka", "state": "", "country": "RU", "coord": {"lon": 30.716669, "lat": 58.216671}}, {"id": 531483, "name": "Malaya Okhta", "state": "", "country": "RU", "coord": {"lon": 30.4125, "lat": 59.928333}}, {"id": 531556, "name": "Malaya Kushelevka", "state": "", "country": "RU", "coord": {"lon": 30.383333, "lat": 59.983334}}, {"id": 531562, "name": "Malaya Kumuzh\u2019ya", "state": "", "country": "RU", "coord": {"lon": 32.883331, "lat": 67.933334}}, {"id": 531564, "name": "Malaya Kulikovka", "state": "", "country": "RU", "coord": {"lon": 36.166672, "lat": 52.900002}}, {"id": 531668, "name": "Sloboda Malogorodenskaya", "state": "", "country": "RU", "coord": {"lon": 38.279167, "lat": 54.341667}}, {"id": 531680, "name": "Malaya Gat'", "state": "", "country": "RU", "coord": {"lon": 36.01667, "lat": 52.900002}}, {"id": 531691, "name": "Malaya Dubna", "state": "", "country": "RU", "coord": {"lon": 38.958611, "lat": 55.875832}}, {"id": 531707, "name": "Malaya Chernogolovka", "state": "", "country": "RU", "coord": {"lon": 38.383331, "lat": 56}}, {"id": 531791, "name": "Malakhovskiye Vyselki", "state": "", "country": "RU", "coord": {"lon": 40.299999, "lat": 54.950001}}, {"id": 531808, "name": "Malakhovo", "state": "", "country": "RU", "coord": {"lon": 38.235558, "lat": 55.488335}}, {"id": 531820, "name": "Malakhovka", "state": "", "country": "RU", "coord": {"lon": 38.02486, "lat": 55.647758}}, {"id": 531898, "name": "Maksimovo-Novogrushevskiy", "state": "", "country": "RU", "coord": {"lon": 40.200001, "lat": 47.650002}}, {"id": 531901, "name": "Maksim", "state": "", "country": "RU", "coord": {"lon": 57.222301, "lat": 62.616241}}, {"id": 531908, "name": "Maksimovo", "state": "", "country": "RU", "coord": {"lon": 35.972946, "lat": 56.339619}}, {"id": 531919, "name": "Maksimovka", "state": "", "country": "RU", "coord": {"lon": 36.846943, "lat": 55.963333}}, {"id": 531979, "name": "Maksatikha", "state": "", "country": "RU", "coord": {"lon": 35.882542, "lat": 57.796951}}, {"id": 532023, "name": "Maklino", "state": "", "country": "RU", "coord": {"lon": 36.469143, "lat": 54.99263}}, {"id": 532092, "name": "Makhalino", "state": "", "country": "RU", "coord": {"lon": 46.221081, "lat": 53.085442}}, {"id": 532096, "name": "Makhachkala", "state": "", "country": "RU", "coord": {"lon": 47.502361, "lat": 42.976379}}, {"id": 532108, "name": "Makeyevo Pervoye", "state": "", "country": "RU", "coord": {"lon": 39.133331, "lat": 54.666668}}, {"id": 532133, "name": "Makar'yevo", "state": "", "country": "RU", "coord": {"lon": 45.055, "lat": 56.089169}}, {"id": 532134, "name": "Makar\u2019yevo", "state": "", "country": "RU", "coord": {"lon": 48.283333, "lat": 52.216667}}, {"id": 532138, "name": "Makar\u2019yev", "state": "", "country": "RU", "coord": {"lon": 43.806946, "lat": 57.879723}}, {"id": 532198, "name": "Makarovo", "state": "", "country": "RU", "coord": {"lon": 38.316666, "lat": 56}}, {"id": 532217, "name": "Makarovka", "state": "", "country": "RU", "coord": {"lon": 37.863438, "lat": 54.83749}}, {"id": 532264, "name": "Makarely", "state": "", "country": "RU", "coord": {"lon": 30.633333, "lat": 65.666664}}, {"id": 532277, "name": "Mais", "state": "", "country": "RU", "coord": {"lon": 46.02879, "lat": 53.8741}}, {"id": 532281, "name": "Magri", "state": "", "country": "RU", "coord": {"lon": 39.162777, "lat": 44.022778}}, {"id": 532288, "name": "Magnitogorsk", "state": "", "country": "RU", "coord": {"lon": 59.047218, "lat": 53.41861}}, {"id": 532292, "name": "Magnitka", "state": "", "country": "RU", "coord": {"lon": 59.69611, "lat": 55.3475}}, {"id": 532307, "name": "Magaramkent", "state": "", "country": "RU", "coord": {"lon": 48.347961, "lat": 41.61586}}, {"id": 532314, "name": "Madzhalis", "state": "", "country": "RU", "coord": {"lon": 47.833328, "lat": 42.12167}}, {"id": 532382, "name": "Lyutoretskoye", "state": "", "country": "RU", "coord": {"lon": 37.509998, "lat": 55.112499}}, {"id": 532393, "name": "Lyutik", "state": "", "country": "RU", "coord": {"lon": 40.383331, "lat": 53.966671}}, {"id": 532406, "name": "Lyushino", "state": "", "country": "RU", "coord": {"lon": 35.692661, "lat": 56.484299}}, {"id": 532422, "name": "Lyulikh", "state": "", "country": "RU", "coord": {"lon": 42.733334, "lat": 56.366669}}, {"id": 532459, "name": "Lyudinovo", "state": "", "country": "RU", "coord": {"lon": 34.447781, "lat": 53.86639}}, {"id": 532463, "name": "Lyubytino", "state": "", "country": "RU", "coord": {"lon": 33.39222, "lat": 58.812222}}, {"id": 532471, "name": "Lyubyatino", "state": "", "country": "RU", "coord": {"lon": 36.216667, "lat": 56.099998}}, {"id": 532477, "name": "Lyubuchany", "state": "", "country": "RU", "coord": {"lon": 37.545555, "lat": 55.25111}}, {"id": 532489, "name": "Lyubovnikovo", "state": "", "country": "RU", "coord": {"lon": 41.66861, "lat": 54.960278}}, {"id": 532518, "name": "Lyubokhna", "state": "", "country": "RU", "coord": {"lon": 34.38847, "lat": 53.503319}}, {"id": 532535, "name": "Lyublino", "state": "", "country": "RU", "coord": {"lon": 37.749722, "lat": 55.680557}}, {"id": 532568, "name": "Lyubimtsevo", "state": "", "country": "RU", "coord": {"lon": 41.509998, "lat": 58.04361}}, {"id": 532576, "name": "Lyubimovo", "state": "", "country": "RU", "coord": {"lon": 40.566669, "lat": 57.450001}}, {"id": 532598, "name": "Lyubimezh", "state": "", "country": "RU", "coord": {"lon": 38.799999, "lat": 56.083332}}, {"id": 532600, "name": "Lyubim", "state": "", "country": "RU", "coord": {"lon": 40.68433, "lat": 58.362499}}, {"id": 532615, "name": "Lyubertsy", "state": "", "country": "RU", "coord": {"lon": 37.883331, "lat": 55.677776}}, {"id": 532637, "name": "Lyuban\u2019", "state": "", "country": "RU", "coord": {"lon": 31.216669, "lat": 59.349998}}, {"id": 532657, "name": "Lytkarino", "state": "", "country": "RU", "coord": {"lon": 37.905834, "lat": 55.58139}}, {"id": 532664, "name": "Lysyye Gory", "state": "", "country": "RU", "coord": {"lon": 44.841438, "lat": 51.550629}}, {"id": 532675, "name": "Lys\u2019va", "state": "", "country": "RU", "coord": {"lon": 57.805279, "lat": 58.108608}}, {"id": 532706, "name": "Lysogorskaya", "state": "", "country": "RU", "coord": {"lon": 43.275558, "lat": 44.106392}}, {"id": 532715, "name": "Lyskovo", "state": "", "country": "RU", "coord": {"lon": 45.042198, "lat": 56.032822}}, {"id": 532729, "name": "Lysaya Gora", "state": "", "country": "RU", "coord": {"lon": 45.953888, "lat": 56.107777}}, {"id": 532731, "name": "Lysaya Gora", "state": "", "country": "RU", "coord": {"lon": 44.020401, "lat": 54.4907}}, {"id": 532794, "name": "Lych\u00ebvo", "state": "", "country": "RU", "coord": {"lon": 39.433334, "lat": 56.383331}}, {"id": 532825, "name": "Lyaskelya", "state": "", "country": "RU", "coord": {"lon": 31.01667, "lat": 61.76667}}, {"id": 532830, "name": "Lyashchi", "state": "", "country": "RU", "coord": {"lon": 31.200001, "lat": 54.583332}}, {"id": 532834, "name": "Lyapuny", "state": "", "country": "RU", "coord": {"lon": 44.985222, "lat": 55.988991}}, {"id": 532860, "name": "Lyangasovo", "state": "", "country": "RU", "coord": {"lon": 49.447182, "lat": 58.51759}}, {"id": 532867, "name": "Lyamtsino", "state": "", "country": "RU", "coord": {"lon": 37.882629, "lat": 55.382431}}, {"id": 532887, "name": "Lyamino", "state": "", "country": "RU", "coord": {"lon": 57.724998, "lat": 58.283901}}, {"id": 532895, "name": "Lyambir\u2019", "state": "", "country": "RU", "coord": {"lon": 45.124939, "lat": 54.281719}}, {"id": 532928, "name": "Lyakhovitsy", "state": "", "country": "RU", "coord": {"lon": 40.616669, "lat": 56.416668}}, {"id": 532936, "name": "Lyakhi", "state": "", "country": "RU", "coord": {"lon": 41.925556, "lat": 55.335556}}, {"id": 533008, "name": "L\u2019vovskiy", "state": "", "country": "RU", "coord": {"lon": 37.515831, "lat": 55.314171}}, {"id": 533067, "name": "Luzhniki", "state": "", "country": "RU", "coord": {"lon": 37.553761, "lat": 55.715992}}, {"id": 533072, "name": "Luzhna", "state": "", "country": "RU", "coord": {"lon": 36.083328, "lat": 53.01667}}, {"id": 533097, "name": "Luzhki", "state": "", "country": "RU", "coord": {"lon": 36.964443, "lat": 55.852222}}, {"id": 533104, "name": "Luzhki", "state": "", "country": "RU", "coord": {"lon": 37.554298, "lat": 54.858639}}, {"id": 533106, "name": "Luzhki", "state": "", "country": "RU", "coord": {"lon": 39.33889, "lat": 54.667778}}, {"id": 533143, "name": "Luza", "state": "", "country": "RU", "coord": {"lon": 47.251179, "lat": 60.630821}}, {"id": 533182, "name": "Lutoshkino", "state": "", "country": "RU", "coord": {"lon": 38.046944, "lat": 55.400002}}, {"id": 533234, "name": "Lupolovo", "state": "", "country": "RU", "coord": {"lon": 42.700001, "lat": 56.566666}}, {"id": 533284, "name": "Lunino", "state": "", "country": "RU", "coord": {"lon": 45.227089, "lat": 53.591759}}, {"id": 533336, "name": "Lumbushi-Krasil\u2019nikovo", "state": "", "country": "RU", "coord": {"lon": 34.516666, "lat": 62.916668}}, {"id": 533374, "name": "Luk\u2019yanovo", "state": "", "country": "RU", "coord": {"lon": 38.607498, "lat": 55.256111}}, {"id": 533377, "name": "Luk\u2019yanovo", "state": "", "country": "RU", "coord": {"lon": 37.423553, "lat": 54.869431}}, {"id": 533399, "name": "Lukoyanovo", "state": "", "country": "RU", "coord": {"lon": 44.5, "lat": 55.033329}}, {"id": 533400, "name": "Lukoyanov", "state": "", "country": "RU", "coord": {"lon": 44.478649, "lat": 55.027721}}, {"id": 533406, "name": "Lukovskaya", "state": "", "country": "RU", "coord": {"lon": 44.63345, "lat": 43.729519}}, {"id": 533417, "name": "Lukovitsy", "state": "", "country": "RU", "coord": {"lon": 37.316666, "lat": 54.333332}}, {"id": 533418, "name": "Lukovetskiy", "state": "", "country": "RU", "coord": {"lon": 41.921101, "lat": 64.295601}}, {"id": 533432, "name": "Luknovo", "state": "", "country": "RU", "coord": {"lon": 42.040001, "lat": 56.19833}}, {"id": 533448, "name": "Lukinskoye", "state": "", "country": "RU", "coord": {"lon": 40.533333, "lat": 56}}, {"id": 533455, "name": "Lukinskaya", "state": "", "country": "RU", "coord": {"lon": 42.483334, "lat": 59.916668}}, {"id": 533475, "name": "Lukino", "state": "", "country": "RU", "coord": {"lon": 43.832779, "lat": 57.076389}}, {"id": 533484, "name": "Lukino", "state": "", "country": "RU", "coord": {"lon": 43.629318, "lat": 56.44183}}, {"id": 533487, "name": "Lukino", "state": "", "country": "RU", "coord": {"lon": 37.926388, "lat": 55.830833}}, {"id": 533488, "name": "Lukino", "state": "", "country": "RU", "coord": {"lon": 36.807777, "lat": 55.834167}}, {"id": 533492, "name": "Lukino", "state": "", "country": "RU", "coord": {"lon": 37.339722, "lat": 55.651669}}, {"id": 533493, "name": "Lukino", "state": "", "country": "RU", "coord": {"lon": 37.855556, "lat": 55.506943}}, {"id": 533498, "name": "Lukino", "state": "", "country": "RU", "coord": {"lon": 37.464836, "lat": 54.975243}}, {"id": 533501, "name": "Stogovka", "state": "", "country": "RU", "coord": {"lon": 48.013889, "lat": 53.971943}}, {"id": 533513, "name": "Lukinichi", "state": "", "country": "RU", "coord": {"lon": 31.683332, "lat": 54.650002}}, {"id": 533541, "name": "Lukhovka", "state": "", "country": "RU", "coord": {"lon": 45.257278, "lat": 54.148441}}, {"id": 533543, "name": "Lukhovitsy", "state": "", "country": "RU", "coord": {"lon": 39.03611, "lat": 54.972778}}, {"id": 533555, "name": "Lukh", "state": "", "country": "RU", "coord": {"lon": 42.258381, "lat": 57.012421}}, {"id": 533601, "name": "Lugovoye", "state": "", "country": "RU", "coord": {"lon": 48.24324, "lat": 54.214119}}, {"id": 533618, "name": "Lugovoy", "state": "", "country": "RU", "coord": {"lon": 45.5, "lat": 58.349998}}, {"id": 533650, "name": "Lugovaya", "state": "", "country": "RU", "coord": {"lon": 37.849998, "lat": 56.200001}}, {"id": 533651, "name": "Lugovaya", "state": "", "country": "RU", "coord": {"lon": 37.48333, "lat": 56.049999}}, {"id": 533690, "name": "Luga", "state": "", "country": "RU", "coord": {"lon": 29.84528, "lat": 58.737221}}, {"id": 533740, "name": "Luchkino", "state": "", "country": "RU", "coord": {"lon": 41.639999, "lat": 56.540001}}, {"id": 533759, "name": "Luchinskoye", "state": "", "country": "RU", "coord": {"lon": 36.841946, "lat": 55.891666}}, {"id": 533786, "name": "Luch", "state": "", "country": "RU", "coord": {"lon": 38.716671, "lat": 56.400002}}, {"id": 533787, "name": "Luch", "state": "", "country": "RU", "coord": {"lon": 37.488892, "lat": 55.092499}}, {"id": 533793, "name": "Lubyany", "state": "", "country": "RU", "coord": {"lon": 51.400009, "lat": 56.0378}}, {"id": 533808, "name": "Lubyaniki", "state": "", "country": "RU", "coord": {"lon": 40.832222, "lat": 54.794167}}, {"id": 533818, "name": "Lubnya", "state": "", "country": "RU", "coord": {"lon": 31.884722, "lat": 54.718056}}, {"id": 533882, "name": "Lozinskogo", "state": "", "country": "RU", "coord": {"lon": 38.933334, "lat": 44.466667}}, {"id": 533916, "name": "Loyga", "state": "", "country": "RU", "coord": {"lon": 44.607498, "lat": 61.078449}}, {"id": 533933, "name": "Lovozero", "state": "", "country": "RU", "coord": {"lon": 35.011665, "lat": 68.004997}}, {"id": 533964, "name": "Loukhi", "state": "", "country": "RU", "coord": {"lon": 33.038055, "lat": 66.076385}}, {"id": 533975, "name": "Lotoshino", "state": "", "country": "RU", "coord": {"lon": 35.641392, "lat": 56.226669}}, {"id": 534015, "name": "Losino-Petrovskiy", "state": "", "country": "RU", "coord": {"lon": 38.200649, "lat": 55.869591}}, {"id": 534056, "name": "Losha", "state": "", "country": "RU", "coord": {"lon": 40, "lat": 54.049999}}, {"id": 534073, "name": "Losevo", "state": "", "country": "RU", "coord": {"lon": 40.044998, "lat": 50.67667}}, {"id": 534158, "name": "Lopatnitsy", "state": "", "country": "RU", "coord": {"lon": 40.533333, "lat": 56.549999}}, {"id": 534160, "name": "Lopatkino", "state": "", "country": "RU", "coord": {"lon": 41.18528, "lat": 57.584999}}, {"id": 534174, "name": "Lopatinskiy", "state": "", "country": "RU", "coord": {"lon": 38.725555, "lat": 55.340557}}, {"id": 534195, "name": "Lopatino", "state": "", "country": "RU", "coord": {"lon": 38.704166, "lat": 55.312222}}, {"id": 534206, "name": "Lopatino", "state": "", "country": "RU", "coord": {"lon": 45.81184, "lat": 52.619492}}, {"id": 534240, "name": "Loparskaya", "state": "", "country": "RU", "coord": {"lon": 33.219681, "lat": 68.637444}}, {"id": 534245, "name": "Lopandino", "state": "", "country": "RU", "coord": {"lon": 34.816299, "lat": 52.466599}}, {"id": 534287, "name": "Lomtevo", "state": "", "country": "RU", "coord": {"lon": 38.630833, "lat": 54.758057}}, {"id": 534313, "name": "Lomovka", "state": "", "country": "RU", "coord": {"lon": 58.367222, "lat": 53.919441}}, {"id": 534323, "name": "Lomovets", "state": "", "country": "RU", "coord": {"lon": 36.320278, "lat": 53.153332}}, {"id": 534341, "name": "Lomonosov", "state": "", "country": "RU", "coord": {"lon": 29.77253, "lat": 59.90612}}, {"id": 534352, "name": "Lomintsevskiy", "state": "", "country": "RU", "coord": {"lon": 37.664711, "lat": 53.985481}}, {"id": 534372, "name": "Lomakin", "state": "", "country": "RU", "coord": {"lon": 38.515278, "lat": 47.200558}}, {"id": 534378, "name": "Lom", "state": "", "country": "RU", "coord": {"lon": 42.683334, "lat": 59.433334}}, {"id": 534413, "name": "Lokot\u2019", "state": "", "country": "RU", "coord": {"lon": 34.577599, "lat": 52.564999}}, {"id": 534423, "name": "Loknya", "state": "", "country": "RU", "coord": {"lon": 30.14665, "lat": 56.829979}}, {"id": 534468, "name": "Logunovo", "state": "", "country": "RU", "coord": {"lon": 42.700001, "lat": 58.799999}}, {"id": 534510, "name": "Loginovo", "state": "", "country": "RU", "coord": {"lon": 43.950001, "lat": 58.5}}, {"id": 534518, "name": "Loginovo", "state": "", "country": "RU", "coord": {"lon": 37.049999, "lat": 55.299999}}, {"id": 534538, "name": "Log", "state": "", "country": "RU", "coord": {"lon": 43.861259, "lat": 49.484371}}, {"id": 534560, "name": "Lodeynoye Pole", "state": "", "country": "RU", "coord": {"lon": 33.553059, "lat": 60.726002}}, {"id": 534565, "name": "Lodeyno", "state": "", "country": "RU", "coord": {"lon": 47.33358, "lat": 60.16008}}, {"id": 534595, "name": "Lobnya", "state": "", "country": "RU", "coord": {"lon": 37.481941, "lat": 56.00972}}, {"id": 534639, "name": "Lobanovo", "state": "", "country": "RU", "coord": {"lon": 56.302601, "lat": 57.859501}}, {"id": 534669, "name": "Lobach\u00ebv", "state": "", "country": "RU", "coord": {"lon": 42.39035, "lat": 48.53878}}, {"id": 534701, "name": "Livny", "state": "", "country": "RU", "coord": {"lon": 37.606892, "lat": 52.425339}}, {"id": 534717, "name": "Livenka", "state": "", "country": "RU", "coord": {"lon": 38.295898, "lat": 50.4491}}, {"id": 534740, "name": "Litvinovo", "state": "", "country": "RU", "coord": {"lon": 38.318611, "lat": 55.538891}}, {"id": 534754, "name": "Litvinovo", "state": "", "country": "RU", "coord": {"lon": 39.400002, "lat": 56.316666}}, {"id": 534838, "name": "Liski", "state": "", "country": "RU", "coord": {"lon": 39.51545, "lat": 50.984051}}, {"id": 534839, "name": "Liski", "state": "", "country": "RU", "coord": {"lon": 39.5037, "lat": 50.940048}}, {"id": 534841, "name": "Lisiy Nos", "state": "", "country": "RU", "coord": {"lon": 30.020081, "lat": 60.016861}}, {"id": 534848, "name": "Lisitsyno", "state": "", "country": "RU", "coord": {"lon": 38.849998, "lat": 56.200001}}, {"id": 534850, "name": "Lisitsy", "state": "", "country": "RU", "coord": {"lon": 36.35556, "lat": 56.773659}}, {"id": 534856, "name": "Lisino-Korpus", "state": "", "country": "RU", "coord": {"lon": 30.684719, "lat": 59.423328}}, {"id": 534882, "name": "Lisavino", "state": "", "country": "RU", "coord": {"lon": 37, "lat": 55.965}}, {"id": 535088, "name": "Lipki", "state": "", "country": "RU", "coord": {"lon": 37.70282, "lat": 53.96994}}, {"id": 535099, "name": "Lipitsy", "state": "", "country": "RU", "coord": {"lon": 37.481396, "lat": 54.847237}}, {"id": 535100, "name": "Lipitsy", "state": "", "country": "RU", "coord": {"lon": 35.642223, "lat": 54.325558}}, {"id": 535108, "name": "Lipitino", "state": "", "country": "RU", "coord": {"lon": 37.99139, "lat": 55.103058}}, {"id": 535111, "name": "Lipino", "state": "", "country": "RU", "coord": {"lon": 37.133331, "lat": 56.650002}}, {"id": 535113, "name": "Lipin Bor", "state": "", "country": "RU", "coord": {"lon": 37.97628, "lat": 60.26215}}, {"id": 535120, "name": "Lipetskaya Oblast\u2019", "state": "", "country": "RU", "coord": {"lon": 39, "lat": 52.5}}, {"id": 535121, "name": "Lipetsk", "state": "", "country": "RU", "coord": {"lon": 39.570759, "lat": 52.603111}}, {"id": 535126, "name": "Lipchenko", "state": "", "country": "RU", "coord": {"lon": 45.56683, "lat": 49.356522}}, {"id": 535160, "name": "Lineynaya", "state": "", "country": "RU", "coord": {"lon": 39.4925, "lat": 44.591942}}, {"id": 535180, "name": "Lindema", "state": "", "country": "RU", "coord": {"lon": 35.583332, "lat": 62.266666}}, {"id": 535183, "name": "Linda", "state": "", "country": "RU", "coord": {"lon": 44.09544, "lat": 56.615711}}, {"id": 535229, "name": "Liman", "state": "", "country": "RU", "coord": {"lon": 47.224049, "lat": 45.784569}}, {"id": 535243, "name": "Likino-Dulevo", "state": "", "country": "RU", "coord": {"lon": 38.954445, "lat": 55.711666}}, {"id": 535246, "name": "Likino", "state": "", "country": "RU", "coord": {"lon": 38.950001, "lat": 55.733334}}, {"id": 535253, "name": "Likhoy", "state": "", "country": "RU", "coord": {"lon": 40.205559, "lat": 48.126621}}, {"id": 535254, "name": "Likhovskoy", "state": "", "country": "RU", "coord": {"lon": 40.179249, "lat": 48.151878}}, {"id": 535261, "name": "Likhoslavl\u2019", "state": "", "country": "RU", "coord": {"lon": 35.464039, "lat": 57.127468}}, {"id": 535270, "name": "Likhobory", "state": "", "country": "RU", "coord": {"lon": 37.566666, "lat": 55.849998}}, {"id": 535286, "name": "Likhach\u00ebvo", "state": "", "country": "RU", "coord": {"lon": 37.491112, "lat": 55.923611}}, {"id": 535296, "name": "Ligovo", "state": "", "country": "RU", "coord": {"lon": 30.198334, "lat": 59.831944}}, {"id": 535330, "name": "Lianozovo", "state": "", "country": "RU", "coord": {"lon": 37.5868, "lat": 55.897831}}, {"id": 535334, "name": "L\u2019govskiy", "state": "", "country": "RU", "coord": {"lon": 35.2775, "lat": 51.630692}}, {"id": 535347, "name": "L\u2019gov", "state": "", "country": "RU", "coord": {"lon": 35.284302, "lat": 51.688801}}, {"id": 535366, "name": "Lezhnevo", "state": "", "country": "RU", "coord": {"lon": 40.891739, "lat": 56.775082}}, {"id": 535372, "name": "Lezhevo", "state": "", "country": "RU", "coord": {"lon": 33.683334, "lat": 64.76667}}, {"id": 535417, "name": "Lev Tolstoy", "state": "", "country": "RU", "coord": {"lon": 39.446041, "lat": 53.21344}}, {"id": 535428, "name": "Levoye Yashcherevo", "state": "", "country": "RU", "coord": {"lon": 37.519566, "lat": 54.943161}}, {"id": 535438, "name": "Levokumskoye", "state": "", "country": "RU", "coord": {"lon": 44.660561, "lat": 44.821941}}, {"id": 535440, "name": "Levokumka", "state": "", "country": "RU", "coord": {"lon": 43.150002, "lat": 44.231667}}, {"id": 535451, "name": "Levoberezhnaya", "state": "", "country": "RU", "coord": {"lon": 37.477222, "lat": 55.891945}}, {"id": 535457, "name": "Levkovo", "state": "", "country": "RU", "coord": {"lon": 37.866669, "lat": 56.283333}}, {"id": 535478, "name": "Levinskaya", "state": "", "country": "RU", "coord": {"lon": 42.400002, "lat": 59.866669}}, {"id": 535505, "name": "Levikha", "state": "", "country": "RU", "coord": {"lon": 59.90028, "lat": 57.583611}}, {"id": 535532, "name": "Levashovo", "state": "", "country": "RU", "coord": {"lon": 37.507973, "lat": 54.934914}}, {"id": 535542, "name": "Levashi", "state": "", "country": "RU", "coord": {"lon": 47.32148, "lat": 42.430359}}, {"id": 535544, "name": "Levashovo", "state": "", "country": "RU", "coord": {"lon": 30.213057, "lat": 60.102222}}, {"id": 535545, "name": "Levash\u00ebvo", "state": "", "country": "RU", "coord": {"lon": 49.915699, "lat": 55.138302}}, {"id": 535605, "name": "Letnyaya Stavka", "state": "", "country": "RU", "coord": {"lon": 43.44722, "lat": 45.430561}}, {"id": 535625, "name": "Letnik", "state": "", "country": "RU", "coord": {"lon": 41.265701, "lat": 46.011002}}, {"id": 535639, "name": "Letka", "state": "", "country": "RU", "coord": {"lon": 49.42321, "lat": 59.601109}}, {"id": 535670, "name": "Lesogorskiy", "state": "", "country": "RU", "coord": {"lon": 28.92938, "lat": 61.04549}}, {"id": 535671, "name": "Lesogorskaya", "state": "", "country": "RU", "coord": {"lon": 39.540829, "lat": 44.54694}}, {"id": 535672, "name": "Lesogorsk", "state": "", "country": "RU", "coord": {"lon": 43.93552, "lat": 55.0979}}, {"id": 535678, "name": "Lesnyye Polyany", "state": "", "country": "RU", "coord": {"lon": 52.418018, "lat": 59.003139}}, {"id": 535679, "name": "Lesnyye Polyany", "state": "", "country": "RU", "coord": {"lon": 37.866669, "lat": 55.966671}}, {"id": 535695, "name": "Lesnoy Gorodok", "state": "", "country": "RU", "coord": {"lon": 37.208302, "lat": 55.638931}}, {"id": 535711, "name": "Lesnoye", "state": "", "country": "RU", "coord": {"lon": 35.515839, "lat": 58.284061}}, {"id": 535717, "name": "Lesnoye", "state": "", "country": "RU", "coord": {"lon": 39.974445, "lat": 43.572498}}, {"id": 535729, "name": "Komendantsky aerodrom", "state": "", "country": "RU", "coord": {"lon": 30.277779, "lat": 60.003887}}, {"id": 535734, "name": "Lesnoy", "state": "", "country": "RU", "coord": {"lon": 52.12838, "lat": 59.780998}}, {"id": 535738, "name": "Lesnoy", "state": "", "country": "RU", "coord": {"lon": 42.683334, "lat": 58.75}}, {"id": 535741, "name": "Lesnoy", "state": "", "country": "RU", "coord": {"lon": 37.916672, "lat": 56.066669}}, {"id": 535744, "name": "Lesnoy", "state": "", "country": "RU", "coord": {"lon": 40.471298, "lat": 54.212502}}, {"id": 535754, "name": "Lesnoy", "state": "", "country": "RU", "coord": {"lon": 44.783329, "lat": 48.48333}}, {"id": 535798, "name": "Lesnaya", "state": "", "country": "RU", "coord": {"lon": 36.183331, "lat": 52.933331}}, {"id": 535806, "name": "Leskolovo", "state": "", "country": "RU", "coord": {"lon": 30.45462, "lat": 60.263409}}, {"id": 535839, "name": "Leshukonskoye", "state": "", "country": "RU", "coord": {"lon": 45.762199, "lat": 64.898941}}, {"id": 535886, "name": "Lermontov", "state": "", "country": "RU", "coord": {"lon": 42.973331, "lat": 44.10667}}, {"id": 535966, "name": "Leonovo", "state": "", "country": "RU", "coord": {"lon": 37.644444, "lat": 55.842499}}, {"id": 535967, "name": "Leonovo", "state": "", "country": "RU", "coord": {"lon": 46.083332, "lat": 60.666668}}, {"id": 535970, "name": "Leonovo", "state": "", "country": "RU", "coord": {"lon": 38.283333, "lat": 56.383331}}, {"id": 535974, "name": "Leonovo", "state": "", "country": "RU", "coord": {"lon": 37.950001, "lat": 55.799999}}, {"id": 535977, "name": "Leonovo", "state": "", "country": "RU", "coord": {"lon": 38.709167, "lat": 55.43639}}, {"id": 535990, "name": "Leonov", "state": "", "country": "RU", "coord": {"lon": 42.0476, "lat": 48.707779}}, {"id": 535992, "name": "Leonikha", "state": "", "country": "RU", "coord": {"lon": 38.094723, "lat": 55.885277}}, {"id": 536029, "name": "Kurtsevo", "state": "", "country": "RU", "coord": {"lon": 46.546391, "lat": 61.156944}}, {"id": 536035, "name": "Leninskoye", "state": "", "country": "RU", "coord": {"lon": 47.088558, "lat": 58.316368}}, {"id": 536098, "name": "Leninskiye Gory", "state": "", "country": "RU", "coord": {"lon": 37.566666, "lat": 55.700001}}, {"id": 536111, "name": "Leninskiy", "state": "", "country": "RU", "coord": {"lon": 37.45583, "lat": 54.278061}}, {"id": 536140, "name": "Leninskiy", "state": "", "country": "RU", "coord": {"lon": 39.216667, "lat": 45.25}}, {"id": 536148, "name": "Leninskiy", "state": "", "country": "RU", "coord": {"lon": 43.153057, "lat": 44.191387}}, {"id": 536155, "name": "Leninsk", "state": "", "country": "RU", "coord": {"lon": 59.8675, "lat": 54.903061}}, {"id": 536156, "name": "Leninsk", "state": "", "country": "RU", "coord": {"lon": 45.199444, "lat": 48.711945}}, {"id": 536162, "name": "Leninogorsk", "state": "", "country": "RU", "coord": {"lon": 52.460869, "lat": 54.602558}}, {"id": 536164, "name": "Tsaritsyno", "state": "", "country": "RU", "coord": {"lon": 37.656387, "lat": 55.626667}}, {"id": 536166, "name": "Lenino", "state": "", "country": "RU", "coord": {"lon": 42.516666, "lat": 59.933334}}, {"id": 536172, "name": "Vakhromeyevo", "state": "", "country": "RU", "coord": {"lon": 36.716667, "lat": 56.666668}}, {"id": 536186, "name": "Leninkent", "state": "", "country": "RU", "coord": {"lon": 47.35202, "lat": 42.968948}}, {"id": 536199, "name": "Leningradskaya Oblast\u2019", "state": "", "country": "RU", "coord": {"lon": 32, "lat": 60}}, {"id": 536200, "name": "Leningradskaya", "state": "", "country": "RU", "coord": {"lon": 39.387699, "lat": 46.3214}}, {"id": 536206, "name": "Yubileyny", "state": "", "country": "RU", "coord": {"lon": 37.833328, "lat": 55.933331}}, {"id": 536209, "name": "Leninaul", "state": "", "country": "RU", "coord": {"lon": 46.574341, "lat": 43.091381}}, {"id": 536219, "name": "Lenina", "state": "", "country": "RU", "coord": {"lon": 39.783329, "lat": 46.066669}}, {"id": 536264, "name": "Lemeshki", "state": "", "country": "RU", "coord": {"lon": 40.583332, "lat": 56.200001}}, {"id": 536291, "name": "Lema", "state": "", "country": "RU", "coord": {"lon": 50.874969, "lat": 58.06559}}, {"id": 536398, "name": "Lefortovo", "state": "", "country": "RU", "coord": {"lon": 37.692501, "lat": 55.760555}}, {"id": 536408, "name": "L\u00ebdovo", "state": "", "country": "RU", "coord": {"lon": 38.399441, "lat": 54.748058}}, {"id": 536440, "name": "Lechinkay", "state": "", "country": "RU", "coord": {"lon": 43.432781, "lat": 43.56472}}, {"id": 536466, "name": "Lebyazh\u2019ye", "state": "", "country": "RU", "coord": {"lon": 29.414869, "lat": 59.961239}}, {"id": 536511, "name": "Lebeshchina", "state": "", "country": "RU", "coord": {"lon": 35.349998, "lat": 62.533333}}, {"id": 536518, "name": "Lebedyan\u2019", "state": "", "country": "RU", "coord": {"lon": 39.166389, "lat": 53.019421}}, {"id": 536573, "name": "Lebedevka", "state": "", "country": "RU", "coord": {"lon": 44.983334, "lat": 53.116669}}, {"id": 536625, "name": "Lazarevskoye", "state": "", "country": "RU", "coord": {"lon": 39.333057, "lat": 43.906113}}, {"id": 536765, "name": "Lava", "state": "", "country": "RU", "coord": {"lon": 46.899681, "lat": 54.479919}}, {"id": 536818, "name": "Latnaya", "state": "", "country": "RU", "coord": {"lon": 38.9011, "lat": 51.6586}}, {"id": 536840, "name": "Laskovo", "state": "", "country": "RU", "coord": {"lon": 39.933334, "lat": 54.833332}}, {"id": 536847, "name": "Lasino", "state": "", "country": "RU", "coord": {"lon": 41.733334, "lat": 55.033333}}, {"id": 536857, "name": "Lashma", "state": "", "country": "RU", "coord": {"lon": 41.143791, "lat": 54.932098}}, {"id": 536874, "name": "Lartsevo", "state": "", "country": "RU", "coord": {"lon": 37.099998, "lat": 56.833328}}, {"id": 536895, "name": "Larino", "state": "", "country": "RU", "coord": {"lon": 39.060001, "lat": 54.926109}}, {"id": 536906, "name": "Larevo", "state": "", "country": "RU", "coord": {"lon": 37.533329, "lat": 56.099998}}, {"id": 536996, "name": "Lapino", "state": "", "country": "RU", "coord": {"lon": 36.116669, "lat": 56.466667}}, {"id": 537007, "name": "Lapinlaksha", "state": "", "country": "RU", "coord": {"lon": 30.566668, "lat": 65.583336}}, {"id": 537031, "name": "Lan\u2019shinskiy", "state": "", "country": "RU", "coord": {"lon": 37.266338, "lat": 54.830173}}, {"id": 537057, "name": "Lamsha", "state": "", "country": "RU", "coord": {"lon": 40.883331, "lat": 54.799999}}, {"id": 537094, "name": "Lal\u2019sk", "state": "", "country": "RU", "coord": {"lon": 47.58617, "lat": 60.741459}}, {"id": 537100, "name": "Lakshukay", "state": "", "country": "RU", "coord": {"lon": 39.133057, "lat": 44.950001}}, {"id": 537101, "name": "Laksha", "state": "", "country": "RU", "coord": {"lon": 43.62434, "lat": 56.03957}}, {"id": 537107, "name": "Lakinsk", "state": "", "country": "RU", "coord": {"lon": 39.948479, "lat": 56.01931}}, {"id": 537127, "name": "Lakhtinskiy", "state": "", "country": "RU", "coord": {"lon": 30.159721, "lat": 59.991112}}, {"id": 537147, "name": "Lakhdenpokh\u2019ya", "state": "", "country": "RU", "coord": {"lon": 30.199169, "lat": 61.51981}}, {"id": 537152, "name": "Lakash", "state": "", "country": "RU", "coord": {"lon": 40.883331, "lat": 54.666668}}, {"id": 537158, "name": "Laishevo", "state": "", "country": "RU", "coord": {"lon": 49.550369, "lat": 55.40464}}, {"id": 537208, "name": "Ladygino", "state": "", "country": "RU", "coord": {"lon": 36.5, "lat": 55.616669}}, {"id": 537229, "name": "Ladushkin", "state": "", "country": "RU", "coord": {"lon": 20.17099, "lat": 54.570251}}, {"id": 537235, "name": "Ladozhskaya", "state": "", "country": "RU", "coord": {"lon": 39.935001, "lat": 45.308056}}, {"id": 537238, "name": "Ladovskaya Balka", "state": "", "country": "RU", "coord": {"lon": 41.402309, "lat": 45.62965}}, {"id": 537281, "name": "Labinsk", "state": "", "country": "RU", "coord": {"lon": 40.735558, "lat": 44.634167}}, {"id": 537326, "name": "Kyzyl-Oktyabr\u2019skiy", "state": "", "country": "RU", "coord": {"lon": 41.786049, "lat": 43.825699}}, {"id": 537344, "name": "Islamey", "state": "", "country": "RU", "coord": {"lon": 43.455002, "lat": 43.67556}}, {"id": 537345, "name": "Dugulubgey", "state": "", "country": "RU", "coord": {"lon": 43.536942, "lat": 43.662498}}, {"id": 537346, "name": "Kyzburun Pervyy", "state": "", "country": "RU", "coord": {"lon": 43.395, "lat": 43.651669}}, {"id": 537508, "name": "Kyakhulay", "state": "", "country": "RU", "coord": {"lon": 47.483009, "lat": 42.968391}}, {"id": 537541, "name": "Kvarkeno", "state": "", "country": "RU", "coord": {"lon": 59.724998, "lat": 52.083328}}, {"id": 537558, "name": "Kuzyayevo", "state": "", "country": "RU", "coord": {"lon": 35.917473, "lat": 56.201012}}, {"id": 537559, "name": "Kuzyayevo", "state": "", "country": "RU", "coord": {"lon": 36.183334, "lat": 56.133331}}, {"id": 537560, "name": "Kuzyayevo", "state": "", "country": "RU", "coord": {"lon": 38.533333, "lat": 55.616669}}, {"id": 537567, "name": "Kuzyabayevo", "state": "", "country": "RU", "coord": {"lon": 49.933334, "lat": 51.683334}}, {"id": 537591, "name": "Kuzovlevo", "state": "", "country": "RU", "coord": {"lon": 38.068333, "lat": 55.271667}}, {"id": 537598, "name": "Kuzovatovo", "state": "", "country": "RU", "coord": {"lon": 47.686588, "lat": 53.54681}}, {"id": 537613, "name": "Kuznetsy", "state": "", "country": "RU", "coord": {"lon": 35.233334, "lat": 62.016666}}, {"id": 537625, "name": "Kuznetsy", "state": "", "country": "RU", "coord": {"lon": 39.599998, "lat": 55.416668}}, {"id": 537665, "name": "Kuznetsovo", "state": "", "country": "RU", "coord": {"lon": 42.683331, "lat": 58.75}}, {"id": 537675, "name": "Kuznetsovo", "state": "", "country": "RU", "coord": {"lon": 41.248055, "lat": 57.944443}}, {"id": 537688, "name": "Kuznetsovo", "state": "", "country": "RU", "coord": {"lon": 37.700001, "lat": 56.433334}}, {"id": 537691, "name": "Kuznetsovo", "state": "", "country": "RU", "coord": {"lon": 36.650002, "lat": 56.133331}}, {"id": 537697, "name": "Kuznetsovo", "state": "", "country": "RU", "coord": {"lon": 37.283333, "lat": 55.216667}}, {"id": 537737, "name": "Kuznetsk", "state": "", "country": "RU", "coord": {"lon": 46.600368, "lat": 53.116749}}, {"id": 537740, "name": "Kuznechnoye", "state": "", "country": "RU", "coord": {"lon": 29.868641, "lat": 61.120041}}, {"id": 537760, "name": "Kuznechikha", "state": "", "country": "RU", "coord": {"lon": 42.33477, "lat": 57.216061}}, {"id": 537773, "name": "Kuz\u2019mishchi", "state": "", "country": "RU", "coord": {"lon": 41.130833, "lat": 57.875278}}, {"id": 537791, "name": "Kuz\u2019minskoye", "state": "", "country": "RU", "coord": {"lon": 36.116669, "lat": 56.233334}}, {"id": 537830, "name": "Kuz\u2019mino", "state": "", "country": "RU", "coord": {"lon": 37.880554, "lat": 55.146389}}, {"id": 537832, "name": "Kuz\u2019minki", "state": "", "country": "RU", "coord": {"lon": 37.799999, "lat": 55.700001}}, {"id": 537873, "name": "Kuz\u2019madino", "state": "", "country": "RU", "coord": {"lon": 39.683334, "lat": 56.483334}}, {"id": 537888, "name": "Kuzino", "state": "", "country": "RU", "coord": {"lon": 38.310398, "lat": 59.776649}}, {"id": 537893, "name": "Kuzino", "state": "", "country": "RU", "coord": {"lon": 59.4412, "lat": 57.0224}}, {"id": 537914, "name": "Kazenno-Kuzhorskiy", "state": "", "country": "RU", "coord": {"lon": 40.6675, "lat": 44.660831}}, {"id": 537915, "name": "Kuzhorskaya", "state": "", "country": "RU", "coord": {"lon": 40.310322, "lat": 44.675121}}, {"id": 537935, "name": "Kuzhenkino", "state": "", "country": "RU", "coord": {"lon": 33.950829, "lat": 57.761108}}, {"id": 537939, "name": "Kuzhener", "state": "", "country": "RU", "coord": {"lon": 48.912781, "lat": 56.811111}}, {"id": 537962, "name": "Kuzemino", "state": "", "country": "RU", "coord": {"lon": 42.502777, "lat": 59.226391}}, {"id": 537978, "name": "Kuzaranda-Yusova Gora", "state": "", "country": "RU", "coord": {"lon": 35.533333, "lat": 62.383331}}, {"id": 537979, "name": "Kuzaranda-Velikiye Nivy", "state": "", "country": "RU", "coord": {"lon": 35.51667, "lat": 62.366669}}, {"id": 537981, "name": "Kuzaranda-Sidorova", "state": "", "country": "RU", "coord": {"lon": 35.533329, "lat": 62.349998}}, {"id": 537985, "name": "Kuzaranda-Mishal\u00ebvo", "state": "", "country": "RU", "coord": {"lon": 35.533333, "lat": 62.383331}}, {"id": 537987, "name": "Kuzaranda-Kargachevo", "state": "", "country": "RU", "coord": {"lon": 35.549999, "lat": 62.349998}}, {"id": 537988, "name": "Kuzaranda", "state": "", "country": "RU", "coord": {"lon": 35.516666, "lat": 62.366669}}, {"id": 537992, "name": "Kuyvozi", "state": "", "country": "RU", "coord": {"lon": 30.44521, "lat": 60.317429}}, {"id": 538032, "name": "Kuykovaraka", "state": "", "country": "RU", "coord": {"lon": 33.066666, "lat": 64.48333}}, {"id": 538046, "name": "Kuyeda", "state": "", "country": "RU", "coord": {"lon": 55.588612, "lat": 56.431099}}, {"id": 538049, "name": "Kuybyshevskiy Zaton", "state": "", "country": "RU", "coord": {"lon": 49.170101, "lat": 55.159302}}, {"id": 538061, "name": "Kuybyshevo", "state": "", "country": "RU", "coord": {"lon": 38.90731, "lat": 47.812279}}, {"id": 538075, "name": "Kuyanovo", "state": "", "country": "RU", "coord": {"lon": 54.53722, "lat": 55.801392}}, {"id": 538104, "name": "Kuvshinovo", "state": "", "country": "RU", "coord": {"lon": 34.17252, "lat": 57.02953}}, {"id": 538108, "name": "Kuvshinovo", "state": "", "country": "RU", "coord": {"lon": 35.275829, "lat": 54.78056}}, {"id": 538138, "name": "Kuvandyk", "state": "", "country": "RU", "coord": {"lon": 57.355202, "lat": 51.4781}}, {"id": 538143, "name": "Kuvakinskaya", "state": "", "country": "RU", "coord": {"lon": 43.650002, "lat": 60.166668}}, {"id": 538169, "name": "Kutuzovo", "state": "", "country": "RU", "coord": {"lon": 38.150002, "lat": 55.799999}}, {"id": 538186, "name": "Kutunen", "state": "", "country": "RU", "coord": {"lon": 30.75, "lat": 65.683334}}, {"id": 538321, "name": "Kuskovo", "state": "", "country": "RU", "coord": {"lon": 37.81028, "lat": 55.737221}}, {"id": 538340, "name": "Kushva", "state": "", "country": "RU", "coord": {"lon": 59.759171, "lat": 58.290562}}, {"id": 538368, "name": "Kushnar\u00ebnkovo", "state": "", "country": "RU", "coord": {"lon": 55.35083, "lat": 55.105}}, {"id": 538408, "name": "Kushelevka", "state": "", "country": "RU", "coord": {"lon": 30.36389, "lat": 59.993332}}, {"id": 538414, "name": "Kushch\u00ebvskiye", "state": "", "country": "RU", "coord": {"lon": 39.756668, "lat": 46.458332}}, {"id": 538416, "name": "Kushch\u00ebvskaya", "state": "", "country": "RU", "coord": {"lon": 39.638611, "lat": 46.556389}},