[{"id": 5415685, "name": "Byers", "state": "CO", "country": "US", "coord": {"lon": -104.227737, "lat": 39.711369}}, {"id": 5416005, "name": "Ca\u00f1on City", "state": "CO", "country": "US", "coord": {"lon": -105.242447, "lat": 38.440979}}, {"id": 5416113, "name": "Carbondale", "state": "CO", "country": "US", "coord": {"lon": -107.211159, "lat": 39.40221}}, {"id": 5416138, "name": "Caribou City", "state": "CO", "country": "US", "coord": {"lon": -105.512779, "lat": 39.98999}}, {"id": 5416200, "name": "Carriage Club", "state": "CO", "country": "US", "coord": {"lon": -104.901093, "lat": 39.53249}}, {"id": 5416322, "name": "Castle Pines", "state": "CO", "country": "US", "coord": {"lon": -104.896088, "lat": 39.458038}}, {"id": 5416329, "name": "Castle Rock", "state": "CO", "country": "US", "coord": {"lon": -104.856087, "lat": 39.372211}}, {"id": 5416357, "name": "Castlewood", "state": "CO", "country": "US", "coord": {"lon": -104.901093, "lat": 39.584709}}, {"id": 5416516, "name": "Cedaredge", "state": "CO", "country": "US", "coord": {"lon": -107.926453, "lat": 38.901649}}, {"id": 5416541, "name": "Centennial", "state": "CO", "country": "US", "coord": {"lon": -104.876923, "lat": 39.579159}}, {"id": 5416565, "name": "Center", "state": "CO", "country": "US", "coord": {"lon": -106.108643, "lat": 37.753059}}, {"id": 5416606, "name": "Central City", "state": "CO", "country": "US", "coord": {"lon": -105.51416, "lat": 39.801929}}, {"id": 5416621, "name": "Chaffee County", "state": "CO", "country": "US", "coord": {"lon": -106.183907, "lat": 38.766659}}, {"id": 5416824, "name": "Cherry Hills Village", "state": "CO", "country": "US", "coord": {"lon": -104.959427, "lat": 39.641651}}, {"id": 5416840, "name": "Cheyenne County", "state": "CO", "country": "US", "coord": {"lon": -102.600471, "lat": 38.83334}}, {"id": 5416855, "name": "Cheyenne Wells", "state": "CO", "country": "US", "coord": {"lon": -102.353241, "lat": 38.8214}}, {"id": 5417041, "name": "Cimarron Hills", "state": "CO", "country": "US", "coord": {"lon": -104.69886, "lat": 38.858608}}, {"id": 5417258, "name": "Clifton", "state": "CO", "country": "US", "coord": {"lon": -108.448982, "lat": 39.09193}}, {"id": 5417342, "name": "Coal Creek", "state": "CO", "country": "US", "coord": {"lon": -105.377487, "lat": 39.90638}}, {"id": 5417561, "name": "Colorado City", "state": "CO", "country": "US", "coord": {"lon": -104.835258, "lat": 37.94529}}, {"id": 5417598, "name": "Colorado Springs", "state": "CO", "country": "US", "coord": {"lon": -104.821358, "lat": 38.833881}}, {"id": 5417618, "name": "Colorado", "state": "CO", "country": "US", "coord": {"lon": -105.500832, "lat": 39.000271}}, {"id": 5417657, "name": "Columbine", "state": "CO", "country": "US", "coord": {"lon": -105.069427, "lat": 39.587769}}, {"id": 5417702, "name": "Columbine Valley", "state": "CO", "country": "US", "coord": {"lon": -105.032211, "lat": 39.601101}}, {"id": 5417737, "name": "Commerce City", "state": "CO", "country": "US", "coord": {"lon": -104.933868, "lat": 39.808319}}, {"id": 5417805, "name": "Conejos", "state": "CO", "country": "US", "coord": {"lon": -106.019737, "lat": 37.088348}}, {"id": 5418104, "name": "Cortez", "state": "CO", "country": "US", "coord": {"lon": -108.58593, "lat": 37.348881}}, {"id": 5418493, "name": "Creede", "state": "CO", "country": "US", "coord": {"lon": -106.92643, "lat": 37.849171}}, {"id": 5418523, "name": "Crested Butte", "state": "CO", "country": "US", "coord": {"lon": -106.987823, "lat": 38.869709}}, {"id": 5418552, "name": "Cripple Creek", "state": "CO", "country": "US", "coord": {"lon": -105.178307, "lat": 38.746658}}, {"id": 5418756, "name": "Cuchara", "state": "CO", "country": "US", "coord": {"lon": -105.100281, "lat": 37.379181}}, {"id": 5418854, "name": "Custer County", "state": "CO", "country": "US", "coord": {"lon": -105.367218, "lat": 38.116669}}, {"id": 5419302, "name": "Del Norte", "state": "CO", "country": "US", "coord": {"lon": -106.353371, "lat": 37.67889}}, {"id": 5419334, "name": "Delta", "state": "CO", "country": "US", "coord": {"lon": -108.068962, "lat": 38.74221}}, {"id": 5419384, "name": "Denver", "state": "CO", "country": "US", "coord": {"lon": -104.984703, "lat": 39.739151}}, {"id": 5419396, "name": "Denver County", "state": "CO", "country": "US", "coord": {"lon": -104.950539, "lat": 39.666649}}, {"id": 5419431, "name": "Derby", "state": "CO", "country": "US", "coord": {"lon": -104.918587, "lat": 39.839432}}, {"id": 5419606, "name": "Dillon", "state": "CO", "country": "US", "coord": {"lon": -106.04335, "lat": 39.63026}}, {"id": 5419891, "name": "Douglas County", "state": "CO", "country": "US", "coord": {"lon": -104.950539, "lat": 39.333321}}, {"id": 5419913, "name": "Dove Creek", "state": "CO", "country": "US", "coord": {"lon": -108.905937, "lat": 37.766102}}, {"id": 5419932, "name": "Doyleville", "state": "CO", "country": "US", "coord": {"lon": -106.609482, "lat": 38.45166}}, {"id": 5420241, "name": "Durango", "state": "CO", "country": "US", "coord": {"lon": -107.880074, "lat": 37.27528}}, {"id": 5420323, "name": "Eads", "state": "CO", "country": "US", "coord": {"lon": -102.78186, "lat": 38.48056}}, {"id": 5420328, "name": "Eagle", "state": "CO", "country": "US", "coord": {"lon": -106.828651, "lat": 39.655258}}, {"id": 5420332, "name": "Eagle County", "state": "CO", "country": "US", "coord": {"lon": -106.700592, "lat": 39.63332}}, {"id": 5420859, "name": "Edgewater", "state": "CO", "country": "US", "coord": {"lon": -105.064148, "lat": 39.75304}}, {"id": 5420885, "name": "Edwards", "state": "CO", "country": "US", "coord": {"lon": -106.5942, "lat": 39.644989}}, {"id": 5420923, "name": "El Jebel", "state": "CO", "country": "US", "coord": {"lon": -107.090332, "lat": 39.394981}}, {"id": 5420926, "name": "El Paso County", "state": "CO", "country": "US", "coord": {"lon": -104.517189, "lat": 38.833328}}, {"id": 5421001, "name": "Elizabeth", "state": "CO", "country": "US", "coord": {"lon": -104.596916, "lat": 39.360271}}, {"id": 5421126, "name": "Ellicott", "state": "CO", "country": "US", "coord": {"lon": -104.386909, "lat": 38.838329}}, {"id": 5421250, "name": "Englewood", "state": "CO", "country": "US", "coord": {"lon": -104.987762, "lat": 39.64777}}, {"id": 5421258, "name": "Eno", "state": "CO", "country": "US", "coord": {"lon": -104.844139, "lat": 39.887211}}, {"id": 5421327, "name": "Estabrook", "state": "CO", "country": "US", "coord": {"lon": -105.429443, "lat": 39.383041}}, {"id": 5421418, "name": "Evergreen", "state": "CO", "country": "US", "coord": {"lon": -105.317207, "lat": 39.63332}}, {"id": 5421506, "name": "Fairplay", "state": "CO", "country": "US", "coord": {"lon": -106.001961, "lat": 39.224709}}, {"id": 5421709, "name": "Federal Heights", "state": "CO", "country": "US", "coord": {"lon": -104.998589, "lat": 39.851372}}, {"id": 5421941, "name": "Flagler", "state": "CO", "country": "US", "coord": {"lon": -103.067162, "lat": 39.293049}}, {"id": 5422018, "name": "Florence", "state": "CO", "country": "US", "coord": {"lon": -105.118599, "lat": 38.390282}}, {"id": 5422140, "name": "Fort Carson", "state": "CO", "country": "US", "coord": {"lon": -104.788857, "lat": 38.737492}}, {"id": 5422191, "name": "Fountain", "state": "CO", "country": "US", "coord": {"lon": -104.700813, "lat": 38.68222}}, {"id": 5422254, "name": "Fowler", "state": "CO", "country": "US", "coord": {"lon": -104.023293, "lat": 38.129169}}, {"id": 5422376, "name": "Fraser", "state": "CO", "country": "US", "coord": {"lon": -105.81723, "lat": 39.944988}}, {"id": 5422448, "name": "Fremont County", "state": "CO", "country": "US", "coord": {"lon": -105.400551, "lat": 38.48333}}, {"id": 5422503, "name": "Frisco", "state": "CO", "country": "US", "coord": {"lon": -106.097519, "lat": 39.574429}}, {"id": 5422534, "name": "Fruita", "state": "CO", "country": "US", "coord": {"lon": -108.728989, "lat": 39.158871}}, {"id": 5422557, "name": "Fruitvale", "state": "CO", "country": "US", "coord": {"lon": -108.496758, "lat": 39.08165}}, {"id": 5422751, "name": "Garfield County", "state": "CO", "country": "US", "coord": {"lon": -107.833961, "lat": 39.54998}}, {"id": 5422853, "name": "Genesee", "state": "CO", "country": "US", "coord": {"lon": -105.272774, "lat": 39.685822}}, {"id": 5422889, "name": "Georgetown", "state": "CO", "country": "US", "coord": {"lon": -105.697502, "lat": 39.7061}}, {"id": 5423075, "name": "Glendale", "state": "CO", "country": "US", "coord": {"lon": -104.933594, "lat": 39.70499}}, {"id": 5423078, "name": "Gleneagle", "state": "CO", "country": "US", "coord": {"lon": -104.824417, "lat": 39.045269}}, {"id": 5423092, "name": "Glenwood Springs", "state": "CO", "country": "US", "coord": {"lon": -107.324783, "lat": 39.550541}}, {"id": 5423294, "name": "Golden", "state": "CO", "country": "US", "coord": {"lon": -105.2211, "lat": 39.755539}}, {"id": 5423573, "name": "Grand Junction", "state": "CO", "country": "US", "coord": {"lon": -108.550652, "lat": 39.063869}}, {"id": 5423908, "name": "Greenwood Village", "state": "CO", "country": "US", "coord": {"lon": -104.950813, "lat": 39.61721}}, {"id": 5424092, "name": "Gunnison County", "state": "CO", "country": "US", "coord": {"lon": -107.067268, "lat": 38.699989}}, {"id": 5424099, "name": "Gunnison", "state": "CO", "country": "US", "coord": {"lon": -106.925323, "lat": 38.545818}}, {"id": 5424152, "name": "Gypsum", "state": "CO", "country": "US", "coord": {"lon": -106.951714, "lat": 39.646931}}, {"id": 5424440, "name": "Harris Park", "state": "CO", "country": "US", "coord": {"lon": -105.491112, "lat": 39.511662}}, {"id": 5424865, "name": "Hermosa", "state": "CO", "country": "US", "coord": {"lon": -107.835342, "lat": 37.415279}}, {"id": 5425043, "name": "Highlands Ranch", "state": "CO", "country": "US", "coord": {"lon": -104.969429, "lat": 39.553879}}, {"id": 5425180, "name": "Hoehne", "state": "CO", "country": "US", "coord": {"lon": -104.381088, "lat": 37.281132}}, {"id": 5425547, "name": "Horseshoe (historical)", "state": "CO", "country": "US", "coord": {"lon": -106.085297, "lat": 39.20388}}, {"id": 5425737, "name": "Huerfano County", "state": "CO", "country": "US", "coord": {"lon": -104.950546, "lat": 37.683338}}, {"id": 5425757, "name": "Hugo", "state": "CO", "country": "US", "coord": {"lon": -103.46994, "lat": 39.136101}}, {"id": 5425911, "name": "Idaho Springs", "state": "CO", "country": "US", "coord": {"lon": -105.513611, "lat": 39.742489}}, {"id": 5426044, "name": "Indian Hills", "state": "CO", "country": "US", "coord": {"lon": -105.237213, "lat": 39.61665}}, {"id": 5426503, "name": "Jefferson County", "state": "CO", "country": "US", "coord": {"lon": -105.267212, "lat": 39.63332}}, {"id": 5426615, "name": "Joes", "state": "CO", "country": "US", "coord": {"lon": -102.678818, "lat": 39.65638}}, {"id": 5427193, "name": "Kellytown", "state": "CO", "country": "US", "coord": {"lon": -104.993591, "lat": 39.48138}}, {"id": 5427207, "name": "Ken Caryl", "state": "CO", "country": "US", "coord": {"lon": -105.116867, "lat": 39.577259}}, {"id": 5427299, "name": "Keystone", "state": "CO", "country": "US", "coord": {"lon": -105.987244, "lat": 39.59943}}, {"id": 5427336, "name": "Kim", "state": "CO", "country": "US", "coord": {"lon": -103.352158, "lat": 37.246689}}, {"id": 5427408, "name": "Kiowa", "state": "CO", "country": "US", "coord": {"lon": -104.464409, "lat": 39.34721}}, {"id": 5427500, "name": "Kiowa County", "state": "CO", "country": "US", "coord": {"lon": -102.817139, "lat": 38.433338}}, {"id": 5427526, "name": "Kit Carson County", "state": "CO", "country": "US", "coord": {"lon": -102.567139, "lat": 39.299992}}, {"id": 5427540, "name": "Kittredge", "state": "CO", "country": "US", "coord": {"lon": -105.299713, "lat": 39.654709}}, {"id": 5427691, "name": "La Fruto", "state": "CO", "country": "US", "coord": {"lon": -105.898628, "lat": 37.41473}}, {"id": 5427705, "name": "La Junta", "state": "CO", "country": "US", "coord": {"lon": -103.543831, "lat": 37.985008}}, {"id": 5427717, "name": "La Plata County", "state": "CO", "country": "US", "coord": {"lon": -107.817291, "lat": 37.28334}}, {"id": 5427771, "name": "Lafayette", "state": "CO", "country": "US", "coord": {"lon": -105.089706, "lat": 39.993599}}, {"id": 5427796, "name": "Lake City", "state": "CO", "country": "US", "coord": {"lon": -107.315331, "lat": 38.029999}}, {"id": 5427799, "name": "Lake County", "state": "CO", "country": "US", "coord": {"lon": -106.333908, "lat": 39.21666}}, {"id": 5427946, "name": "Lakewood", "state": "CO", "country": "US", "coord": {"lon": -105.081367, "lat": 39.704708}}, {"id": 5427957, "name": "Lamar", "state": "CO", "country": "US", "coord": {"lon": -102.62075, "lat": 38.087231}}, {"id": 5428055, "name": "Las Animas", "state": "CO", "country": "US", "coord": {"lon": -103.22271, "lat": 38.066669}}, {"id": 5428059, "name": "Las Animas County", "state": "CO", "country": "US", "coord": {"lon": -104.001083, "lat": 37.416679}}, {"id": 5428184, "name": "Leadville", "state": "CO", "country": "US", "coord": {"lon": -106.292519, "lat": 39.25082}}, {"id": 5428203, "name": "Leavick (historical)", "state": "CO", "country": "US", "coord": {"lon": -106.13752, "lat": 39.194988}}, {"id": 5428504, "name": "Limon", "state": "CO", "country": "US", "coord": {"lon": -103.692169, "lat": 39.263882}}, {"id": 5428518, "name": "Lincoln County", "state": "CO", "country": "US", "coord": {"lon": -103.4505, "lat": 39.049992}}, {"id": 5428534, "name": "Lincoln Park", "state": "CO", "country": "US", "coord": {"lon": -105.219994, "lat": 38.429161}}, {"id": 5429032, "name": "Littleton", "state": "CO", "country": "US", "coord": {"lon": -105.016647, "lat": 39.613319}}, {"id": 5429120, "name": "Loma", "state": "CO", "country": "US", "coord": {"lon": -108.813164, "lat": 39.195808}}, {"id": 5429208, "name": "Lone Tree", "state": "CO", "country": "US", "coord": {"lon": -104.886299, "lat": 39.551708}}, {"id": 5429522, "name": "Louisville", "state": "CO", "country": "US", "coord": {"lon": -105.131927, "lat": 39.97776}}, {"id": 5429982, "name": "Mancos", "state": "CO", "country": "US", "coord": {"lon": -108.289253, "lat": 37.345001}}, {"id": 5430023, "name": "Manitou Springs", "state": "CO", "country": "US", "coord": {"lon": -104.917198, "lat": 38.859711}}, {"id": 5430784, "name": "Meridian", "state": "CO", "country": "US", "coord": {"lon": -104.858871, "lat": 39.551659}}, {"id": 5430806, "name": "Mesa County", "state": "CO", "country": "US", "coord": {"lon": -108.467308, "lat": 39.033321}}, {"id": 5431129, "name": "Midland", "state": "CO", "country": "US", "coord": {"lon": -105.161652, "lat": 38.858318}}, {"id": 5431144, "name": "Midway", "state": "CO", "country": "US", "coord": {"lon": -102.186012, "lat": 37.149189}}, {"id": 5431423, "name": "Minturn", "state": "CO", "country": "US", "coord": {"lon": -106.430862, "lat": 39.586369}}, {"id": 5431661, "name": "Monte Vista", "state": "CO", "country": "US", "coord": {"lon": -106.148079, "lat": 37.57917}}, {"id": 5431710, "name": "Montrose", "state": "CO", "country": "US", "coord": {"lon": -107.876167, "lat": 38.478321}}, {"id": 5431716, "name": "Montrose County", "state": "CO", "country": "US", "coord": {"lon": -108.267303, "lat": 38.416649}}, {"id": 5431740, "name": "Monument", "state": "CO", "country": "US", "coord": {"lon": -104.872757, "lat": 39.09166}}, {"id": 5431940, "name": "Mosca", "state": "CO", "country": "US", "coord": {"lon": -105.873909, "lat": 37.648331}}, {"id": 5432024, "name": "Mount Pearl", "state": "CO", "country": "US", "coord": {"lon": -102.789368, "lat": 38.962502}}, {"id": 5432105, "name": "Mountain Village", "state": "CO", "country": "US", "coord": {"lon": -107.856453, "lat": 37.931381}}, {"id": 5432410, "name": "Nederland", "state": "CO", "country": "US", "coord": {"lon": -105.510834, "lat": 39.96138}}, {"id": 5432549, "name": "New Castle", "state": "CO", "country": "US", "coord": {"lon": -107.536438, "lat": 39.572762}}, {"id": 5433124, "name": "Northglenn", "state": "CO", "country": "US", "coord": {"lon": -104.987198, "lat": 39.88554}}, {"id": 5433349, "name": "Olathe", "state": "CO", "country": "US", "coord": {"lon": -107.982292, "lat": 38.604988}}, {"id": 5433549, "name": "Orchard Mesa", "state": "CO", "country": "US", "coord": {"lon": -108.552322, "lat": 39.043041}}, {"id": 5433559, "name": "Orchard City", "state": "CO", "country": "US", "coord": {"lon": -107.970901, "lat": 38.82832}}, {"id": 5433564, "name": "Ordway", "state": "CO", "country": "US", "coord": {"lon": -103.756058, "lat": 38.21806}}, {"id": 5433676, "name": "Ouray", "state": "CO", "country": "US", "coord": {"lon": -107.671448, "lat": 38.02277}}, {"id": 5433753, "name": "Oxford", "state": "CO", "country": "US", "coord": {"lon": -107.714233, "lat": 37.168892}}, {"id": 5433784, "name": "Pagosa Springs", "state": "CO", "country": "US", "coord": {"lon": -107.009758, "lat": 37.269451}}, {"id": 5433806, "name": "Palisade", "state": "CO", "country": "US", "coord": {"lon": -108.350922, "lat": 39.11026}}, {"id": 5433828, "name": "Palmer Lake", "state": "CO", "country": "US", "coord": {"lon": -104.917198, "lat": 39.122211}}, {"id": 5433904, "name": "Parachute", "state": "CO", "country": "US", "coord": {"lon": -108.052849, "lat": 39.45192}}, {"id": 5433959, "name": "Park County", "state": "CO", "country": "US", "coord": {"lon": -105.767227, "lat": 39.14999}}, {"id": 5434006, "name": "Parker", "state": "CO", "country": "US", "coord": {"lon": -104.76136, "lat": 39.5186}}, {"id": 5434318, "name": "Penrose", "state": "CO", "country": "US", "coord": {"lon": -105.022758, "lat": 38.424999}}, {"id": 5434370, "name": "Perry Park", "state": "CO", "country": "US", "coord": {"lon": -104.992477, "lat": 39.25666}}, {"id": 5434773, "name": "Pitkin County", "state": "CO", "country": "US", "coord": {"lon": -106.933929, "lat": 39.199989}}, {"id": 5434851, "name": "Platte Springs", "state": "CO", "country": "US", "coord": {"lon": -105.358612, "lat": 39.063599}}, {"id": 5435047, "name": "Poncha Springs", "state": "CO", "country": "US", "coord": {"lon": -106.07724, "lat": 38.512779}}, {"id": 5435059, "name": "Ponderosa Park", "state": "CO", "country": "US", "coord": {"lon": -104.651077, "lat": 39.408321}}, {"id": 5435240, "name": "Powderhorn", "state": "CO", "country": "US", "coord": {"lon": -107.095879, "lat": 38.276939}}, {"id": 5435436, "name": "Prowers County", "state": "CO", "country": "US", "coord": {"lon": -102.400467, "lat": 37.966679}}, {"id": 5435464, "name": "Pueblo", "state": "CO", "country": "US", "coord": {"lon": -104.609138, "lat": 38.254452}}, {"id": 5435465, "name": "Pueblo County", "state": "CO", "country": "US", "coord": {"lon": -104.483856, "lat": 38.183338}}, {"id": 5435477, "name": "Pueblo West", "state": "CO", "country": "US", "coord": {"lon": -104.722748, "lat": 38.349998}}, {"id": 5436099, "name": "Redlands", "state": "CO", "country": "US", "coord": {"lon": -108.635651, "lat": 39.078869}}, {"id": 5436363, "name": "Rifle", "state": "CO", "country": "US", "coord": {"lon": -107.783119, "lat": 39.534698}}, {"id": 5436472, "name": "Rio Blanco County", "state": "CO", "country": "US", "coord": {"lon": -108.200638, "lat": 39.94997}}, {"id": 5436536, "name": "Riverdale", "state": "CO", "country": "US", "coord": {"lon": -103.316597, "lat": 38.05862}}, {"id": 5436808, "name": "Rocky Ford", "state": "CO", "country": "US", "coord": {"lon": -103.72023, "lat": 38.052509}}, {"id": 5437081, "name": "Roxborough Park", "state": "CO", "country": "US", "coord": {"lon": -105.085258, "lat": 39.473881}}, {"id": 5437349, "name": "Saguache", "state": "CO", "country": "US", "coord": {"lon": -106.141968, "lat": 38.087502}}, {"id": 5437350, "name": "Saguache County", "state": "CO", "country": "US", "coord": {"lon": -106.251137, "lat": 38.083328}}, {"id": 5437555, "name": "Salida", "state": "CO", "country": "US", "coord": {"lon": -105.998901, "lat": 38.534721}}, {"id": 5437682, "name": "San Luis", "state": "CO", "country": "US", "coord": {"lon": -105.423897, "lat": 37.200851}}, {"id": 5438194, "name": "Sedgewick (historical)", "state": "CO", "country": "US", "coord": {"lon": -106.147797, "lat": 38.279171}}, {"id": 5438542, "name": "Sheridan", "state": "CO", "country": "US", "coord": {"lon": -105.025261, "lat": 39.646931}}, {"id": 5438567, "name": "Sherrelwood", "state": "CO", "country": "US", "coord": {"lon": -105.001373, "lat": 39.837761}}, {"id": 5438691, "name": "Sikes", "state": "CO", "country": "US", "coord": {"lon": -105.074707, "lat": 38.258339}}, {"id": 5438708, "name": "Silt", "state": "CO", "country": "US", "coord": {"lon": -107.656174, "lat": 39.548592}}, {"id": 5438878, "name": "Silverthorne", "state": "CO", "country": "US", "coord": {"lon": -106.07428, "lat": 39.632141}}, {"id": 5438881, "name": "Silverton", "state": "CO", "country": "US", "coord": {"lon": -107.664513, "lat": 37.811939}}, {"id": 5439126, "name": "Smeltertown", "state": "CO", "country": "US", "coord": {"lon": -106.014458, "lat": 38.547501}}, {"id": 5439284, "name": "Snowmass Village", "state": "CO", "country": "US", "coord": {"lon": -106.93782, "lat": 39.213039}}, {"id": 5439752, "name": "Southglenn", "state": "CO", "country": "US", "coord": {"lon": -104.952759, "lat": 39.587212}}, {"id": 5440032, "name": "Springfield", "state": "CO", "country": "US", "coord": {"lon": -102.614357, "lat": 37.408352}}, {"id": 5440437, "name": "Stonegate", "state": "CO", "country": "US", "coord": {"lon": -104.803864, "lat": 39.530819}}, {"id": 5440516, "name": "Strasburg", "state": "CO", "country": "US", "coord": {"lon": -104.323288, "lat": 39.738319}}, {"id": 5440520, "name": "Stratmoor", "state": "CO", "country": "US", "coord": {"lon": -104.779701, "lat": 38.77388}}, {"id": 5440556, "name": "Stringtown", "state": "CO", "country": "US", "coord": {"lon": -106.319191, "lat": 39.233601}}, {"id": 5440680, "name": "Summit County", "state": "CO", "country": "US", "coord": {"lon": -106.017242, "lat": 39.599991}}, {"id": 5440838, "name": "Superior", "state": "CO", "country": "US", "coord": {"lon": -105.168602, "lat": 39.952759}}, {"id": 5441188, "name": "Teller County", "state": "CO", "country": "US", "coord": {"lon": -105.167213, "lat": 38.866661}}, {"id": 5441199, "name": "Telluride", "state": "CO", "country": "US", "coord": {"lon": -107.812286, "lat": 37.937489}}, {"id": 5441384, "name": "The Pinery", "state": "CO", "country": "US", "coord": {"lon": -104.734421, "lat": 39.455269}}, {"id": 5441492, "name": "Thornton", "state": "CO", "country": "US", "coord": {"lon": -104.971916, "lat": 39.868038}}, {"id": 5441653, "name": "Todd Creek", "state": "CO", "country": "US", "coord": {"lon": -104.873306, "lat": 39.978039}}, {"id": 5441792, "name": "Towaoc", "state": "CO", "country": "US", "coord": {"lon": -108.729538, "lat": 37.204441}}, {"id": 5442007, "name": "Trinidad", "state": "CO", "country": "US", "coord": {"lon": -104.500542, "lat": 37.16946}}, {"id": 5442076, "name": "Truckton", "state": "CO", "country": "US", "coord": {"lon": -104.182182, "lat": 38.738049}}, {"id": 5442271, "name": "Twin Lakes", "state": "CO", "country": "US", "coord": {"lon": -105.0047, "lat": 39.824989}}, {"id": 5442727, "name": "Vail", "state": "CO", "country": "US", "coord": {"lon": -106.374199, "lat": 39.640259}}, {"id": 5443206, "name": "Walsenburg", "state": "CO", "country": "US", "coord": {"lon": -104.780258, "lat": 37.62418}}, {"id": 5443305, "name": "Washington County", "state": "CO", "country": "US", "coord": {"lon": -103.2005, "lat": 39.966648}}, {"id": 5443482, "name": "Welby", "state": "CO", "country": "US", "coord": {"lon": -104.959152, "lat": 39.836651}}, {"id": 5443572, "name": "West Burlington", "state": "CO", "country": "US", "coord": {"lon": -102.309639, "lat": 39.303329}}, {"id": 5443889, "name": "Westcliffe", "state": "CO", "country": "US", "coord": {"lon": -105.465843, "lat": 38.13472}}, {"id": 5443910, "name": "Westminster", "state": "CO", "country": "US", "coord": {"lon": -105.037201, "lat": 39.836651}}, {"id": 5443948, "name": "Wheat Ridge", "state": "CO", "country": "US", "coord": {"lon": -105.077209, "lat": 39.766102}}, {"id": 5444689, "name": "Woodland Park", "state": "CO", "country": "US", "coord": {"lon": -105.056931, "lat": 38.993881}}, {"id": 5444707, "name": "Woodmoor", "state": "CO", "country": "US", "coord": {"lon": -104.847481, "lat": 39.101379}}, {"id": 5444873, "name": "Yorkville", "state": "CO", "country": "US", "coord": {"lon": -105.290268, "lat": 38.292221}}, {"id": 5444907, "name": "Yuma County", "state": "CO", "country": "US", "coord": {"lon": -102.433807, "lat": 39.983318}}, {"id": 5444964, "name": "Allison", "state": "KS", "country": "US", "coord": {"lon": -100.264297, "lat": 39.575001}}, {"id": 5444997, "name": "Atwood", "state": "KS", "country": "US", "coord": {"lon": -101.042099, "lat": 39.806671}}, {"id": 5445194, "name": "Colby", "state": "KS", "country": "US", "coord": {"lon": -101.052383, "lat": 39.39584}}, {"id": 5445268, "name": "Decatur County", "state": "KS", "country": "US", "coord": {"lon": -100.467087, "lat": 39.800011}}, {"id": 5445298, "name": "Dodge City", "state": "KS", "country": "US", "coord": {"lon": -100.017082, "lat": 37.7528}}, {"id": 5445338, "name": "Elkhart", "state": "KS", "country": "US", "coord": {"lon": -101.890167, "lat": 37.00808}}, {"id": 5445392, "name": "Finney County", "state": "KS", "country": "US", "coord": {"lon": -100.667099, "lat": 38.016689}}, {"id": 5445439, "name": "Garden City", "state": "KS", "country": "US", "coord": {"lon": -100.872658, "lat": 37.971691}}, {"id": 5445479, "name": "Goodland", "state": "KS", "country": "US", "coord": {"lon": -101.710167, "lat": 39.35083}}, {"id": 5445487, "name": "Gove", "state": "KS", "country": "US", "coord": {"lon": -100.488747, "lat": 38.95779}}, {"id": 5445489, "name": "Gove County", "state": "KS", "country": "US", "coord": {"lon": -100.483749, "lat": 38.916679}}, {"id": 5445498, "name": "Grainfield", "state": "KS", "country": "US", "coord": {"lon": -100.465141, "lat": 39.113621}}, {"id": 5445612, "name": "Holcomb", "state": "KS", "country": "US", "coord": {"lon": -100.989326, "lat": 37.986141}}, {"id": 5445627, "name": "Hoxie", "state": "KS", "country": "US", "coord": {"lon": -100.441811, "lat": 39.357498}}, {"id": 5445636, "name": "Hugoton", "state": "KS", "country": "US", "coord": {"lon": -101.349602, "lat": 37.175301}}, {"id": 5445688, "name": "Johnson", "state": "KS", "country": "US", "coord": {"lon": -101.750999, "lat": 37.570572}}, {"id": 5445733, "name": "Kearny County", "state": "KS", "country": "US", "coord": {"lon": -101.317108, "lat": 37.983349}}, {"id": 5445780, "name": "Lakin", "state": "KS", "country": "US", "coord": {"lon": -101.25489, "lat": 37.940578}}, {"id": 5445813, "name": "Leoti", "state": "KS", "country": "US", "coord": {"lon": -101.358772, "lat": 38.47974}}, {"id": 5445815, "name": "Leoville", "state": "KS", "country": "US", "coord": {"lon": -100.460983, "lat": 39.581669}}, {"id": 5445820, "name": "Liberal", "state": "KS", "country": "US", "coord": {"lon": -100.920998, "lat": 37.043079}}, {"id": 5445900, "name": "Lydia", "state": "KS", "country": "US", "coord": {"lon": -101.29155, "lat": 38.278351}}, {"id": 5445914, "name": "Mansfield", "state": "KS", "country": "US", "coord": {"lon": -100.767097, "lat": 37.922798}}, {"id": 5445952, "name": "Meade", "state": "KS", "country": "US", "coord": {"lon": -100.340149, "lat": 37.28558}}, {"id": 5446091, "name": "Oakley", "state": "KS", "country": "US", "coord": {"lon": -100.863762, "lat": 39.133339}}, {"id": 5446098, "name": "Oberlin", "state": "KS", "country": "US", "coord": {"lon": -100.528198, "lat": 39.81834}}, {"id": 5446185, "name": "Plains", "state": "KS", "country": "US", "coord": {"lon": -100.592651, "lat": 37.2603}}, {"id": 5446275, "name": "Ravanna", "state": "KS", "country": "US", "coord": {"lon": -100.382362, "lat": 38.15974}}, {"id": 5446345, "name": "Saint Francis", "state": "KS", "country": "US", "coord": {"lon": -101.799896, "lat": 39.772221}}, {"id": 5446410, "name": "Satanta", "state": "KS", "country": "US", "coord": {"lon": -100.972107, "lat": 37.437248}}, {"id": 5446445, "name": "Seward County", "state": "KS", "country": "US", "coord": {"lon": -100.833771, "lat": 37.20002}}, {"id": 5446450, "name": "Scott City", "state": "KS", "country": "US", "coord": {"lon": -100.907089, "lat": 38.482521}}, {"id": 5446453, "name": "Sharon Springs", "state": "KS", "country": "US", "coord": {"lon": -101.752121, "lat": 38.897789}}, {"id": 5446470, "name": "Sherman County", "state": "KS", "country": "US", "coord": {"lon": -101.717117, "lat": 39.349998}}, {"id": 5446607, "name": "Sutton", "state": "KS", "country": "US", "coord": {"lon": -101.465446, "lat": 37.905849}}, {"id": 5446613, "name": "Syracuse", "state": "KS", "country": "US", "coord": {"lon": -101.75267, "lat": 37.980572}}, {"id": 5446617, "name": "Sublette", "state": "KS", "country": "US", "coord": {"lon": -100.843773, "lat": 37.481689}}, {"id": 5446632, "name": "Thomas County", "state": "KS", "country": "US", "coord": {"lon": -101.05043, "lat": 39.349998}}, {"id": 5446643, "name": "Tribune", "state": "KS", "country": "US", "coord": {"lon": -101.75267, "lat": 38.469742}}, {"id": 5446683, "name": "Ulysses", "state": "KS", "country": "US", "coord": {"lon": -101.355171, "lat": 37.581409}}, {"id": 5446780, "name": "Wichita County", "state": "KS", "country": "US", "coord": {"lon": -101.350441, "lat": 38.46669}}, {"id": 5454355, "name": "Agua Fria", "state": "NM", "country": "US", "coord": {"lon": -106.02224, "lat": 35.65448}}, {"id": 5454357, "name": "Agua Fria", "state": "NM", "country": "US", "coord": {"lon": -105.298897, "lat": 36.430031}}, {"id": 5454546, "name": "Alamo", "state": "NM", "country": "US", "coord": {"lon": -107.51088, "lat": 34.420891}}, {"id": 5454627, "name": "Alamogordo", "state": "NM", "country": "US", "coord": {"lon": -105.960258, "lat": 32.899529}}, {"id": 5454711, "name": "Albuquerque", "state": "NM", "country": "US", "coord": {"lon": -106.651138, "lat": 35.084492}}, {"id": 5454967, "name": "Alvarado", "state": "NM", "country": "US", "coord": {"lon": -106.237213, "lat": 32.13649}}, {"id": 5455214, "name": "Angel Fire", "state": "NM", "country": "US", "coord": {"lon": -105.285011, "lat": 36.393089}}, {"id": 5455381, "name": "Anthony", "state": "NM", "country": "US", "coord": {"lon": -106.605827, "lat": 32.00399}}, {"id": 5455650, "name": "Arenas Valley", "state": "NM", "country": "US", "coord": {"lon": -108.184212, "lat": 32.793961}}, {"id": 5455744, "name": "Arriba", "state": "NM", "country": "US", "coord": {"lon": -105.200844, "lat": 35.623379}}, {"id": 5455775, "name": "Arroyo Seco", "state": "NM", "country": "US", "coord": {"lon": -105.569183, "lat": 36.516689}}, {"id": 5455796, "name": "Artesia", "state": "NM", "country": "US", "coord": {"lon": -104.403297, "lat": 32.842331}}, {"id": 5455956, "name": "Atoka", "state": "NM", "country": "US", "coord": {"lon": -104.388847, "lat": 32.769562}}, {"id": 5456049, "name": "Aztec", "state": "NM", "country": "US", "coord": {"lon": -107.992851, "lat": 36.822231}}, {"id": 5456682, "name": "Bayard", "state": "NM", "country": "US", "coord": {"lon": -108.1306, "lat": 32.761742}}, {"id": 5456975, "name": "Belen", "state": "NM", "country": "US", "coord": {"lon": -106.776421, "lat": 34.662842}}, {"id": 5457146, "name": "Berino", "state": "NM", "country": "US", "coord": {"lon": -106.621384, "lat": 32.07093}}, {"id": 5457180, "name": "Bernalillo County", "state": "NM", "country": "US", "coord": {"lon": -106.667252, "lat": 35.050049}}, {"id": 5457198, "name": "Bernalillo", "state": "NM", "country": "US", "coord": {"lon": -106.55114, "lat": 35.300041}}, {"id": 5457268, "name": "Bethel", "state": "NM", "country": "US", "coord": {"lon": -103.474678, "lat": 34.228691}}, {"id": 5457721, "name": "Black Hawk (historical)", "state": "NM", "country": "US", "coord": {"lon": -108.522827, "lat": 32.705349}}, {"id": 5457860, "name": "Black Rock", "state": "NM", "country": "US", "coord": {"lon": -108.791191, "lat": 35.088371}}, {"id": 5458067, "name": "Bloomfield", "state": "NM", "country": "US", "coord": {"lon": -107.984512, "lat": 36.711121}}, {"id": 5458319, "name": "Boles Acres", "state": "NM", "country": "US", "coord": {"lon": -105.986099, "lat": 32.80703}}, {"id": 5458548, "name": "Bosque Farms", "state": "NM", "country": "US", "coord": {"lon": -106.705299, "lat": 34.854778}}, {"id": 5458688, "name": "Boyd", "state": "NM", "country": "US", "coord": {"lon": -106.573608, "lat": 32.32259}}, {"id": 5460322, "name": "Capitan", "state": "NM", "country": "US", "coord": {"lon": -105.572197, "lat": 33.545361}}, {"id": 5460459, "name": "Carlsbad", "state": "NM", "country": "US", "coord": {"lon": -104.228844, "lat": 32.42067}}, {"id": 5460489, "name": "Carnuel", "state": "NM", "country": "US", "coord": {"lon": -106.457253, "lat": 35.063938}}, {"id": 5460567, "name": "Carrizozo", "state": "NM", "country": "US", "coord": {"lon": -105.877213, "lat": 33.641739}}, {"id": 5460650, "name": "Casa Salazar", "state": "NM", "country": "US", "coord": {"lon": -107.11615, "lat": 35.483372}}, {"id": 5460986, "name": "Cedro", "state": "NM", "country": "US", "coord": {"lon": -106.353638, "lat": 35.02227}}, {"id": 5461240, "name": "Chama", "state": "NM", "country": "US", "coord": {"lon": -106.579483, "lat": 36.903069}}, {"id": 5461353, "name": "Chaparral", "state": "NM", "country": "US", "coord": {"lon": -106.385658, "lat": 32.023762}}, {"id": 5461428, "name": "Chaves County", "state": "NM", "country": "US", "coord": {"lon": -104.450523, "lat": 33.38343}}, {"id": 5461645, "name": "Chimayo", "state": "NM", "country": "US", "coord": {"lon": -105.946968, "lat": 36.00391}}, {"id": 5461879, "name": "Church Rock", "state": "NM", "country": "US", "coord": {"lon": -108.5998, "lat": 35.533909}}, {"id": 5462019, "name": "Cibola County", "state": "NM", "country": "US", "coord": {"lon": -109.058701, "lat": 34.86087}}, {"id": 5462035, "name": "Cienega (historical)", "state": "NM", "country": "US", "coord": {"lon": -105.100227, "lat": 32.051498}}, {"id": 5462064, "name": "Cieneguilla", "state": "NM", "country": "US", "coord": {"lon": -106.123627, "lat": 35.595589}}, {"id": 5462076, "name": "Cimarron", "state": "NM", "country": "US", "coord": {"lon": -104.915833, "lat": 36.510872}}, {"id": 5462269, "name": "Clayton", "state": "NM", "country": "US", "coord": {"lon": -103.184097, "lat": 36.451691}}, {"id": 5462393, "name": "Clovis", "state": "NM", "country": "US", "coord": {"lon": -103.205231, "lat": 34.4048}}, {"id": 5462567, "name": "Colfax County", "state": "NM", "country": "US", "coord": {"lon": -105.126106, "lat": 36.87558}}, {"id": 5462683, "name": "Columbus", "state": "NM", "country": "US", "coord": {"lon": -107.640022, "lat": 31.8276}}, {"id": 5463237, "name": "Corrales", "state": "NM", "country": "US", "coord": {"lon": -106.606689, "lat": 35.23782}}, {"id": 5463890, "name": "Crownpoint", "state": "NM", "country": "US", "coord": {"lon": -108.151176, "lat": 35.678082}}, {"id": 5464151, "name": "Curry County", "state": "NM", "country": "US", "coord": {"lon": -103.251892, "lat": 34.952839}}, {"id": 5464806, "name": "Deming", "state": "NM", "country": "US", "coord": {"lon": -107.758636, "lat": 32.2687}}, {"id": 5464936, "name": "Dexter", "state": "NM", "country": "US", "coord": {"lon": -104.373016, "lat": 33.19733}}, {"id": 5465262, "name": "Do\u00f1a Ana", "state": "NM", "country": "US", "coord": {"lon": -106.813904, "lat": 32.389542}}, {"id": 5465283, "name": "Do\u00f1a Ana County", "state": "NM", "country": "US", "coord": {"lon": -106.376106, "lat": 33.000641}}, {"id": 5465650, "name": "Dulce", "state": "NM", "country": "US", "coord": {"lon": -106.998932, "lat": 36.93362}}, {"id": 5466318, "name": "Eddy County", "state": "NM", "country": "US", "coord": {"lon": -104.751083, "lat": 32.87566}}, {"id": 5466336, "name": "Edgewood", "state": "NM", "country": "US", "coord": {"lon": -106.191406, "lat": 35.06144}}, {"id": 5466437, "name": "El Cerro", "state": "NM", "country": "US", "coord": {"lon": -106.710861, "lat": 34.727001}}, {"id": 5466463, "name": "El Guacho", "state": "NM", "country": "US", "coord": {"lon": -106.086967, "lat": 36.006691}}, {"id": 5466517, "name": "El Rancho", "state": "NM", "country": "US", "coord": {"lon": -106.07975, "lat": 35.889191}}, {"id": 5466567, "name": "El Valle de Arroyo Seco", "state": "NM", "country": "US", "coord": {"lon": -106.029472, "lat": 35.962799}}, {"id": 5466585, "name": "Eldorado at Santa Fe", "state": "NM", "country": "US", "coord": {"lon": -105.934738, "lat": 35.526421}}, {"id": 5466605, "name": "Elephant Butte", "state": "NM", "country": "US", "coord": {"lon": -107.184753, "lat": 33.148682}}, {"id": 5467024, "name": "Espa\u00f1ola", "state": "NM", "country": "US", "coord": {"lon": -106.080582, "lat": 35.991131}}, {"id": 5467102, "name": "Estancia", "state": "NM", "country": "US", "coord": {"lon": -106.055847, "lat": 34.758389}}, {"id": 5467187, "name": "Eunice", "state": "NM", "country": "US", "coord": {"lon": -103.159081, "lat": 32.43734}}, {"id": 5467328, "name": "Farmington", "state": "NM", "country": "US", "coord": {"lon": -108.218689, "lat": 36.728062}}, {"id": 5467905, "name": "Flora Vista", "state": "NM", "country": "US", "coord": {"lon": -108.080353, "lat": 36.794449}}, {"id": 5468133, "name": "Fort Sumner", "state": "NM", "country": "US", "coord": {"lon": -104.245529, "lat": 34.471729}}, {"id": 5468773, "name": "Gallup", "state": "NM", "country": "US", "coord": {"lon": -108.742577, "lat": 35.52808}}, {"id": 5469835, "name": "Grant County", "state": "NM", "country": "US", "coord": {"lon": -108.383942, "lat": 32.783409}}, {"id": 5469841, "name": "Grants", "state": "NM", "country": "US", "coord": {"lon": -107.851448, "lat": 35.147259}}, {"id": 5470124, "name": "Grier", "state": "NM", "country": "US", "coord": {"lon": -103.398567, "lat": 34.410629}}, {"id": 5470197, "name": "Guadalupe County", "state": "NM", "country": "US", "coord": {"lon": -105.251122, "lat": 35.12561}}, {"id": 5470519, "name": "Hagerman", "state": "NM", "country": "US", "coord": {"lon": -104.326912, "lat": 33.115108}}, {"id": 5470711, "name": "Harkey Crossing", "state": "NM", "country": "US", "coord": {"lon": -104.197441, "lat": 32.236511}}, {"id": 5470850, "name": "Hatch", "state": "NM", "country": "US", "coord": {"lon": -107.153069, "lat": 32.665359}}, {"id": 5471040, "name": "Hebron", "state": "NM", "country": "US", "coord": {"lon": -104.46582, "lat": 36.73864}}, {"id": 5471293, "name": "Hidalgo County", "state": "NM", "country": "US", "coord": {"lon": -109.026733, "lat": 32.697849}}, {"id": 5471439, "name": "Highway Mill", "state": "NM", "country": "US", "coord": {"lon": -104.848312, "lat": 33.366211}}, {"id": 5471578, "name": "Hobbs", "state": "NM", "country": "US", "coord": {"lon": -103.13604, "lat": 32.70261}}, {"id": 5472433, "name": "Hurley", "state": "NM", "country": "US", "coord": {"lon": -108.131989, "lat": 32.699242}}, {"id": 5473083, "name": "Jal", "state": "NM", "country": "US", "coord": {"lon": -103.193512, "lat": 32.113178}}, {"id": 5473163, "name": "Jarales", "state": "NM", "country": "US", "coord": {"lon": -106.763641, "lat": 34.613121}}, {"id": 5473297, "name": "Jemez Pueblo", "state": "NM", "country": "US", "coord": {"lon": -106.725868, "lat": 35.613918}}, {"id": 5474539, "name": "Kirtland", "state": "NM", "country": "US", "coord": {"lon": -108.359802, "lat": 36.734169}}, {"id": 5474540, "name": "Kirtland Addition", "state": "NM", "country": "US", "coord": {"lon": -106.630859, "lat": 35.055328}}, {"id": 5474794, "name": "La Cienega", "state": "NM", "country": "US", "coord": {"lon": -106.130859, "lat": 35.562809}}, {"id": 5474813, "name": "La Cuesta", "state": "NM", "country": "US", "coord": {"lon": -106.506973, "lat": 35.078381}}, {"id": 5474843, "name": "La Huerta", "state": "NM", "country": "US", "coord": {"lon": -104.221062, "lat": 32.442902}}, {"id": 5474889, "name": "La Liendre", "state": "NM", "country": "US", "coord": {"lon": -105.05056, "lat": 35.422272}}, {"id": 5474895, "name": "La Luz", "state": "NM", "country": "US", "coord": {"lon": -105.941933, "lat": 32.977871}}, {"id": 5474935, "name": "La Mesilla", "state": "NM", "country": "US", "coord": {"lon": -106.07058, "lat": 35.94836}}, {"id": 5474960, "name": "La Puebla", "state": "NM", "country": "US", "coord": {"lon": -105.996407, "lat": 35.989189}}, {"id": 5474975, "name": "La Union", "state": "NM", "country": "US", "coord": {"lon": -106.661659, "lat": 31.950661}}, {"id": 5475044, "name": "Laguna", "state": "NM", "country": "US", "coord": {"lon": -107.38282, "lat": 35.036709}}, {"id": 5475352, "name": "Las Cruces", "state": "NM", "country": "US", "coord": {"lon": -106.778343, "lat": 32.312321}}, {"id": 5475433, "name": "Las Vegas", "state": "NM", "country": "US", "coord": {"lon": -105.2239, "lat": 35.593929}}, {"id": 5475594, "name": "Lea County", "state": "NM", "country": "US", "coord": {"lon": -103.467163, "lat": 32.800121}}, {"id": 5475667, "name": "Lee Acres", "state": "NM", "country": "US", "coord": {"lon": -106.646973, "lat": 35.148659}}, {"id": 5475668, "name": "Lee Acres", "state": "NM", "country": "US", "coord": {"lon": -108.036743, "lat": 36.698891}}, {"id": 5475777, "name": "Lesbia", "state": "NM", "country": "US", "coord": {"lon": -103.578568, "lat": 35.161999}}, {"id": 5475934, "name": "Lincoln County", "state": "NM", "country": "US", "coord": {"lon": -105.251106, "lat": 34.250629}}, {"id": 5476526, "name": "Logan", "state": "NM", "country": "US", "coord": {"lon": -103.410789, "lat": 35.36533}}, {"id": 5476799, "name": "Lordsburg", "state": "NM", "country": "US", "coord": {"lon": -108.708656, "lat": 32.350361}}, {"id": 5476825, "name": "Los Alamos", "state": "NM", "country": "US", "coord": {"lon": -106.306969, "lat": 35.888081}}, {"id": 5476881, "name": "Los Chavez", "state": "NM", "country": "US", "coord": {"lon": -106.738358, "lat": 34.727001}}, {"id": 5476913, "name": "Los Lunas", "state": "NM", "country": "US", "coord": {"lon": -106.73336, "lat": 34.806171}}, {"id": 5476960, "name": "Los Ranchos de Albuquerque", "state": "NM", "country": "US", "coord": {"lon": -106.642799, "lat": 35.161991}}, {"id": 5477080, "name": "Loving", "state": "NM", "country": "US", "coord": {"lon": -104.095772, "lat": 32.286228}}, {"id": 5477090, "name": "Lovington", "state": "NM", "country": "US", "coord": {"lon": -103.348549, "lat": 32.944012}}, {"id": 5477402, "name": "Luis Lopez", "state": "NM", "country": "US", "coord": {"lon": -106.8853, "lat": 33.988949}}, {"id": 5477433, "name": "Luna County", "state": "NM", "country": "US", "coord": {"lon": -107.975868, "lat": 32.590359}}, {"id": 5477770, "name": "Maljamar", "state": "NM", "country": "US", "coord": {"lon": -103.762733, "lat": 32.856232}}, {"id": 5478550, "name": "McIntosh", "state": "NM", "country": "US", "coord": {"lon": -106.051689, "lat": 34.86478}}, {"id": 5478585, "name": "McKinley County", "state": "NM", "country": "US", "coord": {"lon": -109.033981, "lat": 35.900009}}, {"id": 5478673, "name": "Meadow Lake", "state": "NM", "country": "US", "coord": {"lon": -106.543633, "lat": 34.801441}}, {"id": 5478949, "name": "Mescalero", "state": "NM", "country": "US", "coord": {"lon": -105.774147, "lat": 33.157589}}, {"id": 5478971, "name": "Mesilla", "state": "NM", "country": "US", "coord": {"lon": -106.800842, "lat": 32.270088}}, {"id": 5479038, "name": "Mesquite", "state": "NM", "country": "US", "coord": {"lon": -106.696663, "lat": 32.164539}}, {"id": 5479411, "name": "Milagro", "state": "NM", "country": "US", "coord": {"lon": -105.239166, "lat": 34.938389}}, {"id": 5479418, "name": "Milan", "state": "NM", "country": "US", "coord": {"lon": -107.890892, "lat": 35.169762}}, {"id": 5480181, "name": "Moriarty", "state": "NM", "country": "US", "coord": {"lon": -106.049187, "lat": 34.990051}}, {"id": 5480275, "name": "Mosquero", "state": "NM", "country": "US", "coord": {"lon": -103.956642, "lat": 35.776981}}, {"id": 5480370, "name": "Mountain View", "state": "NM", "country": "US", "coord": {"lon": -104.5233, "lat": 33.340099}}, {"id": 5480395, "name": "Mountainair", "state": "NM", "country": "US", "coord": {"lon": -106.241127, "lat": 34.52034}}, {"id": 5480731, "name": "Nambe", "state": "NM", "country": "US", "coord": {"lon": -105.982521, "lat": 35.89336}}, {"id": 5480831, "name": "Navajo", "state": "NM", "country": "US", "coord": {"lon": -109.033981, "lat": 35.900009}}, {"id": 5480832, "name": "Navajo", "state": "NM", "country": "US", "coord": {"lon": -107.063087, "lat": 36.946121}}, {"id": 5481136, "name": "New Mexico", "state": "NM", "country": "US", "coord": {"lon": -106.000847, "lat": 34.50034}}, {"id": 5481793, "name": "North Valley", "state": "NM", "country": "US", "coord": {"lon": -106.62336, "lat": 35.173382}}, {"id": 5482695, "name": "Omlee", "state": "NM", "country": "US", "coord": {"lon": -105.971649, "lat": 32.837029}}, {"id": 5482932, "name": "Otero County", "state": "NM", "country": "US", "coord": {"lon": -105.767197, "lat": 32.533428}}, {"id": 5483380, "name": "Paradise Hills", "state": "NM", "country": "US", "coord": {"lon": -106.701141, "lat": 35.2006}}, {"id": 5483605, "name": "Paxton Springs (historical)", "state": "NM", "country": "US", "coord": {"lon": -108.066727, "lat": 35.039211}}, {"id": 5483680, "name": "Pecos", "state": "NM", "country": "US", "coord": {"lon": -105.675018, "lat": 35.5742}}, {"id": 5483884, "name": "Peralta", "state": "NM", "country": "US", "coord": {"lon": -106.690582, "lat": 34.837002}}, {"id": 5484613, "name": "Placitas", "state": "NM", "country": "US", "coord": {"lon": -106.424751, "lat": 35.30698}}, {"id": 5484620, "name": "Placitas Homesteads", "state": "NM", "country": "US", "coord": {"lon": -106.490303, "lat": 35.308102}}, {"id": 5484708, "name": "Point of Sands", "state": "NM", "country": "US", "coord": {"lon": -106.195831, "lat": 32.747028}}, {"id": 5484816, "name": "Ponderosa Pine", "state": "NM", "country": "US", "coord": {"lon": -106.324188, "lat": 34.97699}}, {"id": 5484874, "name": "Portales", "state": "NM", "country": "US", "coord": {"lon": -103.334396, "lat": 34.186192}}, {"id": 5485605, "name": "Quay County", "state": "NM", "country": "US", "coord": {"lon": -103.542221, "lat": 35.041672}}, {"id": 5485658, "name": "Questa", "state": "NM", "country": "US", "coord": {"lon": -105.595009, "lat": 36.703911}}, {"id": 5486551, "name": "Radium Springs", "state": "NM", "country": "US", "coord": {"lon": -106.92807, "lat": 32.501202}}, {"id": 5486761, "name": "Ranchos de Taos", "state": "NM", "country": "US", "coord": {"lon": -105.609459, "lat": 36.358639}}, {"id": 5486795, "name": "Raton", "state": "NM", "country": "US", "coord": {"lon": -104.439148, "lat": 36.903358}}, {"id": 5487396, "name": "Reserve", "state": "NM", "country": "US", "coord": {"lon": -108.757843, "lat": 33.713112}}, {"id": 5487732, "name": "Rio Arriba County", "state": "NM", "country": "US", "coord": {"lon": -106.700592, "lat": 36.533352}}, {"id": 5487811, "name": "Rio Rancho", "state": "NM", "country": "US", "coord": {"lon": -106.664467, "lat": 35.233379}}, {"id": 5488280, "name": "Rodeo", "state": "NM", "country": "US", "coord": {"lon": -109.031174, "lat": 31.835369}}, {"id": 5488372, "name": "Roosevelt County", "state": "NM", "country": "US", "coord": {"lon": -103.450508, "lat": 33.966751}}, {"id": 5488441, "name": "Roswell", "state": "NM", "country": "US", "coord": {"lon": -104.523018, "lat": 33.394272}}, {"id": 5488598, "name": "Ruidoso", "state": "NM", "country": "US", "coord": {"lon": -105.673042, "lat": 33.331749}}, {"id": 5488600, "name": "Ruidoso Downs", "state": "NM", "country": "US", "coord": {"lon": -105.604431, "lat": 33.328972}}, {"id": 5489545, "name": "San Felipe Pueblo", "state": "NM", "country": "US", "coord": {"lon": -106.446693, "lat": 35.433922}}, {"id": 5489698, "name": "San Juan County", "state": "NM", "country": "US", "coord": {"lon": -109.040939, "lat": 36.999161}}, {"id": 5489804, "name": "San Miguel", "state": "NM", "country": "US", "coord": {"lon": -106.735001, "lat": 32.15538}}, {"id": 5489818, "name": "San Miguel County", "state": "NM", "country": "US", "coord": {"lon": -104.883881, "lat": 35.483379}}, {"id": 5489914, "name": "San Ysidro", "state": "NM", "country": "US", "coord": {"lon": -106.811119, "lat": 32.350929}}, {"id": 5490090, "name": "Sandia Heights", "state": "NM", "country": "US", "coord": {"lon": -106.491409, "lat": 35.176991}}, {"id": 5490093, "name": "Sandia Knolls", "state": "NM", "country": "US", "coord": {"lon": -106.311409, "lat": 35.163929}}, {"id": 5490135, "name": "Sandoval County", "state": "NM", "country": "US", "coord": {"lon": -106.850594, "lat": 35.650028}}, {"id": 5490223, "name": "Santa Clara", "state": "NM", "country": "US", "coord": {"lon": -108.150322, "lat": 32.779518}}, {"id": 5490234, "name": "Santa Clara Pueblo", "state": "NM", "country": "US", "coord": {"lon": -106.088631, "lat": 35.96558}}, {"id": 5490263, "name": "Santa Fe", "state": "NM", "country": "US", "coord": {"lon": -105.937798, "lat": 35.686981}}, {"id": 5490272, "name": "Santa Fe County", "state": "NM", "country": "US", "coord": {"lon": -105.950577, "lat": 35.516701}}, {"id": 5490338, "name": "Santa Rosa", "state": "NM", "country": "US", "coord": {"lon": -104.682487, "lat": 34.938671}}, {"id": 5490359, "name": "Santa Teresa", "state": "NM", "country": "US", "coord": {"lon": -106.679482, "lat": 36.153351}}, {"id": 5490374, "name": "Santa Teresa", "state": "NM", "country": "US", "coord": {"lon": -106.63916, "lat": 31.85594}}, {"id": 5490385, "name": "Santo Domingo Pueblo", "state": "NM", "country": "US", "coord": {"lon": -106.36586, "lat": 35.514759}}, {"id": 5490606, "name": "Scholle", "state": "NM", "country": "US", "coord": {"lon": -106.416679, "lat": 34.427559}}, {"id": 5491288, "name": "Shiprock", "state": "NM", "country": "US", "coord": {"lon": -108.687027, "lat": 36.785549}}, {"id": 5491487, "name": "Silver City", "state": "NM", "country": "US", "coord": {"lon": -108.280327, "lat": 32.770081}}, {"id": 5491999, "name": "Socorro", "state": "NM", "country": "US", "coord": {"lon": -106.891418, "lat": 34.058399}}, {"id": 5492031, "name": "Socorro County", "state": "NM", "country": "US", "coord": {"lon": -106.883919, "lat": 34.033401}}, {"id": 5492450, "name": "South Valley", "state": "NM", "country": "US", "coord": {"lon": -106.678078, "lat": 35.010052}}, {"id": 5492633, "name": "Spencerville", "state": "NM", "country": "US", "coord": {"lon": -108.058128, "lat": 36.82}}, {"id": 5492762, "name": "Springer", "state": "NM", "country": "US", "coord": {"lon": -104.595268, "lat": 36.361141}}, {"id": 5493403, "name": "Sunland Park", "state": "NM", "country": "US", "coord": {"lon": -106.579987, "lat": 31.796499}}, {"id": 5493798, "name": "Taos Pueblo", "state": "NM", "country": "US", "coord": {"lon": -105.544449, "lat": 36.438641}}, {"id": 5493811, "name": "Taos", "state": "NM", "country": "US", "coord": {"lon": -105.573067, "lat": 36.407249}}, {"id": 5493903, "name": "Taylor Springs", "state": "NM", "country": "US", "coord": {"lon": -104.49221, "lat": 36.327251}}, {"id": 5493952, "name": "Tecolote", "state": "NM", "country": "US", "coord": {"lon": -105.663322, "lat": 34.017849}}, {"id": 5493998, "name": "Tejon", "state": "NM", "country": "US", "coord": {"lon": -105.28611, "lat": 34.58979}}, {"id": 5494197, "name": "Texico", "state": "NM", "country": "US", "coord": {"lon": -103.051338, "lat": 34.388691}}, {"id": 5494395, "name": "Thoreau", "state": "NM", "country": "US", "coord": {"lon": -108.223396, "lat": 35.402531}}, {"id": 5494507, "name": "Tierra Amarilla", "state": "NM", "country": "US", "coord": {"lon": -106.549759, "lat": 36.700291}}, {"id": 5494790, "name": "Tome", "state": "NM", "country": "US", "coord": {"lon": -106.728363, "lat": 34.740891}}, {"id": 5494881, "name": "Torrance County", "state": "NM", "country": "US", "coord": {"lon": -105.81723, "lat": 34.6334}}, {"id": 5495292, "name": "Truth or Consequences", "state": "NM", "country": "US", "coord": {"lon": -107.252808, "lat": 33.128399}}, {"id": 5495360, "name": "Tucumcari", "state": "NM", "country": "US", "coord": {"lon": -103.724968, "lat": 35.171719}}, {"id": 5495380, "name": "Tularosa", "state": "NM", "country": "US", "coord": {"lon": -106.0186, "lat": 33.073971}}, {"id": 5495659, "name": "Twin Lakes", "state": "NM", "country": "US", "coord": {"lon": -108.774811, "lat": 35.70919}}, {"id": 5495841, "name": "Union County", "state": "NM", "country": "US", "coord": {"lon": -103.467171, "lat": 36.450031}}, {"id": 5495937, "name": "University Park", "state": "NM", "country": "US", "coord": {"lon": -106.753342, "lat": 32.283428}}, {"id": 5496046, "name": "Upper Fruitland", "state": "NM", "country": "US", "coord": {"lon": -108.31424, "lat": 36.715839}}, {"id": 5496286, "name": "Vado", "state": "NM", "country": "US", "coord": {"lon": -106.662498, "lat": 32.111759}}, {"id": 5496315, "name": "Valencia", "state": "NM", "country": "US", "coord": {"lon": -106.700302, "lat": 34.7995}}, {"id": 5497190, "name": "Waterflow", "state": "NM", "country": "US", "coord": {"lon": -108.48175, "lat": 36.75972}}, {"id": 5497876, "name": "White Rock", "state": "NM", "country": "US", "coord": {"lon": -106.203911, "lat": 35.82753}}, {"id": 5497914, "name": "White Sands", "state": "NM", "country": "US", "coord": {"lon": -106.479439, "lat": 32.380932}}, {"id": 5498015, "name": "Whitewater", "state": "NM", "country": "US", "coord": {"lon": -108.133926, "lat": 32.58147}}, {"id": 5499004, "name": "Zuni Pueblo", "state": "NM", "country": "US", "coord": {"lon": -108.850639, "lat": 35.072529}}, {"id": 5499105, "name": "Alamo", "state": "NV", "country": "US", "coord": {"lon": -115.164459, "lat": 37.36496}}, {"id": 5500539, "name": "Boulder City", "state": "NV", "country": "US", "coord": {"lon": -114.832489, "lat": 35.978588}}, {"id": 5500947, "name": "Bunkerville", "state": "NV", "country": "US", "coord": {"lon": -114.128021, "lat": 36.773029}}, {"id": 5501155, "name": "Caliente", "state": "NV", "country": "US", "coord": {"lon": -114.51194, "lat": 37.61496}}, {"id": 5501198, "name": "Camp Desert Rock", "state": "NV", "country": "US", "coord": {"lon": -116.020027, "lat": 36.627178}}, {"id": 5501205, "name": "Camp Harding (historical)", "state": "NV", "country": "US", "coord": {"lon": -117.487038, "lat": 37.952991}}, {"id": 5501344, "name": "Carson City", "state": "NV", "country": "US", "coord": {"lon": -119.767403, "lat": 39.163799}}, {"id": 5501350, "name": "Carson City", "state": "NV", "country": "US", "coord": {"lon": -119.776299, "lat": 39.164619}}, {"id": 5501785, "name": "Churchill County", "state": "NV", "country": "US", "coord": {"lon": -118.251244, "lat": 39.500198}}, {"id": 5501879, "name": "Clark County", "state": "NV", "country": "US", "coord": {"lon": -114.876099, "lat": 36.000259}}, {"id": 5502015, "name": "Cold Springs", "state": "NV", "country": "US", "coord": {"lon": -119.976593, "lat": 39.680191}}, {"id": 5502229, "name": "Corn Creek (historical)", "state": "NV", "country": "US", "coord": {"lon": -115.381683, "lat": 36.420799}}, {"id": 5502732, "name": "Dayton", "state": "NV", "country": "US", "coord": {"lon": -119.592949, "lat": 39.237141}}, {"id": 5503120, "name": "Double Springs (historical)", "state": "NV", "country": "US", "coord": {"lon": -119.598228, "lat": 38.791569}}, {"id": 5503178, "name": "Douglas County", "state": "NV", "country": "US", "coord": {"lon": -119.626282, "lat": 38.875191}}, {"id": 5503507, "name": "Eastland Heights", "state": "NV", "country": "US", "coord": {"lon": -115.188057, "lat": 36.192188}}, {"id": 5503694, "name": "Ely", "state": "NV", "country": "US", "coord": {"lon": -114.888634, "lat": 39.24744}}, {"id": 5503766, "name": "Enterprise", "state": "NV", "country": "US", "coord": {"lon": -115.241943, "lat": 36.025249}}, {"id": 5503780, "name": "Esmeralda County", "state": "NV", "country": "US", "coord": {"lon": -117.626198, "lat": 37.75021}}, {"id": 5503804, "name": "Eureka", "state": "NV", "country": "US", "coord": {"lon": -115.960609, "lat": 39.512711}}, {"id": 5503914, "name": "Fallon", "state": "NV", "country": "US", "coord": {"lon": -118.777367, "lat": 39.47353}}, {"id": 5504003, "name": "Fernley", "state": "NV", "country": "US", "coord": {"lon": -119.251831, "lat": 39.607971}}, {"id": 5504468, "name": "Gardnerville", "state": "NV", "country": "US", "coord": {"lon": -119.749619, "lat": 38.941299}}, {"id": 5504473, "name": "Gardnerville Ranchos", "state": "NV", "country": "US", "coord": {"lon": -119.741287, "lat": 38.888241}}, {"id": 5504763, "name": "Gold Center", "state": "NV", "country": "US", "coord": {"lon": -116.767281, "lat": 36.868279}}, {"id": 5504802, "name": "Golden Valley", "state": "NV", "country": "US", "coord": {"lon": -119.826576, "lat": 39.615471}}, {"id": 5504812, "name": "Goldfield", "state": "NV", "country": "US", "coord": {"lon": -117.235626, "lat": 37.708542}}, {"id": 5505321, "name": "Hawthorne", "state": "NV", "country": "US", "coord": {"lon": -118.62458, "lat": 38.524639}}, {"id": 5505411, "name": "Henderson", "state": "NV", "country": "US", "coord": {"lon": -114.981941, "lat": 36.0397}}, {"id": 5505963, "name": "Incline Village", "state": "NV", "country": "US", "coord": {"lon": -119.972969, "lat": 39.251301}}, {"id": 5506040, "name": "Indian Springs", "state": "NV", "country": "US", "coord": {"lon": -115.670578, "lat": 36.569679}}, {"id": 5506353, "name": "Johnson Lane", "state": "NV", "country": "US", "coord": {"lon": -119.722122, "lat": 39.047958}}, {"id": 5506726, "name": "Kingsbury", "state": "NV", "country": "US", "coord": {"lon": -119.906853, "lat": 38.977131}}, {"id": 5506935, "name": "Lander County", "state": "NV", "country": "US", "coord": {"lon": -116.876198, "lat": 39.875198}}, {"id": 5506956, "name": "Las Vegas", "state": "NV", "country": "US", "coord": {"lon": -115.137222, "lat": 36.174969}}, {"id": 5507016, "name": "Laughlin", "state": "NV", "country": "US", "coord": {"lon": -114.573021, "lat": 35.167782}}, {"id": 5507103, "name": "Lemmon Valley", "state": "NV", "country": "US", "coord": {"lon": -119.843246, "lat": 39.636021}}, {"id": 5507189, "name": "Lincoln County", "state": "NV", "country": "US", "coord": {"lon": -114.876122, "lat": 38.00024}}, {"id": 5507669, "name": "Lyon County", "state": "NV", "country": "US", "coord": {"lon": -119.126259, "lat": 39.000198}}, {"id": 5507831, "name": "Mark Twain Estates", "state": "NV", "country": "US", "coord": {"lon": -119.552673, "lat": 39.306862}}, {"id": 5508030, "name": "McGill", "state": "NV", "country": "US", "coord": {"lon": -114.778633, "lat": 39.404942}}, {"id": 5508058, "name": "McKeeversville (historical)", "state": "NV", "country": "US", "coord": {"lon": -114.85276, "lat": 35.96804}}, {"id": 5508138, "name": "Mellan", "state": "NV", "country": "US", "coord": {"lon": -116.59478, "lat": 37.71244}}, {"id": 5508180, "name": "Mesquite", "state": "NV", "country": "US", "coord": {"lon": -114.067192, "lat": 36.805531}}, {"id": 5508379, "name": "Minden", "state": "NV", "country": "US", "coord": {"lon": -119.765732, "lat": 38.954071}}, {"id": 5508470, "name": "Moapa Town", "state": "NV", "country": "US", "coord": {"lon": -114.594162, "lat": 36.68219}}, {"id": 5508473, "name": "Moapa Valley", "state": "NV", "country": "US", "coord": {"lon": -114.470261, "lat": 36.580528}}, {"id": 5508487, "name": "Mogul", "state": "NV", "country": "US", "coord": {"lon": -119.926033, "lat": 39.513802}}, {"id": 5509151, "name": "Nevada", "state": "NV", "country": "US", "coord": {"lon": -116.75119, "lat": 39.25021}}, {"id": 5509165, "name": "New Empire", "state": "NV", "country": "US", "coord": {"lon": -119.725182, "lat": 39.17963}}, {"id": 5509403, "name": "North Las Vegas", "state": "NV", "country": "US", "coord": {"lon": -115.1175, "lat": 36.19886}}, {"id": 5509519, "name": "Nye County", "state": "NV", "country": "US", "coord": {"lon": -116.501167, "lat": 38.00021}}, {"id": 5509558, "name": "Oak Springs (historical)", "state": "NV", "country": "US", "coord": {"lon": -116.057823, "lat": 37.219398}}, {"id": 5509851, "name": "Pahrump", "state": "NV", "country": "US", "coord": {"lon": -115.98391, "lat": 36.20829}}, {"id": 5509952, "name": "Paradise", "state": "NV", "country": "US", "coord": {"lon": -115.14666, "lat": 36.097191}}, {"id": 5510323, "name": "Pioche", "state": "NV", "country": "US", "coord": {"lon": -114.452209, "lat": 37.929691}}, {"id": 5511023, "name": "Red Top (historical)", "state": "NV", "country": "US", "coord": {"lon": -118.110413, "lat": 39.460201}}, {"id": 5511077, "name": "Reno", "state": "NV", "country": "US", "coord": {"lon": -119.813797, "lat": 39.529629}}, {"id": 5511806, "name": "Sandy Valley", "state": "NV", "country": "US", "coord": {"lon": -115.632233, "lat": 35.816921}}, {"id": 5512373, "name": "Silver Springs", "state": "NV", "country": "US", "coord": {"lon": -119.224609, "lat": 39.41547}}, {"id": 5512515, "name": "Sloan", "state": "NV", "country": "US", "coord": {"lon": -115.217216, "lat": 35.943588}}, {"id": 5512520, "name": "Smith", "state": "NV", "country": "US", "coord": {"lon": -119.327377, "lat": 38.800468}}, {"id": 5512827, "name": "Spanish Springs", "state": "NV", "country": "US", "coord": {"lon": -119.707413, "lat": 39.649078}}, {"id": 5512862, "name": "Sparks", "state": "NV", "country": "US", "coord": {"lon": -119.752693, "lat": 39.534908}}, {"id": 5512909, "name": "Spring Valley", "state": "NV", "country": "US", "coord": {"lon": -115.245003, "lat": 36.108028}}, {"id": 5512985, "name": "Stagecoach", "state": "NV", "country": "US", "coord": {"lon": -119.374062, "lat": 39.373798}}, {"id": 5513171, "name": "Storey County", "state": "NV", "country": "US", "coord": {"lon": -119.501289, "lat": 39.375191}}, {"id": 5513307, "name": "Sun Valley", "state": "NV", "country": "US", "coord": {"lon": -119.776016, "lat": 39.596298}}, {"id": 5513343, "name": "Sunrise Manor", "state": "NV", "country": "US", "coord": {"lon": -115.073059, "lat": 36.211079}}, {"id": 5513795, "name": "Tonopah", "state": "NV", "country": "US", "coord": {"lon": -117.23008, "lat": 38.067162}}, {"id": 5514318, "name": "Valley View", "state": "NV", "country": "US", "coord": {"lon": -117.224533, "lat": 38.068272}}, {"id": 5514336, "name": "Vanderbilt (historical)", "state": "NV", "country": "US", "coord": {"lon": -115.978394, "lat": 39.424648}}, {"id": 5514359, "name": "Verdi", "state": "NV", "country": "US", "coord": {"lon": -119.988808, "lat": 39.518242}}, {"id": 5514410, "name": "Viola (historical)", "state": "NV", "country": "US", "coord": {"lon": -114.385536, "lat": 37.2658}}, {"id": 5514428, "name": "Virginia City", "state": "NV", "country": "US", "coord": {"lon": -119.64962, "lat": 39.309631}}, {"id": 5514709, "name": "Watertown (historical)", "state": "NV", "country": "US", "coord": {"lon": -117.128418, "lat": 39.341042}}, {"id": 5515110, "name": "Whitney", "state": "NV", "country": "US", "coord": {"lon": -115.08416, "lat": 36.070808}}, {"id": 5515345, "name": "Winchester", "state": "NV", "country": "US", "coord": {"lon": -115.118889, "lat": 36.129971}}, {"id": 5515507, "name": "Yerington", "state": "NV", "country": "US", "coord": {"lon": -119.162933, "lat": 38.985748}}, {"id": 5515591, "name": "Beaver", "state": "OK", "country": "US", "coord": {"lon": -100.519867, "lat": 36.816139}}, {"id": 5515613, "name": "Boise City", "state": "OK", "country": "US", "coord": {"lon": -102.513237, "lat": 36.729469}}, {"id": 5515734, "name": "Goodwell", "state": "OK", "country": "US", "coord": {"lon": -101.636551, "lat": 36.595299}}, {"id": 5515743, "name": "Guymon", "state": "OK", "country": "US", "coord": {"lon": -101.481552, "lat": 36.6828}}, {"id": 5515766, "name": "Hough", "state": "OK", "country": "US", "coord": {"lon": -101.577103, "lat": 36.870861}}, {"id": 5515773, "name": "Hooker", "state": "OK", "country": "US", "coord": {"lon": -101.213501, "lat": 36.860031}}, {"id": 5515937, "name": "Texas County", "state": "OK", "country": "US", "coord": {"lon": -101.517097, "lat": 36.766689}}, {"id": 5516007, "name": "Aberdeen", "state": "TX", "country": "US", "coord": {"lon": -100.149277, "lat": 35.03783}}, {"id": 5516008, "name": "Abernathy", "state": "TX", "country": "US", "coord": {"lon": -101.842949, "lat": 33.832298}}, {"id": 5516069, "name": "Aero Vista", "state": "TX", "country": "US", "coord": {"lon": -106.388603, "lat": 31.82427}}, {"id": 5516077, "name": "Agua Dulce", "state": "TX", "country": "US", "coord": {"lon": -106.13887, "lat": 31.655109}}, {"id": 5516203, "name": "Alpine", "state": "TX", "country": "US", "coord": {"lon": -103.661011, "lat": 30.35849}}, {"id": 5516233, "name": "Amarillo", "state": "TX", "country": "US", "coord": {"lon": -101.831299, "lat": 35.222}}, {"id": 5516288, "name": "Andrews", "state": "TX", "country": "US", "coord": {"lon": -102.545723, "lat": 32.318722}}, {"id": 5516368, "name": "Anthony", "state": "TX", "country": "US", "coord": {"lon": -106.605553, "lat": 31.999269}}, {"id": 5516487, "name": "Aspermont", "state": "TX", "country": "US", "coord": {"lon": -100.227333, "lat": 33.13343}}, {"id": 5516528, "name": "Avenger Village", "state": "TX", "country": "US", "coord": {"lon": -100.455658, "lat": 32.45956}}, {"id": 5516705, "name": "Barton Corners", "state": "TX", "country": "US", "coord": {"lon": -100.458191, "lat": 36.201981}}, {"id": 5517030, "name": "Big Lake", "state": "TX", "country": "US", "coord": {"lon": -101.460388, "lat": 31.19154}}, {"id": 5517061, "name": "Big Spring", "state": "TX", "country": "US", "coord": {"lon": -101.478737, "lat": 32.250401}}, {"id": 5517424, "name": "Booker", "state": "TX", "country": "US", "coord": {"lon": -100.537369, "lat": 36.453362}}, {"id": 5517469, "name": "Borger", "state": "TX", "country": "US", "coord": {"lon": -101.397392, "lat": 35.66782}}, {"id": 5517500, "name": "Bovina", "state": "TX", "country": "US", "coord": {"lon": -102.883003, "lat": 34.51368}}, {"id": 5517550, "name": "Brackettville", "state": "TX", "country": "US", "coord": {"lon": -100.417862, "lat": 29.310511}}, {"id": 5517580, "name": "Brewster County", "state": "TX", "country": "US", "coord": {"lon": -103.251007, "lat": 29.833521}}, {"id": 5517675, "name": "Brownfield", "state": "TX", "country": "US", "coord": {"lon": -102.274353, "lat": 33.181198}}, {"id": 5518011, "name": "Bushland", "state": "TX", "country": "US", "coord": {"lon": -102.064636, "lat": 35.192001}}, {"id": 5518084, "name": "Cactus", "state": "TX", "country": "US", "coord": {"lon": -102.002403, "lat": 36.052261}}, {"id": 5518214, "name": "Canadian", "state": "TX", "country": "US", "coord": {"lon": -100.38208, "lat": 35.912819}}, {"id": 5518232, "name": "Canutillo", "state": "TX", "country": "US", "coord": {"lon": -106.600273, "lat": 31.911489}}, {"id": 5518239, "name": "Canyon", "state": "TX", "country": "US", "coord": {"lon": -101.9188, "lat": 34.980331}}, {"id": 5518301, "name": "Carey", "state": "TX", "country": "US", "coord": {"lon": -100.325668, "lat": 34.471169}}, {"id": 5518692, "name": "Channing", "state": "TX", "country": "US", "coord": {"lon": -102.3302, "lat": 35.683651}}, {"id": 5518758, "name": "Childress", "state": "TX", "country": "US", "coord": {"lon": -100.204002, "lat": 34.426449}}, {"id": 5518760, "name": "Childress County", "state": "TX", "country": "US", "coord": {"lon": -100.217056, "lat": 34.53339}}, {"id": 5518982, "name": "Cienegas Terrace", "state": "TX", "country": "US", "coord": {"lon": -100.94371, "lat": 29.367451}}, {"id": 5519031, "name": "Clarendon", "state": "TX", "country": "US", "coord": {"lon": -100.888199, "lat": 34.937832}}, {"id": 5519055, "name": "Claude", "state": "TX", "country": "US", "coord": {"lon": -101.36322, "lat": 35.111721}}, {"id": 5519229, "name": "Collingsworth County", "state": "TX", "country": "US", "coord": {"lon": -100.267059, "lat": 34.966721}}, {"id": 5519254, "name": "Colorado City", "state": "TX", "country": "US", "coord": {"lon": -100.864563, "lat": 32.388168}}, {"id": 5519648, "name": "Crane", "state": "TX", "country": "US", "coord": {"lon": -102.350143, "lat": 31.39736}}, {"id": 5519649, "name": "Crane County", "state": "TX", "country": "US", "coord": {"lon": -102.51709, "lat": 31.45014}}, {"id": 5519719, "name": "Crosbyton", "state": "TX", "country": "US", "coord": {"lon": -101.23793, "lat": 33.66008}}, {"id": 5519862, "name": "Dalhart", "state": "TX", "country": "US", "coord": {"lon": -102.513252, "lat": 36.059479}}, {"id": 5519868, "name": "Dallam County", "state": "TX", "country": "US", "coord": {"lon": -102.600471, "lat": 36.28336}}, {"id": 5519946, "name": "Dawson County", "state": "TX", "country": "US", "coord": {"lon": -101.950439, "lat": 32.733429}}, {"id": 5520004, "name": "Deaf Smith County", "state": "TX", "country": "US", "coord": {"lon": -102.600487, "lat": 34.966728}}, {"id": 5520076, "name": "Del Rio", "state": "TX", "country": "US", "coord": {"lon": -100.896759, "lat": 29.36273}}, {"id": 5520110, "name": "Denver City", "state": "TX", "country": "US", "coord": {"lon": -102.829102, "lat": 32.96455}}, {"id": 5520196, "name": "Dickens", "state": "TX", "country": "US", "coord": {"lon": -100.836517, "lat": 33.62175}}, {"id": 5520201, "name": "Dimmitt", "state": "TX", "country": "US", "coord": {"lon": -102.311859, "lat": 34.5509}}, {"id": 5520552, "name": "Dumas", "state": "TX", "country": "US", "coord": {"lon": -101.973244, "lat": 35.865589}}, {"id": 5520677, "name": "Eagle Pass", "state": "TX", "country": "US", "coord": {"lon": -100.499519, "lat": 28.709141}}, {"id": 5520687, "name": "Earth", "state": "TX", "country": "US", "coord": {"lon": -102.410751, "lat": 34.233139}}, {"id": 5520910, "name": "Ector County", "state": "TX", "country": "US", "coord": {"lon": -102.55043, "lat": 31.866791}}, {"id": 5520953, "name": "Eidson Road", "state": "TX", "country": "US", "coord": {"lon": -100.487022, "lat": 28.6772}}, {"id": 5520993, "name": "El Paso", "state": "TX", "country": "US", "coord": {"lon": -106.486931, "lat": 31.75872}}, {"id": 5521001, "name": "El Paso County", "state": "TX", "country": "US", "coord": {"lon": -106.200539, "lat": 31.80011}}, {"id": 5521036, "name": "Eldorado", "state": "TX", "country": "US", "coord": {"lon": -100.600929, "lat": 30.86017}}, {"id": 5521075, "name": "Elm Creek", "state": "TX", "country": "US", "coord": {"lon": -100.491737, "lat": 28.77442}}, {"id": 5521233, "name": "Fabens", "state": "TX", "country": "US", "coord": {"lon": -106.158592, "lat": 31.50234}}, {"id": 5521353, "name": "Farwell", "state": "TX", "country": "US", "coord": {"lon": -103.038002, "lat": 34.383411}}, {"id": 5521646, "name": "Floydada", "state": "TX", "country": "US", "coord": {"lon": -101.337662, "lat": 33.98452}}, {"id": 5521711, "name": "Fort Clark Springs", "state": "TX", "country": "US", "coord": {"lon": -100.42202, "lat": 29.30607}}, {"id": 5521715, "name": "Fort Davis", "state": "TX", "country": "US", "coord": {"lon": -103.89463, "lat": 30.588209}}, {"id": 5521724, "name": "Fort Hancock", "state": "TX", "country": "US", "coord": {"lon": -105.845253, "lat": 31.29846}}, {"id": 5521746, "name": "Fort Stockton", "state": "TX", "country": "US", "coord": {"lon": -102.879318, "lat": 30.894039}}, {"id": 5521905, "name": "Friona", "state": "TX", "country": "US", "coord": {"lon": -102.724098, "lat": 34.641731}}, {"id": 5521912, "name": "Fritch", "state": "TX", "country": "US", "coord": {"lon": -101.603233, "lat": 35.639771}}, {"id": 5521972, "name": "Gail", "state": "TX", "country": "US", "coord": {"lon": -101.445412, "lat": 32.770378}}, {"id": 5522004, "name": "Garden City", "state": "TX", "country": "US", "coord": {"lon": -101.481232, "lat": 31.864019}}, {"id": 5522019, "name": "Gardendale", "state": "TX", "country": "US", "coord": {"lon": -102.38015, "lat": 32.020401}}, {"id": 5522392, "name": "Grape Creek", "state": "TX", "country": "US", "coord": {"lon": -100.5476, "lat": 31.579321}}, {"id": 5522430, "name": "Gray County", "state": "TX", "country": "US", "coord": {"lon": -100.802002, "lat": 35.416698}}, {"id": 5522580, "name": "Guthrie", "state": "TX", "country": "US", "coord": {"lon": -100.322891, "lat": 33.62064}}, {"id": 5522714, "name": "Hale Center", "state": "TX", "country": "US", "coord": {"lon": -101.843788, "lat": 34.06424}}, {"id": 5522717, "name": "Hale County", "state": "TX", "country": "US", "coord": {"lon": -101.833794, "lat": 34.066738}}, {"id": 5522769, "name": "Hamlin", "state": "TX", "country": "US", "coord": {"lon": -100.126488, "lat": 32.88483}}, {"id": 5522876, "name": "Hart", "state": "TX", "country": "US", "coord": {"lon": -102.115738, "lat": 34.385071}}, {"id": 5522990, "name": "Heckville", "state": "TX", "country": "US", "coord": {"lon": -101.665169, "lat": 33.754799}}, {"id": 5523074, "name": "Hereford", "state": "TX", "country": "US", "coord": {"lon": -102.397697, "lat": 34.81506}}, {"id": 5523335, "name": "Homestead Meadows North", "state": "TX", "country": "US", "coord": {"lon": -106.172852, "lat": 31.84963}}, {"id": 5523336, "name": "Homestead Meadows South", "state": "TX", "country": "US", "coord": {"lon": -106.164268, "lat": 31.81097}}, {"id": 5523369, "name": "Horizon City", "state": "TX", "country": "US", "coord": {"lon": -106.207481, "lat": 31.69261}}, {"id": 5523520, "name": "Howard County", "state": "TX", "country": "US", "coord": {"lon": -101.450401, "lat": 32.300121}}, {"id": 5523551, "name": "Hudspeth County", "state": "TX", "country": "US", "coord": {"lon": -105.300507, "lat": 31.466789}}, {"id": 5523659, "name": "Idalou", "state": "TX", "country": "US", "coord": {"lon": -101.682938, "lat": 33.66647}}, {"id": 5523798, "name": "Iraan", "state": "TX", "country": "US", "coord": {"lon": -101.897911, "lat": 30.914049}}, {"id": 5523963, "name": "Jayton", "state": "TX", "country": "US", "coord": {"lon": -100.57373, "lat": 33.24815}}, {"id": 5523967, "name": "Jeff Davis County", "state": "TX", "country": "US", "coord": {"lon": -104.083801, "lat": 30.70015}}, {"id": 5524527, "name": "Kermit", "state": "TX", "country": "US", "coord": {"lon": -103.092667, "lat": 31.85763}}, {"id": 5524590, "name": "Kinney County", "state": "TX", "country": "US", "coord": {"lon": -100.417023, "lat": 29.33357}}, {"id": 5524819, "name": "Lakeview", "state": "TX", "country": "US", "coord": {"lon": -102.050453, "lat": 33.326481}}, {"id": 5524849, "name": "Lamesa", "state": "TX", "country": "US", "coord": {"lon": -101.950989, "lat": 32.737598}}, {"id": 5524912, "name": "Las Quintas Fronterizas", "state": "TX", "country": "US", "coord": {"lon": -100.468689, "lat": 28.690531}}, {"id": 5524913, "name": "Las Quintas Fronterizas Colonia", "state": "TX", "country": "US", "coord": {"lon": -100.469238, "lat": 28.69137}}, {"id": 5525016, "name": "Lenox", "state": "TX", "country": "US", "coord": {"lon": -103.378792, "lat": 30.236549}}, {"id": 5525042, "name": "Levelland", "state": "TX", "country": "US", "coord": {"lon": -102.37796, "lat": 33.587318}}, {"id": 5525066, "name": "Liberty", "state": "TX", "country": "US", "coord": {"lon": -101.767113, "lat": 33.69397}}, {"id": 5525131, "name": "Lipscomb County", "state": "TX", "country": "US", "coord": {"lon": -100.286201, "lat": 36.252899}}, {"id": 5525208, "name": "Little Mexico Colonia", "state": "TX", "country": "US", "coord": {"lon": -102.878487, "lat": 30.918209}}, {"id": 5525295, "name": "Littlefield", "state": "TX", "country": "US", "coord": {"lon": -102.324898, "lat": 33.917309}}, {"id": 5525346, "name": "Lockney", "state": "TX", "country": "US", "coord": {"lon": -101.441551, "lat": 34.124519}}, {"id": 5525455, "name": "Lorenzo", "state": "TX", "country": "US", "coord": {"lon": -101.535156, "lat": 33.670639}}, {"id": 5525466, "name": "Los Ybanez", "state": "TX", "country": "US", "coord": {"lon": -101.917381, "lat": 32.71899}}, {"id": 5525474, "name": "Lost Creek Place", "state": "TX", "country": "US", "coord": {"lon": -100.17952, "lat": 29.609119}}, {"id": 5525577, "name": "Lubbock", "state": "TX", "country": "US", "coord": {"lon": -101.855171, "lat": 33.577862}}, {"id": 5525584, "name": "Lubbock County", "state": "TX", "country": "US", "coord": {"lon": -101.833778, "lat": 33.600079}}, {"id": 5525637, "name": "Lynn County", "state": "TX", "country": "US", "coord": {"lon": -101.833771, "lat": 33.166759}}, {"id": 5525775, "name": "Marfa", "state": "TX", "country": "US", "coord": {"lon": -104.019073, "lat": 30.30794}}, {"id": 5525856, "name": "Matador", "state": "TX", "country": "US", "coord": {"lon": -100.822083, "lat": 34.01202}}, {"id": 5525886, "name": "Maverick County", "state": "TX", "country": "US", "coord": {"lon": -100.350349, "lat": 28.76692}}, {"id": 5525938, "name": "McCamey", "state": "TX", "country": "US", "coord": {"lon": -102.224297, "lat": 31.135981}}, {"id": 5526145, "name": "Memphis", "state": "TX", "country": "US", "coord": {"lon": -100.534012, "lat": 34.724781}}, {"id": 5526156, "name": "Mentone", "state": "TX", "country": "US", "coord": {"lon": -103.59935, "lat": 31.70513}}, {"id": 5526164, "name": "Merkel", "state": "TX", "country": "US", "coord": {"lon": -100.012871, "lat": 32.47068}}, {"id": 5526174, "name": "Mertzon", "state": "TX", "country": "US", "coord": {"lon": -100.817329, "lat": 31.261829}}, {"id": 5526233, "name": "Miami", "state": "TX", "country": "US", "coord": {"lon": -100.638191, "lat": 35.691429}}, {"id": 5526337, "name": "Midland", "state": "TX", "country": "US", "coord": {"lon": -102.077911, "lat": 31.997351}}, {"id": 5526341, "name": "Midland County", "state": "TX", "country": "US", "coord": {"lon": -102.050407, "lat": 31.866791}}, {"id": 5526514, "name": "Monahans", "state": "TX", "country": "US", "coord": {"lon": -102.892647, "lat": 31.594299}}, {"id": 5526657, "name": "Morton", "state": "TX", "country": "US", "coord": {"lon": -102.759377, "lat": 33.725101}}, {"id": 5526805, "name": "Muleshoe", "state": "TX", "country": "US", "coord": {"lon": -102.723831, "lat": 34.226471}}, {"id": 5526931, "name": "Negro Crossing", "state": "TX", "country": "US", "coord": {"lon": -100.536758, "lat": 31.353769}}, {"id": 5527151, "name": "Nolan County", "state": "TX", "country": "US", "coord": {"lon": -100.417053, "lat": 32.300121}}, {"id": 5527554, "name": "Odessa", "state": "TX", "country": "US", "coord": {"lon": -102.367638, "lat": 31.84568}}, {"id": 5527644, "name": "Old Corbett Place", "state": "TX", "country": "US", "coord": {"lon": -103.04406, "lat": 30.025181}}, {"id": 5527759, "name": "Olton", "state": "TX", "country": "US", "coord": {"lon": -102.134628, "lat": 34.183411}}, {"id": 5527870, "name": "Ozona", "state": "TX", "country": "US", "coord": {"lon": -101.200668, "lat": 30.710171}}, {"id": 5527891, "name": "Paducah", "state": "TX", "country": "US", "coord": {"lon": -100.302063, "lat": 34.012299}}, {"id": 5527923, "name": "Palisades", "state": "TX", "country": "US", "coord": {"lon": -101.802406, "lat": 35.061722}}, {"id": 5527953, "name": "Pampa", "state": "TX", "country": "US", "coord": {"lon": -100.959869, "lat": 35.53616}}, {"id": 5527980, "name": "Panhandle", "state": "TX", "country": "US", "coord": {"lon": -101.38044, "lat": 35.3456}}, {"id": 5528182, "name": "Pecos", "state": "TX", "country": "US", "coord": {"lon": -103.493233, "lat": 31.422911}}, {"id": 5528185, "name": "Pecos County", "state": "TX", "country": "US", "coord": {"lon": -102.750992, "lat": 30.75071}}, {"id": 5528274, "name": "Perryton", "state": "TX", "country": "US", "coord": {"lon": -100.80265, "lat": 36.400028}}, {"id": 5528302, "name": "Petersburg", "state": "TX", "country": "US", "coord": {"lon": -101.597389, "lat": 33.869518}}, {"id": 5528440, "name": "Plains", "state": "TX", "country": "US", "coord": {"lon": -102.827988, "lat": 33.188709}}, {"id": 5528450, "name": "Plainview", "state": "TX", "country": "US", "coord": {"lon": -101.706841, "lat": 34.184792}}, {"id": 5528596, "name": "Post", "state": "TX", "country": "US", "coord": {"lon": -101.378189, "lat": 33.190929}}, {"id": 5528613, "name": "Potter County", "state": "TX", "country": "US", "coord": {"lon": -101.900459, "lat": 35.416721}}, {"id": 5528669, "name": "Presidio", "state": "TX", "country": "US", "coord": {"lon": -104.372147, "lat": 29.56074}}, {"id": 5528673, "name": "Presidio County", "state": "TX", "country": "US", "coord": {"lon": -104.25103, "lat": 29.91684}}, {"id": 5528909, "name": "Randall County", "state": "TX", "country": "US", "coord": {"lon": -101.900467, "lat": 34.966721}}, {"id": 5528921, "name": "Rankin", "state": "TX", "country": "US", "coord": {"lon": -101.937912, "lat": 31.222651}}, {"id": 5528928, "name": "Ransom Canyon", "state": "TX", "country": "US", "coord": {"lon": -101.679611, "lat": 33.533421}}, {"id": 5529397, "name": "Robert Lee", "state": "TX", "country": "US", "coord": {"lon": -100.484818, "lat": 31.89237}}, {"id": 5529403, "name": "Roberts County", "state": "TX", "country": "US", "coord": {"lon": -100.817093, "lat": 35.85004}}, {"id": 5529438, "name": "Roby", "state": "TX", "country": "US", "coord": {"lon": -100.377609, "lat": 32.744831}}, {"id": 5529514, "name": "Rocksprings", "state": "TX", "country": "US", "coord": {"lon": -100.20536, "lat": 30.01576}}, {"id": 5529571, "name": "Roscoe", "state": "TX", "country": "US", "coord": {"lon": -100.538719, "lat": 32.44595}}, {"id": 5529592, "name": "Rosita North", "state": "TX", "country": "US", "coord": {"lon": -100.42218, "lat": 28.656441}}, {"id": 5529595, "name": "Rosita South", "state": "TX", "country": "US", "coord": {"lon": -100.428368, "lat": 28.623751}}, {"id": 5529609, "name": "Rotan", "state": "TX", "country": "US", "coord": {"lon": -100.46566, "lat": 32.852051}}, {"id": 5529965, "name": "Salt Flat", "state": "TX", "country": "US", "coord": {"lon": -105.092728, "lat": 31.743731}}, {"id": 5530022, "name": "San Angelo", "state": "TX", "country": "US", "coord": {"lon": -100.437042, "lat": 31.46377}}, {"id": 5530058, "name": "San Elizario", "state": "TX", "country": "US", "coord": {"lon": -106.272758, "lat": 31.58511}}, {"id": 5530210, "name": "Sanderson", "state": "TX", "country": "US", "coord": {"lon": -102.394028, "lat": 30.14241}}, {"id": 5530399, "name": "Scurry County", "state": "TX", "country": "US", "coord": {"lon": -100.933731, "lat": 32.73344}}, {"id": 5530403, "name": "Seagraves", "state": "TX", "country": "US", "coord": {"lon": -102.564919, "lat": 32.944271}}, {"id": 5530452, "name": "Seminole", "state": "TX", "country": "US", "coord": {"lon": -102.644913, "lat": 32.71899}}, {"id": 5530469, "name": "Seth Ward", "state": "TX", "country": "US", "coord": {"lon": -101.690178, "lat": 34.211739}}, {"id": 5530531, "name": "Shafter", "state": "TX", "country": "US", "coord": {"lon": -104.303253, "lat": 29.820169}}, {"id": 5530549, "name": "Shallowater", "state": "TX", "country": "US", "coord": {"lon": -101.99823, "lat": 33.688969}}, {"id": 5530555, "name": "Shamrock", "state": "TX", "country": "US", "coord": {"lon": -100.249008, "lat": 35.214218}}, {"id": 5530683, "name": "Sid Place", "state": "TX", "country": "US", "coord": {"lon": -103.652962, "lat": 29.83379}}, {"id": 5530688, "name": "Sierra Blanca", "state": "TX", "country": "US", "coord": {"lon": -105.357178, "lat": 31.17457}}, {"id": 5530728, "name": "Silverton", "state": "TX", "country": "US", "coord": {"lon": -101.304611, "lat": 34.474232}}, {"id": 5530825, "name": "Slaton", "state": "TX", "country": "US", "coord": {"lon": -101.643494, "lat": 33.437309}}, {"id": 5530921, "name": "Snyder", "state": "TX", "country": "US", "coord": {"lon": -100.917618, "lat": 32.717892}}, {"id": 5530932, "name": "Socorro", "state": "TX", "country": "US", "coord": {"lon": -106.303307, "lat": 31.65456}}, {"id": 5530937, "name": "Socorro Mission Number 1 Colonia", "state": "TX", "country": "US", "coord": {"lon": -106.290543, "lat": 31.636221}}, {"id": 5531255, "name": "Sonora", "state": "TX", "country": "US", "coord": {"lon": -100.643433, "lat": 30.566851}}, {"id": 5531548, "name": "Sparks", "state": "TX", "country": "US", "coord": {"lon": -106.2397, "lat": 31.672609}}, {"id": 5531553, "name": "Spearman", "state": "TX", "country": "US", "coord": {"lon": -101.192383, "lat": 36.198372}}, {"id": 5531683, "name": "Stanton", "state": "TX", "country": "US", "coord": {"lon": -101.78846, "lat": 32.129292}}, {"id": 5531747, "name": "Sterling City", "state": "TX", "country": "US", "coord": {"lon": -100.984833, "lat": 31.83625}}, {"id": 5531793, "name": "Stinnett", "state": "TX", "country": "US", "coord": {"lon": -101.44294, "lat": 35.826981}}, {"id": 5531815, "name": "Stratford", "state": "TX", "country": "US", "coord": {"lon": -102.072121, "lat": 36.33614}}, {"id": 5531919, "name": "Sundown", "state": "TX", "country": "US", "coord": {"lon": -102.489357, "lat": 33.456211}}, {"id": 5531929, "name": "Sunray", "state": "TX", "country": "US", "coord": {"lon": -101.824623, "lat": 36.016701}}, {"id": 5531955, "name": "Sutton County", "state": "TX", "country": "US", "coord": {"lon": -100.550369, "lat": 30.50074}}, {"id": 5531968, "name": "Sweetwater", "state": "TX", "country": "US", "coord": {"lon": -100.405937, "lat": 32.470951}}, {"id": 5532037, "name": "Tahoka", "state": "TX", "country": "US", "coord": {"lon": -101.79377, "lat": 33.166759}}, {"id": 5532286, "name": "Thorntonville", "state": "TX", "country": "US", "coord": {"lon": -102.920708, "lat": 31.582911}}, {"id": 5532405, "name": "Tom Green County", "state": "TX", "country": "US", "coord": {"lon": -100.467041, "lat": 31.40016}}, {"id": 5532423, "name": "Tornillo", "state": "TX", "country": "US", "coord": {"lon": -106.08831, "lat": 31.4454}}, {"id": 5532610, "name": "Tulia", "state": "TX", "country": "US", "coord": {"lon": -101.758522, "lat": 34.535889}}, {"id": 5532889, "name": "Val Verde County", "state": "TX", "country": "US", "coord": {"lon": -101.083717, "lat": 29.83354}}, {"id": 5532893, "name": "Val Verde Park", "state": "TX", "country": "US", "coord": {"lon": -100.831757, "lat": 29.37495}}, {"id": 5532924, "name": "Van Horn", "state": "TX", "country": "US", "coord": {"lon": -104.830772, "lat": 31.03986}}, {"id": 5532945, "name": "Vega", "state": "TX", "country": "US", "coord": {"lon": -102.428261, "lat": 35.242828}}, {"id": 5532993, "name": "Vinton", "state": "TX", "country": "US", "coord": {"lon": -106.602493, "lat": 31.95121}}, {"id": 5533109, "name": "Ward County", "state": "TX", "country": "US", "coord": {"lon": -103.067101, "lat": 31.5168}}, {"id": 5533198, "name": "Wayside", "state": "TX", "country": "US", "coord": {"lon": -100.954872, "lat": 35.635319}}, {"id": 5533240, "name": "Wellington", "state": "TX", "country": "US", "coord": {"lon": -100.21373, "lat": 34.856171}}, {"id": 5533366, "name": "West Odessa", "state": "TX", "country": "US", "coord": {"lon": -102.498756, "lat": 31.84235}}, {"id": 5533510, "name": "Westway", "state": "TX", "country": "US", "coord": {"lon": -106.578049, "lat": 31.95871}}, {"id": 5533560, "name": "Wheeler", "state": "TX", "country": "US", "coord": {"lon": -100.270958, "lat": 35.445332}}, {"id": 5534053, "name": "Wink", "state": "TX", "country": "US", "coord": {"lon": -103.159889, "lat": 31.75124}}, {"id": 5534055, "name": "Winkler County", "state": "TX", "country": "US", "coord": {"lon": -103.033768, "lat": 31.85013}}, {"id": 5534109, "name": "Wolfforth", "state": "TX", "country": "US", "coord": {"lon": -102.009064, "lat": 33.50592}}, {"id": 5534620, "name": "Aurora", "state": "UT", "country": "US", "coord": {"lon": -111.93409, "lat": 38.922192}}, {"id": 5534882, "name": "Beaver", "state": "UT", "country": "US", "coord": {"lon": -112.641052, "lat": 38.276909}}, {"id": 5535484, "name": "Blanding", "state": "UT", "country": "US", "coord": {"lon": -109.47818, "lat": 37.624161}}, {"id": 5536454, "name": "Carbon County", "state": "UT", "country": "US", "coord": {"lon": -110.501266, "lat": 39.74107}}, {"id": 5536462, "name": "Carbonville", "state": "UT", "country": "US", "coord": {"lon": -110.834328, "lat": 39.619961}}, {"id": 5536511, "name": "Castle Dale", "state": "UT", "country": "US", "coord": {"lon": -111.019608, "lat": 39.212189}}, {"id": 5536630, "name": "Cedar City", "state": "UT", "country": "US", "coord": {"lon": -113.06189, "lat": 37.677479}}, {"id": 5537013, "name": "Clay Hills Crossing", "state": "UT", "country": "US", "coord": {"lon": -110.404846, "lat": 37.294441}}, {"id": 5537211, "name": "Columbia Junction", "state": "UT", "country": "US", "coord": {"lon": -110.443771, "lat": 39.531631}}, {"id": 5537680, "name": "Crescent Junction", "state": "UT", "country": "US", "coord": {"lon": -109.817352, "lat": 38.943031}}, {"id": 5538080, "name": "Delta", "state": "UT", "country": "US", "coord": {"lon": -112.577171, "lat": 39.35218}}, {"id": 5538668, "name": "East Carbon City", "state": "UT", "country": "US", "coord": {"lon": -110.414879, "lat": 39.547741}}, {"id": 5538914, "name": "Enoch", "state": "UT", "country": "US", "coord": {"lon": -113.024391, "lat": 37.773312}}, {"id": 5538927, "name": "Ephraim", "state": "UT", "country": "US", "coord": {"lon": -111.586311, "lat": 39.35968}}, {"id": 5538929, "name": "Enterprise", "state": "UT", "country": "US", "coord": {"lon": -113.719131, "lat": 37.573589}}, {"id": 5539005, "name": "Fairview", "state": "UT", "country": "US", "coord": {"lon": -111.439629, "lat": 39.62635}}, {"id": 5539059, "name": "Ferron", "state": "UT", "country": "US", "coord": {"lon": -111.133217, "lat": 39.093578}}, {"id": 5539097, "name": "Fillmore", "state": "UT", "country": "US", "coord": {"lon": -112.323547, "lat": 38.968849}}, {"id": 5539372, "name": "Fountain Green", "state": "UT", "country": "US", "coord": {"lon": -111.635201, "lat": 39.629959}}, {"id": 5539525, "name": "Garfield County", "state": "UT", "country": "US", "coord": {"lon": -111.501282, "lat": 37.750542}}, {"id": 5539555, "name": "Genola", "state": "UT", "country": "US", "coord": {"lon": -111.843269, "lat": 39.996342}}, {"id": 5539784, "name": "Grand County", "state": "UT", "country": "US", "coord": {"lon": -109.501228, "lat": 38.87553}}, {"id": 5540026, "name": "Gunnison", "state": "UT", "country": "US", "coord": {"lon": -111.81826, "lat": 39.155239}}, {"id": 5540148, "name": "Hanksville", "state": "UT", "country": "US", "coord": {"lon": -110.714043, "lat": 38.373039}}, {"id": 5540351, "name": "Helper", "state": "UT", "country": "US", "coord": {"lon": -110.854607, "lat": 39.684132}}, {"id": 5540444, "name": "Hildale", "state": "UT", "country": "US", "coord": {"lon": -112.966881, "lat": 37.003601}}, {"id": 5540810, "name": "Huntington", "state": "UT", "country": "US", "coord": {"lon": -110.964607, "lat": 39.326641}}, {"id": 5540831, "name": "Hurricane", "state": "UT", "country": "US", "coord": {"lon": -113.289948, "lat": 37.175259}}, {"id": 5541004, "name": "Iron County", "state": "UT", "country": "US", "coord": {"lon": -113.126343, "lat": 37.75053}}, {"id": 5541028, "name": "Iron Springs", "state": "UT", "country": "US", "coord": {"lon": -113.23468, "lat": 37.749699}}, {"id": 5541061, "name": "Ivins", "state": "UT", "country": "US", "coord": {"lon": -113.679413, "lat": 37.168591}}, {"id": 5541403, "name": "Junction", "state": "UT", "country": "US", "coord": {"lon": -112.219933, "lat": 38.23748}}, {"id": 5541458, "name": "Kanab", "state": "UT", "country": "US", "coord": {"lon": -112.526314, "lat": 37.047489}}, {"id": 5541693, "name": "LaVerkin", "state": "UT", "country": "US", "coord": {"lon": -113.269669, "lat": 37.201092}}, {"id": 5542323, "name": "Loa", "state": "UT", "country": "US", "coord": {"lon": -111.64296, "lat": 38.40276}}, {"id": 5542758, "name": "Manti", "state": "UT", "country": "US", "coord": {"lon": -111.636864, "lat": 39.268299}}, {"id": 5542777, "name": "Manti Canyon Summer Homes", "state": "UT", "country": "US", "coord": {"lon": -111.521301, "lat": 39.256069}}, {"id": 5543146, "name": "Milford", "state": "UT", "country": "US", "coord": {"lon": -113.010788, "lat": 38.396912}}, {"id": 5543199, "name": "Millard County", "state": "UT", "country": "US", "coord": {"lon": -113.125237, "lat": 39.125511}}, {"id": 5543307, "name": "Moab", "state": "UT", "country": "US", "coord": {"lon": -109.549843, "lat": 38.573318}}, {"id": 5543360, "name": "Monroe", "state": "UT", "country": "US", "coord": {"lon": -112.120758, "lat": 38.629971}}, {"id": 5543377, "name": "Monticello", "state": "UT", "country": "US", "coord": {"lon": -109.342888, "lat": 37.87138}}, {"id": 5543462, "name": "Moroni", "state": "UT", "country": "US", "coord": {"lon": -111.590469, "lat": 39.52496}}, {"id": 5543514, "name": "Mount Pleasant", "state": "UT", "country": "US", "coord": {"lon": -111.455467, "lat": 39.546909}}, {"id": 5543853, "name": "Nephi", "state": "UT", "country": "US", "coord": {"lon": -111.836319, "lat": 39.710232}}, {"id": 5544295, "name": "Oasis", "state": "UT", "country": "US", "coord": {"lon": -112.628281, "lat": 39.29385}}, {"id": 5544402, "name": "Orangeville", "state": "UT", "country": "US", "coord": {"lon": -111.053497, "lat": 39.227188}}, {"id": 5544525, "name": "Panguitch", "state": "UT", "country": "US", "coord": {"lon": -112.43576, "lat": 37.822762}}, {"id": 5544619, "name": "Parowan", "state": "UT", "country": "US", "coord": {"lon": -112.828003, "lat": 37.842201}}, {"id": 5545269, "name": "Price", "state": "UT", "country": "US", "coord": {"lon": -110.810707, "lat": 39.599411}}, {"id": 5545710, "name": "Richfield", "state": "UT", "country": "US", "coord": {"lon": -112.084091, "lat": 38.772469}}, {"id": 5546220, "name": "Saint George", "state": "UT", "country": "US", "coord": {"lon": -113.584122, "lat": 37.104149}}, {"id": 5546253, "name": "Salina", "state": "UT", "country": "US", "coord": {"lon": -111.859917, "lat": 38.957741}}, {"id": 5546337, "name": "San Juan County", "state": "UT", "country": "US", "coord": {"lon": -109.501228, "lat": 37.750549}}, {"id": 5546434, "name": "Sanpete County", "state": "UT", "country": "US", "coord": {"lon": -111.501297, "lat": 39.250519}}, {"id": 5546441, "name": "Santa Clara", "state": "UT", "country": "US", "coord": {"lon": -113.654129, "lat": 37.133041}}, {"id": 5546452, "name": "Santaquin", "state": "UT", "country": "US", "coord": {"lon": -111.78521, "lat": 39.97551}}, {"id": 5546822, "name": "Shunesburg", "state": "UT", "country": "US", "coord": {"lon": -112.977722, "lat": 37.158039}}, {"id": 5547484, "name": "Spring Glen", "state": "UT", "country": "US", "coord": {"lon": -110.853493, "lat": 39.659409}}, {"id": 5548429, "name": "Three Forks", "state": "UT", "country": "US", "coord": {"lon": -110.49514, "lat": 37.991379}}, {"id": 5548441, "name": "Three Forks", "state": "UT", "country": "US", "coord": {"lon": -110.957108, "lat": 39.974682}}, {"id": 5548621, "name": "Toquerville", "state": "UT", "country": "US", "coord": {"lon": -113.284668, "lat": 37.253319}}, {"id": 5549030, "name": "Utah", "state": "UT", "country": "US", "coord": {"lon": -111.75103, "lat": 39.25024}}, {"id": 5549222, "name": "Washington", "state": "UT", "country": "US", "coord": {"lon": -113.508293, "lat": 37.130539}}, {"id": 5549225, "name": "Washington County", "state": "UT", "country": "US", "coord": {"lon": -113.251343, "lat": 37.250542}}, {"id": 5549318, "name": "Wayne County", "state": "UT", "country": "US", "coord": {"lon": -110.876266, "lat": 38.374432}}, {"id": 5549349, "name": "Wellington", "state": "UT", "country": "US", "coord": {"lon": -110.735428, "lat": 39.542469}}, {"id": 5550192, "name": "West Sedona", "state": "AZ", "country": "US", "coord": {"lon": -111.805428, "lat": 34.867241}}, {"id": 5550352, "name": "Sheridan", "state": "CA", "country": "US", "coord": {"lon": -121.375511, "lat": 38.979622}}, {"id": 5550366, "name": "Three Rivers", "state": "CA", "country": "US", "coord": {"lon": -118.904541, "lat": 36.438839}}, {"id": 5550368, "name": "Wasco", "state": "CA", "country": "US", "coord": {"lon": -119.34095, "lat": 35.59412}}, {"id": 5550372, "name": "West Bishop", "state": "CA", "country": "US", "coord": {"lon": -118.455109, "lat": 37.361038}}, {"id": 5550375, "name": "Alamosa County", "state": "CO", "country": "US", "coord": {"lon": -105.800583, "lat": 37.599998}}, {"id": 5550409, "name": "Paonia", "state": "CO", "country": "US", "coord": {"lon": -107.592003, "lat": 38.86832}}, {"id": 5550452, "name": "Cimarron", "state": "KS", "country": "US", "coord": {"lon": -100.348198, "lat": 37.80669}}, {"id": 5550529, "name": "Pojoaque", "state": "NM", "country": "US", "coord": {"lon": -106.023079, "lat": 35.892799}}, {"id": 5550561, "name": "Beatty", "state": "NV", "country": "US", "coord": {"lon": -116.759232, "lat": 36.908562}}, {"id": 5550579, "name": "Indian Hills", "state": "NV", "country": "US", "coord": {"lon": -119.784073, "lat": 39.086021}}, {"id": 5550611, "name": "Anton", "state": "TX", "country": "US", "coord": {"lon": -102.163788, "lat": 33.811199}}, {"id": 5550634, "name": "Gruver", "state": "TX", "country": "US", "coord": {"lon": -101.406273, "lat": 36.26503}}, {"id": 5550669, "name": "Ralls", "state": "TX", "country": "US", "coord": {"lon": -101.387657, "lat": 33.674252}}, {"id": 5550683, "name": "Spur", "state": "TX", "country": "US", "coord": {"lon": -100.85569, "lat": 33.476479}}, {"id": 5550722, "name": "Centerfield", "state": "UT", "country": "US", "coord": {"lon": -111.819092, "lat": 39.12524}}, {"id": 5550996, "name": "Ajo", "state": "AZ", "country": "US", "coord": {"lon": -112.86071, "lat": 32.371719}}, {"id": 5551498, "name": "Anthem", "state": "AZ", "country": "US", "coord": {"lon": -112.14682, "lat": 33.86726}}, {"id": 5551535, "name": "Apache Junction", "state": "AZ", "country": "US", "coord": {"lon": -111.549583, "lat": 33.415051}}, {"id": 5551650, "name": "Arivaca Junction", "state": "AZ", "country": "US", "coord": {"lon": -111.061203, "lat": 31.72731}}, {"id": 5551665, "name": "Arizona City", "state": "AZ", "country": "US", "coord": {"lon": -111.670959, "lat": 32.75589}}, {"id": 5551752, "name": "Arizona", "state": "AZ", "country": "US", "coord": {"lon": -111.500977, "lat": 34.500301}}, {"id": 5552301, "name": "Avondale", "state": "AZ", "country": "US", "coord": {"lon": -112.349602, "lat": 33.4356}}, {"id": 5552323, "name": "Avra Valley", "state": "AZ", "country": "US", "coord": {"lon": -111.315376, "lat": 32.437851}}, {"id": 5552575, "name": "Bagdad", "state": "AZ", "country": "US", "coord": {"lon": -113.204643, "lat": 34.581131}}, {"id": 5552905, "name": "Beaver Dam", "state": "AZ", "country": "US", "coord": {"lon": -113.932739, "lat": 36.899422}}, {"id": 5553284, "name": "Benson", "state": "AZ", "country": "US", "coord": {"lon": -110.294518, "lat": 31.967859}}, {"id": 5553366, "name": "Beyerville", "state": "AZ", "country": "US", "coord": {"lon": -110.878418, "lat": 31.390381}}, {"id": 5553533, "name": "Big Park", "state": "AZ", "country": "US", "coord": {"lon": -111.76265, "lat": 34.7803}}, {"id": 5553701, "name": "Trinity County", "state": "CA", "country": "US", "coord": {"lon": -123.167809, "lat": 40.583199}}, {"id": 5553755, "name": "Wray", "state": "CO", "country": "US", "coord": {"lon": -102.223251, "lat": 40.075821}}, {"id": 5553955, "name": "Rathdrum", "state": "ID", "country": "US", "coord": {"lon": -116.89196, "lat": 47.813728}}, {"id": 5554072, "name": "Juneau", "state": "AK", "country": "US", "coord": {"lon": -134.419724, "lat": 58.301941}}, {"id": 5554074, "name": "Juneau City and Borough", "state": "AK", "country": "US", "coord": {"lon": -134.333328, "lat": 58.416672}}, {"id": 5554419, "name": "Beach", "state": "ND", "country": "US", "coord": {"lon": -104.004372, "lat": 46.918072}}, {"id": 5554428, "name": "Ketchikan", "state": "AK", "country": "US", "coord": {"lon": -131.646103, "lat": 55.34222}}, {"id": 5554432, "name": "Ketchikan Gateway Borough", "state": "AK", "country": "US", "coord": {"lon": -131.416672, "lat": 55.500561}}, {"id": 5555083, "name": "Little Cottonwood Creek Valley", "state": "UT", "country": "US", "coord": {"lon": -111.829376, "lat": 40.604389}}, {"id": 5555097, "name": "Salem", "state": "UT", "country": "US", "coord": {"lon": -111.673538, "lat": 40.053009}}, {"id": 5555129, "name": "Wellsville", "state": "UT", "country": "US", "coord": {"lon": -111.93383, "lat": 41.638538}}, {"id": 5555235, "name": "Lea Hill", "state": "WA", "country": "US", "coord": {"lon": -122.181511, "lat": 47.32621}}, {"id": 5555312, "name": "Loring", "state": "AK", "country": "US", "coord": {"lon": -131.636108, "lat": 55.602501}}, {"id": 5555513, "name": "West Laramie", "state": "WY", "country": "US", "coord": {"lon": -105.620552, "lat": 41.308868}}, {"id": 5555695, "name": "Metlakatla", "state": "AK", "country": "US", "coord": {"lon": -131.57222, "lat": 55.129169}}, {"id": 5555942, "name": "Naukati Bay", "state": "AK", "country": "US", "coord": {"lon": -133.184723, "lat": 55.873611}}, {"id": 5555998, "name": "Niblack (historical)", "state": "AK", "country": "US", "coord": {"lon": -132.145279, "lat": 55.06694}}, {"id": 5556338, "name": "Petersburg", "state": "AK", "country": "US", "coord": {"lon": -132.955566, "lat": 56.8125}}, {"id": 5556484, "name": "Port Armstrong", "state": "AK", "country": "US", "coord": {"lon": -134.661667, "lat": 56.29694}}, {"id": 5556487, "name": "Port Higgins", "state": "AK", "country": "US", "coord": {"lon": -131.816666, "lat": 55.450001}}, {"id": 5556829, "name": "Rowan Bay", "state": "AK", "country": "US", "coord": {"lon": -134.251114, "lat": 56.653889}}, {"id": 5557293, "name": "Sitka", "state": "AK", "country": "US", "coord": {"lon": -135.330002, "lat": 57.053059}}, {"id": 5557295, "name": "Sitka City and Borough", "state": "AK", "country": "US", "coord": {"lon": -135.333328, "lat": 57.166672}}, {"id": 5557906, "name": "Thane", "state": "AK", "country": "US", "coord": {"lon": -134.330276, "lat": 58.264172}}, {"id": 5558405, "name": "West Juneau", "state": "AK", "country": "US", "coord": {"lon": -134.429443, "lat": 58.294998}}, {"id": 5558586, "name": "Wrangell", "state": "AK", "country": "US", "coord": {"lon": -132.376663, "lat": 56.470829}}, {"id": 5558599, "name": "Wrangell-Petersburg Census Area (historical)", "state": "AK", "country": "US", "coord": {"lon": -133.000565, "lat": 56.500561}}, {"id": 5558615, "name": "Yakutat", "state": "AK", "country": "US", "coord": {"lon": -139.727219, "lat": 59.54694}}, {"id": 5558618, "name": "Yakutat City and Borough", "state": "AK", "country": "US", "coord": {"lon": -139.133331, "lat": 59.666672}}, {"id": 5558829, "name": "Alturas", "state": "CA", "country": "US", "coord": {"lon": -120.542458, "lat": 41.48711}}, {"id": 5558857, "name": "Anderson", "state": "CA", "country": "US", "coord": {"lon": -122.297783, "lat": 40.448212}}, {"id": 5558953, "name": "Arcata", "state": "CA", "country": "US", "coord": {"lon": -124.08284, "lat": 40.86652}}, {"id": 5559320, "name": "Bayside", "state": "CA", "country": "US", "coord": {"lon": -124.063667, "lat": 40.84235}}, {"id": 5559327, "name": "Bayview", "state": "CA", "country": "US", "coord": {"lon": -124.183952, "lat": 40.772629}}, {"id": 5559575, "name": "Bella Vista", "state": "CA", "country": "US", "coord": {"lon": -122.232498, "lat": 40.640709}}, {"id": 5560020, "name": "Blue Lake", "state": "CA", "country": "US", "coord": {"lon": -123.983948, "lat": 40.882912}}, {"id": 5560368, "name": "Brooks Mill", "state": "CA", "country": "US", "coord": {"lon": -120.310783, "lat": 41.279339}}, {"id": 5560570, "name": "Bull Creek", "state": "CA", "country": "US", "coord": {"lon": -124.026428, "lat": 40.33569}}, {"id": 5560655, "name": "Burney", "state": "CA", "country": "US", "coord": {"lon": -121.66082, "lat": 40.882381}}, {"id": 5561194, "name": "Central Valley (historical)", "state": "CA", "country": "US", "coord": {"lon": -122.371117, "lat": 40.680431}}, {"id": 5561279, "name": "Chester", "state": "CA", "country": "US", "coord": {"lon": -121.231911, "lat": 40.306271}}, {"id": 5561455, "name": "Clam Beach", "state": "CA", "country": "US", "coord": {"lon": -124.112007, "lat": 40.994572}}, {"id": 5561894, "name": "Cottonwood", "state": "CA", "country": "US", "coord": {"lon": -122.280838, "lat": 40.385712}}, {"id": 5562087, "name": "Crescent City", "state": "CA", "country": "US", "coord": {"lon": -124.201752, "lat": 41.755951}}, {"id": 5562199, "name": "Cutten", "state": "CA", "country": "US", "coord": {"lon": -124.142838, "lat": 40.769852}}, {"id": 5562484, "name": "Del Norte County", "state": "CA", "country": "US", "coord": {"lon": -123.901176, "lat": 41.699841}}, {"id": 5562961, "name": "Dunsmuir", "state": "CA", "country": "US", "coord": {"lon": -122.27195, "lat": 41.20821}}, {"id": 5563397, "name": "Eureka", "state": "CA", "country": "US", "coord": {"lon": -124.163673, "lat": 40.802071}}, {"id": 5563573, "name": "Ferndale", "state": "CA", "country": "US", "coord": {"lon": -124.263939, "lat": 40.576241}}, {"id": 5563839, "name": "Fortuna", "state": "CA", "country": "US", "coord": {"lon": -124.15728, "lat": 40.59819}}, {"id": 5564102, "name": "Gas Point", "state": "CA", "country": "US", "coord": {"lon": -122.534462, "lat": 40.415428}}, {"id": 5564132, "name": "Gerber", "state": "CA", "country": "US", "coord": {"lon": -122.150269, "lat": 40.056271}}, {"id": 5564488, "name": "Greenville", "state": "CA", "country": "US", "coord": {"lon": -120.951073, "lat": 40.13961}}, {"id": 5564730, "name": "Happy Camp", "state": "CA", "country": "US", "coord": {"lon": -123.379501, "lat": 41.793179}}, {"id": 5564893, "name": "Hayfork", "state": "CA", "country": "US", "coord": {"lon": -123.183083, "lat": 40.55431}}, {"id": 5565253, "name": "Honeydew", "state": "CA", "country": "US", "coord": {"lon": -124.122818, "lat": 40.244308}}, {"id": 5565500, "name": "Humboldt County", "state": "CA", "country": "US", "coord": {"lon": -123.917831, "lat": 40.666519}}, {"id": 5565511, "name": "Humboldt Hill", "state": "CA", "country": "US", "coord": {"lon": -124.189781, "lat": 40.72596}}, {"id": 5565589, "name": "Hydesville", "state": "CA", "country": "US", "coord": {"lon": -124.097267, "lat": 40.54763}}, {"id": 5565862, "name": "Janesville", "state": "CA", "country": "US", "coord": {"lon": -120.524109, "lat": 40.296558}}, {"id": 5566004, "name": "Johnstonville", "state": "CA", "country": "US", "coord": {"lon": -120.587448, "lat": 40.384338}}, {"id": 5566285, "name": "Khoonkhwuttunne (historical)", "state": "CA", "country": "US", "coord": {"lon": -124.20314, "lat": 41.948448}}, {"id": 5566544, "name": "Lassen County", "state": "CA", "country": "US", "coord": {"lon": -120.584396, "lat": 40.666561}}, {"id": 5566668, "name": "Lewiston", "state": "CA", "country": "US", "coord": {"lon": -122.807518, "lat": 40.707371}}, {"id": 5567220, "name": "Los Molinos", "state": "CA", "country": "US", "coord": {"lon": -122.100273, "lat": 40.021271}}, {"id": 5567687, "name": "McCloud", "state": "CA", "country": "US", "coord": {"lon": -122.13945, "lat": 41.255711}}, {"id": 5567770, "name": "McKinleyville", "state": "CA", "country": "US", "coord": {"lon": -124.100616, "lat": 40.946522}}, {"id": 5568120, "name": "Modoc County", "state": "CA", "country": "US", "coord": {"lon": -120.734413, "lat": 41.566559}}, {"id": 5568152, "name": "Montague", "state": "CA", "country": "US", "coord": {"lon": -122.527802, "lat": 41.728199}}, {"id": 5568295, "name": "Mount Shasta", "state": "CA", "country": "US", "coord": {"lon": -122.31057, "lat": 41.309872}}, {"id": 5568514, "name": "Myrtletown", "state": "CA", "country": "US", "coord": {"lon": -124.130341, "lat": 40.788738}}, {"id": 5569157, "name": "Palo Cedro", "state": "CA", "country": "US", "coord": {"lon": -122.238892, "lat": 40.563759}}, {"id": 5569523, "name": "Pine Hills", "state": "CA", "country": "US", "coord": {"lon": -124.152283, "lat": 40.733181}}, {"id": 5570062, "name": "Red Bank", "state": "CA", "country": "US", "coord": {"lon": -122.445282, "lat": 40.099319}}, {"id": 5570065, "name": "Red Bluff", "state": "CA", "country": "US", "coord": {"lon": -122.235832, "lat": 40.17849}}, {"id": 5570160, "name": "Redding", "state": "CA", "country": "US", "coord": {"lon": -122.391678, "lat": 40.58654}}, {"id": 5570171, "name": "Redway", "state": "CA", "country": "US", "coord": {"lon": -123.823357, "lat": 40.12014}}, {"id": 5570299, "name": "Rio Dell", "state": "CA", "country": "US", "coord": {"lon": -124.106438, "lat": 40.499298}}, {"id": 5571092, "name": "Shasta", "state": "CA", "country": "US", "coord": {"lon": -122.491959, "lat": 40.599319}}, {"id": 5571096, "name": "Shasta County", "state": "CA", "country": "US", "coord": {"lon": -122.034439, "lat": 40.766541}}, {"id": 5571109, "name": "Shasta Lake", "state": "CA", "country": "US", "coord": {"lon": -122.370842, "lat": 40.680431}}, {"id": 5571232, "name": "Shingletown", "state": "CA", "country": "US", "coord": {"lon": -121.88916, "lat": 40.492378}}, {"id": 5571369, "name": "Siskiyou County", "state": "CA", "country": "US", "coord": {"lon": -122.517799, "lat": 41.583199}}, {"id": 5572400, "name": "Susanville", "state": "CA", "country": "US", "coord": {"lon": -120.653008, "lat": 40.416279}}, {"id": 5572575, "name": "Tehama County", "state": "CA", "country": "US", "coord": {"lon": -122.301109, "lat": 40.133209}}, {"id": 5572979, "name": "Tulelake", "state": "CA", "country": "US", "coord": {"lon": -121.477493, "lat": 41.95599}}, {"id": 5573443, "name": "Weaverville", "state": "CA", "country": "US", "coord": {"lon": -122.941971, "lat": 40.73098}}, {"id": 5573449, "name": "Weed", "state": "CA", "country": "US", "coord": {"lon": -122.386131, "lat": 41.422649}}, {"id": 5573576, "name": "Westwood", "state": "CA", "country": "US", "coord": {"lon": -121.005791, "lat": 40.306}}, {"id": 5573817, "name": "Willow Creek", "state": "CA", "country": "US", "coord": {"lon": -123.631439, "lat": 40.939579}}, {"id": 5574093, "name": "Yreka", "state": "CA", "country": "US", "coord": {"lon": -122.634468, "lat": 41.73542}}, {"id": 5574199, "name": "Akron", "state": "CO", "country": "US", "coord": {"lon": -103.214378, "lat": 40.160542}}, {"id": 5574267, "name": "Alvin", "state": "CO", "country": "US", "coord": {"lon": -102.075737, "lat": 40.30777}}, {"id": 5574298, "name": "Angora", "state": "CO", "country": "US", "coord": {"lon": -108.575661, "lat": 40.17664}}, {"id": 5574368, "name": "Aristocrat Ranchettes", "state": "CO", "country": "US", "coord": {"lon": -104.762466, "lat": 40.10915}}, {"id": 5574410, "name": "Ault", "state": "CO", "country": "US", "coord": {"lon": -104.731911, "lat": 40.582481}}, {"id": 5574704, "name": "Berthoud", "state": "CO", "country": "US", "coord": {"lon": -105.081093, "lat": 40.308319}}, {"id": 5574991, "name": "Boulder", "state": "CO", "country": "US", "coord": {"lon": -105.270554, "lat": 40.014992}}, {"id": 5574999, "name": "Boulder County", "state": "CO", "country": "US", "coord": {"lon": -105.350548, "lat": 40.083321}}, {"id": 5575194, "name": "Brush", "state": "CO", "country": "US", "coord": {"lon": -103.62384, "lat": 40.258869}}, {"id": 5575478, "name": "Campion", "state": "CO", "country": "US", "coord": {"lon": -105.077759, "lat": 40.34943}}, {"id": 5575788, "name": "Cloverly", "state": "CO", "country": "US", "coord": {"lon": -104.62635, "lat": 40.45665}}, {"id": 5576064, "name": "Craig", "state": "CO", "country": "US", "coord": {"lon": -107.546448, "lat": 40.515251}}, {"id": 5576103, "name": "Crisman", "state": "CO", "country": "US", "coord": {"lon": -105.361382, "lat": 40.040821}}, {"id": 5576177, "name": "Dacono", "state": "CO", "country": "US", "coord": {"lon": -104.939423, "lat": 40.084709}}, {"id": 5576690, "name": "Eaton", "state": "CO", "country": "US", "coord": {"lon": -104.711349, "lat": 40.530258}}, {"id": 5576859, "name": "Erie", "state": "CO", "country": "US", "coord": {"lon": -105.04998, "lat": 40.050259}}, {"id": 5576882, "name": "Estes Park", "state": "CO", "country": "US", "coord": {"lon": -105.521667, "lat": 40.377209}}, {"id": 5576909, "name": "Evans", "state": "CO", "country": "US", "coord": {"lon": -104.692192, "lat": 40.376369}}, {"id": 5577008, "name": "Firestone", "state": "CO", "country": "US", "coord": {"lon": -104.936638, "lat": 40.11248}}, {"id": 5577147, "name": "Fort Collins", "state": "CO", "country": "US", "coord": {"lon": -105.084419, "lat": 40.585258}}, {"id": 5577153, "name": "Fort Lupton", "state": "CO", "country": "US", "coord": {"lon": -104.813026, "lat": 40.084709}}, {"id": 5577158, "name": "Fort Morgan", "state": "CO", "country": "US", "coord": {"lon": -103.79995, "lat": 40.250259}}, {"id": 5577217, "name": "Frederick", "state": "CO", "country": "US", "coord": {"lon": -104.937202, "lat": 40.099152}}, {"id": 5577350, "name": "Gilcrest", "state": "CO", "country": "US", "coord": {"lon": -104.777748, "lat": 40.281929}}, {"id": 5577409, "name": "Glendale", "state": "CO", "country": "US", "coord": {"lon": -105.366379, "lat": 40.081928}}, {"id": 5577467, "name": "Gooding", "state": "CO", "country": "US", "coord": {"lon": -105.083038, "lat": 40.073601}}, {"id": 5577516, "name": "Granby", "state": "CO", "country": "US", "coord": {"lon": -105.939461, "lat": 40.086102}}, {"id": 5577529, "name": "Grand County", "state": "CO", "country": "US", "coord": {"lon": -106.083908, "lat": 40.06665}}, {"id": 5577592, "name": "Greeley", "state": "CO", "country": "US", "coord": {"lon": -104.709129, "lat": 40.423309}}, {"id": 5577864, "name": "Hayden", "state": "CO", "country": "US", "coord": {"lon": -107.257294, "lat": 40.495289}}, {"id": 5578099, "name": "Holyoke", "state": "CO", "country": "US", "coord": {"lon": -102.302406, "lat": 40.584438}}, {"id": 5578171, "name": "Hot Sulphur Springs", "state": "CO", "country": "US", "coord": {"lon": -106.102798, "lat": 40.07304}}, {"id": 5578235, "name": "Hudson", "state": "CO", "country": "US", "coord": {"lon": -104.643021, "lat": 40.073589}}, {"id": 5578251, "name": "Hygiene", "state": "CO", "country": "US", "coord": {"lon": -105.180817, "lat": 40.188599}}, {"id": 5578418, "name": "Jackson County", "state": "CO", "country": "US", "coord": {"lon": -106.333923, "lat": 40.666641}}, {"id": 5578536, "name": "Johnstown", "state": "CO", "country": "US", "coord": {"lon": -104.912201, "lat": 40.336929}}, {"id": 5578567, "name": "Julesburg", "state": "CO", "country": "US", "coord": {"lon": -102.264351, "lat": 40.988331}}, {"id": 5578653, "name": "Keenesburg", "state": "CO", "country": "US", "coord": {"lon": -104.519958, "lat": 40.108318}}, {"id": 5578683, "name": "Kersey", "state": "CO", "country": "US", "coord": {"lon": -104.56163, "lat": 40.387482}}, {"id": 5578775, "name": "Kremmling", "state": "CO", "country": "US", "coord": {"lon": -106.388924, "lat": 40.058868}}, {"id": 5578793, "name": "La Salle", "state": "CO", "country": "US", "coord": {"lon": -104.701912, "lat": 40.348869}}, {"id": 5578877, "name": "Laporte", "state": "CO", "country": "US", "coord": {"lon": -105.137756, "lat": 40.626369}}, {"id": 5578884, "name": "Larimer County", "state": "CO", "country": "US", "coord": {"lon": -105.467209, "lat": 40.666649}}, {"id": 5579170, "name": "Lochbuie", "state": "CO", "country": "US", "coord": {"lon": -104.71608, "lat": 40.00721}}, {"id": 5579185, "name": "Logan County", "state": "CO", "country": "US", "coord": {"lon": -103.117149, "lat": 40.71666}}, {"id": 5579276, "name": "Longmont", "state": "CO", "country": "US", "coord": {"lon": -105.101929, "lat": 40.16721}}, {"id": 5579368, "name": "Loveland", "state": "CO", "country": "US", "coord": {"lon": -105.074982, "lat": 40.397758}}, {"id": 5579453, "name": "Lyons", "state": "CO", "country": "US", "coord": {"lon": -105.271378, "lat": 40.224709}}, {"id": 5579611, "name": "Masonville", "state": "CO", "country": "US", "coord": {"lon": -105.210823, "lat": 40.48748}}, {"id": 5579737, "name": "Mead", "state": "CO", "country": "US", "coord": {"lon": -104.998589, "lat": 40.233318}}, {"id": 5579761, "name": "Meeker", "state": "CO", "country": "US", "coord": {"lon": -107.913132, "lat": 40.037472}}, {"id": 5579899, "name": "Milliken", "state": "CO", "country": "US", "coord": {"lon": -104.855247, "lat": 40.32943}}, {"id": 5580305, "name": "Niwot", "state": "CO", "country": "US", "coord": {"lon": -105.170822, "lat": 40.10387}}, {"id": 5580548, "name": "Old Homestead", "state": "CO", "country": "US", "coord": {"lon": -106.143631, "lat": 40.440262}}, {"id": 5580569, "name": "Olympus Heights", "state": "CO", "country": "US", "coord": {"lon": -105.483887, "lat": 40.377762}}, {"id": 5580914, "name": "Pinneo", "state": "CO", "country": "US", "coord": {"lon": -103.438553, "lat": 40.209419}}, {"id": 5580947, "name": "Platteville", "state": "CO", "country": "US", "coord": {"lon": -104.822746, "lat": 40.214981}}, {"id": 5581213, "name": "Rangely", "state": "CO", "country": "US", "coord": {"lon": -108.804832, "lat": 40.087479}}, {"id": 5581329, "name": "Redmond", "state": "CO", "country": "US", "coord": {"lon": -105.04081, "lat": 40.47887}}, {"id": 5581845, "name": "Severance", "state": "CO", "country": "US", "coord": {"lon": -104.851082, "lat": 40.524151}}, {"id": 5582068, "name": "Sloan", "state": "CO", "country": "US", "coord": {"lon": -104.488007, "lat": 40.051651}}, {"id": 5582371, "name": "Steamboat Springs", "state": "CO", "country": "US", "coord": {"lon": -106.831718, "lat": 40.484982}}, {"id": 5582392, "name": "Sterling", "state": "CO", "country": "US", "coord": {"lon": -103.20771, "lat": 40.625542}}, {"id": 5583139, "name": "Walden", "state": "CO", "country": "US", "coord": {"lon": -106.283638, "lat": 40.73164}}, {"id": 5583173, "name": "Ward", "state": "CO", "country": "US", "coord": {"lon": -105.508331, "lat": 40.072208}}, {"id": 5583239, "name": "Weld County", "state": "CO", "country": "US", "coord": {"lon": -104.533852, "lat": 40.633308}}, {"id": 5583250, "name": "Wellington", "state": "CO", "country": "US", "coord": {"lon": -105.008591, "lat": 40.703869}}, {"id": 5583509, "name": "Windsor", "state": "CO", "country": "US", "coord": {"lon": -104.90136, "lat": 40.477482}}, {"id": 5583657, "name": "Yuma", "state": "CO", "country": "US", "coord": {"lon": -102.725212, "lat": 40.122211}}, {"id": 5583714, "name": "Aberdeen", "state": "ID", "country": "US", "coord": {"lon": -112.838333, "lat": 42.94408}}, {"id": 5583739, "name": "Ada County", "state": "ID", "country": "US", "coord": {"lon": -116.126221, "lat": 43.416561}}, {"id": 5583814, "name": "Albion", "state": "ID", "country": "US", "coord": {"lon": -113.578056, "lat": 42.412689}}, {"id": 5583981, "name": "American Falls", "state": "ID", "country": "US", "coord": {"lon": -112.854439, "lat": 42.786018}}, {"id": 5583997, "name": "Ammon", "state": "ID", "country": "US", "coord": {"lon": -111.966637, "lat": 43.469639}}, {"id": 5584200, "name": "Arco", "state": "ID", "country": "US", "coord": {"lon": -113.300278, "lat": 43.63657}}, {"id": 5584299, "name": "Ashton", "state": "ID", "country": "US", "coord": {"lon": -111.448288, "lat": 44.071579}}, {"id": 5584508, "name": "Baker", "state": "ID", "country": "US", "coord": {"lon": -113.734512, "lat": 45.09465}}, {"id": 5584639, "name": "Bannock County", "state": "ID", "country": "US", "coord": {"lon": -112.212189, "lat": 42.650749}}, {"id": 5585000, "name": "Bear Lake County", "state": "ID", "country": "US", "coord": {"lon": -111.313538, "lat": 42.312431}}, {"id": 5585010, "name": "Bear Lake Sands", "state": "ID", "country": "US", "coord": {"lon": -111.253532, "lat": 42.051601}}, {"id": 5585265, "name": "Bellevue", "state": "ID", "country": "US", "coord": {"lon": -114.260597, "lat": 43.46352}}, {"id": 5585304, "name": "Benewah County", "state": "ID", "country": "US", "coord": {"lon": -116.626282, "lat": 47.208241}}, {"id": 5585826, "name": "Bingham County", "state": "ID", "country": "US", "coord": {"lon": -112.311638, "lat": 43.17408}}, {"id": 5586093, "name": "Blackfoot", "state": "ID", "country": "US", "coord": {"lon": -112.344978, "lat": 43.190472}}]