[{"id": 5125295, "name": "Lorenz Park", "state": "NY", "country": "US", "coord": {"lon": -73.768463, "lat": 42.263699}}, {"id": 5125461, "name": "Lowville", "state": "NY", "country": "US", "coord": {"lon": -75.491852, "lat": 43.786739}}, {"id": 5125523, "name": "Lynbrook", "state": "NY", "country": "US", "coord": {"lon": -73.671799, "lat": 40.654831}}, {"id": 5125529, "name": "Lyncourt", "state": "NY", "country": "US", "coord": {"lon": -76.125763, "lat": 43.081459}}, {"id": 5125554, "name": "Lyons", "state": "NY", "country": "US", "coord": {"lon": -76.99025, "lat": 43.064232}}, {"id": 5125591, "name": "Macedon", "state": "NY", "country": "US", "coord": {"lon": -77.298866, "lat": 43.069229}}, {"id": 5125657, "name": "Mahopac", "state": "NY", "country": "US", "coord": {"lon": -73.733459, "lat": 41.372318}}, {"id": 5125717, "name": "Malone", "state": "NY", "country": "US", "coord": {"lon": -74.294899, "lat": 44.84866}}, {"id": 5125734, "name": "Malverne", "state": "NY", "country": "US", "coord": {"lon": -73.674019, "lat": 40.678989}}, {"id": 5125738, "name": "Mamaroneck", "state": "NY", "country": "US", "coord": {"lon": -73.732628, "lat": 40.948711}}, {"id": 5125757, "name": "Manchester", "state": "NY", "country": "US", "coord": {"lon": -77.230263, "lat": 42.969791}}, {"id": 5125766, "name": "Manhasset", "state": "NY", "country": "US", "coord": {"lon": -73.69957, "lat": 40.797878}}, {"id": 5125768, "name": "Manhasset Hills", "state": "NY", "country": "US", "coord": {"lon": -73.679848, "lat": 40.75927}}, {"id": 5125771, "name": "Manhattan", "state": "NY", "country": "US", "coord": {"lon": -73.966248, "lat": 40.783428}}, {"id": 5125790, "name": "Manlius", "state": "NY", "country": "US", "coord": {"lon": -75.97686, "lat": 43.00201}}, {"id": 5125813, "name": "Manorhaven", "state": "NY", "country": "US", "coord": {"lon": -73.714851, "lat": 40.843159}}, {"id": 5125817, "name": "Manorville", "state": "NY", "country": "US", "coord": {"lon": -72.807877, "lat": 40.873711}}, {"id": 5125818, "name": "Manorville", "state": "NY", "country": "US", "coord": {"lon": -74.035973, "lat": 42.142311}}, {"id": 5125966, "name": "Marcellus", "state": "NY", "country": "US", "coord": {"lon": -76.340492, "lat": 42.982841}}, {"id": 5126015, "name": "Marion", "state": "NY", "country": "US", "coord": {"lon": -77.189148, "lat": 43.143398}}, {"id": 5126055, "name": "Marlboro", "state": "NY", "country": "US", "coord": {"lon": -73.971527, "lat": 41.605652}}, {"id": 5126183, "name": "Massapequa", "state": "NY", "country": "US", "coord": {"lon": -73.474289, "lat": 40.68066}}, {"id": 5126187, "name": "Massapequa Park", "state": "NY", "country": "US", "coord": {"lon": -73.455116, "lat": 40.680382}}, {"id": 5126194, "name": "Massena", "state": "NY", "country": "US", "coord": {"lon": -74.891861, "lat": 44.928101}}, {"id": 5126196, "name": "Massena Center", "state": "NY", "country": "US", "coord": {"lon": -74.831299, "lat": 44.960049}}, {"id": 5126208, "name": "Mastic", "state": "NY", "country": "US", "coord": {"lon": -72.840942, "lat": 40.80204}}, {"id": 5126209, "name": "Mastic Beach", "state": "NY", "country": "US", "coord": {"lon": -72.852051, "lat": 40.766769}}, {"id": 5126239, "name": "Mattituck", "state": "NY", "country": "US", "coord": {"lon": -72.534248, "lat": 40.991211}}, {"id": 5126246, "name": "Mattydale", "state": "NY", "country": "US", "coord": {"lon": -76.145203, "lat": 43.097839}}, {"id": 5126268, "name": "Maybrook", "state": "NY", "country": "US", "coord": {"lon": -74.217651, "lat": 41.483978}}, {"id": 5126287, "name": "Mayville", "state": "NY", "country": "US", "coord": {"lon": -79.504494, "lat": 42.253948}}, {"id": 5126360, "name": "McGraw", "state": "NY", "country": "US", "coord": {"lon": -76.093262, "lat": 42.59618}}, {"id": 5126509, "name": "Mechanicstown", "state": "NY", "country": "US", "coord": {"lon": -74.388489, "lat": 41.442871}}, {"id": 5126510, "name": "Mechanicville", "state": "NY", "country": "US", "coord": {"lon": -73.68734, "lat": 42.902851}}, {"id": 5126518, "name": "Medford", "state": "NY", "country": "US", "coord": {"lon": -73.000107, "lat": 40.8176}}, {"id": 5126521, "name": "Medina", "state": "NY", "country": "US", "coord": {"lon": -78.386971, "lat": 43.220058}}, {"id": 5126554, "name": "Melrose Park", "state": "NY", "country": "US", "coord": {"lon": -76.540222, "lat": 42.90868}}, {"id": 5126555, "name": "Melville", "state": "NY", "country": "US", "coord": {"lon": -73.415123, "lat": 40.79343}}, {"id": 5126588, "name": "Menands", "state": "NY", "country": "US", "coord": {"lon": -73.724564, "lat": 42.69202}}, {"id": 5126630, "name": "Merrick", "state": "NY", "country": "US", "coord": {"lon": -73.551521, "lat": 40.66288}}, {"id": 5126705, "name": "Mexico", "state": "NY", "country": "US", "coord": {"lon": -76.228821, "lat": 43.459511}}, {"id": 5126787, "name": "Middle Island", "state": "NY", "country": "US", "coord": {"lon": -72.937332, "lat": 40.88427}}, {"id": 5126828, "name": "Middleburgh", "state": "NY", "country": "US", "coord": {"lon": -74.332916, "lat": 42.59869}}, {"id": 5126836, "name": "Middleport", "state": "NY", "country": "US", "coord": {"lon": -75.559898, "lat": 42.790619}}, {"id": 5126837, "name": "Middleport", "state": "NY", "country": "US", "coord": {"lon": -78.47641, "lat": 43.212559}}, {"id": 5126842, "name": "Middletown", "state": "NY", "country": "US", "coord": {"lon": -74.422928, "lat": 41.44593}}, {"id": 5127007, "name": "Millbrook", "state": "NY", "country": "US", "coord": {"lon": -73.694023, "lat": 41.785091}}, {"id": 5127043, "name": "Miller Place", "state": "NY", "country": "US", "coord": {"lon": -72.996208, "lat": 40.95982}}, {"id": 5127098, "name": "Milton", "state": "NY", "country": "US", "coord": {"lon": -73.852623, "lat": 43.033691}}, {"id": 5127099, "name": "Milton", "state": "NY", "country": "US", "coord": {"lon": -73.957077, "lat": 41.659821}}, {"id": 5127134, "name": "Mineola", "state": "NY", "country": "US", "coord": {"lon": -73.640678, "lat": 40.749271}}, {"id": 5127147, "name": "Minetto", "state": "NY", "country": "US", "coord": {"lon": -76.47744, "lat": 43.398121}}, {"id": 5127150, "name": "Mineville", "state": "NY", "country": "US", "coord": {"lon": -73.518181, "lat": 44.092831}}, {"id": 5127179, "name": "Minoa", "state": "NY", "country": "US", "coord": {"lon": -76.000748, "lat": 43.07618}}, {"id": 5127233, "name": "Mohawk", "state": "NY", "country": "US", "coord": {"lon": -75.004044, "lat": 43.011459}}, {"id": 5127302, "name": "Monroe", "state": "NY", "country": "US", "coord": {"lon": -74.186813, "lat": 41.33065}}, {"id": 5127305, "name": "Monroe County", "state": "NY", "country": "US", "coord": {"lon": -77.68306, "lat": 43.150059}}, {"id": 5127315, "name": "Monsey", "state": "NY", "country": "US", "coord": {"lon": -74.068481, "lat": 41.11121}}, {"id": 5127321, "name": "Montauk", "state": "NY", "country": "US", "coord": {"lon": -71.954514, "lat": 41.035938}}, {"id": 5127335, "name": "Montebello", "state": "NY", "country": "US", "coord": {"lon": -74.118477, "lat": 41.135929}}, {"id": 5127353, "name": "Montgomery", "state": "NY", "country": "US", "coord": {"lon": -74.236816, "lat": 41.527592}}, {"id": 5127354, "name": "Montgomery County", "state": "NY", "country": "US", "coord": {"lon": -74.416252, "lat": 42.883411}}, {"id": 5127359, "name": "Monticello", "state": "NY", "country": "US", "coord": {"lon": -74.689331, "lat": 41.655651}}, {"id": 5127364, "name": "Montour Falls", "state": "NY", "country": "US", "coord": {"lon": -76.845238, "lat": 42.347301}}, {"id": 5127368, "name": "Montrose", "state": "NY", "country": "US", "coord": {"lon": -73.931534, "lat": 41.252319}}, {"id": 5127429, "name": "Moorhouse Corner", "state": "NY", "country": "US", "coord": {"lon": -73.570953, "lat": 42.349529}}, {"id": 5127474, "name": "Moravia", "state": "NY", "country": "US", "coord": {"lon": -76.4216, "lat": 42.71257}}, {"id": 5127519, "name": "Moriches", "state": "NY", "country": "US", "coord": {"lon": -72.821213, "lat": 40.80732}}, {"id": 5127555, "name": "Morrisonville", "state": "NY", "country": "US", "coord": {"lon": -73.56208, "lat": 44.6931}}, {"id": 5127561, "name": "Morrisville", "state": "NY", "country": "US", "coord": {"lon": -75.640182, "lat": 42.898682}}, {"id": 5127741, "name": "Mount Ivy", "state": "NY", "country": "US", "coord": {"lon": -74.034859, "lat": 41.18676}}, {"id": 5127744, "name": "Mount Kisco", "state": "NY", "country": "US", "coord": {"lon": -73.727081, "lat": 41.204262}}, {"id": 5127766, "name": "Mount Morris", "state": "NY", "country": "US", "coord": {"lon": -77.874168, "lat": 42.72562}}, {"id": 5127824, "name": "Mount Sinai", "state": "NY", "country": "US", "coord": {"lon": -73.029549, "lat": 40.947041}}, {"id": 5127835, "name": "Mount Vernon", "state": "NY", "country": "US", "coord": {"lon": -73.837082, "lat": 40.912601}}, {"id": 5127890, "name": "Mountain Lodge Park", "state": "NY", "country": "US", "coord": {"lon": -74.141808, "lat": 41.388432}}, {"id": 5128148, "name": "Mundale", "state": "NY", "country": "US", "coord": {"lon": -75.049606, "lat": 42.25481}}, {"id": 5128156, "name": "Munsey Park", "state": "NY", "country": "US", "coord": {"lon": -73.679848, "lat": 40.79871}}, {"id": 5128163, "name": "Munsons Corners", "state": "NY", "country": "US", "coord": {"lon": -76.209099, "lat": 42.582291}}, {"id": 5128238, "name": "Myers Corner", "state": "NY", "country": "US", "coord": {"lon": -73.87291, "lat": 41.606201}}, {"id": 5128241, "name": "Muttontown", "state": "NY", "country": "US", "coord": {"lon": -73.54763, "lat": 40.82399}}, {"id": 5128266, "name": "Nanuet", "state": "NY", "country": "US", "coord": {"lon": -74.013474, "lat": 41.088711}}, {"id": 5128267, "name": "Napanoch", "state": "NY", "country": "US", "coord": {"lon": -74.371536, "lat": 41.74398}}, {"id": 5128276, "name": "Naples", "state": "NY", "country": "US", "coord": {"lon": -77.402489, "lat": 42.615349}}, {"id": 5128313, "name": "Nassau", "state": "NY", "country": "US", "coord": {"lon": -73.610123, "lat": 42.515911}}, {"id": 5128316, "name": "Nassau County", "state": "NY", "country": "US", "coord": {"lon": -73.582901, "lat": 40.75066}}, {"id": 5128368, "name": "Nedrow", "state": "NY", "country": "US", "coord": {"lon": -76.141312, "lat": 42.975071}}, {"id": 5128433, "name": "Nesconset", "state": "NY", "country": "US", "coord": {"lon": -73.153999, "lat": 40.852039}}, {"id": 5128465, "name": "New Berlin", "state": "NY", "country": "US", "coord": {"lon": -75.331558, "lat": 42.624241}}, {"id": 5128474, "name": "New Britain (historical)", "state": "NY", "country": "US", "coord": {"lon": -73.48983, "lat": 42.4548}}, {"id": 5128478, "name": "New Cassel", "state": "NY", "country": "US", "coord": {"lon": -73.569572, "lat": 40.758991}}, {"id": 5128481, "name": "New City", "state": "NY", "country": "US", "coord": {"lon": -73.989311, "lat": 41.147598}}, {"id": 5128503, "name": "New Hartford", "state": "NY", "country": "US", "coord": {"lon": -75.287666, "lat": 43.073399}}, {"id": 5128514, "name": "New Hyde Park", "state": "NY", "country": "US", "coord": {"lon": -73.687912, "lat": 40.7351}}, {"id": 5128515, "name": "New Ireland", "state": "NY", "country": "US", "coord": {"lon": -75.954086, "lat": 42.178692}}, {"id": 5128539, "name": "New Paltz", "state": "NY", "country": "US", "coord": {"lon": -74.086807, "lat": 41.747589}}, {"id": 5128549, "name": "New Rochelle", "state": "NY", "country": "US", "coord": {"lon": -73.782349, "lat": 40.911491}}, {"id": 5128568, "name": "New Square", "state": "NY", "country": "US", "coord": {"lon": -74.029419, "lat": 41.139561}}, {"id": 5128577, "name": "New Windsor", "state": "NY", "country": "US", "coord": {"lon": -74.02375, "lat": 41.476761}}, {"id": 5128581, "name": "New York City", "state": "NY", "country": "US", "coord": {"lon": -74.005966, "lat": 40.714272}}, {"id": 5128594, "name": "New York County", "state": "NY", "country": "US", "coord": {"lon": -73.966248, "lat": 40.783428}}, {"id": 5128616, "name": "New York Mills", "state": "NY", "country": "US", "coord": {"lon": -75.291283, "lat": 43.10535}}, {"id": 5128638, "name": "New York", "state": "NY", "country": "US", "coord": {"lon": -75.499901, "lat": 43.000351}}, {"id": 5128639, "name": "Newark", "state": "NY", "country": "US", "coord": {"lon": -77.095253, "lat": 43.04673}}, {"id": 5128654, "name": "Newburgh", "state": "NY", "country": "US", "coord": {"lon": -74.010422, "lat": 41.503429}}, {"id": 5128670, "name": "Newfane", "state": "NY", "country": "US", "coord": {"lon": -78.710312, "lat": 43.28672}}, {"id": 5128715, "name": "Newville", "state": "NY", "country": "US", "coord": {"lon": -74.825706, "lat": 42.97646}}, {"id": 5128723, "name": "Niagara Falls", "state": "NY", "country": "US", "coord": {"lon": -79.056709, "lat": 43.094501}}, {"id": 5128734, "name": "Niagara County", "state": "NY", "country": "US", "coord": {"lon": -78.766418, "lat": 43.166721}}, {"id": 5128824, "name": "Niskayuna", "state": "NY", "country": "US", "coord": {"lon": -73.84568, "lat": 42.7798}}, {"id": 5128827, "name": "Nissequogue", "state": "NY", "country": "US", "coord": {"lon": -73.197891, "lat": 40.903992}}, {"id": 5128833, "name": "Niverville", "state": "NY", "country": "US", "coord": {"lon": -73.66095, "lat": 42.440922}}, {"id": 5128862, "name": "Norfolk", "state": "NY", "country": "US", "coord": {"lon": -74.991028, "lat": 44.800892}}, {"id": 5128884, "name": "North Amityville", "state": "NY", "country": "US", "coord": {"lon": -73.425117, "lat": 40.697601}}, {"id": 5128886, "name": "North Babylon", "state": "NY", "country": "US", "coord": {"lon": -73.321793, "lat": 40.716492}}, {"id": 5128898, "name": "North Bay Shore", "state": "NY", "country": "US", "coord": {"lon": -73.262619, "lat": 40.73621}}, {"id": 5128904, "name": "North Bellmore", "state": "NY", "country": "US", "coord": {"lon": -73.533463, "lat": 40.69149}}, {"id": 5128905, "name": "North Bellport", "state": "NY", "country": "US", "coord": {"lon": -72.942879, "lat": 40.774269}}, {"id": 5128914, "name": "North Boston", "state": "NY", "country": "US", "coord": {"lon": -78.776703, "lat": 42.685619}}, {"id": 5128920, "name": "North Beach", "state": "NY", "country": "US", "coord": {"lon": -73.875969, "lat": 40.765942}}, {"id": 5128996, "name": "North Collins", "state": "NY", "country": "US", "coord": {"lon": -78.941147, "lat": 42.595341}}, {"id": 5129017, "name": "North Croghan Crossing", "state": "NY", "country": "US", "coord": {"lon": -75.496857, "lat": 44.03479}}, {"id": 5129029, "name": "North Elba", "state": "NY", "country": "US", "coord": {"lon": -73.954308, "lat": 44.243382}}, {"id": 5129050, "name": "North Gates", "state": "NY", "country": "US", "coord": {"lon": -77.701393, "lat": 43.176449}}, {"id": 5129057, "name": "North Great River", "state": "NY", "country": "US", "coord": {"lon": -73.169838, "lat": 40.747318}}, {"id": 5129093, "name": "North Hills", "state": "NY", "country": "US", "coord": {"lon": -73.676521, "lat": 40.78093}}, {"id": 5129125, "name": "North Lindenhurst", "state": "NY", "country": "US", "coord": {"lon": -73.381508, "lat": 40.714272}}, {"id": 5129134, "name": "North Massapequa", "state": "NY", "country": "US", "coord": {"lon": -73.462067, "lat": 40.700932}}, {"id": 5129141, "name": "North Merrick", "state": "NY", "country": "US", "coord": {"lon": -73.563179, "lat": 40.691212}}, {"id": 5129147, "name": "North New Hyde Park", "state": "NY", "country": "US", "coord": {"lon": -73.693192, "lat": 40.74316}}, {"id": 5129157, "name": "North Patchogue", "state": "NY", "country": "US", "coord": {"lon": -73.009003, "lat": 40.787041}}, {"id": 5129210, "name": "North Sea", "state": "NY", "country": "US", "coord": {"lon": -72.414253, "lat": 40.93288}}, {"id": 5129242, "name": "North Syracuse", "state": "NY", "country": "US", "coord": {"lon": -76.129921, "lat": 43.134789}}, {"id": 5129245, "name": "North Tonawanda", "state": "NY", "country": "US", "coord": {"lon": -78.864197, "lat": 43.03867}}, {"id": 5129248, "name": "North Valley Stream", "state": "NY", "country": "US", "coord": {"lon": -73.701797, "lat": 40.685101}}, {"id": 5129254, "name": "North Wantagh", "state": "NY", "country": "US", "coord": {"lon": -73.507629, "lat": 40.693432}}, {"id": 5129290, "name": "Northport", "state": "NY", "country": "US", "coord": {"lon": -73.34317, "lat": 40.900928}}, {"id": 5129313, "name": "Northville", "state": "NY", "country": "US", "coord": {"lon": -74.172081, "lat": 43.225632}}, {"id": 5129314, "name": "Northville", "state": "NY", "country": "US", "coord": {"lon": -72.61898, "lat": 40.9701}}, {"id": 5129325, "name": "Northwest Harbor", "state": "NY", "country": "US", "coord": {"lon": -72.221191, "lat": 41.009819}}, {"id": 5129359, "name": "Norwich", "state": "NY", "country": "US", "coord": {"lon": -75.523514, "lat": 42.531181}}, {"id": 5129364, "name": "Norwood", "state": "NY", "country": "US", "coord": {"lon": -74.994362, "lat": 44.75145}}, {"id": 5129395, "name": "Noyack", "state": "NY", "country": "US", "coord": {"lon": -72.341187, "lat": 40.995659}}, {"id": 5129425, "name": "Nunda", "state": "NY", "country": "US", "coord": {"lon": -77.942497, "lat": 42.57951}}, {"id": 5129433, "name": "Nyack", "state": "NY", "country": "US", "coord": {"lon": -73.917908, "lat": 41.090649}}, {"id": 5129540, "name": "Oakdale", "state": "NY", "country": "US", "coord": {"lon": -73.780128, "lat": 42.251202}}, {"id": 5129541, "name": "Oakdale", "state": "NY", "country": "US", "coord": {"lon": -73.138718, "lat": 40.743992}}, {"id": 5129545, "name": "Oakfield", "state": "NY", "country": "US", "coord": {"lon": -78.269737, "lat": 43.065891}}, {"id": 5129603, "name": "Oceanside", "state": "NY", "country": "US", "coord": {"lon": -73.640129, "lat": 40.63871}}, {"id": 5129626, "name": "Ogdensburg", "state": "NY", "country": "US", "coord": {"lon": -75.486343, "lat": 44.694229}}, {"id": 5129654, "name": "Olcott", "state": "NY", "country": "US", "coord": {"lon": -78.71476, "lat": 43.33783}}, {"id": 5129662, "name": "Old Bethpage", "state": "NY", "country": "US", "coord": {"lon": -73.453178, "lat": 40.7626}}, {"id": 5129665, "name": "Old Brookville", "state": "NY", "country": "US", "coord": {"lon": -73.604851, "lat": 40.832039}}, {"id": 5129770, "name": "Old Westbury", "state": "NY", "country": "US", "coord": {"lon": -73.599571, "lat": 40.788712}}, {"id": 5129780, "name": "Olean", "state": "NY", "country": "US", "coord": {"lon": -78.429741, "lat": 42.07756}}, {"id": 5129826, "name": "Onchiota", "state": "NY", "country": "US", "coord": {"lon": -74.123489, "lat": 44.494221}}, {"id": 5129832, "name": "Oneida County", "state": "NY", "country": "US", "coord": {"lon": -75.466293, "lat": 43.200069}}, {"id": 5129837, "name": "Oneida", "state": "NY", "country": "US", "coord": {"lon": -75.651291, "lat": 43.092571}}, {"id": 5129852, "name": "Oneonta", "state": "NY", "country": "US", "coord": {"lon": -75.063766, "lat": 42.452862}}, {"id": 5129867, "name": "Onondaga County", "state": "NY", "country": "US", "coord": {"lon": -76.166313, "lat": 43.000622}}, {"id": 5129887, "name": "Ontario", "state": "NY", "country": "US", "coord": {"lon": -77.283043, "lat": 43.220901}}, {"id": 5129891, "name": "Ontario County", "state": "NY", "country": "US", "coord": {"lon": -77.316368, "lat": 42.86673}}, {"id": 5129915, "name": "Orange County", "state": "NY", "country": "US", "coord": {"lon": -74.316261, "lat": 41.416759}}, {"id": 5129919, "name": "Orange Lake", "state": "NY", "country": "US", "coord": {"lon": -74.098198, "lat": 41.539822}}, {"id": 5129923, "name": "Orangeburg", "state": "NY", "country": "US", "coord": {"lon": -73.949577, "lat": 41.04649}}, {"id": 5129951, "name": "Orchard Park", "state": "NY", "country": "US", "coord": {"lon": -78.743919, "lat": 42.767559}}, {"id": 5129988, "name": "Oriskany", "state": "NY", "country": "US", "coord": {"lon": -75.332672, "lat": 43.157291}}, {"id": 5129995, "name": "Orleans County", "state": "NY", "country": "US", "coord": {"lon": -78.233078, "lat": 43.25061}}, {"id": 5130045, "name": "Ossining", "state": "NY", "country": "US", "coord": {"lon": -73.861519, "lat": 41.162868}}, {"id": 5130076, "name": "Oswego County", "state": "NY", "country": "US", "coord": {"lon": -76.149651, "lat": 43.450069}}, {"id": 5130081, "name": "Oswego", "state": "NY", "country": "US", "coord": {"lon": -76.510498, "lat": 43.455349}}, {"id": 5130084, "name": "Otego", "state": "NY", "country": "US", "coord": {"lon": -75.1735, "lat": 42.397301}}, {"id": 5130102, "name": "Otisville", "state": "NY", "country": "US", "coord": {"lon": -74.53849, "lat": 41.473431}}, {"id": 5130111, "name": "Otsego County", "state": "NY", "country": "US", "coord": {"lon": -75.016273, "lat": 42.633411}}, {"id": 5130273, "name": "Owego", "state": "NY", "country": "US", "coord": {"lon": -76.262154, "lat": 42.103409}}, {"id": 5130319, "name": "Oxford", "state": "NY", "country": "US", "coord": {"lon": -75.597687, "lat": 42.44202}}, {"id": 5130327, "name": "Oyster Bay", "state": "NY", "country": "US", "coord": {"lon": -73.532066, "lat": 40.86565}}, {"id": 5130328, "name": "Oyster Bay Cove", "state": "NY", "country": "US", "coord": {"lon": -73.510963, "lat": 40.87093}}, {"id": 5130394, "name": "Painted Post", "state": "NY", "country": "US", "coord": {"lon": -77.094139, "lat": 42.162022}}, {"id": 5130402, "name": "Palenville", "state": "NY", "country": "US", "coord": {"lon": -74.020142, "lat": 42.17453}}, {"id": 5130441, "name": "Palmyra", "state": "NY", "country": "US", "coord": {"lon": -77.233322, "lat": 43.06395}}, {"id": 5130497, "name": "Paradise Beach", "state": "NY", "country": "US", "coord": {"lon": -73.67984, "lat": 43.350632}}, {"id": 5130672, "name": "Patchogue", "state": "NY", "country": "US", "coord": {"lon": -73.015106, "lat": 40.765652}}, {"id": 5130719, "name": "Pawling", "state": "NY", "country": "US", "coord": {"lon": -73.602631, "lat": 41.562038}}, {"id": 5130748, "name": "Peach Lake", "state": "NY", "country": "US", "coord": {"lon": -73.577904, "lat": 41.367592}}, {"id": 5130780, "name": "Pearl River", "state": "NY", "country": "US", "coord": {"lon": -74.021812, "lat": 41.05899}}, {"id": 5130831, "name": "Peekskill", "state": "NY", "country": "US", "coord": {"lon": -73.920418, "lat": 41.290089}}, {"id": 5130854, "name": "Pelham", "state": "NY", "country": "US", "coord": {"lon": -73.807907, "lat": 40.909821}}, {"id": 5130862, "name": "Pelham Manor", "state": "NY", "country": "US", "coord": {"lon": -73.807083, "lat": 40.895378}}, {"id": 5130915, "name": "Penn Yan", "state": "NY", "country": "US", "coord": {"lon": -77.053864, "lat": 42.6609}}, {"id": 5130979, "name": "Perry", "state": "NY", "country": "US", "coord": {"lon": -78.005562, "lat": 42.715618}}, {"id": 5130986, "name": "Perry Mills", "state": "NY", "country": "US", "coord": {"lon": -73.506248, "lat": 45.00032}}, {"id": 5131009, "name": "Peru", "state": "NY", "country": "US", "coord": {"lon": -73.526802, "lat": 44.578381}}, {"id": 5131010, "name": "Peru", "state": "NY", "country": "US", "coord": {"lon": -76.40799, "lat": 43.082291}}, {"id": 5131073, "name": "Phelps", "state": "NY", "country": "US", "coord": {"lon": -77.057472, "lat": 42.957561}}, {"id": 5131095, "name": "Philadelphia", "state": "NY", "country": "US", "coord": {"lon": -75.708817, "lat": 44.154499}}, {"id": 5131121, "name": "Philmont", "state": "NY", "country": "US", "coord": {"lon": -73.653183, "lat": 42.248421}}, {"id": 5131135, "name": "Phoenix", "state": "NY", "country": "US", "coord": {"lon": -76.300758, "lat": 43.231178}}, {"id": 5131248, "name": "Piermont", "state": "NY", "country": "US", "coord": {"lon": -73.91819, "lat": 41.042042}}, {"id": 5131321, "name": "Pine Bush", "state": "NY", "country": "US", "coord": {"lon": -74.299042, "lat": 41.60815}}, {"id": 5131457, "name": "Pine Plains", "state": "NY", "country": "US", "coord": {"lon": -73.65596, "lat": 41.979809}}, {"id": 5131614, "name": "Pittsford", "state": "NY", "country": "US", "coord": {"lon": -77.514999, "lat": 43.090618}}, {"id": 5131628, "name": "Plainedge", "state": "NY", "country": "US", "coord": {"lon": -73.483742, "lat": 40.717319}}, {"id": 5131638, "name": "Plainview", "state": "NY", "country": "US", "coord": {"lon": -73.467346, "lat": 40.776489}}, {"id": 5131642, "name": "Plandome", "state": "NY", "country": "US", "coord": {"lon": -73.703461, "lat": 40.80677}}, {"id": 5131643, "name": "Plandome Heights", "state": "NY", "country": "US", "coord": {"lon": -73.7043, "lat": 40.802601}}, {"id": 5131671, "name": "Plattekill", "state": "NY", "country": "US", "coord": {"lon": -74.075981, "lat": 41.617592}}, {"id": 5131692, "name": "Plattsburgh", "state": "NY", "country": "US", "coord": {"lon": -73.452911, "lat": 44.69949}}, {"id": 5131725, "name": "Pleasant Valley", "state": "NY", "country": "US", "coord": {"lon": -73.821243, "lat": 41.744541}}, {"id": 5131757, "name": "Pleasantville", "state": "NY", "country": "US", "coord": {"lon": -73.792633, "lat": 41.13287}}, {"id": 5131826, "name": "Poestenkill", "state": "NY", "country": "US", "coord": {"lon": -73.56456, "lat": 42.690361}}, {"id": 5131837, "name": "Point Lookout", "state": "NY", "country": "US", "coord": {"lon": -73.580681, "lat": 40.592331}}, {"id": 5131894, "name": "Pomona", "state": "NY", "country": "US", "coord": {"lon": -74.043198, "lat": 41.167042}}, {"id": 5132001, "name": "Port Byron", "state": "NY", "country": "US", "coord": {"lon": -76.623833, "lat": 43.034512}}, {"id": 5132002, "name": "Port Chester", "state": "NY", "country": "US", "coord": {"lon": -73.66568, "lat": 41.001759}}, {"id": 5132005, "name": "Port Dickinson", "state": "NY", "country": "US", "coord": {"lon": -75.896309, "lat": 42.133411}}, {"id": 5132008, "name": "Port Ewen", "state": "NY", "country": "US", "coord": {"lon": -73.97625, "lat": 41.905369}}, {"id": 5132011, "name": "Port Henry", "state": "NY", "country": "US", "coord": {"lon": -73.459846, "lat": 44.048389}}, {"id": 5132013, "name": "Port Jefferson", "state": "NY", "country": "US", "coord": {"lon": -73.069267, "lat": 40.946491}}, {"id": 5132015, "name": "Port Jefferson Station", "state": "NY", "country": "US", "coord": {"lon": -73.047333, "lat": 40.925381}}, {"id": 5132016, "name": "Port Jervis", "state": "NY", "country": "US", "coord": {"lon": -74.692657, "lat": 41.375092}}, {"id": 5132029, "name": "Port Washington", "state": "NY", "country": "US", "coord": {"lon": -73.698189, "lat": 40.825661}}, {"id": 5132030, "name": "Port Washington North", "state": "NY", "country": "US", "coord": {"lon": -73.701797, "lat": 40.844818}}, {"id": 5132065, "name": "Portville", "state": "NY", "country": "US", "coord": {"lon": -78.340851, "lat": 42.038681}}, {"id": 5132103, "name": "Potsdam", "state": "NY", "country": "US", "coord": {"lon": -74.981308, "lat": 44.669781}}, {"id": 5132143, "name": "Poughkeepsie", "state": "NY", "country": "US", "coord": {"lon": -73.920967, "lat": 41.700371}}, {"id": 5133084, "name": "Pulaski", "state": "NY", "country": "US", "coord": {"lon": -76.127701, "lat": 43.567009}}, {"id": 5133098, "name": "Pulteney", "state": "NY", "country": "US", "coord": {"lon": -77.167198, "lat": 42.52507}}, {"id": 5133171, "name": "Putnam Lake", "state": "NY", "country": "US", "coord": {"lon": -73.546242, "lat": 41.46204}}, {"id": 5133268, "name": "Queens County", "state": "NY", "country": "US", "coord": {"lon": -73.799583, "lat": 40.7001}}, {"id": 5133279, "name": "Queensbury", "state": "NY", "country": "US", "coord": {"lon": -73.613167, "lat": 43.377289}}, {"id": 5133416, "name": "Randolph", "state": "NY", "country": "US", "coord": {"lon": -78.975319, "lat": 42.161999}}, {"id": 5133419, "name": "Ransomville", "state": "NY", "country": "US", "coord": {"lon": -78.90976, "lat": 43.23867}}, {"id": 5133423, "name": "Rapids", "state": "NY", "country": "US", "coord": {"lon": -78.640862, "lat": 43.098389}}, {"id": 5133471, "name": "Ravena", "state": "NY", "country": "US", "coord": {"lon": -73.816238, "lat": 42.46841}}, {"id": 5133545, "name": "Red Hook", "state": "NY", "country": "US", "coord": {"lon": -73.875412, "lat": 41.99509}}, {"id": 5133576, "name": "Red Oaks Mill", "state": "NY", "country": "US", "coord": {"lon": -73.874863, "lat": 41.655651}}, {"id": 5133667, "name": "Rensselaer", "state": "NY", "country": "US", "coord": {"lon": -73.742897, "lat": 42.642578}}, {"id": 5133668, "name": "Rensselaer County", "state": "NY", "country": "US", "coord": {"lon": -73.482887, "lat": 42.716751}}, {"id": 5133742, "name": "Rhinebeck", "state": "NY", "country": "US", "coord": {"lon": -73.912643, "lat": 41.926762}}, {"id": 5133795, "name": "Richfield Springs", "state": "NY", "country": "US", "coord": {"lon": -74.985428, "lat": 42.853409}}, {"id": 5133832, "name": "Ridge", "state": "NY", "country": "US", "coord": {"lon": -72.895943, "lat": 40.89399}}, {"id": 5133926, "name": "Riverhead", "state": "NY", "country": "US", "coord": {"lon": -72.662041, "lat": 40.917042}}, {"id": 5133934, "name": "Riverside", "state": "NY", "country": "US", "coord": {"lon": -72.677872, "lat": 40.88121}}, {"id": 5134086, "name": "Rochester", "state": "NY", "country": "US", "coord": {"lon": -77.615562, "lat": 43.154781}}, {"id": 5134115, "name": "Rock Hill", "state": "NY", "country": "US", "coord": {"lon": -74.597656, "lat": 41.625931}}, {"id": 5134189, "name": "Rockland County", "state": "NY", "country": "US", "coord": {"lon": -74.049591, "lat": 41.166759}}, {"id": 5134203, "name": "Rockville Centre", "state": "NY", "country": "US", "coord": {"lon": -73.641243, "lat": 40.65871}}, {"id": 5134235, "name": "Rocky Point", "state": "NY", "country": "US", "coord": {"lon": -72.925377, "lat": 40.952599}}, {"id": 5134295, "name": "Rome", "state": "NY", "country": "US", "coord": {"lon": -75.455727, "lat": 43.212849}}, {"id": 5134316, "name": "Ronkonkoma", "state": "NY", "country": "US", "coord": {"lon": -73.112328, "lat": 40.81538}}, {"id": 5134323, "name": "Roosevelt", "state": "NY", "country": "US", "coord": {"lon": -73.58902, "lat": 40.678711}}, {"id": 5134415, "name": "Roslyn", "state": "NY", "country": "US", "coord": {"lon": -73.650963, "lat": 40.79982}}, {"id": 5134417, "name": "Roslyn Estates", "state": "NY", "country": "US", "coord": {"lon": -73.660408, "lat": 40.79427}}, {"id": 5134419, "name": "Roslyn Harbor", "state": "NY", "country": "US", "coord": {"lon": -73.63707, "lat": 40.81649}}, {"id": 5134420, "name": "Roslyn Heights", "state": "NY", "country": "US", "coord": {"lon": -73.647346, "lat": 40.788712}}, {"id": 5134453, "name": "Rotterdam", "state": "NY", "country": "US", "coord": {"lon": -73.970963, "lat": 42.787022}}, {"id": 5134565, "name": "Rouses Point", "state": "NY", "country": "US", "coord": {"lon": -73.364861, "lat": 44.993931}}, {"id": 5134693, "name": "Rye", "state": "NY", "country": "US", "coord": {"lon": -73.683739, "lat": 40.980652}}, {"id": 5134696, "name": "Rye Brook", "state": "NY", "country": "US", "coord": {"lon": -73.683456, "lat": 41.01926}}, {"id": 5134736, "name": "Sackets Harbor", "state": "NY", "country": "US", "coord": {"lon": -76.119087, "lat": 43.946171}}, {"id": 5134800, "name": "Sag Harbor", "state": "NY", "country": "US", "coord": {"lon": -72.29258, "lat": 40.997879}}, {"id": 5134820, "name": "Sages Crossing", "state": "NY", "country": "US", "coord": {"lon": -75.334892, "lat": 42.58535}}, {"id": 5135192, "name": "Saint James", "state": "NY", "country": "US", "coord": {"lon": -73.156776, "lat": 40.87899}}, {"id": 5135356, "name": "Saint Johnsville", "state": "NY", "country": "US", "coord": {"lon": -74.682922, "lat": 42.998131}}, {"id": 5135484, "name": "St. Lawrence County", "state": "NY", "country": "US", "coord": {"lon": -75.11631, "lat": 44.500622}}, {"id": 5136088, "name": "Salamanca", "state": "NY", "country": "US", "coord": {"lon": -78.715027, "lat": 42.157841}}, {"id": 5136107, "name": "Salisbury", "state": "NY", "country": "US", "coord": {"lon": -73.560127, "lat": 40.745659}}, {"id": 5136177, "name": "Sanborn", "state": "NY", "country": "US", "coord": {"lon": -78.884758, "lat": 43.136719}}, {"id": 5136245, "name": "Sands Point", "state": "NY", "country": "US", "coord": {"lon": -73.718742, "lat": 40.851768}}, {"id": 5136322, "name": "Saranac Lake", "state": "NY", "country": "US", "coord": {"lon": -74.131271, "lat": 44.329498}}, {"id": 5136325, "name": "Saratoga County", "state": "NY", "country": "US", "coord": {"lon": -73.849571, "lat": 43.100071}}, {"id": 5136334, "name": "Saratoga Springs", "state": "NY", "country": "US", "coord": {"lon": -73.784569, "lat": 43.08313}}, {"id": 5136353, "name": "Saugerties", "state": "NY", "country": "US", "coord": {"lon": -73.952911, "lat": 42.077591}}, {"id": 5136421, "name": "Sayville", "state": "NY", "country": "US", "coord": {"lon": -73.082062, "lat": 40.735931}}, {"id": 5136433, "name": "Scarsdale", "state": "NY", "country": "US", "coord": {"lon": -73.784576, "lat": 41.0051}}, {"id": 5136454, "name": "Schenectady", "state": "NY", "country": "US", "coord": {"lon": -73.939568, "lat": 42.81424}}, {"id": 5136456, "name": "Schenectady County", "state": "NY", "country": "US", "coord": {"lon": -74.082901, "lat": 42.833408}}, {"id": 5136494, "name": "Schoharie", "state": "NY", "country": "US", "coord": {"lon": -74.309578, "lat": 42.665909}}, {"id": 5136495, "name": "Schoharie County", "state": "NY", "country": "US", "coord": {"lon": -74.466248, "lat": 42.566738}}, {"id": 5137368, "name": "Schuyler County", "state": "NY", "country": "US", "coord": {"lon": -76.883011, "lat": 42.41674}}, {"id": 5137380, "name": "Schuylerville", "state": "NY", "country": "US", "coord": {"lon": -73.581779, "lat": 43.100079}}, {"id": 5137397, "name": "Scipio Center", "state": "NY", "country": "US", "coord": {"lon": -76.559113, "lat": 42.78368}}, {"id": 5137421, "name": "Scotchtown", "state": "NY", "country": "US", "coord": {"lon": -74.360153, "lat": 41.48148}}, {"id": 5137423, "name": "Scotia", "state": "NY", "country": "US", "coord": {"lon": -73.964287, "lat": 42.826469}}, {"id": 5137454, "name": "Scottsville", "state": "NY", "country": "US", "coord": {"lon": -77.745277, "lat": 43.025902}}, {"id": 5137484, "name": "Sea Cliff", "state": "NY", "country": "US", "coord": {"lon": -73.644852, "lat": 40.848991}}, {"id": 5137507, "name": "Seaford", "state": "NY", "country": "US", "coord": {"lon": -73.488182, "lat": 40.665932}}, {"id": 5137517, "name": "Searingtown", "state": "NY", "country": "US", "coord": {"lon": -73.655678, "lat": 40.774818}}, {"id": 5137600, "name": "Selden", "state": "NY", "country": "US", "coord": {"lon": -73.03566, "lat": 40.866489}}, {"id": 5137620, "name": "Seneca County", "state": "NY", "country": "US", "coord": {"lon": -76.849678, "lat": 42.783401}}, {"id": 5137622, "name": "Seneca Falls", "state": "NY", "country": "US", "coord": {"lon": -76.796623, "lat": 42.910622}}, {"id": 5137631, "name": "Seneca Knolls", "state": "NY", "country": "US", "coord": {"lon": -76.286324, "lat": 43.120071}}, {"id": 5137762, "name": "Shamrock", "state": "NY", "country": "US", "coord": {"lon": -76.361603, "lat": 42.900902}}, {"id": 5137842, "name": "Sheenwater", "state": "NY", "country": "US", "coord": {"lon": -79.015877, "lat": 42.995331}}, {"id": 5137894, "name": "Shelter Island", "state": "NY", "country": "US", "coord": {"lon": -72.338692, "lat": 41.06815}}, {"id": 5137895, "name": "Shelter Island Heights", "state": "NY", "country": "US", "coord": {"lon": -72.355919, "lat": 41.083988}}, {"id": 5137909, "name": "Shenorock", "state": "NY", "country": "US", "coord": {"lon": -73.73819, "lat": 41.33176}}, {"id": 5137925, "name": "Sherburne", "state": "NY", "country": "US", "coord": {"lon": -75.498512, "lat": 42.678131}}, {"id": 5137957, "name": "Sherrill", "state": "NY", "country": "US", "coord": {"lon": -75.598244, "lat": 43.073681}}, {"id": 5138007, "name": "Shinnecock Hills", "state": "NY", "country": "US", "coord": {"lon": -72.463699, "lat": 40.89093}}, {"id": 5138022, "name": "Shirley", "state": "NY", "country": "US", "coord": {"lon": -72.867599, "lat": 40.801491}}, {"id": 5138029, "name": "Shokan", "state": "NY", "country": "US", "coord": {"lon": -74.21209, "lat": 41.973431}}, {"id": 5138071, "name": "Shortsville", "state": "NY", "country": "US", "coord": {"lon": -77.22081, "lat": 42.955898}}, {"id": 5138077, "name": "Shrub Oak", "state": "NY", "country": "US", "coord": {"lon": -73.81958, "lat": 41.327591}}, {"id": 5138113, "name": "Sidney", "state": "NY", "country": "US", "coord": {"lon": -75.391571, "lat": 42.3148}}, {"id": 5138151, "name": "Silver Creek", "state": "NY", "country": "US", "coord": {"lon": -79.16671, "lat": 42.544231}}, {"id": 5138286, "name": "Skaneateles", "state": "NY", "country": "US", "coord": {"lon": -76.4291, "lat": 42.94701}}, {"id": 5138371, "name": "Sleepy Hollow", "state": "NY", "country": "US", "coord": {"lon": -73.858467, "lat": 41.085651}}, {"id": 5138409, "name": "Sloan", "state": "NY", "country": "US", "coord": {"lon": -78.793922, "lat": 42.893391}}, {"id": 5138414, "name": "Sloatsburg", "state": "NY", "country": "US", "coord": {"lon": -74.192917, "lat": 41.154541}}, {"id": 5138539, "name": "Smithtown", "state": "NY", "country": "US", "coord": {"lon": -73.200668, "lat": 40.85593}}, {"id": 5138652, "name": "Sodus", "state": "NY", "country": "US", "coord": {"lon": -77.061363, "lat": 43.237839}}, {"id": 5138674, "name": "Solvay", "state": "NY", "country": "US", "coord": {"lon": -76.207428, "lat": 43.058121}}, {"id": 5138704, "name": "Sound Beach", "state": "NY", "country": "US", "coord": {"lon": -72.96788, "lat": 40.956211}}, {"id": 5138811, "name": "South Corning", "state": "NY", "country": "US", "coord": {"lon": -77.037193, "lat": 42.121738}}, {"id": 5138836, "name": "South Fallsburg", "state": "NY", "country": "US", "coord": {"lon": -74.634331, "lat": 41.72065}}, {"id": 5138837, "name": "South Farmingdale", "state": "NY", "country": "US", "coord": {"lon": -73.440117, "lat": 40.720661}}, {"id": 5138840, "name": "South Floral Park", "state": "NY", "country": "US", "coord": {"lon": -73.700127, "lat": 40.714272}}, {"id": 5138846, "name": "South Gilboa Station", "state": "NY", "country": "US", "coord": {"lon": -74.562653, "lat": 42.410912}}, {"id": 5138847, "name": "South Glens Falls", "state": "NY", "country": "US", "coord": {"lon": -73.635117, "lat": 43.29924}}, {"id": 5138869, "name": "South Hempstead", "state": "NY", "country": "US", "coord": {"lon": -73.61541, "lat": 40.680939}}, {"id": 5138884, "name": "South Hill", "state": "NY", "country": "US", "coord": {"lon": -76.494942, "lat": 42.429241}}, {"id": 5138892, "name": "South Huntington", "state": "NY", "country": "US", "coord": {"lon": -73.398727, "lat": 40.823711}}, {"id": 5138918, "name": "South Lockport", "state": "NY", "country": "US", "coord": {"lon": -78.696701, "lat": 43.150059}}, {"id": 5138935, "name": "South New Berlin", "state": "NY", "country": "US", "coord": {"lon": -75.385178, "lat": 42.529518}}, {"id": 5138940, "name": "South Nyack", "state": "NY", "country": "US", "coord": {"lon": -73.920143, "lat": 41.083149}}, {"id": 5139015, "name": "South Valley Stream", "state": "NY", "country": "US", "coord": {"lon": -73.717628, "lat": 40.655941}}, {"id": 5139023, "name": "South Westerlo", "state": "NY", "country": "US", "coord": {"lon": -74.027077, "lat": 42.447861}}, {"id": 5139030, "name": "Southampton", "state": "NY", "country": "US", "coord": {"lon": -72.389526, "lat": 40.88427}}, {"id": 5139054, "name": "Southold", "state": "NY", "country": "US", "coord": {"lon": -72.426201, "lat": 41.064819}}, {"id": 5139058, "name": "Southport", "state": "NY", "country": "US", "coord": {"lon": -76.819122, "lat": 42.054798}}, {"id": 5139084, "name": "Spackenkill", "state": "NY", "country": "US", "coord": {"lon": -73.913467, "lat": 41.65593}}, {"id": 5139097, "name": "Sparkill", "state": "NY", "country": "US", "coord": {"lon": -73.927078, "lat": 41.031212}}, {"id": 5139102, "name": "Sparrow Bush", "state": "NY", "country": "US", "coord": {"lon": -74.723221, "lat": 41.400089}}, {"id": 5139152, "name": "Spencerport", "state": "NY", "country": "US", "coord": {"lon": -77.803902, "lat": 43.186451}}, {"id": 5139294, "name": "Springs", "state": "NY", "country": "US", "coord": {"lon": -72.159241, "lat": 41.016209}}, {"id": 5139298, "name": "Springville", "state": "NY", "country": "US", "coord": {"lon": -78.667252, "lat": 42.5084}}, {"id": 5139301, "name": "Spring Valley", "state": "NY", "country": "US", "coord": {"lon": -74.043747, "lat": 41.113152}}, {"id": 5139399, "name": "Saint Bonaventure", "state": "NY", "country": "US", "coord": {"lon": -78.475021, "lat": 42.080341}}, {"id": 5139428, "name": "Stamford", "state": "NY", "country": "US", "coord": {"lon": -74.614319, "lat": 42.407299}}, {"id": 5139656, "name": "Steuben County", "state": "NY", "country": "US", "coord": {"lon": -77.333038, "lat": 42.266739}}, {"id": 5139698, "name": "Stewart Manor", "state": "NY", "country": "US", "coord": {"lon": -73.688461, "lat": 40.719269}}, {"id": 5139732, "name": "Stillwater", "state": "NY", "country": "US", "coord": {"lon": -73.653168, "lat": 42.938412}}, {"id": 5139832, "name": "Stone Ridge", "state": "NY", "country": "US", "coord": {"lon": -74.13903, "lat": 41.853149}}, {"id": 5139865, "name": "Stony Brook", "state": "NY", "country": "US", "coord": {"lon": -73.140938, "lat": 40.925652}}, {"id": 5139927, "name": "Stony Point", "state": "NY", "country": "US", "coord": {"lon": -73.987083, "lat": 41.229542}}, {"id": 5139942, "name": "Stoodley Corners", "state": "NY", "country": "US", "coord": {"lon": -73.933182, "lat": 42.868961}}, {"id": 5139953, "name": "Stottville", "state": "NY", "country": "US", "coord": {"lon": -73.738731, "lat": 42.286201}}, {"id": 5140072, "name": "Suffern", "state": "NY", "country": "US", "coord": {"lon": -74.14959, "lat": 41.114819}}, {"id": 5140076, "name": "Suffolk County", "state": "NY", "country": "US", "coord": {"lon": -72.799553, "lat": 40.866772}}, {"id": 5140135, "name": "Sullivan County", "state": "NY", "country": "US", "coord": {"lon": -74.782944, "lat": 41.700089}}, {"id": 5140390, "name": "Sylvan Beach", "state": "NY", "country": "US", "coord": {"lon": -77.108299, "lat": 42.46479}}, {"id": 5140402, "name": "Syosset", "state": "NY", "country": "US", "coord": {"lon": -73.502068, "lat": 40.82621}}, {"id": 5140405, "name": "Syracuse", "state": "NY", "country": "US", "coord": {"lon": -76.147423, "lat": 43.048119}}, {"id": 5140532, "name": "Tappan", "state": "NY", "country": "US", "coord": {"lon": -73.947357, "lat": 41.022041}}, {"id": 5140538, "name": "Tarrytown", "state": "NY", "country": "US", "coord": {"lon": -73.858749, "lat": 41.07621}}, {"id": 5140694, "name": "Terryville", "state": "NY", "country": "US", "coord": {"lon": -73.065109, "lat": 40.908989}}, {"id": 5140789, "name": "Thiells", "state": "NY", "country": "US", "coord": {"lon": -74.017639, "lat": 41.210651}}, {"id": 5140849, "name": "Thomaston", "state": "NY", "country": "US", "coord": {"lon": -73.713737, "lat": 40.786209}}, {"id": 5140895, "name": "Thornwood", "state": "NY", "country": "US", "coord": {"lon": -73.779022, "lat": 41.123428}}, {"id": 5141002, "name": "Ticonderoga", "state": "NY", "country": "US", "coord": {"lon": -73.423447, "lat": 43.848671}}, {"id": 5141025, "name": "Tillson", "state": "NY", "country": "US", "coord": {"lon": -74.068481, "lat": 41.828979}}, {"id": 5141037, "name": "Tinker Tavern Corner", "state": "NY", "country": "US", "coord": {"lon": -76.127983, "lat": 43.506741}}, {"id": 5141045, "name": "Tioga County", "state": "NY", "country": "US", "coord": {"lon": -76.266319, "lat": 42.16674}}, {"id": 5141073, "name": "Tivoli", "state": "NY", "country": "US", "coord": {"lon": -73.909302, "lat": 42.058418}}, {"id": 5141153, "name": "Tompkins County", "state": "NY", "country": "US", "coord": {"lon": -76.466331, "lat": 42.450069}}, {"id": 5141175, "name": "Tonawanda", "state": "NY", "country": "US", "coord": {"lon": -78.880318, "lat": 43.020329}}, {"id": 5141246, "name": "Town Line", "state": "NY", "country": "US", "coord": {"lon": -78.577797, "lat": 42.89061}}, {"id": 5141366, "name": "Tribes Hill", "state": "NY", "country": "US", "coord": {"lon": -74.285133, "lat": 42.955349}}, {"id": 5141502, "name": "Troy", "state": "NY", "country": "US", "coord": {"lon": -73.691788, "lat": 42.728409}}, {"id": 5141508, "name": "Trumansburg", "state": "NY", "country": "US", "coord": {"lon": -76.666061, "lat": 42.54229}}, {"id": 5141527, "name": "Tuckahoe", "state": "NY", "country": "US", "coord": {"lon": -72.410919, "lat": 40.898991}}, {"id": 5141528, "name": "Tuckahoe", "state": "NY", "country": "US", "coord": {"lon": -73.827362, "lat": 40.950378}}, {"id": 5141580, "name": "Tupper Lake", "state": "NY", "country": "US", "coord": {"lon": -74.464058, "lat": 44.223949}}, {"id": 5141775, "name": "Tyrone", "state": "NY", "country": "US", "coord": {"lon": -77.058296, "lat": 42.408131}}, {"id": 5141784, "name": "Ulster County", "state": "NY", "country": "US", "coord": {"lon": -74.250153, "lat": 41.88343}}, {"id": 5141796, "name": "Unadilla", "state": "NY", "country": "US", "coord": {"lon": -75.312401, "lat": 42.325359}}, {"id": 5141797, "name": "Unadilla Center", "state": "NY", "country": "US", "coord": {"lon": -75.308777, "lat": 42.404251}}, {"id": 5141912, "name": "Union Springs", "state": "NY", "country": "US", "coord": {"lon": -76.693283, "lat": 42.83979}}, {"id": 5141927, "name": "Uniondale", "state": "NY", "country": "US", "coord": {"lon": -73.592911, "lat": 40.700378}}, {"id": 5141962, "name": "University Gardens", "state": "NY", "country": "US", "coord": {"lon": -73.722633, "lat": 40.777321}}, {"id": 5141978, "name": "Upper Benson", "state": "NY", "country": "US", "coord": {"lon": -74.33625, "lat": 43.249241}}, {"id": 5141980, "name": "Upper Brookville", "state": "NY", "country": "US", "coord": {"lon": -73.565132, "lat": 40.838711}}, {"id": 5142011, "name": "Upper Nyack", "state": "NY", "country": "US", "coord": {"lon": -73.920143, "lat": 41.10704}}, {"id": 5142056, "name": "Utica", "state": "NY", "country": "US", "coord": {"lon": -75.232658, "lat": 43.100899}}, {"id": 5142073, "name": "Vails Gate", "state": "NY", "country": "US", "coord": {"lon": -74.05764, "lat": 41.454262}}, {"id": 5142075, "name": "Valatie", "state": "NY", "country": "US", "coord": {"lon": -73.673172, "lat": 42.413422}}, {"id": 5142090, "name": "Valhalla", "state": "NY", "country": "US", "coord": {"lon": -73.775131, "lat": 41.074821}}, {"id": 5142101, "name": "Valley Cottage", "state": "NY", "country": "US", "coord": {"lon": -73.955421, "lat": 41.118149}}, {"id": 5142109, "name": "Valley Stream", "state": "NY", "country": "US", "coord": {"lon": -73.708458, "lat": 40.664268}}, {"id": 5142171, "name": "Van Hornesville", "state": "NY", "country": "US", "coord": {"lon": -74.827652, "lat": 42.895069}}, {"id": 5142269, "name": "Vernon", "state": "NY", "country": "US", "coord": {"lon": -75.539337, "lat": 43.07951}}, {"id": 5142287, "name": "Verplanck", "state": "NY", "country": "US", "coord": {"lon": -73.959862, "lat": 41.252869}}, {"id": 5142315, "name": "Victor", "state": "NY", "country": "US", "coord": {"lon": -77.408882, "lat": 42.982559}}, {"id": 5142343, "name": "Village Green", "state": "NY", "country": "US", "coord": {"lon": -76.312988, "lat": 43.1334}}, {"id": 5142351, "name": "Village of the Branch", "state": "NY", "country": "US", "coord": {"lon": -73.187332, "lat": 40.856209}}, {"id": 5142362, "name": "Viola", "state": "NY", "country": "US", "coord": {"lon": -74.082359, "lat": 41.136478}}, {"id": 5142415, "name": "Voorheesville", "state": "NY", "country": "US", "coord": {"lon": -73.928741, "lat": 42.653969}}, {"id": 5143022, "name": "Wading River", "state": "NY", "country": "US", "coord": {"lon": -72.8209, "lat": 40.945549}}, {"id": 5143066, "name": "Walden", "state": "NY", "country": "US", "coord": {"lon": -74.188477, "lat": 41.561199}}, {"id": 5143116, "name": "Wallkill", "state": "NY", "country": "US", "coord": {"lon": -74.184036, "lat": 41.605652}}, {"id": 5143129, "name": "Walmore", "state": "NY", "country": "US", "coord": {"lon": -78.931152, "lat": 43.121441}}, {"id": 5143156, "name": "Walton", "state": "NY", "country": "US", "coord": {"lon": -75.129341, "lat": 42.169529}}, {"id": 5143168, "name": "Walton Park", "state": "NY", "country": "US", "coord": {"lon": -74.229042, "lat": 41.309818}}, {"id": 5143186, "name": "Wampsville", "state": "NY", "country": "US", "coord": {"lon": -75.706848, "lat": 43.075352}}, {"id": 5143198, "name": "Wantagh", "state": "NY", "country": "US", "coord": {"lon": -73.510132, "lat": 40.683708}}, {"id": 5143208, "name": "Wanakah", "state": "NY", "country": "US", "coord": {"lon": -78.903091, "lat": 42.74617}}, {"id": 5143211, "name": "Wappingers Falls", "state": "NY", "country": "US", "coord": {"lon": -73.910973, "lat": 41.596481}}, {"id": 5143268, "name": "Warren County", "state": "NY", "country": "US", "coord": {"lon": -73.799568, "lat": 43.550072}}, {"id": 5143279, "name": "Warrensburg", "state": "NY", "country": "US", "coord": {"lon": -73.77623, "lat": 43.496738}}, {"id": 5143282, "name": "Warsaw", "state": "NY", "country": "US", "coord": {"lon": -78.13279, "lat": 42.740059}}, {"id": 5143285, "name": "Warwick", "state": "NY", "country": "US", "coord": {"lon": -74.359879, "lat": 41.256481}}, {"id": 5143303, "name": "Washington County", "state": "NY", "country": "US", "coord": {"lon": -73.432892, "lat": 43.333408}}, {"id": 5143308, "name": "Washington Heights", "state": "NY", "country": "US", "coord": {"lon": -74.41571, "lat": 41.470089}}, {"id": 5143323, "name": "Washington Mills", "state": "NY", "country": "US", "coord": {"lon": -75.272942, "lat": 43.050072}}, {"id": 5143344, "name": "Washingtonville", "state": "NY", "country": "US", "coord": {"lon": -74.165977, "lat": 41.427872}}, {"id": 5143364, "name": "Water Mill", "state": "", "country": "US", "coord": {"lon": -72.36203, "lat": 40.90593}}, {"id": 5143370, "name": "Waterford", "state": "NY", "country": "US", "coord": {"lon": -73.681229, "lat": 42.79258}}, {"id": 5143380, "name": "Waterloo", "state": "NY", "country": "US", "coord": {"lon": -76.86274, "lat": 42.904789}}, {"id": 5143386, "name": "Water Mill", "state": "NY", "country": "US", "coord": {"lon": -72.34758, "lat": 40.928989}}, {"id": 5143396, "name": "Watertown", "state": "NY", "country": "US", "coord": {"lon": -75.910759, "lat": 43.974781}}, {"id": 5143405, "name": "Waterville", "state": "NY", "country": "US", "coord": {"lon": -75.37989, "lat": 42.931179}}, {"id": 5143419, "name": "Watkins Glen", "state": "NY", "country": "US", "coord": {"lon": -76.873291, "lat": 42.38063}}, {"id": 5143435, "name": "Waverly", "state": "NY", "country": "US", "coord": {"lon": -76.527168, "lat": 42.010349}}, {"id": 5143455, "name": "Wayne County", "state": "NY", "country": "US", "coord": {"lon": -77.033028, "lat": 43.150059}}, {"id": 5143495, "name": "Webster", "state": "NY", "country": "US", "coord": {"lon": -77.429993, "lat": 43.212292}}, {"id": 5143527, "name": "Weedsport", "state": "NY", "country": "US", "coord": {"lon": -76.562721, "lat": 43.048679}}, {"id": 5143586, "name": "Wellsville", "state": "NY", "country": "US", "coord": {"lon": -77.948059, "lat": 42.122009}}, {"id": 5143587, "name": "Wellsville", "state": "NY", "country": "US", "coord": {"lon": -74.272346, "lat": 42.875912}}, {"id": 5143610, "name": "Wesley Hills", "state": "NY", "country": "US", "coord": {"lon": -74.069862, "lat": 41.15926}}, {"id": 5143620, "name": "West Albany", "state": "NY", "country": "US", "coord": {"lon": -73.77845, "lat": 42.683128}}, {"id": 5143630, "name": "West Babylon", "state": "NY", "country": "US", "coord": {"lon": -73.354286, "lat": 40.718159}}, {"id": 5143644, "name": "West Bay Shore", "state": "NY", "country": "US", "coord": {"lon": -73.281227, "lat": 40.70871}}, {"id": 5143730, "name": "West Cameron", "state": "NY", "country": "US", "coord": {"lon": -77.419434, "lat": 42.223961}}, {"id": 5143737, "name": "West Carthage", "state": "NY", "country": "US", "coord": {"lon": -75.615189, "lat": 43.974232}}, {"id": 5143747, "name": "West Chenango", "state": "NY", "country": "US", "coord": {"lon": -75.9627, "lat": 42.20063}}, {"id": 5143786, "name": "West Elmira", "state": "NY", "country": "US", "coord": {"lon": -76.845238, "lat": 42.078129}}, {"id": 5143789, "name": "West End", "state": "NY", "country": "US", "coord": {"lon": -75.093781, "lat": 42.468689}}, {"id": 5143817, "name": "West Glens Falls", "state": "NY", "country": "US", "coord": {"lon": -73.684013, "lat": 43.300072}}, {"id": 5143830, "name": "West Haverstraw", "state": "NY", "country": "US", "coord": {"lon": -73.98542, "lat": 41.209541}}, {"id": 5143832, "name": "West Hempstead", "state": "NY", "country": "US", "coord": {"lon": -73.650131, "lat": 40.704819}}, {"id": 5143857, "name": "West Hills", "state": "NY", "country": "US", "coord": {"lon": -73.432343, "lat": 40.816212}}, {"id": 5143862, "name": "West Hurley", "state": "NY", "country": "US", "coord": {"lon": -74.104858, "lat": 41.997311}}, {"id": 5143866, "name": "West Islip", "state": "NY", "country": "US", "coord": {"lon": -73.306229, "lat": 40.706211}}, {"id": 5143946, "name": "West Nyack", "state": "NY", "country": "US", "coord": {"lon": -73.972923, "lat": 41.096481}}, {"id": 5143966, "name": "West Point", "state": "NY", "country": "US", "coord": {"lon": -73.955971, "lat": 41.391479}}, {"id": 5143986, "name": "West Sand Lake", "state": "NY", "country": "US", "coord": {"lon": -73.608727, "lat": 42.64341}}, {"id": 5143988, "name": "West Sayville", "state": "NY", "country": "US", "coord": {"lon": -73.09761, "lat": 40.727879}}, {"id": 5143992, "name": "West Seneca", "state": "NY", "country": "US", "coord": {"lon": -78.799751, "lat": 42.85006}}, {"id": 5144040, "name": "Westbury", "state": "NY", "country": "US", "coord": {"lon": -73.587631, "lat": 40.755661}}, {"id": 5144050, "name": "Westchester County", "state": "NY", "country": "US", "coord": {"lon": -73.799583, "lat": 41.11676}}, {"id": 5144083, "name": "Westfield", "state": "NY", "country": "US", "coord": {"lon": -79.578102, "lat": 42.322281}}, {"id": 5144089, "name": "Westhampton", "state": "NY", "country": "US", "coord": {"lon": -72.666206, "lat": 40.824539}}, {"id": 5144090, "name": "Westhampton Beach", "state": "NY", "country": "US", "coord": {"lon": -72.61454, "lat": 40.803162}}, {"id": 5144097, "name": "Westmere", "state": "NY", "country": "US", "coord": {"lon": -73.868729, "lat": 42.691189}}, {"id": 5144110, "name": "Weston Mills", "state": "NY", "country": "US", "coord": {"lon": -78.37252, "lat": 42.075901}}, {"id": 5144114, "name": "Westons Mills", "state": "NY", "country": "US", "coord": {"lon": -78.377243, "lat": 42.06229}}, {"id": 5144123, "name": "Westvale", "state": "NY", "country": "US", "coord": {"lon": -76.220482, "lat": 43.047569}}, {"id": 5144182, "name": "Wheatley Heights", "state": "NY", "country": "US", "coord": {"lon": -73.369843, "lat": 40.76371}}, {"id": 5144336, "name": "White Plains", "state": "NY", "country": "US", "coord": {"lon": -73.762909, "lat": 41.033989}}, {"id": 5144375, "name": "Whitehall", "state": "NY", "country": "US", "coord": {"lon": -73.403717, "lat": 43.555618}}, {"id": 5144396, "name": "Whitesboro", "state": "NY", "country": "US", "coord": {"lon": -75.291557, "lat": 43.122009}}, {"id": 5144583, "name": "Williamson", "state": "NY", "country": "US", "coord": {"lon": -77.186089, "lat": 43.223949}}, {"id": 5144588, "name": "Williamsville", "state": "NY", "country": "US", "coord": {"lon": -78.737808, "lat": 42.963951}}, {"id": 5144606, "name": "Williston Park", "state": "NY", "country": "US", "coord": {"lon": -73.644852, "lat": 40.756489}}, {"id": 5144698, "name": "Wilson", "state": "NY", "country": "US", "coord": {"lon": -78.826149, "lat": 43.30978}}, {"id": 5144861, "name": "Wolcott", "state": "NY", "country": "US", "coord": {"lon": -76.814957, "lat": 43.220619}}, {"id": 5144947, "name": "Woodbury", "state": "NY", "country": "US", "coord": {"lon": -73.467621, "lat": 40.825649}}, {"id": 5144948, "name": "Woodbury", "state": "NY", "country": "US", "coord": {"lon": -74.10598, "lat": 41.36454}}, {"id": 5145028, "name": "Woodmere", "state": "NY", "country": "US", "coord": {"lon": -73.712631, "lat": 40.63205}}, {"id": 5145072, "name": "Woodstock", "state": "NY", "country": "US", "coord": {"lon": -74.118202, "lat": 42.04092}}, {"id": 5145094, "name": "Worcester", "state": "NY", "country": "US", "coord": {"lon": -74.750427, "lat": 42.591461}}, {"id": 5145131, "name": "Wurtsboro", "state": "NY", "country": "US", "coord": {"lon": -74.487099, "lat": 41.576759}}, {"id": 5145135, "name": "Wyandanch", "state": "NY", "country": "US", "coord": {"lon": -73.360397, "lat": 40.75399}}, {"id": 5145157, "name": "Wynantskill", "state": "NY", "country": "US", "coord": {"lon": -73.644279, "lat": 42.696751}}, {"id": 5145197, "name": "Yaphank", "state": "NY", "country": "US", "coord": {"lon": -72.917053, "lat": 40.836769}}, {"id": 5145215, "name": "Yonkers", "state": "NY", "country": "US", "coord": {"lon": -73.89875, "lat": 40.93121}}, {"id": 5145250, "name": "Yorkshire", "state": "NY", "country": "US", "coord": {"lon": -78.472801, "lat": 42.53006}}, {"id": 5145253, "name": "Yorktown Heights", "state": "NY", "country": "US", "coord": {"lon": -73.777634, "lat": 41.270931}}, {"id": 5145257, "name": "Yorkville", "state": "NY", "country": "US", "coord": {"lon": -75.271004, "lat": 43.11285}}, {"id": 5145282, "name": "Youngstown", "state": "NY", "country": "US", "coord": {"lon": -79.050049, "lat": 43.24728}}, {"id": 5145295, "name": "Zena", "state": "NY", "country": "US", "coord": {"lon": -74.076248, "lat": 42.016762}}, {"id": 5145374, "name": "Ada", "state": "OH", "country": "US", "coord": {"lon": -83.822708, "lat": 40.769501}}, {"id": 5145476, "name": "Akron", "state": "OH", "country": "US", "coord": {"lon": -81.519012, "lat": 41.08144}}, {"id": 5145576, "name": "Allen County", "state": "OH", "country": "US", "coord": {"lon": -84.083282, "lat": 40.76672}}, {"id": 5145607, "name": "Alliance", "state": "OH", "country": "US", "coord": {"lon": -81.105927, "lat": 40.91534}}, {"id": 5145695, "name": "Amherst", "state": "OH", "country": "US", "coord": {"lon": -82.222382, "lat": 41.39782}}, {"id": 5145730, "name": "Amoy", "state": "OH", "country": "US", "coord": {"lon": -82.55323, "lat": 40.828671}}, {"id": 5145770, "name": "Andover", "state": "OH", "country": "US", "coord": {"lon": -80.572304, "lat": 41.60672}}, {"id": 5145788, "name": "Anna", "state": "OH", "country": "US", "coord": {"lon": -84.172722, "lat": 40.394489}}, {"id": 5145808, "name": "Ansonia", "state": "OH", "country": "US", "coord": {"lon": -84.636902, "lat": 40.214489}}, {"id": 5145848, "name": "Antwerp", "state": "OH", "country": "US", "coord": {"lon": -84.740509, "lat": 41.181438}}, {"id": 5145894, "name": "Apple Creek", "state": "OH", "country": "US", "coord": {"lon": -81.839302, "lat": 40.75172}}, {"id": 5145938, "name": "Archbold", "state": "OH", "country": "US", "coord": {"lon": -84.307167, "lat": 41.521439}}, {"id": 5145962, "name": "Arlington", "state": "OH", "country": "US", "coord": {"lon": -83.650208, "lat": 40.893661}}, {"id": 5146055, "name": "Ashland", "state": "OH", "country": "US", "coord": {"lon": -82.318222, "lat": 40.868671}}, {"id": 5146062, "name": "Ashland County", "state": "OH", "country": "US", "coord": {"lon": -82.266548, "lat": 40.816719}}, {"id": 5146080, "name": "Ashley", "state": "OH", "country": "US", "coord": {"lon": -82.95546, "lat": 40.408951}}, {"id": 5146089, "name": "Ashtabula", "state": "OH", "country": "US", "coord": {"lon": -80.78981, "lat": 41.865051}}, {"id": 5146092, "name": "Ashtabula County", "state": "OH", "country": "US", "coord": {"lon": -80.766472, "lat": 41.700062}}, {"id": 5146223, "name": "Aultman", "state": "OH", "country": "US", "coord": {"lon": -81.417343, "lat": 40.928391}}, {"id": 5146233, "name": "Aurora", "state": "OH", "country": "US", "coord": {"lon": -81.34539, "lat": 41.317551}}, {"id": 5146256, "name": "Austintown", "state": "OH", "country": "US", "coord": {"lon": -80.764519, "lat": 41.101719}}, {"id": 5146277, "name": "Avon", "state": "OH", "country": "US", "coord": {"lon": -82.035423, "lat": 41.45171}}, {"id": 5146282, "name": "Avon Center", "state": "OH", "country": "US", "coord": {"lon": -82.019592, "lat": 41.459759}}, {"id": 5146286, "name": "Avon Lake", "state": "OH", "country": "US", "coord": {"lon": -82.028198, "lat": 41.505322}}, {"id": 5146368, "name": "Bainbridge", "state": "OH", "country": "US", "coord": {"lon": -81.339546, "lat": 41.38644}}, {"id": 5146438, "name": "Ballville", "state": "OH", "country": "US", "coord": {"lon": -83.132141, "lat": 41.327831}}, {"id": 5146491, "name": "Barberton", "state": "OH", "country": "US", "coord": {"lon": -81.605118, "lat": 41.012829}}, {"id": 5146675, "name": "Bay Village", "state": "OH", "country": "US", "coord": {"lon": -81.922081, "lat": 41.484772}}, {"id": 5146697, "name": "Beach City", "state": "OH", "country": "US", "coord": {"lon": -81.580963, "lat": 40.653118}}, {"id": 5146711, "name": "Beachwood", "state": "OH", "country": "US", "coord": {"lon": -81.508728, "lat": 41.4645}}, {"id": 5146831, "name": "Bedford", "state": "OH", "country": "US", "coord": {"lon": -81.536507, "lat": 41.393108}}, {"id": 5146840, "name": "Bedford Heights", "state": "OH", "country": "US", "coord": {"lon": -81.527344, "lat": 41.417}}, {"id": 5146906, "name": "Beechwood Trails", "state": "OH", "country": "US", "coord": {"lon": -82.650719, "lat": 40.02367}}, {"id": 5146946, "name": "Bellaire", "state": "OH", "country": "US", "coord": {"lon": -80.74231, "lat": 40.016178}}, {"id": 5146965, "name": "Bellefontaine", "state": "OH", "country": "US", "coord": {"lon": -83.759659, "lat": 40.36116}}, {"id": 5146978, "name": "Bellevue", "state": "OH", "country": "US", "coord": {"lon": -82.841583, "lat": 41.273659}}, {"id": 5147057, "name": "Bellville", "state": "OH", "country": "US", "coord": {"lon": -82.510719, "lat": 40.62006}}, {"id": 5147097, "name": "Berea", "state": "OH", "country": "US", "coord": {"lon": -81.854301, "lat": 41.366161}}, {"id": 5147302, "name": "Bethesda", "state": "OH", "country": "US", "coord": {"lon": -81.072601, "lat": 40.016178}}, {"id": 5147766, "name": "Bluffton", "state": "OH", "country": "US", "coord": {"lon": -83.888832, "lat": 40.895329}}, {"id": 5147784, "name": "Boardman", "state": "OH", "country": "US", "coord": {"lon": -80.662849, "lat": 41.024231}}, {"id": 5147840, "name": "Bolindale", "state": "OH", "country": "US", "coord": {"lon": -80.77758, "lat": 41.207279}}, {"id": 5147904, "name": "Boston Heights", "state": "OH", "country": "US", "coord": {"lon": -81.513168, "lat": 41.264778}}, {"id": 5147924, "name": "Botkins", "state": "OH", "country": "US", "coord": {"lon": -84.180496, "lat": 40.467831}}, {"id": 5147968, "name": "Bowling Green", "state": "OH", "country": "US", "coord": {"lon": -83.651321, "lat": 41.374771}}, {"id": 5148028, "name": "Bradford", "state": "OH", "country": "US", "coord": {"lon": -84.430779, "lat": 40.132271}}, {"id": 5148101, "name": "Bratenahl", "state": "OH", "country": "US", "coord": {"lon": -81.626244, "lat": 41.542549}}, {"id": 5148115, "name": "Brecksville", "state": "OH", "country": "US", "coord": {"lon": -81.626793, "lat": 41.319778}}, {"id": 5148164, "name": "Brewster", "state": "OH", "country": "US", "coord": {"lon": -81.598183, "lat": 40.707001}}, {"id": 5148192, "name": "Bridgeport", "state": "OH", "country": "US", "coord": {"lon": -80.740082, "lat": 40.06979}}, {"id": 5148226, "name": "Brilliant", "state": "OH", "country": "US", "coord": {"lon": -80.62619, "lat": 40.26479}}, {"id": 5148230, "name": "Brimfield", "state": "OH", "country": "US", "coord": {"lon": -81.346497, "lat": 41.10006}}, {"id": 5148273, "name": "Broadview Heights", "state": "OH", "country": "US", "coord": {"lon": -81.685127, "lat": 41.313938}}, {"id": 5148326, "name": "Brook Park", "state": "OH", "country": "US", "coord": {"lon": -81.804581, "lat": 41.39838}}, {"id": 5148332, "name": "Brookfield Center", "state": "OH", "country": "US", "coord": {"lon": -80.557854, "lat": 41.240608}}, {"id": 5148346, "name": "Brooklyn", "state": "OH", "country": "US", "coord": {"lon": -81.735413, "lat": 41.43977}}, {"id": 5148352, "name": "Brooklyn Heights", "state": "OH", "country": "US", "coord": {"lon": -81.688179, "lat": 41.425331}}, {"id": 5148480, "name": "Brunswick", "state": "OH", "country": "US", "coord": {"lon": -81.841797, "lat": 41.23811}}, {"id": 5148533, "name": "Bryan", "state": "OH", "country": "US", "coord": {"lon": -84.552452, "lat": 41.47477}}, {"id": 5148635, "name": "Bucyrus", "state": "OH", "country": "US", "coord": {"lon": -82.975456, "lat": 40.808392}}, {"id": 5148672, "name": "Bulah", "state": "OH", "country": "US", "coord": {"lon": -80.668411, "lat": 41.782001}}, {"id": 5148745, "name": "Burlington", "state": "OH", "country": "US", "coord": {"lon": -84.307999, "lat": 41.572269}}, {"id": 5148773, "name": "Burton", "state": "OH", "country": "US", "coord": {"lon": -81.145103, "lat": 41.470612}}, {"id": 5148855, "name": "Cadiz", "state": "OH", "country": "US", "coord": {"lon": -80.996758, "lat": 40.27285}}, {"id": 5148883, "name": "Calcutta", "state": "OH", "country": "US", "coord": {"lon": -80.576462, "lat": 40.673401}}, {"id": 5149007, "name": "Cambridge", "state": "OH", "country": "US", "coord": {"lon": -81.588463, "lat": 40.031181}}, {"id": 5149149, "name": "Campbell", "state": "OH", "country": "US", "coord": {"lon": -80.599243, "lat": 41.078388}}, {"id": 5149188, "name": "Canal Fulton", "state": "OH", "country": "US", "coord": {"lon": -81.597618, "lat": 40.889778}}, {"id": 5149205, "name": "Canfield", "state": "OH", "country": "US", "coord": {"lon": -80.76091, "lat": 41.025059}}, {"id": 5149222, "name": "Canton", "state": "OH", "country": "US", "coord": {"lon": -81.378448, "lat": 40.79895}}, {"id": 5149253, "name": "Cardington", "state": "OH", "country": "US", "coord": {"lon": -82.893509, "lat": 40.500622}}, {"id": 5149257, "name": "Carey", "state": "OH", "country": "US", "coord": {"lon": -83.382423, "lat": 40.95256}}, {"id": 5149327, "name": "Carrollton", "state": "OH", "country": "US", "coord": {"lon": -81.085648, "lat": 40.572842}}, {"id": 5149493, "name": "Celina", "state": "OH", "country": "US", "coord": {"lon": -84.570229, "lat": 40.548939}}, {"id": 5149595, "name": "Centerburg", "state": "OH", "country": "US", "coord": {"lon": -82.696281, "lat": 40.304508}}, {"id": 5149720, "name": "Chagrin Falls", "state": "OH", "country": "US", "coord": {"lon": -81.386497, "lat": 41.436161}}, {"id": 5149757, "name": "Champaign County", "state": "OH", "country": "US", "coord": {"lon": -83.766602, "lat": 40.133389}}, {"id": 5149818, "name": "Chardon", "state": "OH", "country": "US", "coord": {"lon": -81.148987, "lat": 41.61422}}, {"id": 5149937, "name": "Chesterland", "state": "OH", "country": "US", "coord": {"lon": -81.337891, "lat": 41.52227}}, {"id": 5150351, "name": "Churchill", "state": "OH", "country": "US", "coord": {"lon": -80.664803, "lat": 41.161999}}, {"id": 5150529, "name": "Cleveland", "state": "OH", "country": "US", "coord": {"lon": -81.695412, "lat": 41.4995}}, {"id": 5150600, "name": "Clinton", "state": "OH", "country": "US", "coord": {"lon": -81.630402, "lat": 40.92672}}, {"id": 5150651, "name": "Clyde", "state": "OH", "country": "US", "coord": {"lon": -82.975189, "lat": 41.304218}}, {"id": 5150725, "name": "Coldwater", "state": "OH", "country": "US", "coord": {"lon": -84.628288, "lat": 40.479771}}, {"id": 5150851, "name": "Columbiana", "state": "OH", "country": "US", "coord": {"lon": -80.693962, "lat": 40.88839}}, {"id": 5150853, "name": "Columbiana County", "state": "OH", "country": "US", "coord": {"lon": -80.750076, "lat": 40.75034}}, {"id": 5150868, "name": "Columbus Grove", "state": "OH", "country": "US", "coord": {"lon": -84.056892, "lat": 40.919498}}, {"id": 5150986, "name": "Conneaut", "state": "OH", "country": "US", "coord": {"lon": -80.554237, "lat": 41.947559}}, {"id": 5151057, "name": "Continental", "state": "OH", "country": "US", "coord": {"lon": -84.266342, "lat": 41.10033}}, {"id": 5151070, "name": "Convoy", "state": "OH", "country": "US", "coord": {"lon": -84.702744, "lat": 40.916721}}, {"id": 5151174, "name": "Cortland", "state": "OH", "country": "US", "coord": {"lon": -80.725357, "lat": 41.33033}}, {"id": 5151186, "name": "Coshocton", "state": "OH", "country": "US", "coord": {"lon": -81.859581, "lat": 40.272018}}, {"id": 5151234, "name": "Country Meadows", "state": "OH", "country": "US", "coord": {"lon": -83.508537, "lat": 41.560612}}, {"id": 5151278, "name": "Covington", "state": "OH", "country": "US", "coord": {"lon": -84.353844, "lat": 40.117271}}, {"id": 5151317, "name": "Craig Beach", "state": "OH", "country": "US", "coord": {"lon": -80.983421, "lat": 41.117001}}, {"id": 5151406, "name": "Crestline", "state": "OH", "country": "US", "coord": {"lon": -82.736572, "lat": 40.78756}}, {"id": 5151415, "name": "Creston", "state": "OH", "country": "US", "coord": {"lon": -81.893753, "lat": 40.987}}, {"id": 5151436, "name": "Cridersville", "state": "OH", "country": "US", "coord": {"lon": -84.15078, "lat": 40.654221}}, {"id": 5151577, "name": "Cummings (historical)", "state": "OH", "country": "US", "coord": {"lon": -83.492989, "lat": 41.55838}}, {"id": 5151587, "name": "Curtice", "state": "OH", "country": "US", "coord": {"lon": -83.367706, "lat": 41.618382}}, {"id": 5151606, "name": "Cuyahoga County", "state": "OH", "country": "US", "coord": {"lon": -81.666519, "lat": 41.433392}}, {"id": 5151613, "name": "Cuyahoga Falls", "state": "OH", "country": "US", "coord": {"lon": -81.484558, "lat": 41.133942}}, {"id": 5151660, "name": "Dalton", "state": "OH", "country": "US", "coord": {"lon": -81.695412, "lat": 40.798939}}, {"id": 5151688, "name": "Danville", "state": "OH", "country": "US", "coord": {"lon": -82.260162, "lat": 40.447559}}, {"id": 5151775, "name": "De Graff", "state": "OH", "country": "US", "coord": {"lon": -83.915771, "lat": 40.312}}, {"id": 5151861, "name": "Defiance", "state": "OH", "country": "US", "coord": {"lon": -84.355782, "lat": 41.284489}}, {"id": 5151865, "name": "Defiance County", "state": "OH", "country": "US", "coord": {"lon": -84.449951, "lat": 41.333382}}, {"id": 5151891, "name": "Delaware", "state": "OH", "country": "US", "coord": {"lon": -83.067963, "lat": 40.298672}}, {"id": 5151896, "name": "Delaware County", "state": "OH", "country": "US", "coord": {"lon": -83.000183, "lat": 40.266731}}, {"id": 5151941, "name": "Delphos", "state": "OH", "country": "US", "coord": {"lon": -84.341621, "lat": 40.84338}}, {"id": 5151948, "name": "Delta", "state": "OH", "country": "US", "coord": {"lon": -84.005219, "lat": 41.573662}}, {"id": 5151993, "name": "Dennison", "state": "OH", "country": "US", "coord": {"lon": -81.333717, "lat": 40.393398}}, {"id": 5152017, "name": "Deshler", "state": "OH", "country": "US", "coord": {"lon": -83.899109, "lat": 41.20755}}, {"id": 5152243, "name": "Dover", "state": "OH", "country": "US", "coord": {"lon": -81.474007, "lat": 40.520618}}, {"id": 5152278, "name": "Doylestown", "state": "OH", "country": "US", "coord": {"lon": -81.696518, "lat": 40.970051}}, {"id": 5152291, "name": "Dresden", "state": "OH", "country": "US", "coord": {"lon": -82.010689, "lat": 40.12146}}, {"id": 5152333, "name": "Dublin", "state": "OH", "country": "US", "coord": {"lon": -83.114082, "lat": 40.099232}}, {"id": 5152579, "name": "East Canton", "state": "OH", "country": "US", "coord": {"lon": -81.282608, "lat": 40.787281}}, {"id": 5152599, "name": "East Cleveland", "state": "OH", "country": "US", "coord": {"lon": -81.57901, "lat": 41.533112}}, {"id": 5152709, "name": "East Liverpool", "state": "OH", "country": "US", "coord": {"lon": -80.577293, "lat": 40.618679}}, {"id": 5152794, "name": "East Palestine", "state": "OH", "country": "US", "coord": {"lon": -80.540352, "lat": 40.83395}}, {"id": 5152833, "name": "Eastlake", "state": "OH", "country": "US", "coord": {"lon": -81.450394, "lat": 41.653938}}, {"id": 5152868, "name": "Eaton Estates", "state": "OH", "country": "US", "coord": {"lon": -82.005699, "lat": 41.308941}}, {"id": 5152935, "name": "Edgerton", "state": "OH", "country": "US", "coord": {"lon": -84.748009, "lat": 41.448662}}, {"id": 5152947, "name": "Edgewood", "state": "OH", "country": "US", "coord": {"lon": -80.772858, "lat": 41.872829}}, {"id": 5153068, "name": "Elida", "state": "OH", "country": "US", "coord": {"lon": -84.203842, "lat": 40.788658}}, {"id": 5153177, "name": "Elmore", "state": "OH", "country": "US", "coord": {"lon": -83.295761, "lat": 41.476158}}, {"id": 5153207, "name": "Elyria", "state": "OH", "country": "US", "coord": {"lon": -82.107651, "lat": 41.368382}}, {"id": 5153362, "name": "Erie County", "state": "OH", "country": "US", "coord": {"lon": -82.599899, "lat": 41.350052}}, {"id": 5153420, "name": "Euclid", "state": "OH", "country": "US", "coord": {"lon": -81.526787, "lat": 41.593102}}, {"id": 5153592, "name": "Fairlawn", "state": "OH", "country": "US", "coord": {"lon": -81.60984, "lat": 41.127831}}, {"id": 5153633, "name": "Fairport Harbor", "state": "OH", "country": "US", "coord": {"lon": -81.273987, "lat": 41.750038}}, {"id": 5153676, "name": "Fairview Lanes", "state": "", "country": "US", "coord": {"lon": -82.65435, "lat": 41.42672}}, {"id": 5153680, "name": "Fairview Park", "state": "OH", "country": "US", "coord": {"lon": -81.864304, "lat": 41.441441}}, {"id": 5153839, "name": "Fayette", "state": "OH", "country": "US", "coord": {"lon": -84.326889, "lat": 41.673382}}, {"id": 5153924, "name": "Findlay", "state": "OH", "country": "US", "coord": {"lon": -83.649933, "lat": 41.04422}}, {"id": 5154665, "name": "Flat Rock", "state": "OH", "country": "US", "coord": {"lon": -82.860191, "lat": 41.235889}}, {"id": 5154770, "name": "Forest", "state": "OH", "country": "US", "coord": {"lon": -83.510483, "lat": 40.80172}}, {"id": 5154859, "name": "Fort Loramie", "state": "OH", "country": "US", "coord": {"lon": -84.37384, "lat": 40.35144}}, {"id": 5154873, "name": "Fort Recovery", "state": "OH", "country": "US", "coord": {"lon": -84.776352, "lat": 40.412819}}, {"id": 5154884, "name": "Fort Shawnee", "state": "OH", "country": "US", "coord": {"lon": -84.137733, "lat": 40.686722}}, {"id": 5154905, "name": "Fostoria", "state": "OH", "country": "US", "coord": {"lon": -83.41687, "lat": 41.157001}}, {"id": 5155125, "name": "Frazeysburg", "state": "OH", "country": "US", "coord": {"lon": -82.119308, "lat": 40.11729}}, {"id": 5155139, "name": "Fredericktown", "state": "OH", "country": "US", "coord": {"lon": -82.540718, "lat": 40.481171}}, {"id": 5155207, "name": "Fremont", "state": "OH", "country": "US", "coord": {"lon": -83.121857, "lat": 41.35033}}, {"id": 5155393, "name": "Gahanna", "state": "OH", "country": "US", "coord": {"lon": -82.879341, "lat": 40.01923}}, {"id": 5155414, "name": "Galion", "state": "OH", "country": "US", "coord": {"lon": -82.789902, "lat": 40.733669}}, {"id": 5155438, "name": "Gambier", "state": "OH", "country": "US", "coord": {"lon": -82.397102, "lat": 40.375622}}, {"id": 5155499, "name": "Garfield Heights", "state": "OH", "country": "US", "coord": {"lon": -81.605957, "lat": 41.417}}, {"id": 5155529, "name": "Garrettsville", "state": "OH", "country": "US", "coord": {"lon": -81.096489, "lat": 41.284222}}, {"id": 5155534, "name": "Gates Mills", "state": "OH", "country": "US", "coord": {"lon": -81.40345, "lat": 41.517551}}, {"id": 5155572, "name": "Geneva", "state": "OH", "country": "US", "coord": {"lon": -80.948151, "lat": 41.80505}}, {"id": 5155587, "name": "Geneva-on-the-Lake", "state": "OH", "country": "US", "coord": {"lon": -80.953979, "lat": 41.859501}}, {"id": 5155590, "name": "Genoa", "state": "OH", "country": "US", "coord": {"lon": -81.466507, "lat": 40.782841}}, {"id": 5155710, "name": "Gibsonburg", "state": "OH", "country": "US", "coord": {"lon": -83.32048, "lat": 41.384499}}, {"id": 5155755, "name": "Girard", "state": "OH", "country": "US", "coord": {"lon": -80.701469, "lat": 41.15395}}, {"id": 5155783, "name": "Glandorf", "state": "OH", "country": "US", "coord": {"lon": -84.079109, "lat": 41.028938}}, {"id": 5155824, "name": "Glendale", "state": "OH", "country": "US", "coord": {"lon": -81.542343, "lat": 41.396999}}, {"id": 5155842, "name": "Glenmoor", "state": "OH", "country": "US", "coord": {"lon": -80.623131, "lat": 40.666168}}, {"id": 5155897, "name": "Gnadenhutten", "state": "OH", "country": "US", "coord": {"lon": -81.43428, "lat": 40.358398}}, {"id": 5156170, "name": "Grafton", "state": "OH", "country": "US", "coord": {"lon": -82.054588, "lat": 41.272549}}, {"id": 5156270, "name": "Granville", "state": "OH", "country": "US", "coord": {"lon": -82.5196, "lat": 40.068119}}, {"id": 5156371, "name": "Green", "state": "OH", "country": "US", "coord": {"lon": -81.48317, "lat": 40.945889}}, {"id": 5156409, "name": "Green Springs", "state": "OH", "country": "US", "coord": {"lon": -83.051582, "lat": 41.256161}}, {"id": 5156478, "name": "Greensburg", "state": "OH", "country": "US", "coord": {"lon": -81.464844, "lat": 40.931721}}, {"id": 5156485, "name": "Greentown", "state": "OH", "country": "US", "coord": {"lon": -81.402611, "lat": 40.927559}}, {"id": 5156493, "name": "Greenville", "state": "OH", "country": "US", "coord": {"lon": -84.633011, "lat": 40.102829}}, {"id": 5156513, "name": "Greenwich", "state": "OH", "country": "US", "coord": {"lon": -82.515732, "lat": 41.030048}}, {"id": 5156615, "name": "Guernsey County", "state": "OH", "country": "US", "coord": {"lon": -81.51651, "lat": 40.050072}}, {"id": 5156770, "name": "Hancock County", "state": "OH", "country": "US", "coord": {"lon": -83.666603, "lat": 41.01672}}, {"id": 5157064, "name": "Hartville", "state": "OH", "country": "US", "coord": {"lon": -81.331223, "lat": 40.963669}}, {"id": 5157096, "name": "Haskins", "state": "OH", "country": "US", "coord": {"lon": -83.706047, "lat": 41.464771}}, {"id": 5157262, "name": "Heath", "state": "OH", "country": "US", "coord": {"lon": -82.444603, "lat": 40.022839}}, {"id": 5157449, "name": "Hicksville", "state": "OH", "country": "US", "coord": {"lon": -84.761902, "lat": 41.29311}}, {"id": 5157497, "name": "Highland Heights", "state": "OH", "country": "US", "coord": {"lon": -81.478447, "lat": 41.551998}}, {"id": 5157502, "name": "Highland Hills", "state": "OH", "country": "US", "coord": {"lon": -81.519012, "lat": 41.448391}}, {"id": 5157588, "name": "Hilliard", "state": "OH", "country": "US", "coord": {"lon": -83.158249, "lat": 40.033401}}, {"id": 5157675, "name": "Hiram", "state": "OH", "country": "US", "coord": {"lon": -81.143707, "lat": 41.312561}}, {"id": 5157742, "name": "Holgate", "state": "OH", "country": "US", "coord": {"lon": -84.133003, "lat": 41.24894}}, {"id": 5157759, "name": "Holland", "state": "OH", "country": "US", "coord": {"lon": -83.711601, "lat": 41.621719}}, {"id": 5158123, "name": "Howland Center", "state": "OH", "country": "US", "coord": {"lon": -80.745361, "lat": 41.251171}}, {"id": 5158143, "name": "Hubbard", "state": "OH", "country": "US", "coord": {"lon": -80.569237, "lat": 41.156448}}, {"id": 5158156, "name": "Huber Ridge", "state": "OH", "country": "US", "coord": {"lon": -82.916573, "lat": 40.088669}}, {"id": 5158164, "name": "Hudson", "state": "OH", "country": "US", "coord": {"lon": -81.440666, "lat": 41.240059}}, {"id": 5158275, "name": "Huron County", "state": "OH", "country": "US", "coord": {"lon": -82.549896, "lat": 41.150051}}, {"id": 5158298, "name": "Huron", "state": "OH", "country": "US", "coord": {"lon": -82.555168, "lat": 41.39505}}, {"id": 5158404, "name": "Independence", "state": "OH", "country": "US", "coord": {"lon": -81.637901, "lat": 41.36866}}, {"id": 5158516, "name": "Industry", "state": "OH", "country": "US", "coord": {"lon": -81.194267, "lat": 41.077278}}, {"id": 5158960, "name": "Jackson Center", "state": "OH", "country": "US", "coord": {"lon": -84.040222, "lat": 40.439491}}, {"id": 5159071, "name": "Jefferson", "state": "OH", "country": "US", "coord": {"lon": -80.769814, "lat": 41.73867}}, {"id": 5159079, "name": "Jefferson County", "state": "OH", "country": "US", "coord": {"lon": -80.750076, "lat": 40.36673}}, {"id": 5159178, "name": "Jerrys First Addition", "state": "OH", "country": "US", "coord": {"lon": -84.574669, "lat": 41.498661}}, {"id": 5159309, "name": "Johnstown", "state": "OH", "country": "US", "coord": {"lon": -82.685173, "lat": 40.153671}}, {"id": 5159356, "name": "Joyce", "state": "OH", "country": "US", "coord": {"lon": -81.502899, "lat": 40.45507}}, {"id": 5159421, "name": "Kalida", "state": "OH", "country": "US", "coord": {"lon": -84.199387, "lat": 40.98283}}, {"id": 5159481, "name": "Kelloggsville", "state": "OH", "country": "US", "coord": {"lon": -80.617302, "lat": 41.85672}}, {"id": 5159537, "name": "Kent", "state": "OH", "country": "US", "coord": {"lon": -81.357887, "lat": 41.153671}}, {"id": 5159554, "name": "Kenton", "state": "OH", "country": "US", "coord": {"lon": -83.60965, "lat": 40.646999}}, {"id": 5159809, "name": "Kirtland", "state": "OH", "country": "US", "coord": {"lon": -81.361504, "lat": 41.628941}}, {"id": 5159891, "name": "Knox County", "state": "OH", "country": "US", "coord": {"lon": -82.372101, "lat": 40.400059}}, {"id": 5159995, "name": "La Croft", "state": "OH", "country": "US", "coord": {"lon": -80.597847, "lat": 40.645901}}, {"id": 5160041, "name": "Lagrange", "state": "OH", "country": "US", "coord": {"lon": -82.119873, "lat": 41.237282}}, {"id": 5160090, "name": "Lake County", "state": "OH", "country": "US", "coord": {"lon": -81.383171, "lat": 41.633381}}, {"id": 5160171, "name": "Lake Mohawk", "state": "OH", "country": "US", "coord": {"lon": -81.199272, "lat": 40.666729}}, {"id": 5160260, "name": "Lakemore", "state": "OH", "country": "US", "coord": {"lon": -81.435951, "lat": 41.020889}}, {"id": 5160288, "name": "Lakeview", "state": "OH", "country": "US", "coord": {"lon": -83.922997, "lat": 40.484772}}, {"id": 5160315, "name": "Lakewood", "state": "OH", "country": "US", "coord": {"lon": -81.798187, "lat": 41.481991}}, {"id": 5160493, "name": "Leavittsburg", "state": "OH", "country": "US", "coord": {"lon": -80.877029, "lat": 41.247829}}, {"id": 5160548, "name": "Leetonia", "state": "OH", "country": "US", "coord": {"lon": -80.755363, "lat": 40.877281}}, {"id": 5160581, "name": "Lemoyne", "state": "OH", "country": "US", "coord": {"lon": -83.474098, "lat": 41.495892}}, {"id": 5160584, "name": "Lena", "state": "OH", "country": "US", "coord": {"lon": -84.032158, "lat": 40.140888}}, {"id": 5160611, "name": "Leipsic", "state": "OH", "country": "US", "coord": {"lon": -83.984673, "lat": 41.098381}}, {"id": 5160635, "name": "Lexington", "state": "OH", "country": "US", "coord": {"lon": -82.58239, "lat": 40.678669}}, {"id": 5160667, "name": "Liberty Center", "state": "OH", "country": "US", "coord": {"lon": -84.008827, "lat": 41.443378}}, {"id": 5160740, "name": "Licking County", "state": "OH", "country": "US", "coord": {"lon": -82.50016, "lat": 40.083401}}, {"id": 5160783, "name": "Lima", "state": "OH", "country": "US", "coord": {"lon": -84.105232, "lat": 40.74255}}, {"id": 5160854, "name": "Lincoln Heights", "state": "OH", "country": "US", "coord": {"lon": -82.484329, "lat": 40.77145}}, {"id": 5160938, "name": "Linworth", "state": "OH", "country": "US", "coord": {"lon": -83.049072, "lat": 40.090061}}, {"id": 5160951, "name": "Lisbon", "state": "OH", "country": "US", "coord": {"lon": -80.768127, "lat": 40.771999}}, {"id": 5161096, "name": "Lock Port", "state": "OH", "country": "US", "coord": {"lon": -84.389954, "lat": 41.54977}}, {"id": 5161142, "name": "Lodi", "state": "OH", "country": "US", "coord": {"lon": -82.012093, "lat": 41.03339}}, {"id": 5161153, "name": "Logan (historical)", "state": "OH", "country": "US", "coord": {"lon": -83.073517, "lat": 40.605061}}, {"id": 5161262, "name": "Lorain", "state": "OH", "country": "US", "coord": {"lon": -82.182373, "lat": 41.45282}}, {"id": 5161272, "name": "Lorain County", "state": "OH", "country": "US", "coord": {"lon": -82.149872, "lat": 41.333382}}, {"id": 5161301, "name": "Lordstown", "state": "OH", "country": "US", "coord": {"lon": -80.857582, "lat": 41.165611}}, {"id": 5161340, "name": "Loudonville", "state": "OH", "country": "US", "coord": {"lon": -82.233208, "lat": 40.635342}}, {"id": 5161347, "name": "Louisville", "state": "OH", "country": "US", "coord": {"lon": -81.259552, "lat": 40.83728}}, {"id": 5161382, "name": "Lowellville", "state": "OH", "country": "US", "coord": {"lon": -80.536461, "lat": 41.035339}}, {"id": 5161413, "name": "Lucas County", "state": "OH", "country": "US", "coord": {"lon": -83.666603, "lat": 41.650051}}, {"id": 5161429, "name": "Luckey", "state": "OH", "country": "US", "coord": {"lon": -83.487427, "lat": 41.450611}}, {"id": 5161493, "name": "Lyndhurst", "state": "OH", "country": "US", "coord": {"lon": -81.488731, "lat": 41.52005}}, {"id": 5161539, "name": "Macedonia", "state": "OH", "country": "US", "coord": {"lon": -81.508453, "lat": 41.313671}}, {"id": 5161567, "name": "Madison", "state": "OH", "country": "US", "coord": {"lon": -81.04982, "lat": 41.77116}}, {"id": 5161640, "name": "Mahoning County", "state": "OH", "country": "US", "coord": {"lon": -80.766472, "lat": 41.03339}}, {"id": 5161684, "name": "Malvern", "state": "OH", "country": "US", "coord": {"lon": -81.181213, "lat": 40.69173}}, {"id": 5161693, "name": "Manchester", "state": "OH", "country": "US", "coord": {"lon": -81.56929, "lat": 40.937}}, {"id": 5161723, "name": "Mansfield", "state": "OH", "country": "US", "coord": {"lon": -82.51545, "lat": 40.758389}}, {"id": 5161741, "name": "Mantua", "state": "OH", "country": "US", "coord": {"lon": -81.679008, "lat": 40.07785}}, {"id": 5161742, "name": "Mantua", "state": "OH", "country": "US", "coord": {"lon": -81.223991, "lat": 41.283939}}, {"id": 5161803, "name": "Maple Heights", "state": "OH", "country": "US", "coord": {"lon": -81.565964, "lat": 41.415329}}, {"id": 5161902, "name": "Marion", "state": "OH", "country": "US", "coord": {"lon": -83.128517, "lat": 40.588669}}, {"id": 5161911, "name": "Marion County", "state": "OH", "country": "US", "coord": {"lon": -83.16658, "lat": 40.583389}}, {"id": 5162044, "name": "Martins Ferry", "state": "OH", "country": "US", "coord": {"lon": -80.724533, "lat": 40.095909}}, {"id": 5162077, "name": "Marysville", "state": "OH", "country": "US", "coord": {"lon": -83.367142, "lat": 40.23645}}, {"id": 5162097, "name": "Massillon", "state": "OH", "country": "US", "coord": {"lon": -81.521507, "lat": 40.796719}}, {"id": 5162119, "name": "Masury", "state": "OH", "country": "US", "coord": {"lon": -80.537849, "lat": 41.21117}}, {"id": 5162137, "name": "Maumee", "state": "OH", "country": "US", "coord": {"lon": -83.653816, "lat": 41.562832}}, {"id": 5162180, "name": "Mayfield", "state": "OH", "country": "US", "coord": {"lon": -81.439278, "lat": 41.551998}}, {"id": 5162188, "name": "Mayfield Heights", "state": "OH", "country": "US", "coord": {"lon": -81.457901, "lat": 41.519218}}, {"id": 5162260, "name": "McComb", "state": "OH", "country": "US", "coord": {"lon": -83.792709, "lat": 41.107552}}, {"id": 5162297, "name": "McDonald", "state": "OH", "country": "US", "coord": {"lon": -80.724243, "lat": 41.16367}}, {"id": 5162390, "name": "McKinley Heights", "state": "OH", "country": "US", "coord": {"lon": -80.7173, "lat": 41.18367}}, {"id": 5162494, "name": "Mechanicsburg", "state": "OH", "country": "US", "coord": {"lon": -83.556313, "lat": 40.071999}}, {"id": 5162512, "name": "Medina", "state": "OH", "country": "US", "coord": {"lon": -81.863747, "lat": 41.13839}}, {"id": 5162517, "name": "Medina County", "state": "OH", "country": "US", "coord": {"lon": -81.883186, "lat": 41.100052}}, {"id": 5162645, "name": "Mentor", "state": "OH", "country": "US", "coord": {"lon": -81.339546, "lat": 41.666161}}, {"id": 5162672, "name": "Mentor-on-the-Lake", "state": "OH", "country": "US", "coord": {"lon": -81.36039, "lat": 41.70504}}, {"id": 5162767, "name": "Meyers (historical)", "state": "OH", "country": "US", "coord": {"lon": -84.317169, "lat": 40.131439}}, {"id": 5162774, "name": "Miami County", "state": "OH", "country": "US", "coord": {"lon": -84.233276, "lat": 40.050049}}, {"id": 5162851, "name": "Middleburg Heights", "state": "OH", "country": "US", "coord": {"lon": -81.812912, "lat": 41.361439}}, {"id": 5162859, "name": "Middlefield", "state": "OH", "country": "US", "coord": {"lon": -81.073708, "lat": 41.462002}}, {"id": 5162886, "name": "Midway", "state": "OH", "country": "US", "coord": {"lon": -83.8255, "lat": 41.58839}}, {"id": 5162920, "name": "Milan", "state": "OH", "country": "US", "coord": {"lon": -82.605453, "lat": 41.29755}}, {"id": 5163008, "name": "Millbury", "state": "OH", "country": "US", "coord": {"lon": -83.424652, "lat": 41.566158}}, {"id": 5163076, "name": "Millersburg", "state": "OH", "country": "US", "coord": {"lon": -81.917923, "lat": 40.554508}}, {"id": 5163137, "name": "Mineral Ridge", "state": "OH", "country": "US", "coord": {"lon": -80.768967, "lat": 41.14006}}, {"id": 5163143, "name": "Minerva", "state": "OH", "country": "US", "coord": {"lon": -81.105377, "lat": 40.729778}}, {"id": 5163149, "name": "Minerva Park", "state": "OH", "country": "US", "coord": {"lon": -82.943787, "lat": 40.07645}}, {"id": 5163160, "name": "Mingo Junction", "state": "OH", "country": "US", "coord": {"lon": -80.609802, "lat": 40.321739}}, {"id": 5163176, "name": "Minster", "state": "OH", "country": "US", "coord": {"lon": -84.37606, "lat": 40.393101}}, {"id": 5163244, "name": "Mogadore", "state": "OH", "country": "US", "coord": {"lon": -81.397888, "lat": 41.046452}}, {"id": 5163346, "name": "Monroeville", "state": "OH", "country": "US", "coord": {"lon": -82.696289, "lat": 41.244221}}, {"id": 5163375, "name": "Montpelier", "state": "OH", "country": "US", "coord": {"lon": -84.605507, "lat": 41.584499}}, {"id": 5163448, "name": "Moreland Hills", "state": "OH", "country": "US", "coord": {"lon": -81.42762, "lat": 41.44783}}, {"id": 5163469, "name": "Morgandale", "state": "OH", "country": "US", "coord": {"lon": -80.78286, "lat": 41.26561}}, {"id": 5163613, "name": "Mount Carmel", "state": "OH", "country": "US", "coord": {"lon": -82.936859, "lat": 41.27116}}, {"id": 5163631, "name": "Mount Gilead", "state": "OH", "country": "US", "coord": {"lon": -82.8274, "lat": 40.549229}}, {"id": 5163799, "name": "Mount Vernon", "state": "OH", "country": "US", "coord": {"lon": -82.485718, "lat": 40.393398}}, {"id": 5163968, "name": "Munroe Falls", "state": "OH", "country": "US", "coord": {"lon": -81.439827, "lat": 41.144501}}, {"id": 5164057, "name": "Napoleon", "state": "OH", "country": "US", "coord": {"lon": -84.125221, "lat": 41.392269}}, {"id": 5164101, "name": "Navarre", "state": "OH", "country": "US", "coord": {"lon": -81.522072, "lat": 40.724499}}, {"id": 5164202, "name": "New Albany", "state": "OH", "country": "US", "coord": {"lon": -82.808792, "lat": 40.081169}}, {"id": 5164239, "name": "New Bremen", "state": "OH", "country": "US", "coord": {"lon": -84.379669, "lat": 40.436989}}, {"id": 5164250, "name": "New California", "state": "OH", "country": "US", "coord": {"lon": -83.23658, "lat": 40.15617}}, {"id": 5164274, "name": "New Franklin", "state": "OH", "country": "US", "coord": {"lon": -81.541512, "lat": 40.941719}}, {"id": 5164352, "name": "New London", "state": "OH", "country": "US", "coord": {"lon": -82.399887, "lat": 41.085049}}, {"id": 5164371, "name": "New Middletown", "state": "OH", "country": "US", "coord": {"lon": -80.557571, "lat": 40.96117}}, {"id": 5164390, "name": "New Philadelphia", "state": "OH", "country": "US", "coord": {"lon": -81.445671, "lat": 40.489792}}, {"id": 5164449, "name": "New Waterford", "state": "OH", "country": "US", "coord": {"lon": -80.614517, "lat": 40.845058}}, {"id": 5164466, "name": "Newark", "state": "OH", "country": "US", "coord": {"lon": -82.40126, "lat": 40.058121}}, {"id": 5164488, "name": "Newburgh Heights", "state": "OH", "country": "US", "coord": {"lon": -81.66346, "lat": 41.45005}}, {"id": 5164500, "name": "Newcomerstown", "state": "OH", "country": "US", "coord": {"lon": -81.605949, "lat": 40.272289}}, {"id": 5164541, "name": "Newton Falls", "state": "OH", "country": "US", "coord": {"lon": -80.978149, "lat": 41.188389}}, {"id": 5164582, "name": "Niles", "state": "OH", "country": "US", "coord": {"lon": -80.765358, "lat": 41.182838}}, {"id": 5164653, "name": "North Baltimore", "state": "OH", "country": "US", "coord": {"lon": -83.678268, "lat": 41.182831}}, {"id": 5164706, "name": "North Canton", "state": "OH", "country": "US", "coord": {"lon": -81.402344, "lat": 40.875889}}, {"id": 5164812, "name": "North Kingsville", "state": "OH", "country": "US", "coord": {"lon": -80.690361, "lat": 41.905891}}, {"id": 5164826, "name": "North Lewisburg", "state": "OH", "country": "US", "coord": {"lon": -83.557426, "lat": 40.22311}}, {"id": 5164840, "name": "North Madison", "state": "OH", "country": "US", "coord": {"lon": -81.048988, "lat": 41.801998}}, {"id": 5164862, "name": "North Olmsted", "state": "OH", "country": "US", "coord": {"lon": -81.92347, "lat": 41.4156}}, {"id": 5164891, "name": "North Randall", "state": "OH", "country": "US", "coord": {"lon": -81.525681, "lat": 41.43478}}, {"id": 5164903, "name": "North Ridgeville", "state": "OH", "country": "US", "coord": {"lon": -82.019028, "lat": 41.389488}}, {"id": 5164916, "name": "North Royalton", "state": "OH", "country": "US", "coord": {"lon": -81.724571, "lat": 41.31366}}, {"id": 5164998, "name": "Northfield", "state": "OH", "country": "US", "coord": {"lon": -81.52845, "lat": 41.345051}}, {"id": 5165067, "name": "Northwood", "state": "OH", "country": "US", "coord": {"lon": -83.73243, "lat": 40.472832}}, {"id": 5165069, "name": "Northwood", "state": "OH", "country": "US", "coord": {"lon": -83.468819, "lat": 41.607269}}, {"id": 5165087, "name": "Norton", "state": "OH", "country": "US", "coord": {"lon": -81.638184, "lat": 41.029221}}, {"id": 5165101, "name": "Norwalk", "state": "OH", "country": "US", "coord": {"lon": -82.61573, "lat": 41.24255}}, {"id": 5165215, "name": "Oak Harbor", "state": "OH", "country": "US", "coord": {"lon": -83.146591, "lat": 41.506721}}, {"id": 5165223, "name": "Oak Hill", "state": "OH", "country": "US", "coord": {"lon": -82.24099, "lat": 40.41423}}, {"id": 5165311, "name": "Oakwood", "state": "OH", "country": "US", "coord": {"lon": -81.507896, "lat": 41.36533}}, {"id": 5165418, "name": "Ohio", "state": "OH", "country": "US", "coord": {"lon": -83.000183, "lat": 40.25034}}, {"id": 5165445, "name": "Oberlin", "state": "OH", "country": "US", "coord": {"lon": -82.217377, "lat": 41.293941}}, {"id": 5165635, "name": "Olmsted Falls", "state": "OH", "country": "US", "coord": {"lon": -81.908188, "lat": 41.37505}}, {"id": 5165664, "name": "Ontario", "state": "OH", "country": "US", "coord": {"lon": -82.590172, "lat": 40.759499}}, {"id": 5165695, "name": "Orange", "state": "OH", "country": "US", "coord": {"lon": -81.480667, "lat": 41.44978}}, {"id": 5165734, "name": "Oregon", "state": "OH", "country": "US", "coord": {"lon": -83.486877, "lat": 41.643661}}, {"id": 5165755, "name": "Orrville", "state": "OH", "country": "US", "coord": {"lon": -81.764023, "lat": 40.84367}}, {"id": 5165763, "name": "Orwell", "state": "OH", "country": "US", "coord": {"lon": -80.868141, "lat": 41.535061}}, {"id": 5165801, "name": "Ottawa", "state": "OH", "country": "US", "coord": {"lon": -84.047173, "lat": 41.019218}}, {"id": 5165812, "name": "Ottawa Hills", "state": "OH", "country": "US", "coord": {"lon": -83.643272, "lat": 41.664219}}, {"id": 5166009, "name": "Painesville", "state": "OH", "country": "US", "coord": {"lon": -81.245659, "lat": 41.724491}}, {"id": 5166061, "name": "Pandora", "state": "OH", "country": "US", "coord": {"lon": -83.961052, "lat": 40.948109}}, {"id": 5166177, "name": "Parma", "state": "OH", "country": "US", "coord": {"lon": -81.722908, "lat": 41.40477}}, {"id": 5166184, "name": "Parma Heights", "state": "OH", "country": "US", "coord": {"lon": -81.759583, "lat": 41.390049}}, {"id": 5166253, "name": "Paulding", "state": "OH", "country": "US", "coord": {"lon": -84.580513, "lat": 41.138111}}, {"id": 5166334, "name": "Payne", "state": "OH", "country": "US", "coord": {"lon": -84.72718, "lat": 41.077549}}, {"id": 5166372, "name": "Pemberville", "state": "OH", "country": "US", "coord": {"lon": -83.461037, "lat": 41.410889}}, {"id": 5166438, "name": "Pepper Pike", "state": "OH", "country": "US", "coord": {"lon": -81.46373, "lat": 41.47839}}, {"id": 5166468, "name": "Perry", "state": "OH", "country": "US", "coord": {"lon": -81.14093, "lat": 41.76033}}, {"id": 5166482, "name": "Perry Heights", "state": "OH", "country": "US", "coord": {"lon": -81.47345, "lat": 40.795341}}, {"id": 5166516, "name": "Perrysburg", "state": "OH", "country": "US", "coord": {"lon": -83.627159, "lat": 41.556999}}, {"id": 5166537, "name": "Perryton", "state": "OH", "country": "US", "coord": {"lon": -82.200981, "lat": 40.144508}}, {"id": 5166791, "name": "Pioneer", "state": "OH", "country": "US", "coord": {"lon": -84.553009, "lat": 41.68005}}, {"id": 5166819, "name": "Piqua", "state": "OH", "country": "US", "coord": {"lon": -84.242439, "lat": 40.144772}}, {"id": 5166865, "name": "Plain City", "state": "OH", "country": "US", "coord": {"lon": -83.267418, "lat": 40.107559}}, {"id": 5166958, "name": "Pleasant Hill", "state": "OH", "country": "US", "coord": {"lon": -84.344391, "lat": 40.05172}}, {"id": 5167166, "name": "Plymouth", "state": "OH", "country": "US", "coord": {"lon": -82.667122, "lat": 40.995609}}, {"id": 5167196, "name": "Poland", "state": "OH", "country": "US", "coord": {"lon": -80.614799, "lat": 41.024231}}, {"id": 5167259, "name": "Port Clinton", "state": "OH", "country": "US", "coord": {"lon": -82.937691, "lat": 41.512001}}, {"id": 5167284, "name": "Portage County", "state": "OH", "country": "US", "coord": {"lon": -81.199821, "lat": 41.166721}}, {"id": 5167293, "name": "Portage Lakes", "state": "OH", "country": "US", "coord": {"lon": -81.527061, "lat": 41.007278}}, {"id": 5167350, "name": "Powell", "state": "OH", "country": "US", "coord": {"lon": -83.075188, "lat": 40.157841}}, {"id": 5167479, "name": "Prospect", "state": "OH", "country": "US", "coord": {"lon": -83.18853, "lat": 40.45034}}, {"id": 5167737, "name": "Ravenna", "state": "OH", "country": "US", "coord": {"lon": -81.24205, "lat": 41.157558}}, {"id": 5167903, "name": "Reminderville", "state": "OH", "country": "US", "coord": {"lon": -81.395111, "lat": 41.34589}}, {"id": 5168025, "name": "Richfield", "state": "OH", "country": "US", "coord": {"lon": -81.638184, "lat": 41.23978}}, {"id": 5168041, "name": "Richland County", "state": "OH", "country": "US", "coord": {"lon": -82.549889, "lat": 40.78339}}, {"id": 5168063, "name": "Richmond Heights", "state": "OH", "country": "US", "coord": {"lon": -81.510117, "lat": 41.55283}}, {"id": 5168079, "name": "Richville", "state": "OH", "country": "US", "coord": {"lon": -81.477898, "lat": 40.751171}}, {"id": 5168085, "name": "Richwood", "state": "OH", "country": "US", "coord": {"lon": -83.29686, "lat": 40.426449}}, {"id": 5168225, "name": "Rittman", "state": "OH", "country": "US", "coord": {"lon": -81.782082, "lat": 40.978111}}, {"id": 5168341, "name": "Roaming Shores", "state": "OH", "country": "US", "coord": {"lon": -80.823418, "lat": 41.643108}}, {"id": 5168450, "name": "Rockford", "state": "OH", "country": "US", "coord": {"lon": -84.646629, "lat": 40.687832}}, {"id": 5168451, "name": "Rockford", "state": "OH", "country": "US", "coord": {"lon": -81.308441, "lat": 40.477009}}, {"id": 5168491, "name": "Rocky River", "state": "OH", "country": "US", "coord": {"lon": -81.839302, "lat": 41.475601}}, {"id": 5168673, "name": "Rossford", "state": "OH", "country": "US", "coord": {"lon": -83.564377, "lat": 41.609772}}, {"id": 5168837, "name": "Russells Point", "state": "OH", "country": "US", "coord": {"lon": -83.892723, "lat": 40.471161}}, {"id": 5169130, "name": "Saint Clairsville", "state": "OH", "country": "US", "coord": {"lon": -80.900093, "lat": 40.080631}}, {"id": 5169242, "name": "Saint Henry", "state": "OH", "country": "US", "coord": {"lon": -84.639679, "lat": 40.417549}}, {"id": 5169796, "name": "Saint Marys", "state": "OH", "country": "US", "coord": {"lon": -84.389397, "lat": 40.542271}}, {"id": 5170013, "name": "Saint Paris", "state": "OH", "country": "US", "coord": {"lon": -83.959663, "lat": 40.128391}}, {"id": 5170511, "name": "Salem", "state": "OH", "country": "US", "coord": {"lon": -80.85675, "lat": 40.90089}}, {"id": 5170610, "name": "Salineville", "state": "OH", "country": "US", "coord": {"lon": -80.83786, "lat": 40.622559}}, {"id": 5170691, "name": "Sandusky", "state": "OH", "country": "US", "coord": {"lon": -82.707962, "lat": 41.44894}}, {"id": 5170698, "name": "Sandusky County", "state": "OH", "country": "US", "coord": {"lon": -83.133247, "lat": 41.350052}}, {"id": 5170795, "name": "Sawyerwood", "state": "OH", "country": "US", "coord": {"lon": -81.440948, "lat": 41.03783}}, {"id": 5171494, "name": "Scotch Ridge", "state": "OH", "country": "US", "coord": {"lon": -83.522987, "lat": 41.40255}}, {"id": 5171555, "name": "Sebring", "state": "OH", "country": "US", "coord": {"lon": -81.018982, "lat": 40.92284}}, {"id": 5171643, "name": "Seneca County", "state": "OH", "country": "US", "coord": {"lon": -83.116577, "lat": 41.116718}}, {"id": 5171657, "name": "Seven Hills", "state": "OH", "country": "US", "coord": {"lon": -81.676239, "lat": 41.395329}}, {"id": 5171681, "name": "Seville", "state": "OH", "country": "US", "coord": {"lon": -81.862358, "lat": 41.010059}}, {"id": 5171728, "name": "Shaker Heights", "state": "OH", "country": "US", "coord": {"lon": -81.537071, "lat": 41.473942}}, {"id": 5171854, "name": "Sheffield", "state": "OH", "country": "US", "coord": {"lon": -82.09626, "lat": 41.42115}}, {"id": 5171856, "name": "Sheffield Lake", "state": "OH", "country": "US", "coord": {"lon": -82.10154, "lat": 41.487541}}, {"id": 5171868, "name": "Shelby", "state": "OH", "country": "US", "coord": {"lon": -82.661842, "lat": 40.881451}}, {"id": 5171871, "name": "Shelby County", "state": "OH", "country": "US", "coord": {"lon": -84.183281, "lat": 40.316719}}, {"id": 5172048, "name": "Shreve", "state": "OH", "country": "US", "coord": {"lon": -82.021812, "lat": 40.68145}}, {"id": 5172078, "name": "Sidney", "state": "OH", "country": "US", "coord": {"lon": -84.155502, "lat": 40.284222}}, {"id": 5172120, "name": "Silver Lake", "state": "OH", "country": "US", "coord": {"lon": -81.454277, "lat": 41.158939}}, {"id": 5172321, "name": "Smithville", "state": "OH", "country": "US", "coord": {"lon": -81.861801, "lat": 40.862282}}, {"id": 5172387, "name": "Solon", "state": "OH", "country": "US", "coord": {"lon": -81.441231, "lat": 41.389778}}, {"id": 5172425, "name": "South Amherst", "state": "OH", "country": "US", "coord": {"lon": -82.253769, "lat": 41.355881}}, {"id": 5172460, "name": "South Canal", "state": "OH", "country": "US", "coord": {"lon": -80.986763, "lat": 41.17728}}, {"id": 5172485, "name": "South Euclid", "state": "OH", "country": "US", "coord": {"lon": -81.518463, "lat": 41.523109}}, {"id": 5172589, "name": "South Russell", "state": "OH", "country": "US", "coord": {"lon": -81.365387, "lat": 41.431438}}, {"id": 5172710, "name": "Spencerville", "state": "OH", "country": "US", "coord": {"lon": -84.353561, "lat": 40.708939}}, {"id": 5172848, "name": "Springville", "state": "OH", "country": "US", "coord": {"lon": -83.386589, "lat": 41.009781}}, {"id": 5172936, "name": "Stark County", "state": "OH", "country": "US", "coord": {"lon": -81.366501, "lat": 40.816719}}, {"id": 5173048, "name": "Steubenville", "state": "OH", "country": "US", "coord": {"lon": -80.633957, "lat": 40.369789}}, {"id": 5173158, "name": "Stony Prairie", "state": "OH", "country": "US", "coord": {"lon": -83.155197, "lat": 41.35144}}, {"id": 5173160, "name": "Stony Ridge", "state": "OH", "country": "US", "coord": {"lon": -83.507149, "lat": 41.51033}}, {"id": 5173171, "name": "Stow", "state": "OH", "country": "US", "coord": {"lon": -81.440392, "lat": 41.1595}}, {"id": 5173189, "name": "Strasburg", "state": "OH", "country": "US", "coord": {"lon": -81.526787, "lat": 40.59478}}, {"id": 5173210, "name": "Streetsboro", "state": "OH", "country": "US", "coord": {"lon": -81.34594, "lat": 41.23922}}, {"id": 5173237, "name": "Strongsville", "state": "OH", "country": "US", "coord": {"lon": -81.835693, "lat": 41.314499}}, {"id": 5173256, "name": "Struthers", "state": "OH", "country": "US", "coord": {"lon": -80.607849, "lat": 41.052559}}, {"id": 5173264, "name": "Stryker", "state": "OH", "country": "US", "coord": {"lon": -84.414124, "lat": 41.503658}}, {"id": 5173354, "name": "Sugarcreek", "state": "OH", "country": "US", "coord": {"lon": -81.640961, "lat": 40.50312}}, {"id": 5173386, "name": "Summit County", "state": "OH", "country": "US", "coord": {"lon": -81.533173, "lat": 41.116718}}, {"id": 5173412, "name": "Sunbury", "state": "OH", "country": "US", "coord": {"lon": -82.85907, "lat": 40.242561}}, {"id": 5173514, "name": "Swanton", "state": "OH", "country": "US", "coord": {"lon": -83.891052, "lat": 41.588661}}, {"id": 5173572, "name": "Sylvania", "state": "OH", "country": "US", "coord": {"lon": -83.71299, "lat": 41.718941}}, {"id": 5173623, "name": "Tallmadge", "state": "OH", "country": "US", "coord": {"lon": -81.44178, "lat": 41.101452}}, {"id": 5173930, "name": "Tiffin", "state": "OH", "country": "US", "coord": {"lon": -83.177971, "lat": 41.114498}}, {"id": 5173962, "name": "Tiltonsville", "state": "OH", "country": "US", "coord": {"lon": -80.699799, "lat": 40.16674}}, {"id": 5174035, "name": "Toledo", "state": "OH", "country": "US", "coord": {"lon": -83.555206, "lat": 41.66394}}, {"id": 5174095, "name": "Toronto", "state": "OH", "country": "US", "coord": {"lon": -80.600906, "lat": 40.46423}}, {"id": 5174358, "name": "Troy", "state": "OH", "country": "US", "coord": {"lon": -84.203278, "lat": 40.039501}}, {"id": 5174418, "name": "Trumbull County", "state": "OH", "country": "US", "coord": {"lon": -80.766472, "lat": 41.316719}}, {"id": 5174495, "name": "Tuscarawas", "state": "OH", "country": "US", "coord": {"lon": -81.407059, "lat": 40.394791}}, {"id": 5174499, "name": "Tuscarawas County", "state": "OH", "country": "US", "coord": {"lon": -81.466499, "lat": 40.450069}}, {"id": 5174550, "name": "Twinsburg", "state": "OH", "country": "US", "coord": {"lon": -81.440109, "lat": 41.312561}}, {"id": 5174585, "name": "Uhrichsville", "state": "OH", "country": "US", "coord": {"lon": -81.346497, "lat": 40.39312}}, {"id": 5174660, "name": "Union City", "state": "", "country": "US", "coord": {"lon": -84.805237, "lat": 40.19949}}, {"id": 5174669, "name": "Union County", "state": "OH", "country": "US", "coord": {"lon": -83.383263, "lat": 40.30006}}, {"id": 5174747, "name": "Uniontown", "state": "OH", "country": "US", "coord": {"lon": -81.408173, "lat": 40.97506}}, {"id": 5174830, "name": "University Heights", "state": "OH", "country": "US", "coord": {"lon": -81.537354, "lat": 41.497829}}, {"id": 5174870, "name": "Upper Sandusky", "state": "OH", "country": "US", "coord": {"lon": -83.281311, "lat": 40.827278}}, {"id": 5174897, "name": "Urbana", "state": "OH", "country": "US", "coord": {"lon": -83.752434, "lat": 40.108391}}, {"id": 5174913, "name": "Utica", "state": "OH", "country": "US", "coord": {"lon": -82.451271, "lat": 40.23423}}, {"id": 5174958, "name": "Valley View", "state": "OH", "country": "US", "coord": {"lon": -81.604568, "lat": 41.387829}}, {"id": 5175072, "name": "Vermilion", "state": "OH", "country": "US", "coord": {"lon": -82.364609, "lat": 41.421989}}, {"id": 5175079, "name": "Van Wert", "state": "OH", "country": "US", "coord": {"lon": -84.584122, "lat": 40.869492}}, {"id": 5175080, "name": "Vermilion-on-the-Lake", "state": "OH", "country": "US", "coord": {"lon": -82.323769, "lat": 41.428379}}, {"id": 5175092, "name": "Versailles", "state": "OH", "country": "US", "coord": {"lon": -84.484398, "lat": 40.222549}}, {"id": 5175496, "name": "Wadsworth", "state": "OH", "country": "US", "coord": {"lon": -81.729851, "lat": 41.025612}}, {"id": 5175531, "name": "Wakeman", "state": "OH", "country": "US", "coord": {"lon": -82.399612, "lat": 41.254501}}, {"id": 5175538, "name": "Walbridge", "state": "OH", "country": "US", "coord": {"lon": -83.493271, "lat": 41.58783}}, {"id": 5175655, "name": "Walton Hills", "state": "OH", "country": "US", "coord": {"lon": -81.561234, "lat": 41.365608}}, {"id": 5175670, "name": "Wapakoneta", "state": "OH", "country": "US", "coord": {"lon": -84.193558, "lat": 40.567829}}, {"id": 5175726, "name": "Warrensville Heights", "state": "OH", "country": "US", "coord": {"lon": -81.536232, "lat": 41.435051}}, {"id": 5175847, "name": "Waterville", "state": "OH", "country": "US", "coord": {"lon": -83.718269, "lat": 41.500889}}, {"id": 5175865, "name": "Warren", "state": "OH", "country": "US", "coord": {"lon": -80.81842, "lat": 41.23756}}, {"id": 5175877, "name": "Wauseon", "state": "OH", "country": "US", "coord": {"lon": -84.141609, "lat": 41.549221}}, {"id": 5175898, "name": "Wayne County", "state": "OH", "country": "US", "coord": {"lon": -81.883202, "lat": 40.833389}}, {"id": 5176023, "name": "Wellington", "state": "OH", "country": "US", "coord": {"lon": -82.217941, "lat": 41.168941}}, {"id": 5176047, "name": "Wellsville", "state": "OH", "country": "US", "coord": {"lon": -80.648956, "lat": 40.60284}}, {"id": 5176266, "name": "West Hill", "state": "OH", "country": "US", "coord": {"lon": -80.519241, "lat": 41.23283}}, {"id": 5176283, "name": "West Lafayette", "state": "OH", "country": "US", "coord": {"lon": -81.750961, "lat": 40.275349}}, {"id": 5176304, "name": "West Liberty", "state": "OH", "country": "US", "coord": {"lon": -83.755768, "lat": 40.252281}}, {"id": 5176378, "name": "West Salem", "state": "OH", "country": "US", "coord": {"lon": -82.109871, "lat": 40.971439}}, {"id": 5176423, "name": "West Unity", "state": "OH", "country": "US", "coord": {"lon": -84.434952, "lat": 41.586159}}, {"id": 5176472, "name": "Westerville", "state": "OH", "country": "US", "coord": {"lon": -82.92907, "lat": 40.126171}}, {"id": 5176490, "name": "Westfield Center", "state": "OH", "country": "US", "coord": {"lon": -81.933197, "lat": 41.02644}}, {"id": 5176517, "name": "Westlake", "state": "OH", "country": "US", "coord": {"lon": -81.917923, "lat": 41.455318}}, {"id": 5176550, "name": "Weston", "state": "OH", "country": "US", "coord": {"lon": -83.797157, "lat": 41.344769}}, {"id": 5176713, "name": "Whitehouse", "state": "OH", "country": "US", "coord": {"lon": -83.803833, "lat": 41.51894}}, {"id": 5176759, "name": "Wickliffe", "state": "OH", "country": "US", "coord": {"lon": -81.453453, "lat": 41.605331}}, {"id": 5176830, "name": "Willard", "state": "OH", "country": "US", "coord": {"lon": -82.726288, "lat": 41.053108}}, {"id": 5176872, "name": "Williams County", "state": "OH", "country": "US", "coord": {"lon": -84.583282, "lat": 41.550049}}, {"id": 5176937, "name": "Willoughby", "state": "OH", "country": "US", "coord": {"lon": -81.406502, "lat": 41.639771}}, {"id": 5176942, "name": "Willoughby Hills", "state": "OH", "country": "US", "coord": {"lon": -81.418449, "lat": 41.598381}}, {"id": 5177007, "name": "Willowick", "state": "OH", "country": "US", "coord": {"lon": -81.468727, "lat": 41.633099}}, {"id": 5177082, "name": "Windham", "state": "OH", "country": "US", "coord": {"lon": -81.049263, "lat": 41.235062}}, {"id": 5177162, "name": "Wintersville", "state": "OH", "country": "US", "coord": {"lon": -80.70369, "lat": 40.375351}}, {"id": 5177219, "name": "Wolfhurst", "state": "OH", "country": "US", "coord": {"lon": -80.783699, "lat": 40.069241}}, {"id": 5177229, "name": "Wood County", "state": "OH", "country": "US", "coord": {"lon": -83.6166, "lat": 41.366718}}, {"id": 5177337, "name": "Woodville", "state": "OH", "country": "US", "coord": {"lon": -83.365761, "lat": 41.451439}}, {"id": 5177358, "name": "Wooster", "state": "OH", "country": "US", "coord": {"lon": -81.935143, "lat": 40.805061}}, {"id": 5177396, "name": "Worthington", "state": "OH", "country": "US", "coord": {"lon": -83.01796, "lat": 40.093121}}, {"id": 5177557, "name": "Yorkville", "state": "OH", "country": "US", "coord": {"lon": -80.710358, "lat": 40.154518}}, {"id": 5177568, "name": "Youngstown", "state": "OH", "country": "US", "coord": {"lon": -80.649521, "lat": 41.099781}}, {"id": 5177874, "name": "Adamstown", "state": "PA", "country": "US", "coord": {"lon": -76.056328, "lat": 40.241199}}, {"id": 5177922, "name": "Akron", "state": "PA", "country": "US", "coord": {"lon": -76.202171, "lat": 40.156761}}, {"id": 5177944, "name": "Albion", "state": "PA", "country": "US", "coord": {"lon": -80.366447, "lat": 41.89061}}, {"id": 5177945, "name": "Albion", "state": "PA", "country": "US", "coord": {"lon": -78.946983, "lat": 40.95895}}, {"id": 5177951, "name": "Alburtis", "state": "PA", "country": "US", "coord": {"lon": -75.602966, "lat": 40.510929}}, {"id": 5178027, "name": "Aliquippa", "state": "PA", "country": "US", "coord": {"lon": -80.240059, "lat": 40.63673}}, {"id": 5178040, "name": "Allegheny County", "state": "PA", "country": "US", "coord": {"lon": -80.125061, "lat": 40.62534}}, {"id": 5178088, "name": "Alleghenyville", "state": "PA", "country": "US", "coord": {"lon": -75.988548, "lat": 40.234261}}, {"id": 5178123, "name": "Allens Mills", "state": "PA", "country": "US", "coord": {"lon": -78.907532, "lat": 41.199509}}, {"id": 5178127, "name": "Allentown", "state": "PA", "country": "US", "coord": {"lon": -75.490181, "lat": 40.608429}}, {"id": 5178155, "name": "Allison Park", "state": "", "country": "US", "coord": {"lon": -79.958107, "lat": 40.558399}}, {"id": 5178165, "name": "Allison Park", "state": "PA", "country": "US", "coord": {"lon": -79.958672, "lat": 40.559509}}, {"id": 5178166, "name": "Almedia", "state": "PA", "country": "US", "coord": {"lon": -76.38105, "lat": 41.01453}}, {"id": 5178195, "name": "Altoona", "state": "PA", "country": "US", "coord": {"lon": -78.394737, "lat": 40.518681}}, {"id": 5178225, "name": "Ambler", "state": "PA", "country": "US", "coord": {"lon": -75.221573, "lat": 40.154549}}, {"id": 5178228, "name": "Ambridge", "state": "PA", "country": "US", "coord": {"lon": -80.22506, "lat": 40.58923}}, {"id": 5178254, "name": "Amity Gardens", "state": "PA", "country": "US", "coord": {"lon": -75.735191, "lat": 40.274261}}, {"id": 5178280, "name": "Ancient Oaks", "state": "PA", "country": "US", "coord": {"lon": -75.589348, "lat": 40.547321}}, {"id": 5178351, "name": "Annville", "state": "PA", "country": "US", "coord": {"lon": -76.515244, "lat": 40.32954}}, {"id": 5178393, "name": "Apollo", "state": "PA", "country": "US", "coord": {"lon": -79.566429, "lat": 40.581451}}, {"id": 5178450, "name": "Archbald", "state": "PA", "country": "US", "coord": {"lon": -75.53685, "lat": 41.494801}}, {"id": 5178481, "name": "Ardmore", "state": "PA", "country": "US", "coord": {"lon": -75.285461, "lat": 40.006779}}, {"id": 5178489, "name": "Arlington Heights", "state": "PA", "country": "US", "coord": {"lon": -75.216293, "lat": 40.990089}}, {"id": 5178527, "name": "Arnold", "state": "PA", "country": "US", "coord": {"lon": -79.766724, "lat": 40.58007}}, {"id": 5178597, "name": "Ashland", "state": "PA", "country": "US", "coord": {"lon": -76.345779, "lat": 40.78175}}, {"id": 5178612, "name": "Ashley", "state": "PA", "country": "US", "coord": {"lon": -75.896591, "lat": 41.210361}}, {"id": 5178623, "name": "Ashton Wooden Bridge", "state": "PA", "country": "US", "coord": {"lon": -75.022949, "lat": 40.071781}}, {"id": 5178632, "name": "Aspinwall", "state": "PA", "country": "US", "coord": {"lon": -79.90477, "lat": 40.491459}}, {"id": 5178651, "name": "Athens", "state": "PA", "country": "US", "coord": {"lon": -76.517998, "lat": 41.957298}}, {"id": 5178686, "name": "Audubon", "state": "PA", "country": "US", "coord": {"lon": -75.431847, "lat": 40.12788}}, {"id": 5178724, "name": "Avalon", "state": "PA", "country": "US", "coord": {"lon": -80.067558, "lat": 40.5009}}, {"id": 5178736, "name": "Avis", "state": "PA", "country": "US", "coord": {"lon": -77.313858, "lat": 41.184792}}, {"id": 5178741, "name": "Avoca", "state": "PA", "country": "US", "coord": {"lon": -75.736298, "lat": 41.339802}}, {"id": 5178743, "name": "Avon", "state": "PA", "country": "US", "coord": {"lon": -76.389961, "lat": 40.34565}}, {"id": 5178748, "name": "Avonia", "state": "PA", "country": "US", "coord": {"lon": -80.269791, "lat": 42.045609}}, {"id": 5178749, "name": "Avonmore", "state": "PA", "country": "US", "coord": {"lon": -79.461433, "lat": 40.52895}}, {"id": 5178800, "name": "Back Mountain", "state": "PA", "country": "US", "coord": {"lon": -75.996307, "lat": 41.335911}}, {"id": 5178806, "name": "Baden", "state": "PA", "country": "US", "coord": {"lon": -80.228119, "lat": 40.635071}}, {"id": 5178813, "name": "Bagdad", "state": "PA", "country": "US", "coord": {"lon": -80.024223, "lat": 41.952}}, {"id": 5178824, "name": "Baidland", "state": "PA", "country": "US", "coord": {"lon": -79.970879, "lat": 40.19479}}, {"id": 5178839, "name": "Bainbridge", "state": "PA", "country": "US", "coord": {"lon": -76.667473, "lat": 40.090931}}, {"id": 5178883, "name": "Bakerstown", "state": "PA", "country": "US", "coord": {"lon": -79.93644, "lat": 40.650902}}, {"id": 5178940, "name": "Baldwin", "state": "PA", "country": "US", "coord": {"lon": -79.978943, "lat": 40.338131}}, {"id": 5178975, "name": "Bally", "state": "PA", "country": "US", "coord": {"lon": -75.587128, "lat": 40.402321}}, {"id": 5178996, "name": "Bangor", "state": "PA", "country": "US", "coord": {"lon": -75.206573, "lat": 40.86565}}, {"id": 5179102, "name": "Barnesboro", "state": "PA", "country": "US", "coord": {"lon": -78.780029, "lat": 40.662571}}, {"id": 5179193, "name": "Bath", "state": "PA", "country": "US", "coord": {"lon": -75.394073, "lat": 40.725651}}, {"id": 5179338, "name": "Bear Rocks", "state": "PA", "country": "US", "coord": {"lon": -79.4617, "lat": 40.122849}}, {"id": 5179446, "name": "Beaver", "state": "PA", "country": "US", "coord": {"lon": -80.304779, "lat": 40.695339}}, {"id": 5179454, "name": "Beaver County", "state": "PA", "country": "US", "coord": {"lon": -80.500069, "lat": 40.75034}}, {"id": 5179478, "name": "Beaver Falls", "state": "PA", "country": "US", "coord": {"lon": -80.319229, "lat": 40.75201}}, {"id": 5179577, "name": "Beaverdale", "state": "PA", "country": "US", "coord": {"lon": -78.69696, "lat": 40.322021}}, {"id": 5179630, "name": "Bedford", "state": "PA", "country": "US", "coord": {"lon": -78.503906, "lat": 40.018688}}, {"id": 5179641, "name": "Bedminster", "state": "PA", "country": "US", "coord": {"lon": -75.179062, "lat": 40.425941}}]