[{"id": 5586437, "name": "Boise", "state": "ID", "country": "US", "coord": {"lon": -116.203453, "lat": 43.613499}}, {"id": 5586489, "name": "Bonner County", "state": "ID", "country": "US", "coord": {"lon": -117.001343, "lat": 48.83326}}, {"id": 5586496, "name": "Bonners Ferry", "state": "ID", "country": "US", "coord": {"lon": -116.316307, "lat": 48.69133}}, {"id": 5586500, "name": "Bonneville County", "state": "ID", "country": "US", "coord": {"lon": -111.50106, "lat": 43.41658}}, {"id": 5586587, "name": "Boulder City (historical)", "state": "ID", "country": "US", "coord": {"lon": -116.069351, "lat": 48.602718}}, {"id": 5586641, "name": "Boundary County", "state": "ID", "country": "US", "coord": {"lon": -117.00135, "lat": 48.95826}}, {"id": 5587232, "name": "Buhl", "state": "ID", "country": "US", "coord": {"lon": -114.759491, "lat": 42.599072}}, {"id": 5587385, "name": "Burley", "state": "ID", "country": "US", "coord": {"lon": -113.792793, "lat": 42.53574}}, {"id": 5587585, "name": "Cabarton", "state": "ID", "country": "US", "coord": {"lon": -116.040131, "lat": 44.435452}}, {"id": 5587698, "name": "Caldwell", "state": "ID", "country": "US", "coord": {"lon": -116.687363, "lat": 43.662941}}, {"id": 5587779, "name": "Cambridge", "state": "ID", "country": "US", "coord": {"lon": -116.675987, "lat": 44.572659}}, {"id": 5587975, "name": "Canyon County", "state": "ID", "country": "US", "coord": {"lon": -116.95932, "lat": 43.87516}}, {"id": 5588062, "name": "Cardwell", "state": "ID", "country": "US", "coord": {"lon": -116.563499, "lat": 47.209068}}, {"id": 5588160, "name": "Cascade", "state": "ID", "country": "US", "coord": {"lon": -116.041801, "lat": 44.516281}}, {"id": 5588204, "name": "Cassia County", "state": "ID", "country": "US", "coord": {"lon": -113.563622, "lat": 42.31908}}, {"id": 5588524, "name": "Challis", "state": "ID", "country": "US", "coord": {"lon": -114.231728, "lat": 44.504639}}, {"id": 5588842, "name": "Chubbuck", "state": "ID", "country": "US", "coord": {"lon": -112.466087, "lat": 42.92075}}, {"id": 5588908, "name": "Clark County", "state": "ID", "country": "US", "coord": {"lon": -112.709167, "lat": 44.500191}}, {"id": 5589173, "name": "Coeur d'Alene", "state": "ID", "country": "US", "coord": {"lon": -116.780472, "lat": 47.677681}}, {"id": 5589857, "name": "Council", "state": "ID", "country": "US", "coord": {"lon": -116.438202, "lat": 44.729889}}, {"id": 5590266, "name": "Crystal (historical)", "state": "ID", "country": "US", "coord": {"lon": -114.32589, "lat": 44.267422}}, {"id": 5590383, "name": "Custer County", "state": "ID", "country": "US", "coord": {"lon": -114.221741, "lat": 44.875198}}, {"id": 5590453, "name": "Dalton Gardens", "state": "ID", "country": "US", "coord": {"lon": -116.770187, "lat": 47.72963}}, {"id": 5591399, "name": "Driggs", "state": "ID", "country": "US", "coord": {"lon": -111.111328, "lat": 43.723251}}, {"id": 5591649, "name": "Dubois", "state": "ID", "country": "US", "coord": {"lon": -112.23082, "lat": 44.1763}}, {"id": 5591778, "name": "Eagle", "state": "ID", "country": "US", "coord": {"lon": -116.354012, "lat": 43.695438}}, {"id": 5592170, "name": "Eastport", "state": "ID", "country": "US", "coord": {"lon": -116.181313, "lat": 48.999401}}, {"id": 5592510, "name": "Elmore County", "state": "ID", "country": "US", "coord": {"lon": -115.43869, "lat": 43.312119}}, {"id": 5592562, "name": "Emmett", "state": "ID", "country": "US", "coord": {"lon": -116.499298, "lat": 43.873501}}, {"id": 5592697, "name": "Fairfield", "state": "ID", "country": "US", "coord": {"lon": -114.791733, "lat": 43.346569}}, {"id": 5592973, "name": "Filer", "state": "ID", "country": "US", "coord": {"lon": -114.607819, "lat": 42.57019}}, {"id": 5593399, "name": "Fort Hall", "state": "ID", "country": "US", "coord": {"lon": -112.438309, "lat": 43.033249}}, {"id": 5593620, "name": "Fremont County", "state": "ID", "country": "US", "coord": {"lon": -111.376068, "lat": 44.750198}}, {"id": 5593708, "name": "Fruitland", "state": "ID", "country": "US", "coord": {"lon": -116.91655, "lat": 44.00766}}, {"id": 5593764, "name": "Gale", "state": "ID", "country": "US", "coord": {"lon": -111.719414, "lat": 43.76519}}, {"id": 5593814, "name": "Garden City", "state": "ID", "country": "US", "coord": {"lon": -116.238167, "lat": 43.622108}}, {"id": 5594090, "name": "Glengary", "state": "ID", "country": "US", "coord": {"lon": -116.374634, "lat": 48.22187}}, {"id": 5594092, "name": "Glenns Ferry", "state": "ID", "country": "US", "coord": {"lon": -115.300903, "lat": 42.954899}}, {"id": 5594307, "name": "Gooding", "state": "ID", "country": "US", "coord": {"lon": -114.713112, "lat": 42.938789}}, {"id": 5594474, "name": "Grangeville", "state": "ID", "country": "US", "coord": {"lon": -116.122368, "lat": 45.926552}}, {"id": 5594956, "name": "Hailey", "state": "ID", "country": "US", "coord": {"lon": -114.315323, "lat": 43.51963}}, {"id": 5595086, "name": "Hansen", "state": "ID", "country": "US", "coord": {"lon": -114.30101, "lat": 42.530682}}, {"id": 5595277, "name": "Havens", "state": "ID", "country": "US", "coord": {"lon": -112.59082, "lat": 43.27047}}, {"id": 5595320, "name": "Hayden", "state": "ID", "country": "US", "coord": {"lon": -116.786583, "lat": 47.766022}}, {"id": 5595503, "name": "Heman", "state": "ID", "country": "US", "coord": {"lon": -111.79747, "lat": 43.956299}}, {"id": 5595591, "name": "Heyburn", "state": "ID", "country": "US", "coord": {"lon": -113.763901, "lat": 42.558521}}, {"id": 5595728, "name": "Hillcrest", "state": "ID", "country": "US", "coord": {"lon": -116.182892, "lat": 43.563499}}, {"id": 5595881, "name": "Homedale", "state": "ID", "country": "US", "coord": {"lon": -116.933762, "lat": 43.617661}}, {"id": 5596230, "name": "Howard", "state": "ID", "country": "US", "coord": {"lon": -116.298203, "lat": 46.276279}}, {"id": 5596462, "name": "Idaho City", "state": "ID", "country": "US", "coord": {"lon": -115.834549, "lat": 43.828499}}, {"id": 5596467, "name": "Idaho County", "state": "ID", "country": "US", "coord": {"lon": -114.626213, "lat": 45.958248}}, {"id": 5596475, "name": "Idaho Falls", "state": "ID", "country": "US", "coord": {"lon": -112.034142, "lat": 43.466579}}, {"id": 5596512, "name": "Idaho", "state": "ID", "country": "US", "coord": {"lon": -114.251183, "lat": 44.500198}}, {"id": 5596741, "name": "Iona", "state": "ID", "country": "US", "coord": {"lon": -111.933022, "lat": 43.526299}}, {"id": 5597034, "name": "Jerome", "state": "ID", "country": "US", "coord": {"lon": -114.518646, "lat": 42.724072}}, {"id": 5597538, "name": "Kamiah", "state": "ID", "country": "US", "coord": {"lon": -116.029312, "lat": 46.227119}}, {"id": 5597606, "name": "Kellogg", "state": "ID", "country": "US", "coord": {"lon": -116.119331, "lat": 47.538261}}, {"id": 5597711, "name": "Ketchum", "state": "ID", "country": "US", "coord": {"lon": -114.363663, "lat": 43.68074}}, {"id": 5597783, "name": "Kimberly", "state": "ID", "country": "US", "coord": {"lon": -114.364761, "lat": 42.533798}}, {"id": 5597922, "name": "Kootenai County", "state": "ID", "country": "US", "coord": {"lon": -116.626297, "lat": 47.708241}}, {"id": 5597955, "name": "Kuna", "state": "ID", "country": "US", "coord": {"lon": -116.42012, "lat": 43.491829}}, {"id": 5598185, "name": "Lapwai", "state": "ID", "country": "US", "coord": {"lon": -116.804871, "lat": 46.404888}}, {"id": 5598264, "name": "Latah County", "state": "ID", "country": "US", "coord": {"lon": -117.001282, "lat": 47.125172}}, {"id": 5598464, "name": "Lemhi County", "state": "ID", "country": "US", "coord": {"lon": -114.00119, "lat": 45.666592}}, {"id": 5598527, "name": "Lewis County", "state": "ID", "country": "US", "coord": {"lon": -116.626259, "lat": 46.16655}}, {"id": 5598538, "name": "Lewiston", "state": "ID", "country": "US", "coord": {"lon": -117.017662, "lat": 46.41655}}, {"id": 5598542, "name": "Lewiston Orchards", "state": "ID", "country": "US", "coord": {"lon": -116.975433, "lat": 46.38044}}, {"id": 5598674, "name": "Lincoln", "state": "ID", "country": "US", "coord": {"lon": -111.964409, "lat": 43.51297}}, {"id": 5599665, "name": "Lowell", "state": "ID", "country": "US", "coord": {"lon": -115.595688, "lat": 46.14407}}, {"id": 5599930, "name": "Madison County", "state": "ID", "country": "US", "coord": {"lon": -111.876083, "lat": 43.91658}}, {"id": 5600035, "name": "Malad City", "state": "ID", "country": "US", "coord": {"lon": -112.250801, "lat": 42.191589}}, {"id": 5600229, "name": "Marsing", "state": "ID", "country": "US", "coord": {"lon": -116.813202, "lat": 43.545441}}, {"id": 5600363, "name": "McCall", "state": "ID", "country": "US", "coord": {"lon": -116.09874, "lat": 44.911011}}, {"id": 5600685, "name": "Meridian", "state": "ID", "country": "US", "coord": {"lon": -116.39151, "lat": 43.61211}}, {"id": 5600729, "name": "Mica", "state": "ID", "country": "US", "coord": {"lon": -116.8713, "lat": 47.620461}}, {"id": 5600748, "name": "Michaud", "state": "ID", "country": "US", "coord": {"lon": -112.614433, "lat": 42.89019}}, {"id": 5600890, "name": "Middleton", "state": "ID", "country": "US", "coord": {"lon": -116.62014, "lat": 43.706829}}, {"id": 5601299, "name": "Montpelier", "state": "ID", "country": "US", "coord": {"lon": -111.297699, "lat": 42.322151}}, {"id": 5601462, "name": "Moreland", "state": "ID", "country": "US", "coord": {"lon": -112.442482, "lat": 43.222691}}, {"id": 5601538, "name": "Moscow", "state": "ID", "country": "US", "coord": {"lon": -117.000168, "lat": 46.732391}}, {"id": 5601615, "name": "Mountain Home", "state": "ID", "country": "US", "coord": {"lon": -115.6912, "lat": 43.13295}}, {"id": 5601827, "name": "Murphy", "state": "ID", "country": "US", "coord": {"lon": -116.552338, "lat": 43.21822}}, {"id": 5601933, "name": "Nampa", "state": "ID", "country": "US", "coord": {"lon": -116.563461, "lat": 43.540722}}, {"id": 5602080, "name": "New Plymouth", "state": "ID", "country": "US", "coord": {"lon": -116.819038, "lat": 43.969891}}, {"id": 5602115, "name": "Nez Perce County", "state": "ID", "country": "US", "coord": {"lon": -116.626259, "lat": 46.625172}}, {"id": 5602128, "name": "Nezperce", "state": "ID", "country": "US", "coord": {"lon": -116.2407, "lat": 46.23489}}, {"id": 5602844, "name": "Oneida County", "state": "ID", "country": "US", "coord": {"lon": -112.50386, "lat": 42.234921}}, {"id": 5602909, "name": "Orofino", "state": "ID", "country": "US", "coord": {"lon": -116.255142, "lat": 46.479351}}, {"id": 5602934, "name": "Osburn", "state": "ID", "country": "US", "coord": {"lon": -115.999329, "lat": 47.506039}}, {"id": 5603018, "name": "Owyhee County", "state": "ID", "country": "US", "coord": {"lon": -116.061768, "lat": 42.55962}}, {"id": 5603240, "name": "Paris", "state": "ID", "country": "US", "coord": {"lon": -111.401039, "lat": 42.22715}}, {"id": 5603310, "name": "Parma", "state": "ID", "country": "US", "coord": {"lon": -116.943207, "lat": 43.78516}}, {"id": 5603391, "name": "Paul", "state": "ID", "country": "US", "coord": {"lon": -113.783348, "lat": 42.60796}}, {"id": 5603393, "name": "Payette", "state": "ID", "country": "US", "coord": {"lon": -116.933769, "lat": 44.07822}}, {"id": 5603860, "name": "Pinehurst", "state": "ID", "country": "US", "coord": {"lon": -116.237389, "lat": 47.538811}}, {"id": 5604033, "name": "Plummer", "state": "ID", "country": "US", "coord": {"lon": -116.888512, "lat": 47.335178}}, {"id": 5604045, "name": "Pocatello", "state": "ID", "country": "US", "coord": {"lon": -112.445534, "lat": 42.8713}}, {"id": 5604222, "name": "Ponderay", "state": "ID", "country": "US", "coord": {"lon": -116.533798, "lat": 48.305481}}, {"id": 5604353, "name": "Post Falls", "state": "ID", "country": "US", "coord": {"lon": -116.951591, "lat": 47.71796}}, {"id": 5604439, "name": "Power County", "state": "ID", "country": "US", "coord": {"lon": -112.818321, "lat": 42.693249}}, {"id": 5604473, "name": "Preston", "state": "ID", "country": "US", "coord": {"lon": -111.876617, "lat": 42.09631}}, {"id": 5604510, "name": "Priest River", "state": "ID", "country": "US", "coord": {"lon": -116.909363, "lat": 48.18074}}, {"id": 5605008, "name": "Reclamation Village", "state": "ID", "country": "US", "coord": {"lon": -115.488701, "lat": 43.335449}}, {"id": 5605242, "name": "Rexburg", "state": "ID", "country": "US", "coord": {"lon": -111.789688, "lat": 43.826019}}, {"id": 5605321, "name": "Rigby", "state": "ID", "country": "US", "coord": {"lon": -111.91497, "lat": 43.672409}}, {"id": 5605582, "name": "Rock Creek", "state": "ID", "country": "US", "coord": {"lon": -114.305588, "lat": 42.43214}}, {"id": 5605923, "name": "Rouse", "state": "ID", "country": "US", "coord": {"lon": -112.479149, "lat": 43.226582}}, {"id": 5606000, "name": "Rupert", "state": "ID", "country": "US", "coord": {"lon": -113.677231, "lat": 42.61908}}, {"id": 5606187, "name": "Saint Anthony", "state": "ID", "country": "US", "coord": {"lon": -111.682182, "lat": 43.966301}}, {"id": 5606232, "name": "Saint Maries", "state": "ID", "country": "US", "coord": {"lon": -116.562668, "lat": 47.31435}}, {"id": 5606275, "name": "Salmon", "state": "ID", "country": "US", "coord": {"lon": -113.895897, "lat": 45.175751}}, {"id": 5606338, "name": "Sampson", "state": "ID", "country": "US", "coord": {"lon": -116.008469, "lat": 45.51767}}, {"id": 5606401, "name": "Sandpoint", "state": "ID", "country": "US", "coord": {"lon": -116.553253, "lat": 48.276588}}, {"id": 5606743, "name": "Selle", "state": "ID", "country": "US", "coord": {"lon": -116.489639, "lat": 48.356869}}, {"id": 5607051, "name": "Shelley", "state": "ID", "country": "US", "coord": {"lon": -112.123306, "lat": 43.381302}}, {"id": 5607205, "name": "Shoshone", "state": "ID", "country": "US", "coord": {"lon": -114.405884, "lat": 42.93602}}, {"id": 5607807, "name": "Snow (historical)", "state": "ID", "country": "US", "coord": {"lon": -116.791809, "lat": 46.299881}}, {"id": 5607916, "name": "Soda Springs", "state": "ID", "country": "US", "coord": {"lon": -111.604668, "lat": 42.654369}}, {"id": 5608388, "name": "Spirit Lake", "state": "ID", "country": "US", "coord": {"lon": -116.86853, "lat": 47.96629}}, {"id": 5608754, "name": "Star", "state": "ID", "country": "US", "coord": {"lon": -116.493462, "lat": 43.692108}}, {"id": 5609169, "name": "Sugar City", "state": "ID", "country": "US", "coord": {"lon": -111.748299, "lat": 43.872971}}, {"id": 5609286, "name": "Sun Valley", "state": "ID", "country": "US", "coord": {"lon": -114.351723, "lat": 43.697128}}, {"id": 5609454, "name": "Swan Valley", "state": "ID", "country": "US", "coord": {"lon": -111.341621, "lat": 43.456032}}, {"id": 5609855, "name": "Teton County", "state": "ID", "country": "US", "coord": {"lon": -111.37606, "lat": 43.91658}}, {"id": 5609907, "name": "The String", "state": "ID", "country": "US", "coord": {"lon": -111.088547, "lat": 43.584641}}, {"id": 5610054, "name": "Three Creek", "state": "ID", "country": "US", "coord": {"lon": -115.1595, "lat": 42.071301}}, {"id": 5610350, "name": "Torreys", "state": "ID", "country": "US", "coord": {"lon": -114.602287, "lat": 44.253529}}, {"id": 5610655, "name": "Troy", "state": "ID", "country": "US", "coord": {"lon": -116.7696, "lat": 46.736839}}, {"id": 5610810, "name": "Twin Falls", "state": "ID", "country": "US", "coord": {"lon": -114.460869, "lat": 42.562969}}, {"id": 5610815, "name": "Twin Falls County", "state": "ID", "country": "US", "coord": {"lon": -114.644493, "lat": 42.35046}}, {"id": 5610980, "name": "Ucon", "state": "ID", "country": "US", "coord": {"lon": -111.96386, "lat": 43.596298}}, {"id": 5611156, "name": "Valley County", "state": "ID", "country": "US", "coord": {"lon": -116.126244, "lat": 45.12767}}, {"id": 5611251, "name": "Victor", "state": "ID", "country": "US", "coord": {"lon": -111.111328, "lat": 43.602699}}, {"id": 5611375, "name": "Wallace", "state": "ID", "country": "US", "coord": {"lon": -115.92794, "lat": 47.474091}}, {"id": 5611570, "name": "Washington County", "state": "ID", "country": "US", "coord": {"lon": -117.001282, "lat": 44.75016}}, {"id": 5611730, "name": "Weiser", "state": "ID", "country": "US", "coord": {"lon": -116.96933, "lat": 44.250999}}, {"id": 5611758, "name": "Wendell", "state": "ID", "country": "US", "coord": {"lon": -114.704224, "lat": 42.775742}}, {"id": 5612431, "name": "Wilder", "state": "ID", "country": "US", "coord": {"lon": -116.911819, "lat": 43.676552}}, {"id": 5612492, "name": "Williams Lake Resort", "state": "ID", "country": "US", "coord": {"lon": -113.965897, "lat": 45.011871}}, {"id": 5636523, "name": "Absarokee", "state": "MT", "country": "US", "coord": {"lon": -109.44294, "lat": 45.5205}}, {"id": 5636763, "name": "Alder", "state": "MT", "country": "US", "coord": {"lon": -112.107208, "lat": 45.323811}}, {"id": 5637141, "name": "Amsterdam", "state": "MT", "country": "US", "coord": {"lon": -111.319962, "lat": 45.75798}}, {"id": 5637146, "name": "Anaconda", "state": "MT", "country": "US", "coord": {"lon": -112.942261, "lat": 46.12854}}, {"id": 5638252, "name": "Baker", "state": "MT", "country": "US", "coord": {"lon": -104.28466, "lat": 46.366951}}, {"id": 5639364, "name": "Belgrade", "state": "MT", "country": "US", "coord": {"lon": -111.176903, "lat": 45.776039}}, {"id": 5639380, "name": "Belgrade Village Mobile Home Park", "state": "MT", "country": "US", "coord": {"lon": -111.170227, "lat": 45.774101}}, {"id": 5640165, "name": "Big Sky Mobile Home Court", "state": "MT", "country": "US", "coord": {"lon": -111.331352, "lat": 45.266041}}, {"id": 5640193, "name": "Big Sky", "state": "MT", "country": "US", "coord": {"lon": -111.368294, "lat": 45.284649}}, {"id": 5640214, "name": "Big Timber", "state": "MT", "country": "US", "coord": {"lon": -109.95546, "lat": 45.834942}}, {"id": 5640284, "name": "Bigfork", "state": "MT", "country": "US", "coord": {"lon": -114.072609, "lat": 48.06329}}, {"id": 5640350, "name": "Billings", "state": "MT", "country": "US", "coord": {"lon": -108.500687, "lat": 45.783291}}, {"id": 5640480, "name": "Birney Day School", "state": "MT", "country": "US", "coord": {"lon": -106.465309, "lat": 45.4161}}, {"id": 5641473, "name": "Boulder", "state": "MT", "country": "US", "coord": {"lon": -112.120827, "lat": 46.236591}}, {"id": 5641719, "name": "Boyes", "state": "MT", "country": "US", "coord": {"lon": -105.03109, "lat": 45.26804}}, {"id": 5641727, "name": "Bozeman", "state": "MT", "country": "US", "coord": {"lon": -111.038559, "lat": 45.679649}}, {"id": 5641875, "name": "Bredette", "state": "MT", "country": "US", "coord": {"lon": -105.299713, "lat": 48.505581}}, {"id": 5642048, "name": "Broadus", "state": "MT", "country": "US", "coord": {"lon": -105.407494, "lat": 45.443878}}, {"id": 5642247, "name": "Browning", "state": "MT", "country": "US", "coord": {"lon": -113.01342, "lat": 48.556919}}, {"id": 5642934, "name": "Butte", "state": "MT", "country": "US", "coord": {"lon": -112.534737, "lat": 46.003819}}, {"id": 5643367, "name": "Cameron Park", "state": "MT", "country": "US", "coord": {"lon": -108.581802, "lat": 45.799671}}, {"id": 5643686, "name": "Carbon County", "state": "MT", "country": "US", "coord": {"lon": -109.067368, "lat": 45.21661}}, {"id": 5643864, "name": "Carter County", "state": "MT", "country": "US", "coord": {"lon": -104.550507, "lat": 45.46666}}, {"id": 5643929, "name": "Cascade County", "state": "MT", "country": "US", "coord": {"lon": -111.367462, "lat": 47.29995}}, {"id": 5644629, "name": "Chester", "state": "MT", "country": "US", "coord": {"lon": -110.967468, "lat": 48.51054}}, {"id": 5644801, "name": "Chinook", "state": "MT", "country": "US", "coord": {"lon": -109.231277, "lat": 48.59}}, {"id": 5644844, "name": "Choteau", "state": "MT", "country": "US", "coord": {"lon": -112.183632, "lat": 47.81245}}, {"id": 5645114, "name": "Circle", "state": "MT", "country": "US", "coord": {"lon": -105.592216, "lat": 47.416679}}, {"id": 5645169, "name": "Clancy", "state": "MT", "country": "US", "coord": {"lon": -111.986382, "lat": 46.46521}}, {"id": 5645454, "name": "Clinton", "state": "MT", "country": "US", "coord": {"lon": -113.712601, "lat": 46.769089}}, {"id": 5645832, "name": "Colstrip", "state": "MT", "country": "US", "coord": {"lon": -106.623642, "lat": 45.884159}}, {"id": 5645859, "name": "Columbia Falls", "state": "MT", "country": "US", "coord": {"lon": -114.181519, "lat": 48.372459}}, {"id": 5645893, "name": "Columbus", "state": "MT", "country": "US", "coord": {"lon": -109.252113, "lat": 45.636608}}, {"id": 5646101, "name": "Conrad", "state": "MT", "country": "US", "coord": {"lon": -111.946129, "lat": 48.17025}}, {"id": 5647159, "name": "Crow Agency", "state": "MT", "country": "US", "coord": {"lon": -107.461189, "lat": 45.601639}}, {"id": 5647366, "name": "Culbertson", "state": "MT", "country": "US", "coord": {"lon": -104.516899, "lat": 48.144459}}, {"id": 5647469, "name": "Cut Bank", "state": "MT", "country": "US", "coord": {"lon": -112.326157, "lat": 48.633041}}, {"id": 5647905, "name": "Dawson County", "state": "MT", "country": "US", "coord": {"lon": -104.90052, "lat": 47.266682}}, {"id": 5647942, "name": "De Smet", "state": "MT", "country": "US", "coord": {"lon": -114.103172, "lat": 46.933262}}, {"id": 5648267, "name": "Deer Lodge", "state": "MT", "country": "US", "coord": {"lon": -112.730042, "lat": 46.39576}}, {"id": 5648657, "name": "Dillon", "state": "MT", "country": "US", "coord": {"lon": -112.63752, "lat": 45.216309}}, {"id": 5649823, "name": "Eagle Creek Colony", "state": "MT", "country": "US", "coord": {"lon": -111.210541, "lat": 48.698051}}, {"id": 5650243, "name": "East Glacier Park", "state": "MT", "country": "US", "coord": {"lon": -113.218147, "lat": 48.44136}}, {"id": 5650245, "name": "East Helena", "state": "MT", "country": "US", "coord": {"lon": -111.91555, "lat": 46.589661}}, {"id": 5650265, "name": "East Malta Colony", "state": "MT", "country": "US", "coord": {"lon": -107.609268, "lat": 48.351662}}, {"id": 5650270, "name": "East Missoula", "state": "MT", "country": "US", "coord": {"lon": -113.94455, "lat": 46.870762}}, {"id": 5650429, "name": "Eden", "state": "MT", "country": "US", "coord": {"lon": -111.272179, "lat": 47.269958}}, {"id": 5650548, "name": "Ekalaka", "state": "MT", "country": "US", "coord": {"lon": -104.552727, "lat": 45.888889}}, {"id": 5651208, "name": "Eureka", "state": "MT", "country": "US", "coord": {"lon": -115.053497, "lat": 48.879959}}, {"id": 5651289, "name": "Evergreen", "state": "MT", "country": "US", "coord": {"lon": -114.276237, "lat": 48.225788}}, {"id": 5651735, "name": "Fergus County", "state": "MT", "country": "US", "coord": {"lon": -109.267403, "lat": 47.29998}}, {"id": 5652361, "name": "Flathead County", "state": "MT", "country": "US", "coord": {"lon": -114.251244, "lat": 48.333302}}, {"id": 5652658, "name": "Forest Hill Village", "state": "MT", "country": "US", "coord": {"lon": -114.257896, "lat": 48.118011}}, {"id": 5652699, "name": "Forsyth", "state": "MT", "country": "US", "coord": {"lon": -106.677811, "lat": 46.26638}}, {"id": 5652721, "name": "Fort Belknap Agency", "state": "MT", "country": "US", "coord": {"lon": -108.765442, "lat": 48.482498}}, {"id": 5652763, "name": "Fort Benton", "state": "MT", "country": "US", "coord": {"lon": -110.667442, "lat": 47.818298}}, {"id": 5653014, "name": "Four Corners", "state": "MT", "country": "US", "coord": {"lon": -111.186058, "lat": 45.62965}}, {"id": 5653377, "name": "Frenchtown", "state": "MT", "country": "US", "coord": {"lon": -114.229843, "lat": 47.014919}}, {"id": 5653656, "name": "Gallatin County", "state": "MT", "country": "US", "coord": {"lon": -111.20079, "lat": 45.666599}}, {"id": 5653814, "name": "Garrett Mobile Home Park", "state": "MT", "country": "US", "coord": {"lon": -111.350807, "lat": 47.505508}}, {"id": 5653884, "name": "Gateway (historical)", "state": "MT", "country": "US", "coord": {"lon": -115.173233, "lat": 48.99913}}, {"id": 5654267, "name": "Glacier County", "state": "MT", "country": "US", "coord": {"lon": -112.967583, "lat": 48.649979}}, {"id": 5654320, "name": "Glasgow", "state": "MT", "country": "US", "coord": {"lon": -106.636711, "lat": 48.19696}}, {"id": 5654391, "name": "Glendive", "state": "MT", "country": "US", "coord": {"lon": -104.712463, "lat": 47.105289}}, {"id": 5654985, "name": "Granite County", "state": "MT", "country": "US", "coord": {"lon": -113.467583, "lat": 46.399921}}, {"id": 5655069, "name": "Grantsdale", "state": "MT", "country": "US", "coord": {"lon": -114.141762, "lat": 46.203529}}, {"id": 5655240, "name": "Great Falls", "state": "MT", "country": "US", "coord": {"lon": -111.300812, "lat": 47.50024}}, {"id": 5655445, "name": "Greve (historical)", "state": "MT", "country": "US", "coord": {"lon": -107.420082, "lat": 48.970299}}, {"id": 5655959, "name": "Hamilton", "state": "MT", "country": "US", "coord": {"lon": -114.16037, "lat": 46.246868}}, {"id": 5656170, "name": "Hardin", "state": "MT", "country": "US", "coord": {"lon": -107.61203, "lat": 45.732479}}, {"id": 5656214, "name": "Harlowton", "state": "MT", "country": "US", "coord": {"lon": -109.834351, "lat": 46.435509}}, {"id": 5656497, "name": "Havre", "state": "MT", "country": "US", "coord": {"lon": -109.68409, "lat": 48.549999}}, {"id": 5656882, "name": "Helena", "state": "MT", "country": "US", "coord": {"lon": -112.03611, "lat": 46.592709}}, {"id": 5657400, "name": "Hill County", "state": "MT", "country": "US", "coord": {"lon": -110.100769, "lat": 48.650002}}, {"id": 5658541, "name": "Hysham", "state": "MT", "country": "US", "coord": {"lon": -107.23423, "lat": 46.29277}}, {"id": 5658648, "name": "Independence", "state": "MT", "country": "US", "coord": {"lon": -110.2463, "lat": 45.21244}}, {"id": 5659996, "name": "Jordan", "state": "MT", "country": "US", "coord": {"lon": -106.910072, "lat": 47.320831}}, {"id": 5660340, "name": "Kalispell", "state": "MT", "country": "US", "coord": {"lon": -114.312912, "lat": 48.195789}}, {"id": 5661134, "name": "Korner (historical)", "state": "MT", "country": "US", "coord": {"lon": -112.320343, "lat": 48.911098}}, {"id": 5661299, "name": "La Salle", "state": "MT", "country": "US", "coord": {"lon": -114.244019, "lat": 48.313019}}, {"id": 5661473, "name": "Lakeside", "state": "MT", "country": "US", "coord": {"lon": -114.224571, "lat": 48.01939}}, {"id": 5661538, "name": "Lame Deer", "state": "MT", "country": "US", "coord": {"lon": -106.666702, "lat": 45.623051}}, {"id": 5661766, "name": "Laurel", "state": "MT", "country": "US", "coord": {"lon": -108.77153, "lat": 45.669121}}, {"id": 5662129, "name": "Lewis and Clark County", "state": "MT", "country": "US", "coord": {"lon": -112.4842, "lat": 47.033279}}, {"id": 5662162, "name": "Lewistown", "state": "MT", "country": "US", "coord": {"lon": -109.428238, "lat": 47.062469}}, {"id": 5662166, "name": "Lewistown Heights", "state": "MT", "country": "US", "coord": {"lon": -109.452957, "lat": 47.075809}}, {"id": 5662190, "name": "Libby", "state": "MT", "country": "US", "coord": {"lon": -115.556, "lat": 48.38829}}, {"id": 5662222, "name": "Liberty County", "state": "MT", "country": "US", "coord": {"lon": -111.017471, "lat": 48.549992}}, {"id": 5662396, "name": "Lincoln", "state": "MT", "country": "US", "coord": {"lon": -112.681709, "lat": 46.954941}}, {"id": 5662406, "name": "Lincoln County", "state": "MT", "country": "US", "coord": {"lon": -115.384331, "lat": 48.549961}}, {"id": 5663049, "name": "Livingston", "state": "MT", "country": "US", "coord": {"lon": -110.561043, "lat": 45.662441}}, {"id": 5663135, "name": "Lockwood", "state": "MT", "country": "US", "coord": {"lon": -108.414864, "lat": 45.819118}}, {"id": 5663257, "name": "Lolo", "state": "MT", "country": "US", "coord": {"lon": -114.08094, "lat": 46.758808}}, {"id": 5663267, "name": "Lolo Hot Springs", "state": "MT", "country": "US", "coord": {"lon": -114.53067, "lat": 46.727699}}, {"id": 5664295, "name": "Madison County", "state": "MT", "country": "US", "coord": {"lon": -111.867477, "lat": 45.28326}}, {"id": 5664486, "name": "Malta", "state": "MT", "country": "US", "coord": {"lon": -107.874283, "lat": 48.359718}}, {"id": 5664535, "name": "Manhattan", "state": "MT", "country": "US", "coord": {"lon": -111.332458, "lat": 45.856602}}, {"id": 5665340, "name": "McHugh Trailer Court", "state": "MT", "country": "US", "coord": {"lon": -112.02861, "lat": 46.61549}}, {"id": 5666176, "name": "Miles City", "state": "MT", "country": "US", "coord": {"lon": -105.840561, "lat": 46.40834}}, {"id": 5666639, "name": "Missoula", "state": "MT", "country": "US", "coord": {"lon": -113.994003, "lat": 46.87215}}, {"id": 5666648, "name": "Missoula County", "state": "MT", "country": "US", "coord": {"lon": -113.800926, "lat": 47.01659}}, {"id": 5666921, "name": "Montana City", "state": "MT", "country": "US", "coord": {"lon": -111.93277, "lat": 46.537708}}, {"id": 5667009, "name": "Montana", "state": "MT", "country": "US", "coord": {"lon": -109.751022, "lat": 47.000252}}, {"id": 5668939, "name": "North Browning", "state": "MT", "country": "US", "coord": {"lon": -113.009529, "lat": 48.570251}}, {"id": 5670128, "name": "Orchard Homes", "state": "MT", "country": "US", "coord": {"lon": -114.048439, "lat": 46.863258}}, {"id": 5670441, "name": "Pablo", "state": "MT", "country": "US", "coord": {"lon": -114.119003, "lat": 47.600208}}, {"id": 5670449, "name": "Pacific Junction", "state": "MT", "country": "US", "coord": {"lon": -109.759933, "lat": 48.556389}}, {"id": 5670652, "name": "Park County", "state": "MT", "country": "US", "coord": {"lon": -110.567429, "lat": 45.483269}}, {"id": 5671240, "name": "Philipsburg", "state": "MT", "country": "US", "coord": {"lon": -113.294228, "lat": 46.33215}}, {"id": 5671269, "name": "Phillips County", "state": "MT", "country": "US", "coord": {"lon": -107.934013, "lat": 48.200001}}, {"id": 5671710, "name": "Plains", "state": "MT", "country": "US", "coord": {"lon": -114.882912, "lat": 47.460209}}, {"id": 5671807, "name": "Plentywood", "state": "MT", "country": "US", "coord": {"lon": -104.562462, "lat": 48.77475}}, {"id": 5671996, "name": "Polson", "state": "MT", "country": "US", "coord": {"lon": -114.16317, "lat": 47.69355}}, {"id": 5672554, "name": "Princeton", "state": "MT", "country": "US", "coord": {"lon": -113.165611, "lat": 46.41687}}, {"id": 5673008, "name": "Rainbows End Mobile Home Park", "state": "MT", "country": "US", "coord": {"lon": -114.398193, "lat": 48.186901}}, {"id": 5673092, "name": "Rankin Place", "state": "MT", "country": "US", "coord": {"lon": -109.492393, "lat": 45.261608}}, {"id": 5673204, "name": "Ravalli County", "state": "MT", "country": "US", "coord": {"lon": -114.134262, "lat": 46.133251}}, {"id": 5673390, "name": "Red Lodge", "state": "MT", "country": "US", "coord": {"lon": -109.246819, "lat": 45.18578}}, {"id": 5673835, "name": "Richey", "state": "MT", "country": "US", "coord": {"lon": -105.074982, "lat": 47.643902}}, {"id": 5673849, "name": "Richland County", "state": "MT", "country": "US", "coord": {"lon": -104.533836, "lat": 47.783352}}, {"id": 5674601, "name": "Ronan", "state": "MT", "country": "US", "coord": {"lon": -114.101501, "lat": 47.52882}}, {"id": 5674655, "name": "Roosevelt County", "state": "MT", "country": "US", "coord": {"lon": -105.133873, "lat": 48.300018}}, {"id": 5674707, "name": "Rosebud County", "state": "MT", "country": "US", "coord": {"lon": -106.583923, "lat": 46.333328}}, {"id": 5674878, "name": "Roundup", "state": "MT", "country": "US", "coord": {"lon": -108.541801, "lat": 46.44524}}, {"id": 5675156, "name": "Ryegate", "state": "MT", "country": "US", "coord": {"lon": -109.258789, "lat": 46.29718}}, {"id": 5676740, "name": "Scobey", "state": "MT", "country": "US", "coord": {"lon": -105.42083, "lat": 48.792519}}, {"id": 5676910, "name": "Seeley Lake", "state": "MT", "country": "US", "coord": {"lon": -113.48452, "lat": 47.179379}}, {"id": 5677247, "name": "Shawmut", "state": "MT", "country": "US", "coord": {"lon": -109.524902, "lat": 46.342461}}, {"id": 5677433, "name": "Shelby", "state": "MT", "country": "US", "coord": {"lon": -111.856972, "lat": 48.50526}}, {"id": 5677735, "name": "Sidney", "state": "MT", "country": "US", "coord": {"lon": -104.156326, "lat": 47.716679}}, {"id": 5677822, "name": "Silver Bow County", "state": "MT", "country": "US", "coord": {"lon": -112.667526, "lat": 45.899929}}, {"id": 5678757, "name": "Soda Springs", "state": "MT", "country": "US", "coord": {"lon": -108.272346, "lat": 45.56551}}, {"id": 5678822, "name": "Somers", "state": "MT", "country": "US", "coord": {"lon": -114.221512, "lat": 48.080231}}, {"id": 5678917, "name": "South Browning", "state": "MT", "country": "US", "coord": {"lon": -113.014252, "lat": 48.546082}}, {"id": 5680222, "name": "Stanford", "state": "MT", "country": "US", "coord": {"lon": -110.218262, "lat": 47.15358}}, {"id": 5680485, "name": "Stevensville", "state": "MT", "country": "US", "coord": {"lon": -114.093163, "lat": 46.509918}}, {"id": 5681020, "name": "Sun Prairie", "state": "MT", "country": "US", "coord": {"lon": -111.481361, "lat": 47.5369}}, {"id": 5681215, "name": "Superior", "state": "MT", "country": "US", "coord": {"lon": -114.8918, "lat": 47.191589}}, {"id": 5681425, "name": "Sweet Grass", "state": "MT", "country": "US", "coord": {"lon": -111.960602, "lat": 48.996109}}, {"id": 5681948, "name": "Terry", "state": "MT", "country": "US", "coord": {"lon": -105.31221, "lat": 46.79306}}, {"id": 5682159, "name": "Thiels West Trailer Court", "state": "MT", "country": "US", "coord": {"lon": -109.74659, "lat": 48.548611}}, {"id": 5682278, "name": "Thompson Falls", "state": "MT", "country": "US", "coord": {"lon": -115.344322, "lat": 47.59716}}, {"id": 5682364, "name": "Three Forks", "state": "MT", "country": "US", "coord": {"lon": -111.552193, "lat": 45.892429}}, {"id": 5682810, "name": "Toole County", "state": "MT", "country": "US", "coord": {"lon": -111.634178, "lat": 48.64999}}, {"id": 5682902, "name": "Townsend", "state": "MT", "country": "US", "coord": {"lon": -111.520798, "lat": 46.319099}}, {"id": 5683964, "name": "Upper Bridger (historical)", "state": "MT", "country": "US", "coord": {"lon": -110.903831, "lat": 45.73576}}, {"id": 5684246, "name": "Valley County", "state": "MT", "country": "US", "coord": {"lon": -106.650597, "lat": 48.43335}}, {"id": 5684558, "name": "Virginia City", "state": "MT", "country": "US", "coord": {"lon": -111.946091, "lat": 45.293812}}, {"id": 5684708, "name": "Wagon Wheel Trailer Court", "state": "MT", "country": "US", "coord": {"lon": -104.161331, "lat": 47.709461}}, {"id": 5685656, "name": "West Glendive", "state": "MT", "country": "US", "coord": {"lon": -104.74968, "lat": 47.110851}}, {"id": 5685767, "name": "West Yellowstone", "state": "MT", "country": "US", "coord": {"lon": -111.104111, "lat": 44.662151}}, {"id": 5685886, "name": "Wheatland County", "state": "MT", "country": "US", "coord": {"lon": -109.834068, "lat": 46.449959}}, {"id": 5686092, "name": "White Sulphur Springs", "state": "MT", "country": "US", "coord": {"lon": -110.902161, "lat": 46.548279}}, {"id": 5686121, "name": "Whitefish", "state": "MT", "country": "US", "coord": {"lon": -114.337631, "lat": 48.411079}}, {"id": 5686153, "name": "Whitehall", "state": "MT", "country": "US", "coord": {"lon": -112.097488, "lat": 45.870762}}, {"id": 5686290, "name": "Wibaux", "state": "MT", "country": "US", "coord": {"lon": -104.188271, "lat": 46.985008}}, {"id": 5686603, "name": "Willow Creek", "state": "MT", "country": "US", "coord": {"lon": -111.644699, "lat": 45.825211}}, {"id": 5686862, "name": "Winnett", "state": "MT", "country": "US", "coord": {"lon": -108.352074, "lat": 47.002762}}, {"id": 5687028, "name": "Wolf Point", "state": "MT", "country": "US", "coord": {"lon": -105.640556, "lat": 48.090569}}, {"id": 5687489, "name": "Yellowstone County", "state": "MT", "country": "US", "coord": {"lon": -108.300682, "lat": 45.916618}}, {"id": 5687646, "name": "Adams County", "state": "ND", "country": "US", "coord": {"lon": -102.525436, "lat": 46.055561}}, {"id": 5687696, "name": "Amidon", "state": "ND", "country": "US", "coord": {"lon": -103.321854, "lat": 46.482231}}, {"id": 5687815, "name": "Balta", "state": "ND", "country": "US", "coord": {"lon": -100.037079, "lat": 48.166672}}, {"id": 5688003, "name": "Beulah", "state": "ND", "country": "US", "coord": {"lon": -101.777946, "lat": 47.26334}}, {"id": 5688025, "name": "Bismarck", "state": "ND", "country": "US", "coord": {"lon": -100.783737, "lat": 46.808331}}, {"id": 5688106, "name": "Bottineau", "state": "ND", "country": "US", "coord": {"lon": -100.445702, "lat": 48.827229}}, {"id": 5688119, "name": "Bowbells", "state": "ND", "country": "US", "coord": {"lon": -102.246002, "lat": 48.803082}}, {"id": 5688127, "name": "Bowman", "state": "ND", "country": "US", "coord": {"lon": -103.394913, "lat": 46.18306}}, {"id": 5688259, "name": "Burlington", "state": "ND", "country": "US", "coord": {"lon": -101.42878, "lat": 48.275291}}, {"id": 5688266, "name": "Burleigh County", "state": "ND", "country": "US", "coord": {"lon": -100.461502, "lat": 46.958328}}, {"id": 5688351, "name": "Carson", "state": "ND", "country": "US", "coord": {"lon": -101.564873, "lat": 46.417782}}, {"id": 5688397, "name": "Center", "state": "ND", "country": "US", "coord": {"lon": -101.299591, "lat": 47.116379}}, {"id": 5688604, "name": "Crosby", "state": "ND", "country": "US", "coord": {"lon": -103.294907, "lat": 48.9142}}, {"id": 5688748, "name": "Denbigh", "state": "ND", "country": "US", "coord": {"lon": -100.587082, "lat": 48.315281}}, {"id": 5688789, "name": "Dickinson", "state": "ND", "country": "US", "coord": {"lon": -102.789619, "lat": 46.879181}}, {"id": 5689020, "name": "Epworth", "state": "ND", "country": "US", "coord": {"lon": -102.224342, "lat": 48.116131}}, {"id": 5689173, "name": "Fort Yates", "state": "ND", "country": "US", "coord": {"lon": -100.630127, "lat": 46.086941}}, {"id": 5689239, "name": "Garrison", "state": "ND", "country": "US", "coord": {"lon": -101.415718, "lat": 47.652222}}, {"id": 5689390, "name": "Grassy Butte", "state": "ND", "country": "US", "coord": {"lon": -103.247971, "lat": 47.392509}}, {"id": 5689557, "name": "Hazen", "state": "ND", "country": "US", "coord": {"lon": -101.622658, "lat": 47.294449}}, {"id": 5689563, "name": "Haynes", "state": "ND", "country": "US", "coord": {"lon": -102.470993, "lat": 45.974171}}, {"id": 5689618, "name": "Hettinger", "state": "ND", "country": "US", "coord": {"lon": -102.636818, "lat": 46.001389}}, {"id": 5689936, "name": "Kenmare", "state": "ND", "country": "US", "coord": {"lon": -102.082657, "lat": 48.674751}}, {"id": 5690162, "name": "Lincoln", "state": "ND", "country": "US", "coord": {"lon": -100.700401, "lat": 46.762489}}, {"id": 5690186, "name": "Linton", "state": "ND", "country": "US", "coord": {"lon": -100.232887, "lat": 46.266659}}, {"id": 5690366, "name": "Mandan", "state": "ND", "country": "US", "coord": {"lon": -100.88958, "lat": 46.82666}}, {"id": 5690380, "name": "Manning", "state": "ND", "country": "US", "coord": {"lon": -102.770187, "lat": 47.230011}}, {"id": 5690418, "name": "McClusky", "state": "ND", "country": "US", "coord": {"lon": -100.443176, "lat": 47.485828}}, {"id": 5690436, "name": "McHenry County", "state": "ND", "country": "US", "coord": {"lon": -100.62542, "lat": 48.25}}, {"id": 5690440, "name": "McKenzie County", "state": "ND", "country": "US", "coord": {"lon": -103.447693, "lat": 47.708351}}, {"id": 5690471, "name": "Medora", "state": "ND", "country": "US", "coord": {"lon": -103.524353, "lat": 46.913898}}, {"id": 5690489, "name": "Mercer County", "state": "ND", "country": "US", "coord": {"lon": -101.861557, "lat": 47.35001}}, {"id": 5690532, "name": "Minot", "state": "ND", "country": "US", "coord": {"lon": -101.296272, "lat": 48.23251}}, {"id": 5690557, "name": "Mohall", "state": "ND", "country": "US", "coord": {"lon": -101.513222, "lat": 48.763359}}, {"id": 5690583, "name": "Morton County", "state": "ND", "country": "US", "coord": {"lon": -101.261528, "lat": 46.772221}}, {"id": 5690614, "name": "Mountrail County", "state": "ND", "country": "US", "coord": {"lon": -102.331009, "lat": 48.21946}}, {"id": 5690627, "name": "Mott", "state": "ND", "country": "US", "coord": {"lon": -102.32711, "lat": 46.372501}}, {"id": 5690711, "name": "New Town", "state": "ND", "country": "US", "coord": {"lon": -102.490181, "lat": 47.98085}}, {"id": 5690763, "name": "North Dakota", "state": "ND", "country": "US", "coord": {"lon": -100.000679, "lat": 47.500271}}, {"id": 5691025, "name": "Pick City", "state": "ND", "country": "US", "coord": {"lon": -101.453773, "lat": 47.511391}}, {"id": 5691033, "name": "Pierce County", "state": "ND", "country": "US", "coord": {"lon": -100.036522, "lat": 48.275002}}, {"id": 5691399, "name": "Ross", "state": "ND", "country": "US", "coord": {"lon": -102.54657, "lat": 48.311131}}, {"id": 5692146, "name": "Slope County", "state": "ND", "country": "US", "coord": {"lon": -103.386574, "lat": 46.388901}}, {"id": 5692337, "name": "Stanley", "state": "ND", "country": "US", "coord": {"lon": -102.39045, "lat": 48.317242}}, {"id": 5692342, "name": "Stanton", "state": "ND", "country": "US", "coord": {"lon": -101.381554, "lat": 47.32111}}, {"id": 5692348, "name": "Stark County", "state": "ND", "country": "US", "coord": {"lon": -102.692123, "lat": 46.811119}}, {"id": 5692590, "name": "Tioga", "state": "ND", "country": "US", "coord": {"lon": -102.93824, "lat": 48.39724}}, {"id": 5692611, "name": "Towner", "state": "ND", "country": "US", "coord": {"lon": -100.405411, "lat": 48.345829}}, {"id": 5692751, "name": "Velva", "state": "ND", "country": "US", "coord": {"lon": -100.929321, "lat": 48.056122}}, {"id": 5692786, "name": "Walser Crossing", "state": "ND", "country": "US", "coord": {"lon": -103.596298, "lat": 46.619179}}, {"id": 5692798, "name": "Ward County", "state": "ND", "country": "US", "coord": {"lon": -101.458778, "lat": 48.216679}}, {"id": 5692806, "name": "Washburn", "state": "ND", "country": "US", "coord": {"lon": -101.02903, "lat": 47.289162}}, {"id": 5692814, "name": "Watford City", "state": "ND", "country": "US", "coord": {"lon": -103.283249, "lat": 47.802238}}, {"id": 5692947, "name": "Williston", "state": "ND", "country": "US", "coord": {"lon": -103.617973, "lat": 48.146969}}, {"id": 5693164, "name": "Alliance", "state": "NE", "country": "US", "coord": {"lon": -102.872139, "lat": 42.101631}}, {"id": 5693294, "name": "Arthur", "state": "NE", "country": "US", "coord": {"lon": -101.691559, "lat": 41.571651}}, {"id": 5693459, "name": "Bayard", "state": "NE", "country": "US", "coord": {"lon": -103.324097, "lat": 41.754971}}, {"id": 5693494, "name": "Beck", "state": "NE", "country": "US", "coord": {"lon": -100.693748, "lat": 41.13805}}, {"id": 5693530, "name": "Benkelman", "state": "NE", "country": "US", "coord": {"lon": -101.532944, "lat": 40.04916}}, {"id": 5693772, "name": "Box Butte County", "state": "NE", "country": "US", "coord": {"lon": -103.083809, "lat": 42.233299}}, {"id": 5693833, "name": "Bridgeport", "state": "NE", "country": "US", "coord": {"lon": -103.099098, "lat": 41.665249}}, {"id": 5694019, "name": "Cambridge", "state": "NE", "country": "US", "coord": {"lon": -100.165688, "lat": 40.281952}}, {"id": 5694072, "name": "Carmans Mobile Park", "state": "NE", "country": "US", "coord": {"lon": -101.640999, "lat": 40.512501}}, {"id": 5694163, "name": "Chadron", "state": "NE", "country": "US", "coord": {"lon": -102.999908, "lat": 42.829418}}, {"id": 5694218, "name": "Chappell", "state": "NE", "country": "US", "coord": {"lon": -102.470741, "lat": 41.09277}}, {"id": 5694236, "name": "Chase County", "state": "NE", "country": "US", "coord": {"lon": -101.700447, "lat": 40.533329}}, {"id": 5694243, "name": "Cherry County", "state": "NE", "country": "US", "coord": {"lon": -101.100433, "lat": 42.549999}}, {"id": 5694258, "name": "Cheyenne County", "state": "NE", "country": "US", "coord": {"lon": -103.001038, "lat": 41.216648}}, {"id": 5694727, "name": "Dawes County", "state": "NE", "country": "US", "coord": {"lon": -103.133797, "lat": 42.71664}}, {"id": 5694963, "name": "Dundy County", "state": "NE", "country": "US", "coord": {"lon": -101.667122, "lat": 40.16666}}, {"id": 5695604, "name": "Gering", "state": "NE", "country": "US", "coord": {"lon": -103.6605, "lat": 41.825802}}, {"id": 5695713, "name": "Gordon", "state": "NE", "country": "US", "coord": {"lon": -102.203217, "lat": 42.804722}}, {"id": 5695735, "name": "Gordons Mobile Plaza", "state": "NE", "country": "US", "coord": {"lon": -102.987984, "lat": 41.136929}}, {"id": 5695743, "name": "Gothenburg", "state": "NE", "country": "US", "coord": {"lon": -100.160683, "lat": 40.929451}}, {"id": 5695792, "name": "Grant", "state": "NE", "country": "US", "coord": {"lon": -101.725166, "lat": 40.841942}}, {"id": 5695970, "name": "Harrisburg", "state": "NE", "country": "US", "coord": {"lon": -103.738564, "lat": 41.556358}}, {"id": 5695974, "name": "Harrison", "state": "NE", "country": "US", "coord": {"lon": -103.882713, "lat": 42.687191}}, {"id": 5696040, "name": "Hayes Center", "state": "NE", "country": "US", "coord": {"lon": -101.0196, "lat": 40.510841}}, {"id": 5696121, "name": "Hershey", "state": "NE", "country": "US", "coord": {"lon": -101.002647, "lat": 41.158611}}, {"id": 5696208, "name": "Hoagland", "state": "NE", "country": "US", "coord": {"lon": -100.371246, "lat": 41.508331}}, {"id": 5696254, "name": "Hooker County", "state": "NE", "country": "US", "coord": {"lon": -101.150436, "lat": 41.91666}}, {"id": 5696337, "name": "Hyannis", "state": "NE", "country": "US", "coord": {"lon": -101.761841, "lat": 42.000542}}, {"id": 5696354, "name": "Imperial", "state": "NE", "country": "US", "coord": {"lon": -101.643227, "lat": 40.516941}}, {"id": 5696460, "name": "J and L Trailer Court", "state": "NE", "country": "US", "coord": {"lon": -103.069908, "lat": 42.829418}}, {"id": 5696463, "name": "Jacinto", "state": "NE", "country": "US", "coord": {"lon": -103.404099, "lat": 41.225811}}, {"id": 5696644, "name": "Keith County", "state": "NE", "country": "US", "coord": {"lon": -101.650452, "lat": 41.199989}}, {"id": 5696694, "name": "Keystone", "state": "NE", "country": "US", "coord": {"lon": -101.583511, "lat": 41.216099}}, {"id": 5696715, "name": "Kimball", "state": "NE", "country": "US", "coord": {"lon": -103.663002, "lat": 41.235809}}, {"id": 5696719, "name": "Kimball County", "state": "NE", "country": "US", "coord": {"lon": -103.717163, "lat": 41.199982}}, {"id": 5697026, "name": "Lincoln County", "state": "NE", "country": "US", "coord": {"lon": -100.76709, "lat": 41.049999}}, {"id": 5697089, "name": "Littles Trailer Court", "state": "NE", "country": "US", "coord": {"lon": -100.550972, "lat": 42.87278}}, {"id": 5697135, "name": "Logan County", "state": "NE", "country": "US", "coord": {"lon": -100.483749, "lat": 41.566662}}, {"id": 5697383, "name": "McCook", "state": "NE", "country": "US", "coord": {"lon": -100.62571, "lat": 40.20195}}, {"id": 5697465, "name": "Meadows Trailer Court", "state": "NE", "country": "US", "coord": {"lon": -102.872139, "lat": 42.101631}}, {"id": 5697515, "name": "Merklin Trailer Court", "state": "NE", "country": "US", "coord": {"lon": -101.53183, "lat": 40.051941}}, {"id": 5697633, "name": "Mitchell", "state": "NE", "country": "US", "coord": {"lon": -103.808563, "lat": 41.940239}}, {"id": 5697774, "name": "Mullen", "state": "NE", "country": "US", "coord": {"lon": -101.042664, "lat": 42.042782}}, {"id": 5697939, "name": "North Platte", "state": "NE", "country": "US", "coord": {"lon": -100.765419, "lat": 41.12389}}, {"id": 5698040, "name": "Ogallala", "state": "NE", "country": "US", "coord": {"lon": -101.71962, "lat": 41.128052}}, {"id": 5698120, "name": "Oshkosh", "state": "NE", "country": "US", "coord": {"lon": -102.34436, "lat": 41.40498}}, {"id": 5698142, "name": "Ough", "state": "NE", "country": "US", "coord": {"lon": -101.512672, "lat": 40.32222}}, {"id": 5698819, "name": "Rushville", "state": "NE", "country": "US", "coord": {"lon": -102.464058, "lat": 42.718319}}, {"id": 5699397, "name": "Scotts Bluff County", "state": "NE", "country": "US", "coord": {"lon": -103.7005, "lat": 41.866631}}, {"id": 5699404, "name": "Scottsbluff", "state": "NE", "country": "US", "coord": {"lon": -103.667168, "lat": 41.866631}}, {"id": 5699552, "name": "Sidney", "state": "NE", "country": "US", "coord": {"lon": -102.977982, "lat": 41.142761}}, {"id": 5699840, "name": "Stapleton", "state": "NE", "country": "US", "coord": {"lon": -100.512917, "lat": 41.480282}}, {"id": 5699898, "name": "Stockville", "state": "NE", "country": "US", "coord": {"lon": -100.383476, "lat": 40.532791}}, {"id": 5699979, "name": "Sutherland", "state": "NE", "country": "US", "coord": {"lon": -101.126266, "lat": 41.15694}}, {"id": 5700068, "name": "Terrytown", "state": "NE", "country": "US", "coord": {"lon": -103.661613, "lat": 41.847469}}, {"id": 5700094, "name": "Thedford", "state": "NE", "country": "US", "coord": {"lon": -100.576248, "lat": 41.978329}}, {"id": 5700168, "name": "Trenton", "state": "NE", "country": "US", "coord": {"lon": -101.012939, "lat": 40.175549}}, {"id": 5700218, "name": "Tryon", "state": "NE", "country": "US", "coord": {"lon": -100.957649, "lat": 41.552769}}, {"id": 5700344, "name": "Valentine", "state": "NE", "country": "US", "coord": {"lon": -100.550972, "lat": 42.87278}}, {"id": 5700850, "name": "Wright City Trailer Court", "state": "NE", "country": "US", "coord": {"lon": -101.04377, "lat": 42.043049}}, {"id": 5701314, "name": "Barrett Springs (historical)", "state": "NV", "country": "US", "coord": {"lon": -117.915138, "lat": 41.040459}}, {"id": 5701361, "name": "Battle Mountain", "state": "NV", "country": "US", "coord": {"lon": -116.934273, "lat": 40.642132}}, {"id": 5702255, "name": "Carlin", "state": "NV", "country": "US", "coord": {"lon": -116.103973, "lat": 40.71381}}, {"id": 5702984, "name": "Crescent Valley", "state": "NV", "country": "US", "coord": {"lon": -116.576469, "lat": 40.416031}}, {"id": 5703133, "name": "Deep Creek", "state": "NV", "country": "US", "coord": {"lon": -116.148697, "lat": 41.567131}}, {"id": 5703178, "name": "Delano (historical)", "state": "NV", "country": "US", "coord": {"lon": -114.273628, "lat": 41.667702}}, {"id": 5703670, "name": "Elko", "state": "NV", "country": "US", "coord": {"lon": -115.763123, "lat": 40.83242}}, {"id": 5703673, "name": "Elko County", "state": "NV", "country": "US", "coord": {"lon": -115.501167, "lat": 41.000198}}, {"id": 5703766, "name": "Eureka County", "state": "NV", "country": "US", "coord": {"lon": -116.126183, "lat": 40.000198}}, {"id": 5704974, "name": "Humboldt County", "state": "NV", "country": "US", "coord": {"lon": -118.001259, "lat": 41.500179}}, {"id": 5705218, "name": "Jackpot", "state": "NV", "country": "US", "coord": {"lon": -114.674759, "lat": 41.983238}}, {"id": 5705621, "name": "Lee", "state": "NV", "country": "US", "coord": {"lon": -115.607559, "lat": 40.56826}}, {"id": 5705957, "name": "Lovelock", "state": "NV", "country": "US", "coord": {"lon": -118.47348, "lat": 40.179352}}, {"id": 5706523, "name": "Morton (historical)", "state": "NV", "country": "US", "coord": {"lon": -115.211723, "lat": 41.569908}}, {"id": 5707899, "name": "Rock House", "state": "NV", "country": "US", "coord": {"lon": -115.410881, "lat": 40.42215}}, {"id": 5708001, "name": "Rose Creek", "state": "NV", "country": "US", "coord": {"lon": -117.895126, "lat": 40.8899}}, {"id": 5708027, "name": "Rosny", "state": "NV", "country": "US", "coord": {"lon": -116.838432, "lat": 40.612411}}, {"id": 5708894, "name": "Spring Creek", "state": "NV", "country": "US", "coord": {"lon": -115.585899, "lat": 40.726589}}, {"id": 5709906, "name": "Washoe County", "state": "NV", "country": "US", "coord": {"lon": -119.626312, "lat": 40.750179}}, {"id": 5709967, "name": "Wells", "state": "NV", "country": "US", "coord": {"lon": -114.964493, "lat": 41.111591}}, {"id": 5710035, "name": "West Wendover", "state": "NV", "country": "US", "coord": {"lon": -114.073341, "lat": 40.739101}}, {"id": 5710360, "name": "Winnemucca", "state": "NV", "country": "US", "coord": {"lon": -117.73568, "lat": 40.972961}}, {"id": 5710600, "name": "Adair Village", "state": "OR", "country": "US", "coord": {"lon": -123.21788, "lat": 44.670681}}, {"id": 5710756, "name": "Albany", "state": "OR", "country": "US", "coord": {"lon": -123.105927, "lat": 44.636509}}, {"id": 5711099, "name": "Aloha", "state": "OR", "country": "US", "coord": {"lon": -122.86705, "lat": 45.494282}}, {"id": 5711149, "name": "Altamont", "state": "OR", "country": "US", "coord": {"lon": -121.737221, "lat": 42.20681}}, {"id": 5711224, "name": "Amity", "state": "OR", "country": "US", "coord": {"lon": -123.207329, "lat": 45.115669}}, {"id": 5711789, "name": "Ashland", "state": "OR", "country": "US", "coord": {"lon": -122.70948, "lat": 42.19458}}, {"id": 5711847, "name": "Astoria", "state": "OR", "country": "US", "coord": {"lon": -123.831253, "lat": 46.187881}}, {"id": 5711861, "name": "Athena", "state": "OR", "country": "US", "coord": {"lon": -118.490532, "lat": 45.811798}}, {"id": 5711918, "name": "Aumsville", "state": "OR", "country": "US", "coord": {"lon": -122.870918, "lat": 44.84095}}, {"id": 5712115, "name": "Bagnell Ferry", "state": "OR", "country": "US", "coord": {"lon": -124.367882, "lat": 42.466499}}, {"id": 5712169, "name": "Baker City", "state": "OR", "country": "US", "coord": {"lon": -117.834381, "lat": 44.774872}}, {"id": 5712180, "name": "Baker County", "state": "OR", "country": "US", "coord": {"lon": -117.667709, "lat": 44.75016}}, {"id": 5712417, "name": "Bandon", "state": "OR", "country": "US", "coord": {"lon": -124.408447, "lat": 43.118999}}, {"id": 5712430, "name": "Banks", "state": "OR", "country": "US", "coord": {"lon": -123.114281, "lat": 45.618721}}, {"id": 5712657, "name": "Barview", "state": "OR", "country": "US", "coord": {"lon": -124.313171, "lat": 43.354279}}, {"id": 5712716, "name": "Basque", "state": "OR", "country": "US", "coord": {"lon": -117.868477, "lat": 42.410721}}, {"id": 5712837, "name": "Bay City", "state": "OR", "country": "US", "coord": {"lon": -123.889297, "lat": 45.522598}}, {"id": 5713224, "name": "Beavercreek", "state": "OR", "country": "US", "coord": {"lon": -122.535637, "lat": 45.287899}}, {"id": 5713376, "name": "Beaverton", "state": "OR", "country": "US", "coord": {"lon": -122.803711, "lat": 45.487061}}, {"id": 5713587, "name": "Bend", "state": "OR", "country": "US", "coord": {"lon": -121.315308, "lat": 44.05817}}, {"id": 5713677, "name": "Benton County", "state": "OR", "country": "US", "coord": {"lon": -123.417877, "lat": 44.499569}}, {"id": 5713759, "name": "Bethany", "state": "OR", "country": "US", "coord": {"lon": -122.867599, "lat": 45.557892}}, {"id": 5714964, "name": "Boardman", "state": "OR", "country": "US", "coord": {"lon": -119.700577, "lat": 45.839859}}, {"id": 5715905, "name": "Brookings", "state": "OR", "country": "US", "coord": {"lon": -124.283981, "lat": 42.052608}}, {"id": 5716061, "name": "Brownsville", "state": "OR", "country": "US", "coord": {"lon": -122.98481, "lat": 44.393459}}, {"id": 5716744, "name": "Bunker Hill", "state": "OR", "country": "US", "coord": {"lon": -124.204826, "lat": 43.355949}}, {"id": 5716833, "name": "Burns", "state": "OR", "country": "US", "coord": {"lon": -119.0541, "lat": 43.586262}}, {"id": 5717316, "name": "Cairo", "state": "OR", "country": "US", "coord": {"lon": -117.009048, "lat": 43.995998}}, {"id": 5717758, "name": "Canby", "state": "OR", "country": "US", "coord": {"lon": -122.692589, "lat": 45.262901}}, {"id": 5717789, "name": "Cannon Beach", "state": "OR", "country": "US", "coord": {"lon": -123.961533, "lat": 45.891769}}, {"id": 5717822, "name": "Canyon City", "state": "OR", "country": "US", "coord": {"lon": -118.950233, "lat": 44.389599}}, {"id": 5717887, "name": "Canyonville", "state": "OR", "country": "US", "coord": {"lon": -123.281174, "lat": 42.927341}}, {"id": 5717982, "name": "Carlton", "state": "OR", "country": "US", "coord": {"lon": -123.176491, "lat": 45.294281}}, {"id": 5718099, "name": "Carver", "state": "OR", "country": "US", "coord": {"lon": -122.497307, "lat": 45.394569}}, {"id": 5718132, "name": "Cascade Locks", "state": "OR", "country": "US", "coord": {"lon": -121.89064, "lat": 45.669842}}, {"id": 5718340, "name": "Cave Junction", "state": "OR", "country": "US", "coord": {"lon": -123.648117, "lat": 42.162891}}, {"id": 5718480, "name": "Cedar Hills", "state": "OR", "country": "US", "coord": {"lon": -122.798431, "lat": 45.504841}}, {"id": 5718492, "name": "Cedar Mill", "state": "OR", "country": "US", "coord": {"lon": -122.810928, "lat": 45.524841}}, {"id": 5718552, "name": "Cedardale", "state": "OR", "country": "US", "coord": {"lon": -122.494812, "lat": 45.159012}}, {"id": 5718601, "name": "Central Point", "state": "OR", "country": "US", "coord": {"lon": -122.916428, "lat": 42.375961}}, {"id": 5718830, "name": "Chenoweth", "state": "OR", "country": "US", "coord": {"lon": -121.243408, "lat": 45.627621}}, {"id": 5719297, "name": "Clackamas County", "state": "OR", "country": "US", "coord": {"lon": -122.167862, "lat": 45.249561}}, {"id": 5719308, "name": "Clackamas", "state": "OR", "country": "US", "coord": {"lon": -122.570374, "lat": 45.407619}}, {"id": 5719397, "name": "Clatskanie", "state": "OR", "country": "US", "coord": {"lon": -123.206787, "lat": 46.101219}}, {"id": 5719774, "name": "Coburg", "state": "OR", "country": "US", "coord": {"lon": -123.066483, "lat": 44.13707}}, {"id": 5720167, "name": "Columbia City", "state": "OR", "country": "US", "coord": {"lon": -122.807053, "lat": 45.89011}}, {"id": 5720282, "name": "Condon", "state": "OR", "country": "US", "coord": {"lon": -120.185028, "lat": 45.234299}}, {"id": 5720495, "name": "Coos Bay", "state": "OR", "country": "US", "coord": {"lon": -124.217888, "lat": 43.366501}}, {"id": 5720502, "name": "Coos County", "state": "OR", "country": "US", "coord": {"lon": -124.001488, "lat": 43.1665}}, {"id": 5720575, "name": "Coquille", "state": "OR", "country": "US", "coord": {"lon": -124.187607, "lat": 43.177052}}, {"id": 5720639, "name": "Cornelius", "state": "OR", "country": "US", "coord": {"lon": -123.05983, "lat": 45.51984}}, {"id": 5720727, "name": "Corvallis", "state": "OR", "country": "US", "coord": {"lon": -123.262039, "lat": 44.564571}}, {"id": 5720755, "name": "Cottage Grove", "state": "OR", "country": "US", "coord": {"lon": -123.059517, "lat": 43.797619}}, {"id": 5721551, "name": "Creswell", "state": "OR", "country": "US", "coord": {"lon": -123.024529, "lat": 43.9179}}, {"id": 5721611, "name": "Crook County", "state": "OR", "country": "US", "coord": {"lon": -120.084427, "lat": 44.166531}}, {"id": 5721865, "name": "Culver", "state": "OR", "country": "US", "coord": {"lon": -121.213097, "lat": 44.525681}}, {"id": 5721936, "name": "Curry County", "state": "OR", "country": "US", "coord": {"lon": -124.217873, "lat": 42.500111}}, {"id": 5722064, "name": "Dallas", "state": "OR", "country": "US", "coord": {"lon": -123.317047, "lat": 44.919281}}, {"id": 5722088, "name": "Damascus", "state": "OR", "country": "US", "coord": {"lon": -122.458977, "lat": 45.417622}}, {"id": 5722090, "name": "Damascus Heights", "state": "OR", "country": "US", "coord": {"lon": -122.449257, "lat": 45.420681}}, {"id": 5722326, "name": "Dayton", "state": "OR", "country": "US", "coord": {"lon": -123.07621, "lat": 45.220669}}, {"id": 5722618, "name": "Deep Creek (historical)", "state": "OR", "country": "US", "coord": {"lon": -122.397034, "lat": 45.38623}}, {"id": 5722917, "name": "Depoe Bay", "state": "OR", "country": "US", "coord": {"lon": -124.063171, "lat": 44.808449}}, {"id": 5722958, "name": "Deschutes County", "state": "OR", "country": "US", "coord": {"lon": -121.251419, "lat": 43.916512}}, {"id": 5722960, "name": "Deschutes River Woods", "state": "OR", "country": "US", "coord": {"lon": -121.35836, "lat": 43.991508}}, {"id": 5723759, "name": "Douglas County", "state": "OR", "country": "US", "coord": {"lon": -123.167847, "lat": 43.333172}}, {"id": 5723833, "name": "Drain", "state": "OR", "country": "US", "coord": {"lon": -123.318703, "lat": 43.65873}}, {"id": 5723848, "name": "Drake Crossing", "state": "OR", "country": "US", "coord": {"lon": -122.655922, "lat": 44.925961}}, {"id": 5723995, "name": "Dry Creek", "state": "OR", "country": "US", "coord": {"lon": -123.27565, "lat": 44.505119}}, {"id": 5724285, "name": "Dufur", "state": "OR", "country": "US", "coord": {"lon": -121.130623, "lat": 45.453178}}, {"id": 5724352, "name": "Dundee", "state": "OR", "country": "US", "coord": {"lon": -123.010941, "lat": 45.278172}}, {"id": 5724361, "name": "Dunes City", "state": "OR", "country": "US", "coord": {"lon": -124.11512, "lat": 43.883179}}, {"id": 5724406, "name": "Durham", "state": "OR", "country": "US", "coord": {"lon": -122.752869, "lat": 45.402061}}, {"id": 5724581, "name": "Eagle Point", "state": "OR", "country": "US", "coord": {"lon": -122.802818, "lat": 42.47263}}, {"id": 5725293, "name": "Elgin", "state": "OR", "country": "US", "coord": {"lon": -117.917427, "lat": 45.564861}}, {"id": 5725721, "name": "Enterprise", "state": "OR", "country": "US", "coord": {"lon": -117.278778, "lat": 45.426262}}, {"id": 5725743, "name": "Eola Village", "state": "OR", "country": "US", "coord": {"lon": -123.149551, "lat": 45.159561}}, {"id": 5725801, "name": "Estacada", "state": "OR", "country": "US", "coord": {"lon": -122.333702, "lat": 45.28957}}, {"id": 5725810, "name": "Estes (historical)", "state": "OR", "country": "US", "coord": {"lon": -117.846878, "lat": 44.784599}}, {"id": 5725846, "name": "Eugene", "state": "OR", "country": "US", "coord": {"lon": -123.086746, "lat": 44.052071}}, {"id": 5726018, "name": "Fairview", "state": "OR", "country": "US", "coord": {"lon": -122.433983, "lat": 45.538448}}, {"id": 5726068, "name": "Falcon Heights", "state": "OR", "country": "US", "coord": {"lon": -121.756668, "lat": 42.137371}}, {"id": 5726842, "name": "Five Corners", "state": "OR", "country": "US", "coord": {"lon": -120.434128, "lat": 42.186272}}, {"id": 5727032, "name": "Florence", "state": "OR", "country": "US", "coord": {"lon": -124.099838, "lat": 43.98262}}, {"id": 5727190, "name": "Forest Grove", "state": "OR", "country": "US", "coord": {"lon": -123.110657, "lat": 45.51984}}, {"id": 5727319, "name": "Fossil", "state": "OR", "country": "US", "coord": {"lon": -120.216141, "lat": 44.998192}}, {"id": 5727380, "name": "Four Corners", "state": "OR", "country": "US", "coord": {"lon": -122.885323, "lat": 42.389568}}, {"id": 5727382, "name": "Four Corners", "state": "OR", "country": "US", "coord": {"lon": -122.983711, "lat": 44.927898}}, {"id": 5727859, "name": "Fulton", "state": "OR", "country": "US", "coord": {"lon": -118.749153, "lat": 45.730412}}, {"id": 5728127, "name": "Gearhart", "state": "OR", "country": "US", "coord": {"lon": -123.911247, "lat": 46.024269}}, {"id": 5728264, "name": "Gervais", "state": "OR", "country": "US", "coord": {"lon": -122.897598, "lat": 45.108181}}, {"id": 5728429, "name": "Gladstone", "state": "OR", "country": "US", "coord": {"lon": -122.59481, "lat": 45.38068}}, {"id": 5728531, "name": "Glide", "state": "OR", "country": "US", "coord": {"lon": -123.101181, "lat": 43.30151}}, {"id": 5728665, "name": "Gold Hill", "state": "OR", "country": "US", "coord": {"lon": -123.050598, "lat": 42.431789}}, {"id": 5728972, "name": "Grand Ronde", "state": "OR", "country": "US", "coord": {"lon": -123.609283, "lat": 45.060108}}, {"id": 5729080, "name": "Grants Pass", "state": "OR", "country": "US", "coord": {"lon": -123.328392, "lat": 42.439011}}, {"id": 5729293, "name": "Green", "state": "OR", "country": "US", "coord": {"lon": -123.367851, "lat": 43.160389}}, {"id": 5729485, "name": "Gresham", "state": "OR", "country": "US", "coord": {"lon": -122.43148, "lat": 45.49818}}, {"id": 5729974, "name": "Halsey", "state": "OR", "country": "US", "coord": {"lon": -123.10981, "lat": 44.38401}}, {"id": 5730183, "name": "Happy Valley", "state": "OR", "country": "US", "coord": {"lon": -122.530373, "lat": 45.446789}}, {"id": 5730199, "name": "Harbor", "state": "OR", "country": "US", "coord": {"lon": -124.267593, "lat": 42.053169}}, {"id": 5730389, "name": "Harrisburg", "state": "OR", "country": "US", "coord": {"lon": -123.170647, "lat": 44.27401}}, {"id": 5730675, "name": "Hayesville", "state": "OR", "country": "US", "coord": {"lon": -122.982872, "lat": 44.98595}}, {"id": 5730924, "name": "Helvetia", "state": "OR", "country": "US", "coord": {"lon": -122.917328, "lat": 45.595669}}, {"id": 5731035, "name": "Heppner", "state": "OR", "country": "US", "coord": {"lon": -119.5578, "lat": 45.35318}}, {"id": 5731070, "name": "Hermiston", "state": "OR", "country": "US", "coord": {"lon": -119.289459, "lat": 45.840408}}, {"id": 5731315, "name": "Hilgard", "state": "OR", "country": "US", "coord": {"lon": -118.227997, "lat": 45.35207}}, {"id": 5731371, "name": "Hillsboro", "state": "OR", "country": "US", "coord": {"lon": -122.98983, "lat": 45.522888}}, {"id": 5731397, "name": "Hines", "state": "OR", "country": "US", "coord": {"lon": -119.081047, "lat": 43.564041}}, {"id": 5731570, "name": "Holdman", "state": "OR", "country": "US", "coord": {"lon": -118.932503, "lat": 45.872082}}, {"id": 5731612, "name": "Holiday Beach", "state": "OR", "country": "US", "coord": {"lon": -124.068169, "lat": 44.567619}}, {"id": 5731777, "name": "Hood River", "state": "OR", "country": "US", "coord": {"lon": -121.521461, "lat": 45.705399}}, {"id": 5732311, "name": "Hubbard", "state": "OR", "country": "US", "coord": {"lon": -122.807869, "lat": 45.182339}}, {"id": 5732738, "name": "Imnaha", "state": "OR", "country": "US", "coord": {"lon": -116.833214, "lat": 45.559319}}, {"id": 5732763, "name": "Independence", "state": "OR", "country": "US", "coord": {"lon": -123.186768, "lat": 44.851231}}, {"id": 5733120, "name": "Irrigon", "state": "OR", "country": "US", "coord": {"lon": -119.491409, "lat": 45.895691}}, {"id": 5733154, "name": "Island City", "state": "OR", "country": "US", "coord": {"lon": -118.044662, "lat": 45.340969}}, {"id": 5733351, "name": "Jackson County", "state": "OR", "country": "US", "coord": {"lon": -122.83448, "lat": 42.416512}}, {"id": 5733409, "name": "Jacksonville", "state": "OR", "country": "US", "coord": {"lon": -122.966988, "lat": 42.313461}}, {"id": 5733532, "name": "Jefferson", "state": "OR", "country": "US", "coord": {"lon": -123.010368, "lat": 44.71957}}, {"id": 5733534, "name": "Jefferson County", "state": "OR", "country": "US", "coord": {"lon": -121.334488, "lat": 44.633171}}, {"id": 5733582, "name": "Jennings Lodge", "state": "OR", "country": "US", "coord": {"lon": -122.612587, "lat": 45.391232}}, {"id": 5733770, "name": "John Day", "state": "OR", "country": "US", "coord": {"lon": -118.953011, "lat": 44.415989}}, {"id": 5734100, "name": "Joseph", "state": "OR", "country": "US", "coord": {"lon": -117.229607, "lat": 45.354321}}, {"id": 5734120, "name": "Josephine County", "state": "OR", "country": "US", "coord": {"lon": -123.584511, "lat": 42.4165}}, {"id": 5734198, "name": "Junction City", "state": "OR", "country": "US", "coord": {"lon": -123.20565, "lat": 44.219292}}, {"id": 5734711, "name": "Keizer", "state": "OR", "country": "US", "coord": {"lon": -123.026207, "lat": 44.99012}}, {"id": 5735043, "name": "King City", "state": "OR", "country": "US", "coord": {"lon": -122.803993, "lat": 45.402618}}, {"id": 5735237, "name": "Klamath County", "state": "OR", "country": "US", "coord": {"lon": -121.750847, "lat": 42.666531}}, {"id": 5735238, "name": "Klamath Falls", "state": "OR", "country": "US", "coord": {"lon": -121.78167, "lat": 42.224869}}, {"id": 5735537, "name": "La Grande", "state": "OR", "country": "US", "coord": {"lon": -118.087723, "lat": 45.324581}}, {"id": 5735549, "name": "La Pine", "state": "OR", "country": "US", "coord": {"lon": -121.503639, "lat": 43.670399}}, {"id": 5735609, "name": "Lafayette", "state": "OR", "country": "US", "coord": {"lon": -123.11483, "lat": 45.244282}}, {"id": 5735647, "name": "Lake County", "state": "OR", "country": "US", "coord": {"lon": -120.501358, "lat": 42.83321}}, {"id": 5735724, "name": "Lake Oswego", "state": "OR", "country": "US", "coord": {"lon": -122.670647, "lat": 45.42067}}, {"id": 5735782, "name": "Lakeside", "state": "OR", "country": "US", "coord": {"lon": -124.17511, "lat": 43.575668}}, {"id": 5735792, "name": "Lakeview", "state": "OR", "country": "US", "coord": {"lon": -120.345787, "lat": 42.18877}}, {"id": 5735869, "name": "Lane County", "state": "OR", "country": "US", "coord": {"lon": -122.834518, "lat": 43.916512}}, {"id": 5736218, "name": "Lebanon", "state": "OR", "country": "US", "coord": {"lon": -122.907028, "lat": 44.53651}}, {"id": 5736352, "name": "Lena", "state": "OR", "country": "US", "coord": {"lon": -119.28196, "lat": 45.399841}}, {"id": 5736378, "name": "Lents", "state": "OR", "country": "US", "coord": {"lon": -122.567307, "lat": 45.479839}}, {"id": 5736634, "name": "Lincoln Beach", "state": "OR", "country": "US", "coord": {"lon": -124.046783, "lat": 44.850391}}, {"id": 5736643, "name": "Lincoln County", "state": "OR", "country": "US", "coord": {"lon": -123.834557, "lat": 44.666512}}, {"id": 5736645, "name": "Lincoln City", "state": "OR", "country": "US", "coord": {"lon": -124.017891, "lat": 44.95816}}, {"id": 5736713, "name": "Linn County", "state": "OR", "country": "US", "coord": {"lon": -122.584534, "lat": 44.499569}}, {"id": 5738222, "name": "Lowell", "state": "OR", "country": "US", "coord": {"lon": -122.783684, "lat": 43.918461}}, {"id": 5738587, "name": "Lyons", "state": "OR", "country": "US", "coord": {"lon": -122.615089, "lat": 44.77457}}, {"id": 5738690, "name": "Madras", "state": "OR", "country": "US", "coord": {"lon": -121.129494, "lat": 44.63345}}, {"id": 5738839, "name": "Malheur County", "state": "OR", "country": "US", "coord": {"lon": -117.667671, "lat": 43.25016}}, {"id": 5739051, "name": "Marion County", "state": "OR", "country": "US", "coord": {"lon": -122.651199, "lat": 44.866508}}, {"id": 5739936, "name": "McMinnville", "state": "OR", "country": "US", "coord": {"lon": -123.198723, "lat": 45.210121}}, {"id": 5740099, "name": "Medford", "state": "OR", "country": "US", "coord": {"lon": -122.875587, "lat": 42.326519}}, {"id": 5740247, "name": "Merlin", "state": "OR", "country": "US", "coord": {"lon": -123.419792, "lat": 42.517342}}, {"id": 5740325, "name": "Metzger", "state": "OR", "country": "US", "coord": {"lon": -122.758987, "lat": 45.44651}}, {"id": 5740602, "name": "Mill City", "state": "OR", "country": "US", "coord": {"lon": -122.478142, "lat": 44.754009}}, {"id": 5740834, "name": "Millersburg", "state": "OR", "country": "US", "coord": {"lon": -123.061478, "lat": 44.680962}}, {"id": 5740898, "name": "Milton-Freewater", "state": "OR", "country": "US", "coord": {"lon": -118.387741, "lat": 45.932629}}, {"id": 5740900, "name": "Milwaukie", "state": "OR", "country": "US", "coord": {"lon": -122.639259, "lat": 45.446232}}, {"id": 5741069, "name": "Mission", "state": "OR", "country": "US", "coord": {"lon": -118.683594, "lat": 45.67041}}, {"id": 5741182, "name": "Molalla", "state": "OR", "country": "US", "coord": {"lon": -122.577026, "lat": 45.147339}}, {"id": 5741227, "name": "Monmouth", "state": "OR", "country": "US", "coord": {"lon": -123.233994, "lat": 44.84845}}, {"id": 5741487, "name": "Moro", "state": "OR", "country": "US", "coord": {"lon": -120.731171, "lat": 45.484009}}, {"id": 5741531, "name": "Morrow County", "state": "OR", "country": "US", "coord": {"lon": -119.551132, "lat": 45.499569}}, {"id": 5741646, "name": "Mount Angel", "state": "OR", "country": "US", "coord": {"lon": -122.800087, "lat": 45.067902}}, {"id": 5741683, "name": "Mount Hood Village", "state": "OR", "country": "US", "coord": {"lon": -121.980637, "lat": 45.3554}}, {"id": 5742096, "name": "Mulino", "state": "OR", "country": "US", "coord": {"lon": -122.582031, "lat": 45.221512}}, {"id": 5742126, "name": "Multnomah County", "state": "OR", "country": "US", "coord": {"lon": -122.41787, "lat": 45.500118}}, {"id": 5742332, "name": "Myrtle Creek", "state": "OR", "country": "US", "coord": {"lon": -123.293121, "lat": 43.020119}}, {"id": 5742346, "name": "Myrtle Point", "state": "OR", "country": "US", "coord": {"lon": -124.138992, "lat": 43.064831}}, {"id": 5742701, "name": "New Hope", "state": "OR", "country": "US", "coord": {"lon": -123.367844, "lat": 42.362339}}, {"id": 5742726, "name": "Newberg", "state": "OR", "country": "US", "coord": {"lon": -122.97316, "lat": 45.300121}}, {"id": 5742750, "name": "Newport", "state": "OR", "country": "US", "coord": {"lon": -124.053452, "lat": 44.63678}}, {"id": 5742974, "name": "North Bend", "state": "OR", "country": "US", "coord": {"lon": -124.224281, "lat": 43.406502}}, {"id": 5743057, "name": "North Fork", "state": "OR", "country": "US", "coord": {"lon": -123.925087, "lat": 43.788658}}, {"id": 5743413, "name": "North Plains", "state": "OR", "country": "US", "coord": {"lon": -122.993439, "lat": 45.597061}}, {"id": 5743612, "name": "Nyssa", "state": "OR", "country": "US", "coord": {"lon": -116.994881, "lat": 43.876831}}, {"id": 5743731, "name": "Oak Grove", "state": "OR", "country": "US", "coord": {"lon": -122.640091, "lat": 45.41679}}, {"id": 5743753, "name": "Oak Hills", "state": "OR", "country": "US", "coord": {"lon": -122.841209, "lat": 45.541229}}, {"id": 5743796, "name": "Oakridge", "state": "OR", "country": "US", "coord": {"lon": -122.461723, "lat": 43.74651}}, {"id": 5743896, "name": "Odell", "state": "OR", "country": "US", "coord": {"lon": -121.543129, "lat": 45.62706}}, {"id": 5744166, "name": "Ontario", "state": "OR", "country": "US", "coord": {"lon": -116.962936, "lat": 44.02655}}, {"id": 5744253, "name": "Oregon City", "state": "OR", "country": "US", "coord": {"lon": -122.606758, "lat": 45.357342}}, {"id": 5744337, "name": "Oregon", "state": "OR", "country": "US", "coord": {"lon": -120.501389, "lat": 44.00013}}, {"id": 5744345, "name": "Orenco", "state": "OR", "country": "US", "coord": {"lon": -122.912048, "lat": 45.527618}}, {"id": 5744635, "name": "Pacific City", "state": "OR", "country": "US", "coord": {"lon": -123.962891, "lat": 45.202332}}, {"id": 5745379, "name": "Pendair Heights", "state": "OR", "country": "US", "coord": {"lon": -118.84388, "lat": 45.687351}}, {"id": 5745380, "name": "Pendleton", "state": "OR", "country": "US", "coord": {"lon": -118.788597, "lat": 45.672081}}, {"id": 5745647, "name": "Philomath", "state": "OR", "country": "US", "coord": {"lon": -123.367599, "lat": 44.540119}}, {"id": 5745656, "name": "Phoenix", "state": "OR", "country": "US", "coord": {"lon": -122.818092, "lat": 42.27541}}, {"id": 5745782, "name": "Pilot Rock", "state": "OR", "country": "US", "coord": {"lon": -118.829979, "lat": 45.483181}}, {"id": 5746161, "name": "Pleasant Valley", "state": "OR", "country": "US", "coord": {"lon": -123.385902, "lat": 42.55706}}, {"id": 5746486, "name": "Port Orford", "state": "OR", "country": "US", "coord": {"lon": -124.49733, "lat": 42.745659}}, {"id": 5746545, "name": "Portland", "state": "OR", "country": "US", "coord": {"lon": -122.676208, "lat": 45.523449}}, {"id": 5746901, "name": "Prineville", "state": "OR", "country": "US", "coord": {"lon": -120.834473, "lat": 44.29985}}, {"id": 5747402, "name": "Rainier", "state": "OR", "country": "US", "coord": {"lon": -122.935944, "lat": 46.089001}}, {"id": 5747420, "name": "Raleigh Hills", "state": "OR", "country": "US", "coord": {"lon": -122.762039, "lat": 45.480671}}, {"id": 5747882, "name": "Redmond", "state": "OR", "country": "US", "coord": {"lon": -121.17392, "lat": 44.272621}}, {"id": 5747900, "name": "Redwood", "state": "OR", "country": "US", "coord": {"lon": -123.387283, "lat": 42.422058}}, {"id": 5747941, "name": "Reedsport", "state": "OR", "country": "US", "coord": {"lon": -124.096779, "lat": 43.702339}}, {"id": 5748229, "name": "Riddle", "state": "OR", "country": "US", "coord": {"lon": -123.364227, "lat": 42.950951}}, {"id": 5748638, "name": "Roberts", "state": "OR", "country": "US", "coord": {"lon": -120.684731, "lat": 44.081242}}, {"id": 5749017, "name": "Rockcreek", "state": "OR", "country": "US", "coord": {"lon": -122.877052, "lat": 45.550121}}, {"id": 5749022, "name": "Rockaway Beach", "state": "OR", "country": "US", "coord": {"lon": -123.942909, "lat": 45.613441}}, {"id": 5749213, "name": "Rogue River", "state": "OR", "country": "US", "coord": {"lon": -123.171997, "lat": 42.435951}}, {"id": 5749333, "name": "Rose Lodge", "state": "OR", "country": "US", "coord": {"lon": -123.880386, "lat": 45.010391}}, {"id": 5749352, "name": "Roseburg", "state": "OR", "country": "US", "coord": {"lon": -123.341743, "lat": 43.216499}}, {"id": 5750041, "name": "Saint Helens", "state": "OR", "country": "US", "coord": {"lon": -122.806488, "lat": 45.863998}}, {"id": 5750162, "name": "Salem", "state": "OR", "country": "US", "coord": {"lon": -123.035103, "lat": 44.942902}}, {"id": 5750477, "name": "Sandy", "state": "OR", "country": "US", "coord": {"lon": -122.261482, "lat": 45.397339}}, {"id": 5750516, "name": "Santa Clara", "state": "OR", "country": "US", "coord": {"lon": -123.131203, "lat": 44.103458}}, {"id": 5750663, "name": "Scappoose", "state": "OR", "country": "US", "coord": {"lon": -122.877602, "lat": 45.75428}}, {"id": 5750984, "name": "Seaside", "state": "OR", "country": "US", "coord": {"lon": -123.922638, "lat": 45.99316}}, {"id": 5751253, "name": "Shady Cove", "state": "OR", "country": "US", "coord": {"lon": -122.812538, "lat": 42.61068}}, {"id": 5751600, "name": "Sheridan", "state": "OR", "country": "US", "coord": {"lon": -123.394829, "lat": 45.099281}}, {"id": 5751632, "name": "Sherwood", "state": "OR", "country": "US", "coord": {"lon": -122.840103, "lat": 45.35651}}, {"id": 5751919, "name": "Siletz", "state": "OR", "country": "US", "coord": {"lon": -123.920113, "lat": 44.721779}}, {"id": 5752024, "name": "Silverton", "state": "OR", "country": "US", "coord": {"lon": -122.78315, "lat": 45.005119}}, {"id": 5752129, "name": "Sisters", "state": "OR", "country": "US", "coord": {"lon": -121.54921, "lat": 44.290951}}, {"id": 5753466, "name": "South Lebanon", "state": "OR", "country": "US", "coord": {"lon": -122.903137, "lat": 44.506229}}, {"id": 5754005, "name": "Springfield", "state": "OR", "country": "US", "coord": {"lon": -123.022034, "lat": 44.046242}}, {"id": 5754243, "name": "Stafford", "state": "OR", "country": "US", "coord": {"lon": -122.722588, "lat": 45.357342}}, {"id": 5754308, "name": "Stanfield", "state": "OR", "country": "US", "coord": {"lon": -119.217239, "lat": 45.780411}}, {"id": 5754464, "name": "Stayton", "state": "OR", "country": "US", "coord": {"lon": -122.794533, "lat": 44.800678}}, {"id": 5754988, "name": "Sublimity", "state": "OR", "country": "US", "coord": {"lon": -122.794533, "lat": 44.829571}}, {"id": 5755307, "name": "Sunnyside", "state": "", "country": "US", "coord": {"lon": -122.527588, "lat": 45.426788}}, {"id": 5755337, "name": "Sunriver", "state": "OR", "country": "US", "coord": {"lon": -121.438637, "lat": 43.88401}}, {"id": 5755474, "name": "Sutherlin", "state": "OR", "country": "US", "coord": {"lon": -123.312576, "lat": 43.390121}}, {"id": 5755674, "name": "Sweet Home", "state": "OR", "country": "US", "coord": {"lon": -122.736198, "lat": 44.397621}}, {"id": 5755890, "name": "Talent", "state": "OR", "country": "US", "coord": {"lon": -122.788651, "lat": 42.245682}}, {"id": 5755975, "name": "Tangent", "state": "OR", "country": "US", "coord": {"lon": -123.108147, "lat": 44.541229}}, {"id": 5756260, "name": "Terrebonne", "state": "OR", "country": "US", "coord": {"lon": -121.177811, "lat": 44.352901}}, {"id": 5756304, "name": "The Dalles", "state": "OR", "country": "US", "coord": {"lon": -121.17868, "lat": 45.594559}}, {"id": 5756628, "name": "Three Rivers", "state": "OR", "country": "US", "coord": {"lon": -121.469193, "lat": 43.820122}}, {"id": 5756758, "name": "Tigard", "state": "OR", "country": "US", "coord": {"lon": -122.771492, "lat": 45.431229}}, {"id": 5756777, "name": "Tillamook", "state": "OR", "country": "US", "coord": {"lon": -123.844009, "lat": 45.456219}}, {"id": 5757007, "name": "Toledo", "state": "OR", "country": "US", "coord": {"lon": -123.938454, "lat": 44.62151}}, {"id": 5757355, "name": "Tri-City", "state": "OR", "country": "US", "coord": {"lon": -123.311729, "lat": 42.984558}}, {"id": 5757477, "name": "Troutdale", "state": "OR", "country": "US", "coord": {"lon": -122.387306, "lat": 45.539291}}, {"id": 5757506, "name": "Tualatin", "state": "OR", "country": "US", "coord": {"lon": -122.763992, "lat": 45.38401}}, {"id": 5757706, "name": "Turner", "state": "OR", "country": "US", "coord": {"lon": -122.952873, "lat": 44.843182}}, {"id": 5758029, "name": "Tygh Valley", "state": "OR", "country": "US", "coord": {"lon": -121.173119, "lat": 45.247341}}, {"id": 5758052, "name": "Umatilla", "state": "OR", "country": "US", "coord": {"lon": -119.342522, "lat": 45.917351}}, {"id": 5758058, "name": "Umatilla County", "state": "OR", "country": "US", "coord": {"lon": -118.50135, "lat": 45.50013}}, {"id": 5758113, "name": "Union", "state": "OR", "country": "US", "coord": {"lon": -117.865211, "lat": 45.208469}}, {"id": 5758120, "name": "Union County", "state": "OR", "country": "US", "coord": {"lon": -118.001328, "lat": 45.36652}}, {"id": 5758413, "name": "Vale", "state": "OR", "country": "US", "coord": {"lon": -117.238228, "lat": 43.982109}}, {"id": 5758566, "name": "Veneta", "state": "OR", "country": "US", "coord": {"lon": -123.350929, "lat": 44.048729}}, {"id": 5758599, "name": "Vernonia", "state": "OR", "country": "US", "coord": {"lon": -123.192886, "lat": 45.858719}}, {"id": 5758901, "name": "Waldport", "state": "OR", "country": "US", "coord": {"lon": -124.068733, "lat": 44.426788}}, {"id": 5759046, "name": "Wallowa County", "state": "OR", "country": "US", "coord": {"lon": -117.167664, "lat": 45.500149}}, {"id": 5759199, "name": "Warm Springs", "state": "OR", "country": "US", "coord": {"lon": -121.266159, "lat": 44.763451}}, {"id": 5759261, "name": "Warren", "state": "OR", "country": "US", "coord": {"lon": -122.848991, "lat": 45.819}}, {"id": 5759289, "name": "Warrenton", "state": "OR", "country": "US", "coord": {"lon": -123.923759, "lat": 46.1651}}, {"id": 5759298, "name": "Wasco County", "state": "OR", "country": "US", "coord": {"lon": -121.25145, "lat": 45.166512}}, {"id": 5759333, "name": "Washington County", "state": "OR", "country": "US", "coord": {"lon": -123.00293, "lat": 45.51405}}, {"id": 5759500, "name": "Watts", "state": "OR", "country": "US", "coord": {"lon": -123.168442, "lat": 45.5415}}, {"id": 5759989, "name": "West Haven", "state": "OR", "country": "US", "coord": {"lon": -122.769539, "lat": 45.51762}}, {"id": 5760009, "name": "West Linn", "state": "OR", "country": "US", "coord": {"lon": -122.612312, "lat": 45.365681}}, {"id": 5760068, "name": "West Slope", "state": "OR", "country": "US", "coord": {"lon": -122.764542, "lat": 45.49873}}, {"id": 5760396, "name": "White City", "state": "OR", "country": "US", "coord": {"lon": -122.858932, "lat": 42.437351}}, {"id": 5760923, "name": "Willamina", "state": "OR", "country": "US", "coord": {"lon": -123.485939, "lat": 45.078732}}, {"id": 5760956, "name": "Williams", "state": "OR", "country": "US", "coord": {"lon": -123.273941, "lat": 42.218731}}, {"id": 5761287, "name": "Wilsonville", "state": "OR", "country": "US", "coord": {"lon": -122.773712, "lat": 45.299839}}, {"id": 5761481, "name": "Winston", "state": "OR", "country": "US", "coord": {"lon": -123.412567, "lat": 43.122341}}, {"id": 5761705, "name": "Wood Village", "state": "OR", "country": "US", "coord": {"lon": -122.418701, "lat": 45.53429}}, {"id": 5761708, "name": "Woodburn", "state": "OR", "country": "US", "coord": {"lon": -122.85537, "lat": 45.14373}}, {"id": 5761959, "name": "Yamhill", "state": "OR", "country": "US", "coord": {"lon": -123.187332, "lat": 45.341499}}, {"id": 5761960, "name": "Yamhill County", "state": "OR", "country": "US", "coord": {"lon": -123.301224, "lat": 45.216499}}, {"id": 5762118, "name": "Yoncalla", "state": "OR", "country": "US", "coord": {"lon": -123.283417, "lat": 43.59845}}, {"id": 5762320, "name": "Ajax", "state": "SD", "country": "US", "coord": {"lon": -103.181847, "lat": 43.897491}}, {"id": 5762369, "name": "Alto", "state": "SD", "country": "US", "coord": {"lon": -100.12735, "lat": 44.329979}}, {"id": 5762718, "name": "Belle Fourche", "state": "SD", "country": "US", "coord": {"lon": -103.85215, "lat": 44.671371}}, {"id": 5762836, "name": "Bison", "state": "SD", "country": "US", "coord": {"lon": -102.461273, "lat": 45.52026}}, {"id": 5762897, "name": "Blackhawk", "state": "SD", "country": "US", "coord": {"lon": -103.307961, "lat": 44.1511}}, {"id": 5763011, "name": "Box Elder", "state": "SD", "country": "US", "coord": {"lon": -103.06823, "lat": 44.112492}}, {"id": 5763144, "name": "Buffalo", "state": "SD", "country": "US", "coord": {"lon": -103.546028, "lat": 45.58416}}, {"id": 5763234, "name": "Butte County", "state": "SD", "country": "US", "coord": {"lon": -103.550468, "lat": 44.88332}}, {"id": 5763457, "name": "Cedar Butte", "state": "SD", "country": "US", "coord": {"lon": -101.018478, "lat": 43.576939}}, {"id": 5763699, "name": "Colonial Pine Hills", "state": "SD", "country": "US", "coord": {"lon": -103.31546, "lat": 44.007771}}, {"id": 5763853, "name": "Creighton", "state": "SD", "country": "US", "coord": {"lon": -102.207939, "lat": 44.25499}}, {"id": 5763910, "name": "Custer", "state": "SD", "country": "US", "coord": {"lon": -103.598808, "lat": 43.766651}}, {"id": 5764048, "name": "Deadwood", "state": "SD", "country": "US", "coord": {"lon": -103.729637, "lat": 44.376652}}, {"id": 5764313, "name": "Dupree", "state": "SD", "country": "US", "coord": {"lon": -101.60099, "lat": 45.047482}}, {"id": 5764369, "name": "Eagle Butte", "state": "SD", "country": "US", "coord": {"lon": -101.233482, "lat": 45.00248}}, {"id": 5764683, "name": "Faith", "state": "SD", "country": "US", "coord": {"lon": -102.035988, "lat": 45.023041}}, {"id": 5764690, "name": "Fall River County", "state": "SD", "country": "US", "coord": {"lon": -103.550468, "lat": 43.26664}}, {"id": 5764864, "name": "Fort Pierre", "state": "SD", "country": "US", "coord": {"lon": -100.373741, "lat": 44.353588}}, {"id": 5765294, "name": "Haakon County", "state": "SD", "country": "US", "coord": {"lon": -101.583763, "lat": 44.28054}}, {"id": 5765341, "name": "Harding County", "state": "SD", "country": "US", "coord": {"lon": -103.501022, "lat": 45.583328}}, {"id": 5765513, "name": "Heppner", "state": "SD", "country": "US", "coord": {"lon": -103.549919, "lat": 43.246922}}, {"id": 5765694, "name": "Hoover", "state": "SD", "country": "US", "coord": {"lon": -103.26712, "lat": 45.112492}}, {"id": 5765751, "name": "Hot Springs", "state": "SD", "country": "US", "coord": {"lon": -103.474358, "lat": 43.431648}}, {"id": 5765964, "name": "Jackson County", "state": "SD", "country": "US", "coord": {"lon": -101.675423, "lat": 43.686111}}, {"id": 5766162, "name": "Kadoka", "state": "SD", "country": "US", "coord": {"lon": -101.509872, "lat": 43.833881}}, {"id": 5766411, "name": "Lawrence County", "state": "SD", "country": "US", "coord": {"lon": -103.817146, "lat": 44.36665}}, {"id": 5766425, "name": "Lead", "state": "SD", "country": "US", "coord": {"lon": -103.765198, "lat": 44.352211}}, {"id": 5766453, "name": "Lemmon", "state": "SD", "country": "US", "coord": {"lon": -102.159317, "lat": 45.94083}}, {"id": 5766696, "name": "Long Valley", "state": "SD", "country": "US", "coord": {"lon": -101.494873, "lat": 43.461658}}, {"id": 5766888, "name": "Martin", "state": "SD", "country": "US", "coord": {"lon": -101.732651, "lat": 43.172501}}, {"id": 5766967, "name": "McIntosh", "state": "SD", "country": "US", "coord": {"lon": -101.349579, "lat": 45.921391}}, {"id": 5767000, "name": "Meade County", "state": "SD", "country": "US", "coord": {"lon": -102.625999, "lat": 44.500542}}, {"id": 5767002, "name": "Meadow", "state": "SD", "country": "US", "coord": {"lon": -102.21627, "lat": 45.529148}}, {"id": 5767033, "name": "Mellette County", "state": "SD", "country": "US", "coord": {"lon": -100.75042, "lat": 43.558331}}, {"id": 5767144, "name": "Mission", "state": "SD", "country": "US", "coord": {"lon": -100.658188, "lat": 43.30584}}, {"id": 5767189, "name": "Mobridge", "state": "SD", "country": "US", "coord": {"lon": -100.42791, "lat": 45.53722}}, {"id": 5767241, "name": "Mound City", "state": "SD", "country": "US", "coord": {"lon": -100.068451, "lat": 45.725269}}, {"id": 5767295, "name": "Murdo", "state": "SD", "country": "US", "coord": {"lon": -100.712914, "lat": 43.888321}}, {"id": 5767488, "name": "North Eagle Butte", "state": "SD", "country": "US", "coord": {"lon": -101.233757, "lat": 45.00415}}, {"id": 5767532, "name": "North Spearfish", "state": "SD", "country": "US", "coord": {"lon": -103.892151, "lat": 44.506649}}, {"id": 5767558, "name": "Nowlin", "state": "SD", "country": "US", "coord": {"lon": -101.302643, "lat": 44.049709}}, {"id": 5767610, "name": "Oglala", "state": "SD", "country": "US", "coord": {"lon": -102.739616, "lat": 43.188591}}, {"id": 5767679, "name": "Olsonville", "state": "SD", "country": "US", "coord": {"lon": -100.609032, "lat": 43.127781}}, {"id": 5767686, "name": "Onida", "state": "SD", "country": "US", "coord": {"lon": -100.059837, "lat": 44.708038}}, {"id": 5767840, "name": "Pennington County", "state": "SD", "country": "US", "coord": {"lon": -102.76712, "lat": 43.983318}}, {"id": 5767864, "name": "Perkins County", "state": "SD", "country": "US", "coord": {"lon": -102.458771, "lat": 45.516651}}, {"id": 5767896, "name": "Philip", "state": "SD", "country": "US", "coord": {"lon": -101.665138, "lat": 44.039429}}, {"id": 5767918, "name": "Pierre", "state": "SD", "country": "US", "coord": {"lon": -100.350967, "lat": 44.36832}}, {"id": 5767939, "name": "Pine Ridge", "state": "SD", "country": "US", "coord": {"lon": -102.556267, "lat": 43.025539}}, {"id": 5768046, "name": "Porcupine", "state": "SD", "country": "US", "coord": {"lon": -102.330994, "lat": 43.239712}}, {"id": 5768233, "name": "Rapid City", "state": "SD", "country": "US", "coord": {"lon": -103.23101, "lat": 44.08054}}, {"id": 5768244, "name": "Rapid Valley", "state": "SD", "country": "US", "coord": {"lon": -103.146294, "lat": 44.062489}}, {"id": 5768336, "name": "Redig", "state": "SD", "country": "US", "coord": {"lon": -103.548248, "lat": 45.271099}}, {"id": 5768556, "name": "Rosebud", "state": "SD", "country": "US", "coord": {"lon": -100.853477, "lat": 43.23278}}, {"id": 5768578, "name": "Roubaix", "state": "SD", "country": "US", "coord": {"lon": -103.666313, "lat": 44.275822}}, {"id": 5768946, "name": "Selby", "state": "SD", "country": "US", "coord": {"lon": -100.032066, "lat": 45.506378}}, {"id": 5769223, "name": "South Dakota", "state": "SD", "country": "US", "coord": {"lon": -100.250687, "lat": 44.500259}}, {"id": 5769288, "name": "Spearfish", "state": "SD", "country": "US", "coord": {"lon": -103.859367, "lat": 44.490822}}, {"id": 5769489, "name": "Sturgis", "state": "SD", "country": "US", "coord": {"lon": -103.509079, "lat": 44.40971}}, {"id": 5769772, "name": "Timber Lake", "state": "SD", "country": "US", "coord": {"lon": -101.074028, "lat": 45.42915}}, {"id": 5769778, "name": "Todd County", "state": "SD", "country": "US", "coord": {"lon": -100.749863, "lat": 43.183338}}, {"id": 5770156, "name": "Wasta", "state": "SD", "country": "US", "coord": {"lon": -102.445717, "lat": 44.0686}}, {"id": 5770357, "name": "White River", "state": "SD", "country": "US", "coord": {"lon": -100.745422, "lat": 43.56805}}, {"id": 5770431, "name": "Wildwood Addition", "state": "SD", "country": "US", "coord": {"lon": -103.274902, "lat": 44.035271}}, {"id": 5770732, "name": "Alpine", "state": "UT", "country": "US", "coord": {"lon": -111.777992, "lat": 40.453281}}, {"id": 5771084, "name": "Barro", "state": "UT", "country": "US", "coord": {"lon": -113.488876, "lat": 40.726879}}, {"id": 5771312, "name": "Benjamin", "state": "UT", "country": "US", "coord": {"lon": -111.731323, "lat": 40.098289}}, {"id": 5771337, "name": "Benson", "state": "UT", "country": "US", "coord": {"lon": -111.930222, "lat": 41.78743}}, {"id": 5771716, "name": "Bluffdale", "state": "UT", "country": "US", "coord": {"lon": -111.93882, "lat": 40.48967}}, {"id": 5771826, "name": "Bountiful", "state": "UT", "country": "US", "coord": {"lon": -111.880768, "lat": 40.889389}}, {"id": 5771875, "name": "Box Elder County", "state": "UT", "country": "US", "coord": {"lon": -112.876373, "lat": 41.500481}}, {"id": 5771960, "name": "Brigham City", "state": "UT", "country": "US", "coord": {"lon": -112.015503, "lat": 41.510208}}, {"id": 5772151, "name": "Buena Vista", "state": "UT", "country": "US", "coord": {"lon": -111.971878, "lat": 40.758282}}, {"id": 5772317, "name": "Cache County", "state": "UT", "country": "US", "coord": {"lon": -111.750221, "lat": 41.749378}}, {"id": 5772418, "name": "Canyon Rim", "state": "UT", "country": "US", "coord": {"lon": -111.821877, "lat": 40.706612}}, {"id": 5772581, "name": "Cedar Hills", "state": "UT", "country": "US", "coord": {"lon": -111.758537, "lat": 40.41412}}, {"id": 5772653, "name": "Centerfield", "state": "UT", "country": "US", "coord": {"lon": -111.897987, "lat": 40.691341}}, {"id": 5772654, "name": "Centerville", "state": "UT", "country": "US", "coord": {"lon": -111.872162, "lat": 40.917999}}, {"id": 5772959, "name": "Clearfield", "state": "UT", "country": "US", "coord": {"lon": -112.026047, "lat": 41.110779}}, {"id": 5773001, "name": "Clinton", "state": "UT", "country": "US", "coord": {"lon": -112.050499, "lat": 41.139671}}, {"id": 5773066, "name": "Coalville", "state": "UT", "country": "US", "coord": {"lon": -111.399361, "lat": 40.917728}}, {"id": 5773126, "name": "Colonial Gardens Condominium", "state": "UT", "country": "US", "coord": {"lon": -112.009109, "lat": 41.183281}}, {"id": 5773304, "name": "Cottonwood Heights", "state": "UT", "country": "US", "coord": {"lon": -111.810211, "lat": 40.619671}}, {"id": 5773664, "name": "Davis County", "state": "UT", "country": "US", "coord": {"lon": -112.001328, "lat": 41.0005}}, {"id": 5774001, "name": "Draper", "state": "UT", "country": "US", "coord": {"lon": -111.863823, "lat": 40.52467}}, {"id": 5774135, "name": "Duchesne", "state": "UT", "country": "US", "coord": {"lon": -110.402931, "lat": 40.163288}}, {"id": 5774215, "name": "Eagle Mountain", "state": "UT", "country": "US", "coord": {"lon": -112.006882, "lat": 40.314121}}, {"id": 5774301, "name": "East Millcreek", "state": "UT", "country": "US", "coord": {"lon": -111.810493, "lat": 40.699951}}, {"id": 5774456, "name": "Elk Ridge", "state": "UT", "country": "US", "coord": {"lon": -111.676872, "lat": 40.011341}}, {"id": 5774482, "name": "Elwood", "state": "UT", "country": "US", "coord": {"lon": -112.14106, "lat": 41.690479}}, {"id": 5774546, "name": "Erda", "state": "UT", "country": "US", "coord": {"lon": -112.30439, "lat": 40.61272}}, {"id": 5774662, "name": "Farmington", "state": "UT", "country": "US", "coord": {"lon": -111.887444, "lat": 40.980499}}, {"id": 5774685, "name": "Farr West", "state": "UT", "country": "US", "coord": {"lon": -112.027718, "lat": 41.297169}}, {"id": 5774886, "name": "Foothills", "state": "UT", "country": "US", "coord": {"lon": -112.015221, "lat": 40.495499}}, {"id": 5774961, "name": "Francis", "state": "UT", "country": "US", "coord": {"lon": -111.280739, "lat": 40.610512}}, {"id": 5775035, "name": "Fruit Heights", "state": "UT", "country": "US", "coord": {"lon": -111.902161, "lat": 41.032169}}, {"id": 5775081, "name": "Garland", "state": "UT", "country": "US", "coord": {"lon": -112.161621, "lat": 41.741039}}, {"id": 5775320, "name": "Granite", "state": "UT", "country": "US", "coord": {"lon": -111.806038, "lat": 40.573002}}, {"id": 5775346, "name": "Grantsville", "state": "UT", "country": "US", "coord": {"lon": -112.464401, "lat": 40.599941}}, {"id": 5775438, "name": "Greenville", "state": "UT", "country": "US", "coord": {"lon": -111.848282, "lat": 41.766319}}, {"id": 5775615, "name": "Harrisville", "state": "UT", "country": "US", "coord": {"lon": -111.988281, "lat": 41.28133}}, {"id": 5775699, "name": "Heber City", "state": "UT", "country": "US", "coord": {"lon": -111.413239, "lat": 40.506901}}, {"id": 5775782, "name": "Herriman", "state": "UT", "country": "US", "coord": {"lon": -112.03299, "lat": 40.514111}}, {"id": 5775863, "name": "Highland", "state": "UT", "country": "US", "coord": {"lon": -111.77021, "lat": 40.449951}}, {"id": 5775931, "name": "Hillside Estates", "state": "UT", "country": "US", "coord": {"lon": -111.979111, "lat": 41.101891}}, {"id": 5776008, "name": "Holladay", "state": "UT", "country": "US", "coord": {"lon": -111.824661, "lat": 40.668839}}, {"id": 5776087, "name": "Honeyville", "state": "UT", "country": "US", "coord": {"lon": -112.079391, "lat": 41.638538}}, {"id": 5776092, "name": "Hooper", "state": "UT", "country": "US", "coord": {"lon": -112.122437, "lat": 41.16383}}, {"id": 5776221, "name": "Hyde Park", "state": "UT", "country": "US", "coord": {"lon": -111.819107, "lat": 41.79882}}, {"id": 5776228, "name": "Hyrum", "state": "UT", "country": "US", "coord": {"lon": -111.852173, "lat": 41.634102}}, {"id": 5776692, "name": "Kamas", "state": "UT", "country": "US", "coord": {"lon": -111.280739, "lat": 40.643009}}, {"id": 5776715, "name": "Kaysville", "state": "UT", "country": "US", "coord": {"lon": -111.938553, "lat": 41.035221}}, {"id": 5776727, "name": "Kearns", "state": "UT", "country": "US", "coord": {"lon": -111.99633, "lat": 40.65995}}, {"id": 5776997, "name": "Lakeside", "state": "UT", "country": "US", "coord": {"lon": -112.865532, "lat": 41.222431}}, {"id": 5777105, "name": "Lawndale Addition", "state": "UT", "country": "US", "coord": {"lon": -112.002998, "lat": 41.195782}}, {"id": 5777107, "name": "Layton", "state": "UT", "country": "US", "coord": {"lon": -111.971046, "lat": 41.060219}}, {"id": 5777224, "name": "Lehi", "state": "UT", "country": "US", "coord": {"lon": -111.850769, "lat": 40.391621}}, {"id": 5777244, "name": "Lewiston", "state": "UT", "country": "US", "coord": {"lon": -111.856339, "lat": 41.975761}}, {"id": 5777253, "name": "Liberty", "state": "UT", "country": "US", "coord": {"lon": -111.863548, "lat": 41.333549}}, {"id": 5777332, "name": "Lindon", "state": "UT", "country": "US", "coord": {"lon": -111.720757, "lat": 40.343288}}, {"id": 5777451, "name": "Little Mountain", "state": "UT", "country": "US", "coord": {"lon": -112.254662, "lat": 41.244389}}, {"id": 5777544, "name": "Logan", "state": "UT", "country": "US", "coord": {"lon": -111.834389, "lat": 41.735489}}, {"id": 5777780, "name": "Maeser", "state": "UT", "country": "US", "coord": {"lon": -109.586807, "lat": 40.47718}}, {"id": 5777793, "name": "Magna", "state": "UT", "country": "US", "coord": {"lon": -112.101608, "lat": 40.70911}}, {"id": 5777855, "name": "Manila", "state": "UT", "country": "US", "coord": {"lon": -109.722649, "lat": 40.98801}}, {"id": 5777915, "name": "Mapleton", "state": "UT", "country": "US", "coord": {"lon": -111.578529, "lat": 40.13023}}, {"id": 5777956, "name": "Marriott-Slaterville", "state": "UT", "country": "US", "coord": {"lon": -112.025497, "lat": 41.25161}}, {"id": 5778154, "name": "Mendon", "state": "UT", "country": "US", "coord": {"lon": -111.977722, "lat": 41.70993}}, {"id": 5778244, "name": "Midvale", "state": "UT", "country": "US", "coord": {"lon": -111.89994, "lat": 40.611061}}, {"id": 5778261, "name": "Midway", "state": "UT", "country": "US", "coord": {"lon": -111.47435, "lat": 40.51218}}, {"id": 5778352, "name": "Millcreek", "state": "UT", "country": "US", "coord": {"lon": -111.875488, "lat": 40.68689}}, {"id": 5778379, "name": "Millville", "state": "UT", "country": "US", "coord": {"lon": -111.822998, "lat": 41.681599}}, {"id": 5778518, "name": "Morgan", "state": "UT", "country": "US", "coord": {"lon": -111.67688, "lat": 41.03606}}, {"id": 5778601, "name": "Mount Olympus", "state": "UT", "country": "US", "coord": {"lon": -111.788544, "lat": 40.685501}}, {"id": 5778633, "name": "Mountain Green", "state": "UT", "country": "US", "coord": {"lon": -111.791603, "lat": 41.143002}}, {"id": 5778755, "name": "Murray", "state": "UT", "country": "US", "coord": {"lon": -111.887993, "lat": 40.666889}}, {"id": 5778787, "name": "Mutual Dell", "state": "UT", "country": "US", "coord": {"lon": -111.644089, "lat": 40.446339}}, {"id": 5778807, "name": "Naples", "state": "UT", "country": "US", "coord": {"lon": -109.499298, "lat": 40.42691}}, {"id": 5778887, "name": "Newport Haven", "state": "UT", "country": "US", "coord": {"lon": -112.060501, "lat": 41.03355}}, {"id": 5778898, "name": "Nibley", "state": "UT", "country": "US", "coord": {"lon": -111.833, "lat": 41.674381}}, {"id": 5779025, "name": "North Logan", "state": "UT", "country": "US", "coord": {"lon": -111.804672, "lat": 41.769371}}, {"id": 5779036, "name": "North Ogden", "state": "UT", "country": "US", "coord": {"lon": -111.96022, "lat": 41.307159}}, {"id": 5779068, "name": "North Salt Lake", "state": "UT", "country": "US", "coord": {"lon": -111.906883, "lat": 40.84856}}, {"id": 5779170, "name": "Oakley", "state": "UT", "country": "US", "coord": {"lon": -111.300743, "lat": 40.714668}}, {"id": 5779206, "name": "Ogden", "state": "UT", "country": "US", "coord": {"lon": -111.973831, "lat": 41.223}}, {"id": 5779333, "name": "Oquirrh", "state": "UT", "country": "US", "coord": {"lon": -112.033829, "lat": 40.630501}}, {"id": 5779334, "name": "Orem", "state": "UT", "country": "US", "coord": {"lon": -111.694649, "lat": 40.296902}}, {"id": 5779451, "name": "Park City", "state": "UT", "country": "US", "coord": {"lon": -111.497971, "lat": 40.646061}}, {"id": 5779548, "name": "Payson", "state": "UT", "country": "US", "coord": {"lon": -111.732147, "lat": 40.044399}}, {"id": 5779613, "name": "Perry", "state": "UT", "country": "US", "coord": {"lon": -112.032448, "lat": 41.464939}}, {"id": 5779798, "name": "Plain City", "state": "UT", "country": "US", "coord": {"lon": -112.086052, "lat": 41.298}}, {"id": 5779816, "name": "Pleasant Grove", "state": "UT", "country": "US", "coord": {"lon": -111.738541, "lat": 40.36412}}, {"id": 5779833, "name": "Pleasant View", "state": "UT", "country": "US", "coord": {"lon": -111.992157, "lat": 41.318279}}, {"id": 5780020, "name": "Providence", "state": "UT", "country": "US", "coord": {"lon": -111.817162, "lat": 41.706322}}, {"id": 5780026, "name": "Provo", "state": "UT", "country": "US", "coord": {"lon": -111.658531, "lat": 40.233841}}, {"id": 5780154, "name": "Randolph", "state": "UT", "country": "US", "coord": {"lon": -111.182137, "lat": 41.665779}}, {"id": 5780388, "name": "Richmond", "state": "UT", "country": "US", "coord": {"lon": -111.81356, "lat": 41.92271}}, {"id": 5780517, "name": "River Heights", "state": "UT", "country": "US", "coord": {"lon": -111.821327, "lat": 41.7216}}, {"id": 5780531, "name": "Riverdale", "state": "UT", "country": "US", "coord": {"lon": -112.00383, "lat": 41.176891}}, {"id": 5780557, "name": "Riverton", "state": "UT", "country": "US", "coord": {"lon": -111.939102, "lat": 40.521889}}, {"id": 5780699, "name": "Roosevelt", "state": "UT", "country": "US", "coord": {"lon": -109.988762, "lat": 40.2994}}, {"id": 5780802, "name": "Roy", "state": "UT", "country": "US", "coord": {"lon": -112.026329, "lat": 41.16161}}, {"id": 5780908, "name": "Sahara Village", "state": "UT", "country": "US", "coord": {"lon": -111.973282, "lat": 41.100498}}, {"id": 5780993, "name": "Salt Lake City", "state": "UT", "country": "US", "coord": {"lon": -111.891052, "lat": 40.76078}}, {"id": 5781004, "name": "Salt Lake County", "state": "UT", "country": "US", "coord": {"lon": -111.87632, "lat": 40.6255}}, {"id": 5781061, "name": "Sandy", "state": "UT", "country": "US", "coord": {"lon": -111.860558, "lat": 40.572041}}, {"id": 5781070, "name": "Sandy Hills", "state": "UT", "country": "US", "coord": {"lon": -111.850769, "lat": 40.581059}}, {"id": 5781087, "name": "Saratoga Springs", "state": "UT", "country": "US", "coord": {"lon": -111.904663, "lat": 40.349121}}, {"id": 5781551, "name": "Smithfield", "state": "UT", "country": "US", "coord": {"lon": -111.832718, "lat": 41.838261}}, {"id": 5781609, "name": "Snyderville", "state": "UT", "country": "US", "coord": {"lon": -111.543808, "lat": 40.694389}}, {"id": 5781765, "name": "South Jordan Heights", "state": "UT", "country": "US", "coord": {"lon": -111.949379, "lat": 40.563839}}, {"id": 5781770, "name": "South Jordan", "state": "UT", "country": "US", "coord": {"lon": -111.929657, "lat": 40.562168}}, {"id": 5781783, "name": "South Ogden", "state": "UT", "country": "US", "coord": {"lon": -111.971329, "lat": 41.191891}}, {"id": 5781794, "name": "South Salt Lake", "state": "UT", "country": "US", "coord": {"lon": -111.888268, "lat": 40.718842}}, {"id": 5781809, "name": "South Weber", "state": "UT", "country": "US", "coord": {"lon": -111.930222, "lat": 41.132439}}, {"id": 5781813, "name": "South Willard", "state": "UT", "country": "US", "coord": {"lon": -112.035782, "lat": 41.36327}}, {"id": 5781860, "name": "Spanish Fork", "state": "UT", "country": "US", "coord": {"lon": -111.654922, "lat": 40.11496}}, {"id": 5781925, "name": "Spring Circle", "state": "UT", "country": "US", "coord": {"lon": -111.854927, "lat": 40.57217}}, {"id": 5781993, "name": "Springville", "state": "UT", "country": "US", "coord": {"lon": -111.610748, "lat": 40.16523}}, {"id": 5782055, "name": "Stansbury park", "state": "UT", "country": "US", "coord": {"lon": -112.296059, "lat": 40.637718}}, {"id": 5782272, "name": "Summit Park", "state": "UT", "country": "US", "coord": {"lon": -111.611588, "lat": 40.745781}}, {"id": 5782320, "name": "Sunset", "state": "UT", "country": "US", "coord": {"lon": -112.031052, "lat": 41.13633}}, {"id": 5782391, "name": "Syracuse", "state": "UT", "country": "US", "coord": {"lon": -112.064667, "lat": 41.08939}}, {"id": 5782476, "name": "Taylorsville", "state": "UT", "country": "US", "coord": {"lon": -111.938828, "lat": 40.667721}}, {"id": 5783695, "name": "Tooele", "state": "UT", "country": "US", "coord": {"lon": -112.298279, "lat": 40.530781}}, {"id": 5783699, "name": "Tooele County", "state": "UT", "country": "US", "coord": {"lon": -113.125259, "lat": 40.375488}}, {"id": 5783768, "name": "Tremonton", "state": "UT", "country": "US", "coord": {"lon": -112.165512, "lat": 41.711868}}, {"id": 5783914, "name": "Uintah", "state": "UT", "country": "US", "coord": {"lon": -111.923271, "lat": 41.144112}}, {"id": 5784025, "name": "Utah County", "state": "UT", "country": "US", "coord": {"lon": -111.626312, "lat": 40.124401}}, {"id": 5784154, "name": "Vernal", "state": "UT", "country": "US", "coord": {"lon": -109.528748, "lat": 40.455521}}, {"id": 5784227, "name": "Vivian Park", "state": "UT", "country": "US", "coord": {"lon": -111.574081, "lat": 40.354961}}, {"id": 5784270, "name": "Wallsburg", "state": "UT", "country": "US", "coord": {"lon": -111.422409, "lat": 40.38773}}, {"id": 5784339, "name": "Wasatch County", "state": "UT", "country": "US", "coord": {"lon": -111.126282, "lat": 40.375511}}, {"id": 5784384, "name": "Washington Terrace", "state": "UT", "country": "US", "coord": {"lon": -111.976608, "lat": 41.172722}}, {"id": 5784440, "name": "Weber County", "state": "UT", "country": "US", "coord": {"lon": -111.751328, "lat": 41.2505}}, {"id": 5784492, "name": "Wendover", "state": "UT", "country": "US", "coord": {"lon": -114.037514, "lat": 40.737148}}, {"id": 5784504, "name": "West Bountiful", "state": "UT", "country": "US", "coord": {"lon": -111.901878, "lat": 40.893829}}, {"id": 5784540, "name": "West Haven", "state": "UT", "country": "US", "coord": {"lon": -112.051048, "lat": 41.202999}}, {"id": 5784549, "name": "West Jordan", "state": "UT", "country": "US", "coord": {"lon": -111.939102, "lat": 40.609669}}, {"id": 5784562, "name": "West Layton", "state": "UT", "country": "US", "coord": {"lon": -111.998833, "lat": 41.060219}}, {"id": 5784572, "name": "West Mountain", "state": "UT", "country": "US", "coord": {"lon": -111.788269, "lat": 40.060791}}, {"id": 5784580, "name": "West Point", "state": "UT", "country": "US", "coord": {"lon": -112.084106, "lat": 41.118279}}, {"id": 5784595, "name": "West Salt Lake", "state": "UT", "country": "US", "coord": {"lon": -111.980492, "lat": 40.790779}}, {"id": 5784607, "name": "West Valley City", "state": "UT", "country": "US", "coord": {"lon": -112.001053, "lat": 40.691608}}, {"id": 5784610, "name": "Reese", "state": "UT", "country": "US", "coord": {"lon": -112.152443, "lat": 41.250221}}, {"id": 5784685, "name": "Wheadon Acres", "state": "UT", "country": "US", "coord": {"lon": -111.96299, "lat": 40.560501}}, {"id": 5784731, "name": "White City", "state": "UT", "country": "US", "coord": {"lon": -111.86438, "lat": 40.565781}}, {"id": 5784852, "name": "Willard", "state": "UT", "country": "US", "coord": {"lon": -112.036057, "lat": 41.409111}}, {"id": 5784853, "name": "Willard", "state": "UT", "country": "US", "coord": {"lon": -111.837433, "lat": 40.706341}}, {"id": 5785035, "name": "Wolf Creek", "state": "UT", "country": "US", "coord": {"lon": -111.827164, "lat": 41.333271}}, {"id": 5785084, "name": "Woodland Hills", "state": "UT", "country": "US", "coord": {"lon": -111.648682, "lat": 40.01532}}, {"id": 5785116, "name": "Woods Cross", "state": "UT", "country": "US", "coord": {"lon": -111.892159, "lat": 40.871609}}, {"id": 5785243, "name": "Aberdeen", "state": "WA", "country": "US", "coord": {"lon": -123.81572, "lat": 46.975368}}, {"id": 5785359, "name": "Ahtanum", "state": "WA", "country": "US", "coord": {"lon": -120.622009, "lat": 46.55957}}, {"id": 5785378, "name": "Airway Heights", "state": "WA", "country": "US", "coord": {"lon": -117.593269, "lat": 47.644611}}, {"id": 5785450, "name": "Alderton", "state": "WA", "country": "US", "coord": {"lon": -122.229279, "lat": 47.169552}}, {"id": 5785453, "name": "Alderwood Manor", "state": "WA", "country": "US", "coord": {"lon": -122.282066, "lat": 47.822041}}, {"id": 5785484, "name": "Algona", "state": "WA", "country": "US", "coord": {"lon": -122.25206, "lat": 47.278992}}, {"id": 5785552, "name": "Allyn", "state": "WA", "country": "US", "coord": {"lon": -122.827637, "lat": 47.385651}}, {"id": 5785614, "name": "Amboy", "state": "WA", "country": "US", "coord": {"lon": -122.446487, "lat": 45.91011}}, {"id": 5785639, "name": "American River", "state": "WA", "country": "US", "coord": {"lon": -121.161751, "lat": 46.975948}}, {"id": 5785640, "name": "Ames Lake", "state": "WA", "country": "US", "coord": {"lon": -121.966232, "lat": 47.632881}}, {"id": 5785657, "name": "Anacortes", "state": "WA", "country": "US", "coord": {"lon": -122.612671, "lat": 48.5126}}, {"id": 5785858, "name": "Arlington Heights", "state": "WA", "country": "US", "coord": {"lon": -122.06208, "lat": 48.202049}}, {"id": 5785868, "name": "Arlington", "state": "WA", "country": "US", "coord": {"lon": -122.125137, "lat": 48.198711}}, {"id": 5785871, "name": "Armstrong", "state": "WA", "country": "US", "coord": {"lon": -117.225449, "lat": 46.760159}}, {"id": 5785909, "name": "Artondale", "state": "WA", "country": "US", "coord": {"lon": -122.620689, "lat": 47.299541}}, {"id": 5785933, "name": "Asotin", "state": "WA", "country": "US", "coord": {"lon": -117.04821, "lat": 46.339329}}, {"id": 5785965, "name": "Auburn", "state": "WA", "country": "US", "coord": {"lon": -122.228447, "lat": 47.30732}}, {"id": 5786322, "name": "Barberton", "state": "WA", "country": "US", "coord": {"lon": -122.598991, "lat": 45.693169}}, {"id": 5786429, "name": "Basin City", "state": "WA", "country": "US", "coord": {"lon": -119.152229, "lat": 46.594028}}, {"id": 5786485, "name": "Battle Ground", "state": "WA", "country": "US", "coord": {"lon": -122.533432, "lat": 45.780949}}, {"id": 5786848, "name": "Belfair", "state": "WA", "country": "US", "coord": {"lon": -122.82737, "lat": 47.450649}}, {"id": 5786852, "name": "Belfast", "state": "WA", "country": "US", "coord": {"lon": -122.335159, "lat": 48.55455}}, {"id": 5786882, "name": "Bellevue", "state": "WA", "country": "US", "coord": {"lon": -122.200684, "lat": 47.610378}}, {"id": 5786899, "name": "Bellingham", "state": "WA", "country": "US", "coord": {"lon": -122.48822, "lat": 48.759548}}, {"id": 5786990, "name": "Benton City", "state": "WA", "country": "US", "coord": {"lon": -119.487801, "lat": 46.263191}}, {"id": 5786991, "name": "Benton County", "state": "WA", "country": "US", "coord": {"lon": -119.484467, "lat": 46.266521}}, {"id": 5787076, "name": "Bethel", "state": "WA", "country": "US", "coord": {"lon": -122.631248, "lat": 47.49398}}, {"id": 5787215, "name": "Big Lake", "state": "WA", "country": "US", "coord": {"lon": -122.241272, "lat": 48.402882}}, {"id": 5787312, "name": "Bingville", "state": "WA", "country": "US", "coord": {"lon": -117.629959, "lat": 48.384899}}, {"id": 5787316, "name": "Birch Bay", "state": "WA", "country": "US", "coord": {"lon": -122.744621, "lat": 48.917889}}, {"id": 5787423, "name": "Black Diamond", "state": "WA", "country": "US", "coord": {"lon": -122.003166, "lat": 47.308708}}, {"id": 5787464, "name": "Blackrock (historical)", "state": "WA", "country": "US", "coord": {"lon": -119.997818, "lat": 46.51152}}, {"id": 5787475, "name": "Blaine", "state": "WA", "country": "US", "coord": {"lon": -122.747124, "lat": 48.993721}}, {"id": 5787776, "name": "Bonney Lake", "state": "WA", "country": "US", "coord": {"lon": -122.186508, "lat": 47.177052}}, {"id": 5787829, "name": "Bothell", "state": "WA", "country": "US", "coord": {"lon": -122.205399, "lat": 47.762321}}, {"id": 5787893, "name": "Boulevard Park", "state": "WA", "country": "US", "coord": {"lon": -122.315117, "lat": 47.489269}}, {"id": 5787895, "name": "Boundary", "state": "WA", "country": "US", "coord": {"lon": -121.605423, "lat": 48.998459}}, {"id": 5788054, "name": "Bremerton", "state": "WA", "country": "US", "coord": {"lon": -122.632637, "lat": 47.567322}}, {"id": 5788077, "name": "Brewster", "state": "WA", "country": "US", "coord": {"lon": -119.780617, "lat": 48.095982}}, {"id": 5788111, "name": "Bridgeport", "state": "WA", "country": "US", "coord": {"lon": -119.671158, "lat": 48.008202}}, {"id": 5788125, "name": "Brier", "state": "WA", "country": "US", "coord": {"lon": -122.274292, "lat": 47.784538}}, {"id": 5788290, "name": "Brush Prairie", "state": "WA", "country": "US", "coord": {"lon": -122.546494, "lat": 45.732891}}, {"id": 5788298, "name": "Bryant", "state": "WA", "country": "US", "coord": {"lon": -122.157921, "lat": 48.238991}}, {"id": 5788409, "name": "Buckley", "state": "WA", "country": "US", "coord": {"lon": -122.026779, "lat": 47.163158}}, {"id": 5788497, "name": "Burbank", "state": "WA", "country": "US", "coord": {"lon": -119.013062, "lat": 46.19986}}, {"id": 5788516, "name": "Burien", "state": "WA", "country": "US", "coord": {"lon": -122.346786, "lat": 47.470379}}, {"id": 5788531, "name": "Burley", "state": "WA", "country": "US", "coord": {"lon": -122.630966, "lat": 47.41787}}, {"id": 5788539, "name": "Burlington", "state": "WA", "country": "US", "coord": {"lon": -122.325439, "lat": 48.475658}}, {"id": 5788617, "name": "Bush", "state": "WA", "country": "US", "coord": {"lon": -122.879028, "lat": 46.978989}}, {"id": 5788816, "name": "Camano", "state": "WA", "country": "US", "coord": {"lon": -122.528214, "lat": 48.173988}}, {"id": 5788822, "name": "Camas", "state": "WA", "country": "US", "coord": {"lon": -122.399544, "lat": 45.587059}}, {"id": 5789048, "name": "Canterwood", "state": "WA", "country": "US", "coord": {"lon": -122.589302, "lat": 47.375099}}, {"id": 5789198, "name": "Carnation", "state": "WA", "country": "US", "coord": {"lon": -121.914009, "lat": 47.647881}}, {"id": 5789244, "name": "Carson", "state": "WA", "country": "US", "coord": {"lon": -121.819237, "lat": 45.725391}}, {"id": 5789324, "name": "Cascade Valley", "state": "WA", "country": "US", "coord": {"lon": -119.328079, "lat": 47.13459}}, {"id": 5789342, "name": "Cashmere", "state": "WA", "country": "US", "coord": {"lon": -120.469803, "lat": 47.52235}}, {"id": 5789381, "name": "Castle Rock", "state": "WA", "country": "US", "coord": {"lon": -122.907608, "lat": 46.275108}}, {"id": 5789425, "name": "Cathcart", "state": "WA", "country": "US", "coord": {"lon": -122.099289, "lat": 47.847881}}, {"id": 5789448, "name": "Cathlamet", "state": "WA", "country": "US", "coord": {"lon": -123.383179, "lat": 46.203171}}, {"id": 5789668, "name": "Central Park", "state": "WA", "country": "US", "coord": {"lon": -123.69239, "lat": 46.973431}}, {"id": 5789683, "name": "Centralia", "state": "WA", "country": "US", "coord": {"lon": -122.9543, "lat": 46.716209}}, {"id": 5789817, "name": "Chehalis", "state": "WA", "country": "US", "coord": {"lon": -122.96402, "lat": 46.662048}}, {"id": 5789826, "name": "Chelan", "state": "WA", "country": "US", "coord": {"lon": -120.016457, "lat": 47.840969}}, {"id": 5789829, "name": "Chelan County", "state": "WA", "country": "US", "coord": {"lon": -120.634537, "lat": 47.883179}}, {"id": 5789856, "name": "Cheney", "state": "WA", "country": "US", "coord": {"lon": -117.57576, "lat": 47.487389}}, {"id": 5789872, "name": "Cherokee", "state": "WA", "country": "US", "coord": {"lon": -119.466438, "lat": 48.45071}}, {"id": 5789897, "name": "Chester", "state": "WA", "country": "US", "coord": {"lon": -117.250481, "lat": 47.61795}}, {"id": 5789920, "name": "Chewelah", "state": "WA", "country": "US", "coord": {"lon": -117.715523, "lat": 48.276291}}, {"id": 5789949, "name": "Chico", "state": "WA", "country": "US", "coord": {"lon": -122.710419, "lat": 47.611481}}, {"id": 5789994, "name": "Chimacum", "state": "WA", "country": "US", "coord": {"lon": -122.768784, "lat": 48.010921}}, {"id": 5790164, "name": "Clallam County", "state": "WA", "country": "US", "coord": {"lon": -123.834641, "lat": 48.049809}}, {"id": 5790172, "name": "Claquato", "state": "WA", "country": "US", "coord": {"lon": -123.017349, "lat": 46.64344}}, {"id": 5790179, "name": "Clark County", "state": "WA", "country": "US", "coord": {"lon": -122.484543, "lat": 45.799839}}, {"id": 5790218, "name": "Clarkston", "state": "WA", "country": "US", "coord": {"lon": -117.045158, "lat": 46.416271}}, {"id": 5790229, "name": "Cle Elum", "state": "WA", "country": "US", "coord": {"lon": -120.939247, "lat": 47.1954}}, {"id": 5790270, "name": "Clear Lake", "state": "WA", "country": "US", "coord": {"lon": -122.234039, "lat": 48.464272}}, {"id": 5790289, "name": "Clearbrook", "state": "WA", "country": "US", "coord": {"lon": -122.32238, "lat": 48.978729}}, {"id": 5790290, "name": "Clearview", "state": "WA", "country": "US", "coord": {"lon": -122.125961, "lat": 47.83371}}, {"id": 5790385, "name": "Clyde Hill", "state": "WA", "country": "US", "coord": {"lon": -122.217903, "lat": 47.631771}}, {"id": 5790554, "name": "Colfax", "state": "WA", "country": "US", "coord": {"lon": -117.364349, "lat": 46.880169}}, {"id": 5790562, "name": "College Place", "state": "WA", "country": "US", "coord": {"lon": -118.388298, "lat": 46.049301}}, {"id": 5790614, "name": "Columbia County", "state": "WA", "country": "US", "coord": {"lon": -117.93438, "lat": 46.299858}}, {"id": 5790660, "name": "Colville", "state": "WA", "country": "US", "coord": {"lon": -117.90554, "lat": 48.54657}}, {"id": 5790756, "name": "Connell", "state": "WA", "country": "US", "coord": {"lon": -118.861107, "lat": 46.663471}}]