[{"id": 3698350, "name": "Chiclayo", "state": "", "country": "PE", "coord": {"lon": -79.841667, "lat": -6.77361}}, {"id": 3698359, "name": "Chicama", "state": "", "country": "PE", "coord": {"lon": -79.146942, "lat": -7.84472}}, {"id": 3698390, "name": "Chep\u00e9n", "state": "", "country": "PE", "coord": {"lon": -79.449997, "lat": -7.21667}}, {"id": 3698414, "name": "Chazuta", "state": "", "country": "PE", "coord": {"lon": -76.136673, "lat": -6.57417}}, {"id": 3698540, "name": "Chachapoyas", "state": "", "country": "PE", "coord": {"lon": -77.869034, "lat": -6.23169}}, {"id": 3698608, "name": "Celend\u00edn", "state": "", "country": "PE", "coord": {"lon": -78.151672, "lat": -6.87028}}, {"id": 3698658, "name": "Catacaos", "state": "", "country": "PE", "coord": {"lon": -80.683327, "lat": -5.26667}}, {"id": 3698671, "name": "Castilla", "state": "", "country": "PE", "coord": {"lon": -80.633331, "lat": -5.2}}, {"id": 3698705, "name": "Cascas", "state": "", "country": "PE", "coord": {"lon": -78.816673, "lat": -7.48333}}, {"id": 3698743, "name": "Cartavio", "state": "", "country": "PE", "coord": {"lon": -79.222778, "lat": -7.89167}}, {"id": 3698814, "name": "Carhuaz", "state": "", "country": "PE", "coord": {"lon": -77.644722, "lat": -9.28194}}, {"id": 3698841, "name": "Car\u00e1s", "state": "", "country": "PE", "coord": {"lon": -77.811394, "lat": -9.04667}}, {"id": 3699078, "name": "Cajaruro", "state": "", "country": "PE", "coord": {"lon": -78.42556, "lat": -5.73639}}, {"id": 3699087, "name": "Cajamarca", "state": "", "country": "PE", "coord": {"lon": -78.833328, "lat": -6.25}}, {"id": 3699088, "name": "Cajamarca", "state": "", "country": "PE", "coord": {"lon": -78.500267, "lat": -7.16378}}, {"id": 3699095, "name": "Cajabamba", "state": "", "country": "PE", "coord": {"lon": -78.050003, "lat": -7.61667}}, {"id": 3699223, "name": "Buenos Aires", "state": "", "country": "PE", "coord": {"lon": -79.964172, "lat": -5.26083}}, {"id": 3699350, "name": "Bernal", "state": "", "country": "PE", "coord": {"lon": -80.75, "lat": -5.45}}, {"id": 3699364, "name": "Bellavista", "state": "", "country": "PE", "coord": {"lon": -76.591103, "lat": -7.05614}}, {"id": 3699366, "name": "Bellavista", "state": "", "country": "PE", "coord": {"lon": -78.677223, "lat": -5.66417}}, {"id": 3699427, "name": "Barranca", "state": "", "country": "PE", "coord": {"lon": -76.699997, "lat": -4.83333}}, {"id": 3699456, "name": "Bambamarca", "state": "", "country": "PE", "coord": {"lon": -78.533333, "lat": -6.68333}}, {"id": 3699484, "name": "Bagua Grande", "state": "", "country": "PE", "coord": {"lon": -78.441109, "lat": -5.75611}}, {"id": 3699502, "name": "Ayabaca", "state": "", "country": "PE", "coord": {"lon": -79.714912, "lat": -4.63983}}, {"id": 3699544, "name": "Ascope", "state": "", "country": "PE", "coord": {"lon": -79.10778, "lat": -7.71444}}, {"id": 3699674, "name": "Ancash", "state": "", "country": "PE", "coord": {"lon": -77.75, "lat": -9.5}}, {"id": 3699699, "name": "Amazonas", "state": "", "country": "PE", "coord": {"lon": -78, "lat": -5}}, {"id": 3699831, "name": "Aguayt\u00eda", "state": "", "country": "PE", "coord": {"lon": -75.509239, "lat": -9.03741}}, {"id": 3699832, "name": "Aguas Verdes", "state": "", "country": "PE", "coord": {"lon": -80.245003, "lat": -3.48139}}, {"id": 3699980, "name": "Yaviza", "state": "", "country": "PA", "coord": {"lon": -77.693077, "lat": 8.1537}}, {"id": 3700017, "name": "Volc\u00e1n", "state": "", "country": "PA", "coord": {"lon": -82.633331, "lat": 8.76667}}, {"id": 3700033, "name": "Vista Hermosa", "state": "", "country": "PA", "coord": {"lon": -80.366669, "lat": 8.53333}}, {"id": 3700038, "name": "Vista Alegre", "state": "", "country": "PA", "coord": {"lon": -79.699997, "lat": 8.93333}}, {"id": 3700070, "name": "Villa Rosario", "state": "", "country": "PA", "coord": {"lon": -79.866669, "lat": 8.78333}}, {"id": 3700080, "name": "Villa Carmen", "state": "", "country": "PA", "coord": {"lon": -79.866669, "lat": 8.8}}, {"id": 3700157, "name": "Veranillo", "state": "", "country": "PA", "coord": {"lon": -79.533333, "lat": 8.98333}}, {"id": 3700159, "name": "Provincia de Veraguas", "state": "", "country": "PA", "coord": {"lon": -81.133331, "lat": 8.25}}, {"id": 3700164, "name": "Veracruz", "state": "", "country": "PA", "coord": {"lon": -79.633331, "lat": 8.88333}}, {"id": 3700269, "name": "Ustupo", "state": "", "country": "PA", "coord": {"lon": -77.933327, "lat": 9.13333}}, {"id": 3700393, "name": "Tubual\u00e1", "state": "", "country": "PA", "coord": {"lon": -79.033333, "lat": 9.51667}}, {"id": 3700538, "name": "Tonos\u00ed", "state": "", "country": "PA", "coord": {"lon": -80.449997, "lat": 7.4}}, {"id": 3700563, "name": "Tocumen", "state": "", "country": "PA", "coord": {"lon": -79.383331, "lat": 9.08333}}, {"id": 3700620, "name": "Tijeras", "state": "", "country": "PA", "coord": {"lon": -82.550003, "lat": 8.46667}}, {"id": 3700871, "name": "Sortova", "state": "", "country": "PA", "coord": {"lon": -82.650002, "lat": 8.55}}, {"id": 3700888, "name": "Son\u00e1", "state": "", "country": "PA", "coord": {"lon": -81.316673, "lat": 8.01667}}, {"id": 3700931, "name": "Siogu\u00ed Arriba", "state": "", "country": "PA", "coord": {"lon": -82.683327, "lat": 8.53333}}, {"id": 3700933, "name": "Siogu\u00ed Abajo", "state": "", "country": "PA", "coord": {"lon": -82.666672, "lat": 8.5}}, {"id": 3701088, "name": "San Vicente de Bique", "state": "", "country": "PA", "coord": {"lon": -79.683327, "lat": 8.91667}}, {"id": 3701101, "name": "Santo Domingo", "state": "", "country": "PA", "coord": {"lon": -82.716667, "lat": 8.5}}, {"id": 3701103, "name": "Santo Domingo", "state": "", "country": "PA", "coord": {"lon": -80.25, "lat": 7.75}}, {"id": 3701117, "name": "Santiago de Veraguas", "state": "", "country": "PA", "coord": {"lon": -80.98333, "lat": 8.1}}, {"id": 3701148, "name": "Santa Rita", "state": "", "country": "PA", "coord": {"lon": -79.879173, "lat": 8.86056}}, {"id": 3701163, "name": "Santa Marta", "state": "", "country": "PA", "coord": {"lon": -82.699997, "lat": 8.51667}}, {"id": 3701174, "name": "Santa Mar\u00eda", "state": "", "country": "PA", "coord": {"lon": -80.666672, "lat": 8.11667}}, {"id": 3701195, "name": "Santa F\u00e9", "state": "", "country": "PA", "coord": {"lon": -78.14917, "lat": 8.65194}}, {"id": 3701239, "name": "Santa Clara", "state": "", "country": "PA", "coord": {"lon": -79.75222, "lat": 9.03528}}, {"id": 3701329, "name": "San Miguelito", "state": "", "country": "PA", "coord": {"lon": -79.5, "lat": 9.03333}}, {"id": 3701466, "name": "San Ignacio de Tupile", "state": "", "country": "PA", "coord": {"lon": -78.150002, "lat": 9.28333}}, {"id": 3701484, "name": "San Francisco", "state": "", "country": "PA", "coord": {"lon": -81.366669, "lat": 8.06667}}, {"id": 3701491, "name": "San F\u00e9lix", "state": "", "country": "PA", "coord": {"lon": -81.866669, "lat": 8.28333}}, {"id": 3701537, "name": "Guna Yala", "state": "", "country": "PA", "coord": {"lon": -78.25, "lat": 9.25}}, {"id": 3701578, "name": "San Andr\u00e9s", "state": "", "country": "PA", "coord": {"lon": -82.73333, "lat": 8.6}}, {"id": 3701682, "name": "Sabanitas", "state": "", "country": "PA", "coord": {"lon": -79.801109, "lat": 9.34222}}, {"id": 3701810, "name": "R\u00edo Sereno", "state": "", "country": "PA", "coord": {"lon": -82.866669, "lat": 8.81667}}, {"id": 3701816, "name": "R\u00edo Rita", "state": "", "country": "PA", "coord": {"lon": -79.794441, "lat": 9.30389}}, {"id": 3701834, "name": "R\u00edo N\u00famero Uno", "state": "", "country": "PA", "coord": {"lon": -80.599998, "lat": 8.61667}}, {"id": 3701861, "name": "R\u00edo Hato", "state": "", "country": "PA", "coord": {"lon": -80.166672, "lat": 8.38333}}, {"id": 3701868, "name": "R\u00edo Grande", "state": "", "country": "PA", "coord": {"lon": -80.48333, "lat": 8.41667}}, {"id": 3701870, "name": "Gat\u00fan", "state": "", "country": "PA", "coord": {"lon": -79.76889, "lat": 9.29167}}, {"id": 3701874, "name": "R\u00edo Duque", "state": "", "country": "PA", "coord": {"lon": -79.683327, "lat": 9.26667}}, {"id": 3701882, "name": "R\u00edo de Jes\u00fas", "state": "", "country": "PA", "coord": {"lon": -81.163063, "lat": 7.98444}}, {"id": 3701914, "name": "R\u00edo Alejandro", "state": "", "country": "PA", "coord": {"lon": -79.791107, "lat": 9.37639}}, {"id": 3702269, "name": "Quebrada Canoa", "state": "", "country": "PA", "coord": {"lon": -81.783333, "lat": 8.43333}}, {"id": 3702276, "name": "Quebrada Bonita Adentro", "state": "", "country": "PA", "coord": {"lon": -79.699997, "lat": 9.3}}, {"id": 3702342, "name": "Punta de Burica", "state": "", "country": "PA", "coord": {"lon": -82.866669, "lat": 8.03333}}, {"id": 3702384, "name": "Puerto Pil\u00f3n", "state": "", "country": "PA", "coord": {"lon": -79.793327, "lat": 9.36444}}, {"id": 3702390, "name": "Puerto Obald\u00eda", "state": "", "country": "PA", "coord": {"lon": -77.418869, "lat": 8.66435}}, {"id": 3702412, "name": "Puerto Escondido", "state": "", "country": "PA", "coord": {"lon": -80.088333, "lat": 9.19333}}, {"id": 3702427, "name": "Puerto Caimito", "state": "", "country": "PA", "coord": {"lon": -79.716667, "lat": 8.86667}}, {"id": 3702431, "name": "Puerto Armuelles", "state": "", "country": "PA", "coord": {"lon": -82.866669, "lat": 8.28333}}, {"id": 3702448, "name": "Pueblo Viejo", "state": "", "country": "PA", "coord": {"lon": -81.666672, "lat": 8.25}}, {"id": 3702464, "name": "Pueblo Nuevo", "state": "", "country": "PA", "coord": {"lon": -82.416672, "lat": 8.56667}}, {"id": 3702509, "name": "Progreso", "state": "", "country": "PA", "coord": {"lon": -82.833328, "lat": 8.45}}, {"id": 3702538, "name": "Potrero Grande", "state": "", "country": "PA", "coord": {"lon": -79.829437, "lat": 8.88444}}, {"id": 3702548, "name": "Potrerillos Arriba", "state": "", "country": "PA", "coord": {"lon": -82.5, "lat": 8.68333}}, {"id": 3702550, "name": "Potrerillos Abajo", "state": "", "country": "PA", "coord": {"lon": -82.48333, "lat": 8.65}}, {"id": 3702577, "name": "Portobelo", "state": "", "country": "PA", "coord": {"lon": -79.650002, "lat": 9.55}}, {"id": 3702631, "name": "Pocr\u00ed", "state": "", "country": "PA", "coord": {"lon": -80.550003, "lat": 8.26667}}, {"id": 3702637, "name": "Plaza de Cais\u00e1n", "state": "", "country": "PA", "coord": {"lon": -82.816673, "lat": 8.73333}}, {"id": 3702647, "name": "Play\u00f3n Chico", "state": "", "country": "PA", "coord": {"lon": -78.23333, "lat": 9.3}}, {"id": 3703011, "name": "Pes\u00e9", "state": "", "country": "PA", "coord": {"lon": -80.616669, "lat": 7.9}}, {"id": 3703068, "name": "Penonom\u00e9", "state": "", "country": "PA", "coord": {"lon": -80.366669, "lat": 8.51667}}, {"id": 3703229, "name": "Pedregal", "state": "", "country": "PA", "coord": {"lon": -82.433327, "lat": 8.36667}}, {"id": 3703239, "name": "Pedas\u00ed", "state": "", "country": "PA", "coord": {"lon": -80.033333, "lat": 7.53333}}, {"id": 3703327, "name": "Paso Blanco", "state": "", "country": "PA", "coord": {"lon": -79.23333, "lat": 9.13333}}, {"id": 3703354, "name": "Parita", "state": "", "country": "PA", "coord": {"lon": -80.51667, "lat": 8}}, {"id": 3703373, "name": "Para\u00edso", "state": "", "country": "PA", "coord": {"lon": -79.633331, "lat": 9.03333}}, {"id": 3703430, "name": "Republic of Panama", "state": "", "country": "PA", "coord": {"lon": -80, "lat": 9}}, {"id": 3703433, "name": "Provincia de Panam\u00e1", "state": "", "country": "PA", "coord": {"lon": -79.25, "lat": 9.18333}}, {"id": 3703443, "name": "Panam\u00e1", "state": "", "country": "PA", "coord": {"lon": -79.51973, "lat": 8.9936}}, {"id": 3703496, "name": "Palmira Arriba", "state": "", "country": "PA", "coord": {"lon": -82.466667, "lat": 8.76667}}, {"id": 3703505, "name": "Palmira", "state": "", "country": "PA", "coord": {"lon": -82.449997, "lat": 8.71667}}, {"id": 3703523, "name": "Palmas Bellas", "state": "", "country": "PA", "coord": {"lon": -80.08667, "lat": 9.23194}}, {"id": 3703647, "name": "Pacora", "state": "", "country": "PA", "coord": {"lon": -79.283333, "lat": 9.08333}}, {"id": 3703745, "name": "Ol\u00e1", "state": "", "country": "PA", "coord": {"lon": -80.650002, "lat": 8.41667}}, {"id": 3703786, "name": "Oc\u00fa", "state": "", "country": "PA", "coord": {"lon": -80.783333, "lat": 7.95}}, {"id": 3703789, "name": "Ocho Pasos", "state": "", "country": "PA", "coord": {"lon": -80.449997, "lat": 7.4}}, {"id": 3703818, "name": "Nuevo Vig\u00eda", "state": "", "country": "PA", "coord": {"lon": -79.608612, "lat": 9.24472}}, {"id": 3703820, "name": "Nuevo San Juan", "state": "", "country": "PA", "coord": {"lon": -79.661942, "lat": 9.22333}}, {"id": 3703828, "name": "Nuevo Emperador", "state": "", "country": "PA", "coord": {"lon": -79.727219, "lat": 8.99889}}, {"id": 3703833, "name": "Nuevo Arraij\u00e1n", "state": "", "country": "PA", "coord": {"lon": -79.716667, "lat": 8.91667}}, {"id": 3703839, "name": "Nueva Gorgona", "state": "", "country": "PA", "coord": {"lon": -79.866669, "lat": 8.55}}, {"id": 3703938, "name": "Nat\u00e1", "state": "", "country": "PA", "coord": {"lon": -80.51667, "lat": 8.33333}}, {"id": 3703946, "name": "Nargan\u00e1", "state": "", "country": "PA", "coord": {"lon": -78.590561, "lat": 9.44278}}, {"id": 3704029, "name": "Mulatupo", "state": "", "country": "PA", "coord": {"lon": -77.765182, "lat": 8.94921}}, {"id": 3704123, "name": "Montijo", "state": "", "country": "PA", "coord": {"lon": -81.054443, "lat": 7.99222}}, {"id": 3704138, "name": "Monte Lirio", "state": "", "country": "PA", "coord": {"lon": -82.833328, "lat": 8.78333}}, {"id": 3704327, "name": "Metet\u00ed", "state": "", "country": "PA", "coord": {"lon": -77.9786, "lat": 8.4983}}, {"id": 3704460, "name": "Mata del Nance", "state": "", "country": "PA", "coord": {"lon": -82.400002, "lat": 8.45}}, {"id": 3704547, "name": "Mar\u00eda Chiquita", "state": "", "country": "PA", "coord": {"lon": -79.755829, "lat": 9.44306}}, {"id": 3704571, "name": "Las Margaritas", "state": "", "country": "PA", "coord": {"lon": -79.888893, "lat": 9.33139}}, {"id": 3704771, "name": "Majagual-Gold Hill", "state": "", "country": "PA", "coord": {"lon": -79.883331, "lat": 9.35}}, {"id": 3704874, "name": "Macaracas", "state": "", "country": "PA", "coord": {"lon": -80.550003, "lat": 7.73333}}, {"id": 3704961, "name": "Provincia de Los Santos", "state": "", "country": "PA", "coord": {"lon": -80.333328, "lat": 7.58333}}, {"id": 3704964, "name": "Los Santos", "state": "", "country": "PA", "coord": {"lon": -80.416672, "lat": 7.93333}}, {"id": 3705157, "name": "Los Naranjos", "state": "", "country": "PA", "coord": {"lon": -82.633331, "lat": 8.76667}}, {"id": 3705229, "name": "Los Lotes", "state": "", "country": "PA", "coord": {"lon": -79.300003, "lat": 9.13333}}, {"id": 3705306, "name": "Los Guayabitos", "state": "", "country": "PA", "coord": {"lon": -79.433327, "lat": 9.05}}, {"id": 3705493, "name": "Los Boquerones", "state": "", "country": "PA", "coord": {"lon": -80.849998, "lat": 8.08333}}, {"id": 3705549, "name": "Los Anastacios", "state": "", "country": "PA", "coord": {"lon": -82.416672, "lat": 8.53333}}, {"id": 3705562, "name": "Los Algarrobos", "state": "", "country": "PA", "coord": {"lon": -82.433327, "lat": 8.5}}, {"id": 3705563, "name": "Los Algarrobos", "state": "", "country": "PA", "coord": {"lon": -81.01667, "lat": 8.11667}}, {"id": 3705652, "name": "Loma Bonita", "state": "", "country": "PA", "coord": {"lon": -80.166672, "lat": 8.38333}}, {"id": 3705691, "name": "Llano Mar\u00edn", "state": "", "country": "PA", "coord": {"lon": -80.333328, "lat": 8.5}}, {"id": 3705710, "name": "Llano Largo", "state": "", "country": "PA", "coord": {"lon": -80.433327, "lat": 7.9}}, {"id": 3705743, "name": "Llano de Piedra", "state": "", "country": "PA", "coord": {"lon": -80.566673, "lat": 7.66667}}, {"id": 3705779, "name": "Llano Bonito", "state": "", "country": "PA", "coord": {"lon": -80.433327, "lat": 7.96667}}, {"id": 3705894, "name": "L\u00eddice", "state": "", "country": "PA", "coord": {"lon": -79.900002, "lat": 8.75}}, {"id": 3705989, "name": "La Victoria", "state": "", "country": "PA", "coord": {"lon": -82.25, "lat": 8.45}}, {"id": 3706091, "name": "La Tiza", "state": "", "country": "PA", "coord": {"lon": -80.283333, "lat": 7.75}}, {"id": 3706208, "name": "Las Tablas", "state": "", "country": "PA", "coord": {"lon": -80.283333, "lat": 7.76667}}, {"id": 3706292, "name": "Las Palmas", "state": "", "country": "PA", "coord": {"lon": -81.449997, "lat": 8.13333}}, {"id": 3706347, "name": "Las Minas", "state": "", "country": "PA", "coord": {"lon": -80.75, "lat": 7.8}}, {"id": 3706409, "name": "Las Lomas", "state": "", "country": "PA", "coord": {"lon": -80.383331, "lat": 8.5}}, {"id": 3706410, "name": "Las Lomas", "state": "", "country": "PA", "coord": {"lon": -82.400002, "lat": 8.43333}}, {"id": 3706543, "name": "Las Escobas", "state": "", "country": "PA", "coord": {"lon": -80.166672, "lat": 7.48333}}, {"id": 3706567, "name": "Las Cumbres", "state": "", "country": "PA", "coord": {"lon": -79.533333, "lat": 9.08333}}, {"id": 3706590, "name": "Las Colinas", "state": "", "country": "PA", "coord": {"lon": -80.083328, "lat": 8.55}}, {"id": 3706724, "name": "La Raya de Santa Mar\u00eda", "state": "", "country": "PA", "coord": {"lon": -80.816673, "lat": 8.16667}}, {"id": 3706931, "name": "La Pintada", "state": "", "country": "PA", "coord": {"lon": -80.449997, "lat": 8.6}}, {"id": 3706974, "name": "La Pe\u00f1a", "state": "", "country": "PA", "coord": {"lon": -81.033333, "lat": 8.13333}}, {"id": 3707058, "name": "La Palma", "state": "", "country": "PA", "coord": {"lon": -78.145279, "lat": 8.40278}}, {"id": 3707063, "name": "La Palma", "state": "", "country": "PA", "coord": {"lon": -80.383331, "lat": 7.71667}}, {"id": 3707150, "name": "La Mitra", "state": "", "country": "PA", "coord": {"lon": -79.786667, "lat": 8.84222}}, {"id": 3707220, "name": "La Mesa", "state": "", "country": "PA", "coord": {"lon": -79.26667, "lat": 9.18333}}, {"id": 3707227, "name": "La Mesa", "state": "", "country": "PA", "coord": {"lon": -81.183327, "lat": 8.15}}, {"id": 3707249, "name": "La Mata", "state": "", "country": "PA", "coord": {"lon": -80.883331, "lat": 8.08333}}, {"id": 3707311, "name": "La Loma", "state": "", "country": "PA", "coord": {"lon": -80.633331, "lat": 8.16667}}, {"id": 3707492, "name": "La Isleta", "state": "", "country": "PA", "coord": {"lon": -79.716667, "lat": 8.91667}}, {"id": 3707568, "name": "La Herradura", "state": "", "country": "PA", "coord": {"lon": -79.80722, "lat": 8.85222}}, {"id": 3707715, "name": "La Florecita", "state": "", "country": "PA", "coord": {"lon": -80.949997, "lat": 8.08333}}, {"id": 3707752, "name": "La Espigadilla", "state": "", "country": "PA", "coord": {"lon": -80.383331, "lat": 7.88333}}, {"id": 3707758, "name": "La Esperanza", "state": "", "country": "PA", "coord": {"lon": -82.800003, "lat": 8.4}}, {"id": 3707899, "name": "La Concepci\u00f3n", "state": "", "country": "PA", "coord": {"lon": -82.616669, "lat": 8.51667}}, {"id": 3707921, "name": "La Colorada", "state": "", "country": "PA", "coord": {"lon": -80.98333, "lat": 8.01667}}, {"id": 3707961, "name": "La Chorrera", "state": "", "country": "PA", "coord": {"lon": -79.783333, "lat": 8.88028}}, {"id": 3708066, "name": "La Cabima", "state": "", "country": "PA", "coord": {"lon": -79.533333, "lat": 9.13333}}, {"id": 3708111, "name": "La Boca", "state": "", "country": "PA", "coord": {"lon": -79.566673, "lat": 8.95}}, {"id": 3708134, "name": "La Barqueta", "state": "", "country": "PA", "coord": {"lon": -82.566673, "lat": 8.3}}, {"id": 3708307, "name": "Juan D\u00edaz", "state": "", "country": "PA", "coord": {"lon": -80.283333, "lat": 8.46667}}, {"id": 3708432, "name": "Jaqu\u00e9", "state": "", "country": "PA", "coord": {"lon": -78.17028, "lat": 7.5175}}, {"id": 3708710, "name": "Provincia de Herrera", "state": "", "country": "PA", "coord": {"lon": -80.75, "lat": 7.83333}}, {"id": 3708892, "name": "Guarumal", "state": "", "country": "PA", "coord": {"lon": -82.533333, "lat": 8.35}}, {"id": 3708911, "name": "Guarar\u00e9", "state": "", "country": "PA", "coord": {"lon": -80.283333, "lat": 7.81667}}, {"id": 3708948, "name": "Gualaca", "state": "", "country": "PA", "coord": {"lon": -82.300003, "lat": 8.53333}}, {"id": 3708954, "name": "Guadalupe", "state": "", "country": "PA", "coord": {"lon": -79.813332, "lat": 8.85583}}, {"id": 3708989, "name": "Guabito", "state": "", "country": "PA", "coord": {"lon": -82.616669, "lat": 9.5}}, {"id": 3709228, "name": "G\u00f3mez", "state": "", "country": "PA", "coord": {"lon": -82.73333, "lat": 8.56667}}, {"id": 3709361, "name": "Garachin\u00e9", "state": "", "country": "PA", "coord": {"lon": -78.362778, "lat": 8.06472}}, {"id": 3709373, "name": "Gamboa", "state": "", "country": "PA", "coord": {"lon": -79.699997, "lat": 9.11667}}, {"id": 3709444, "name": "Fuerte Kobbe", "state": "", "country": "PA", "coord": {"lon": -79.589172, "lat": 8.91229}}, {"id": 3709559, "name": "Finca Cuarenta y Dos", "state": "", "country": "PA", "coord": {"lon": -82.51667, "lat": 9.46667}}, {"id": 3709561, "name": "Finca Corredor", "state": "", "country": "PA", "coord": {"lon": -82.849998, "lat": 8.35}}, {"id": 3709569, "name": "Finca Blanco", "state": "", "country": "PA", "coord": {"lon": -82.866669, "lat": 8.38333}}, {"id": 3709742, "name": "Escobal", "state": "", "country": "PA", "coord": {"lon": -79.961937, "lat": 9.14722}}, {"id": 3710026, "name": "El Roble", "state": "", "country": "PA", "coord": {"lon": -80.650002, "lat": 8.16667}}, {"id": 3710040, "name": "El Rinc\u00f3n", "state": "", "country": "PA", "coord": {"lon": -80.615829, "lat": 8.12083}}, {"id": 3710066, "name": "Quinte\u00f1o", "state": "", "country": "PA", "coord": {"lon": -82.400002, "lat": 8.46667}}, {"id": 3710087, "name": "El Progreso", "state": "", "country": "PA", "coord": {"lon": -79.116669, "lat": 9.26667}}, {"id": 3710114, "name": "El Porvenir", "state": "", "country": "PA", "coord": {"lon": -78.953331, "lat": 9.56528}}, {"id": 3710808, "name": "El Giral", "state": "", "country": "PA", "coord": {"lon": -79.69278, "lat": 9.24917}}, {"id": 3710864, "name": "El Espino de Santa Rosa", "state": "", "country": "PA", "coord": {"lon": -80.816673, "lat": 8.1}}, {"id": 3710875, "name": "El Espino", "state": "", "country": "PA", "coord": {"lon": -79.849998, "lat": 8.83944}}, {"id": 3710910, "name": "Entradero", "state": "", "country": "PA", "coord": {"lon": -80.216667, "lat": 8.56667}}, {"id": 3710923, "name": "El Ejido", "state": "", "country": "PA", "coord": {"lon": -80.383331, "lat": 7.91667}}, {"id": 3710961, "name": "El Cristo", "state": "", "country": "PA", "coord": {"lon": -80.616669, "lat": 8.25}}, {"id": 3710978, "name": "El Cortezo", "state": "", "country": "PA", "coord": {"lon": -80.599998, "lat": 8.35}}, {"id": 3711009, "name": "El Cop\u00e9", "state": "", "country": "PA", "coord": {"lon": -80.599998, "lat": 8.61667}}, {"id": 3711056, "name": "El Coco", "state": "", "country": "PA", "coord": {"lon": -79.815002, "lat": 8.87028}}, {"id": 3711059, "name": "El Coco", "state": "", "country": "PA", "coord": {"lon": -80.349998, "lat": 8.4}}, {"id": 3711063, "name": "El Coco", "state": "", "country": "PA", "coord": {"lon": -80.616669, "lat": 7.9}}, {"id": 3711240, "name": "El Ca\u00f1o", "state": "", "country": "PA", "coord": {"lon": -80.51667, "lat": 8.4}}, {"id": 3711618, "name": "Dolega District", "state": "", "country": "PA", "coord": {"lon": -82.416672, "lat": 8.56667}}, {"id": 3711631, "name": "Dival\u00e1", "state": "", "country": "PA", "coord": {"lon": -82.716667, "lat": 8.41667}}, {"id": 3711668, "name": "David", "state": "", "country": "PA", "coord": {"lon": -82.430847, "lat": 8.42729}}, {"id": 3711671, "name": "Provincia del Dari\u00e9n", "state": "", "country": "PA", "coord": {"lon": -77.883331, "lat": 8.08333}}, {"id": 3711694, "name": "Kusap\u00edn", "state": "", "country": "PA", "coord": {"lon": -81.900002, "lat": 9.18333}}, {"id": 3711696, "name": "Curundu Heights", "state": "", "country": "PA", "coord": {"lon": -79.550003, "lat": 8.96667}}, {"id": 3711699, "name": "Curund\u00fa", "state": "", "country": "PA", "coord": {"lon": -79.550003, "lat": 8.98333}}, {"id": 3711926, "name": "Corozal", "state": "", "country": "PA", "coord": {"lon": -80.48333, "lat": 7.75}}, {"id": 3712073, "name": "Provincia de Col\u00f3n", "state": "", "country": "PA", "coord": {"lon": -80, "lat": 9.16667}}, {"id": 3712076, "name": "Col\u00f3n", "state": "", "country": "PA", "coord": {"lon": -79.90139, "lat": 9.35917}}, {"id": 3712123, "name": "Coco Solo", "state": "", "country": "PA", "coord": {"lon": -79.881668, "lat": 9.37}}, {"id": 3712162, "name": "Provincia de Cocl\u00e9", "state": "", "country": "PA", "coord": {"lon": -80.416672, "lat": 8.56667}}, {"id": 3712164, "name": "Cocl\u00e9", "state": "", "country": "PA", "coord": {"lon": -80.433327, "lat": 8.45}}, {"id": 3712280, "name": "Churuquita Grande", "state": "", "country": "PA", "coord": {"lon": -80.26667, "lat": 8.6}}, {"id": 3712281, "name": "Churuquita Chiquita", "state": "", "country": "PA", "coord": {"lon": -80.283333, "lat": 8.56667}}, {"id": 3712384, "name": "Chitr\u00e9", "state": "", "country": "PA", "coord": {"lon": -80.433327, "lat": 7.96667}}, {"id": 3712401, "name": "Chiriqu\u00ed Grande", "state": "", "country": "PA", "coord": {"lon": -82.116669, "lat": 8.95}}, {"id": 3712410, "name": "Provincia de Chiriqu\u00ed", "state": "", "country": "PA", "coord": {"lon": -82.416672, "lat": 8.5}}, {"id": 3712419, "name": "Chiriqu\u00ed", "state": "", "country": "PA", "coord": {"lon": -82.316673, "lat": 8.4}}, {"id": 3712429, "name": "Chiquilleo", "state": "", "country": "PA", "coord": {"lon": -79.550003, "lat": 9.21667}}, {"id": 3712451, "name": "Chilibrillo N\u00famero Dos", "state": "", "country": "PA", "coord": {"lon": -79.583328, "lat": 9.16667}}, {"id": 3712455, "name": "Chilibre", "state": "", "country": "PA", "coord": {"lon": -79.616669, "lat": 9.15}}, {"id": 3712462, "name": "Chigor\u00e9", "state": "", "country": "PA", "coord": {"lon": -80.349998, "lat": 8.53333}}, {"id": 3712505, "name": "Chepo", "state": "", "country": "PA", "coord": {"lon": -79.099998, "lat": 9.16667}}, {"id": 3712560, "name": "Changuinola", "state": "", "country": "PA", "coord": {"lon": -82.51667, "lat": 9.43333}}, {"id": 3712579, "name": "Chame", "state": "", "country": "PA", "coord": {"lon": -79.883331, "lat": 8.58333}}, {"id": 3712609, "name": "Cerro Viento", "state": "", "country": "PA", "coord": {"lon": -79.466667, "lat": 9.08333}}, {"id": 3712636, "name": "Cerro Punta", "state": "", "country": "PA", "coord": {"lon": -82.566673, "lat": 8.85}}, {"id": 3712765, "name": "Cerro Cama", "state": "", "country": "PA", "coord": {"lon": -79.904999, "lat": 9.03}}, {"id": 3712786, "name": "Cerro Azul", "state": "", "country": "PA", "coord": {"lon": -79.416672, "lat": 9.16667}}, {"id": 3712809, "name": "Cerme\u00f1o", "state": "", "country": "PA", "coord": {"lon": -79.849998, "lat": 8.73333}}, {"id": 3712884, "name": "Cativ\u00e1", "state": "", "country": "PA", "coord": {"lon": -79.843613, "lat": 9.36056}}, {"id": 3712951, "name": "Cart\u00ed Sugdup", "state": "", "country": "PA", "coord": {"lon": -78.966667, "lat": 9.47417}}, {"id": 3713047, "name": "Capira", "state": "", "country": "PA", "coord": {"lon": -79.883331, "lat": 8.75}}, {"id": 3713051, "name": "Capellan\u00eda", "state": "", "country": "PA", "coord": {"lon": -80.550003, "lat": 8.3}}, {"id": 3713131, "name": "Ca\u00f1ita", "state": "", "country": "PA", "coord": {"lon": -78.881111, "lat": 9.20972}}, {"id": 3713196, "name": "Ca\u00f1azas", "state": "", "country": "PA", "coord": {"lon": -81.216667, "lat": 8.31667}}, {"id": 3713381, "name": "Calzada Larga", "state": "", "country": "PA", "coord": {"lon": -79.566673, "lat": 9.16667}}, {"id": 3713499, "name": "Caimitillo", "state": "", "country": "PA", "coord": {"lon": -79.533333, "lat": 9.15}}, {"id": 3713588, "name": "Cabra N\u00famero Uno", "state": "", "country": "PA", "coord": {"lon": -79.316673, "lat": 9.11667}}, {"id": 3713667, "name": "Bugaba", "state": "", "country": "PA", "coord": {"lon": -82.616669, "lat": 8.48333}}, {"id": 3713715, "name": "Buena Vista", "state": "", "country": "PA", "coord": {"lon": -79.695282, "lat": 9.27472}}, {"id": 3713860, "name": "Boquete", "state": "", "country": "PA", "coord": {"lon": -82.433327, "lat": 8.78333}}, {"id": 3713873, "name": "Boquer\u00f3n", "state": "", "country": "PA", "coord": {"lon": -82.566673, "lat": 8.5}}, {"id": 3713954, "name": "Provincia de Bocas del Toro", "state": "", "country": "PA", "coord": {"lon": -82.650002, "lat": 9.25}}, {"id": 3713959, "name": "Bocas del Toro", "state": "", "country": "PA", "coord": {"lon": -82.25, "lat": 9.33333}}, {"id": 3714000, "name": "Boca de Parita", "state": "", "country": "PA", "coord": {"lon": -80.449997, "lat": 8.01667}}, {"id": 3714166, "name": "Bella Vista", "state": "", "country": "PA", "coord": {"lon": -79.533333, "lat": 8.96667}}, {"id": 3714176, "name": "Bella Vista", "state": "", "country": "PA", "coord": {"lon": -80.23333, "lat": 7.75}}, {"id": 3714201, "name": "Bejuco", "state": "", "country": "PA", "coord": {"lon": -79.883331, "lat": 8.6}}, {"id": 3714260, "name": "Isla Bastimentos", "state": "", "country": "PA", "coord": {"lon": -82.133331, "lat": 9.3}}, {"id": 3714291, "name": "Barrio San Jos\u00e9", "state": "", "country": "PA", "coord": {"lon": -82.416672, "lat": 8.38333}}, {"id": 3714336, "name": "Barranco", "state": "", "country": "PA", "coord": {"lon": -82.699997, "lat": 9.51667}}, {"id": 3714543, "name": "B\u00e1gala", "state": "", "country": "PA", "coord": {"lon": -82.533333, "lat": 8.46667}}, {"id": 3714598, "name": "Atalaya", "state": "", "country": "PA", "coord": {"lon": -80.933327, "lat": 8.05}}, {"id": 3714611, "name": "Aserr\u00edo de Garich\u00e9", "state": "", "country": "PA", "coord": {"lon": -82.800003, "lat": 8.48333}}, {"id": 3714637, "name": "Arraij\u00e1n", "state": "", "country": "PA", "coord": {"lon": -79.650002, "lat": 8.95}}, {"id": 3714710, "name": "Ant\u00f3n", "state": "", "country": "PA", "coord": {"lon": -80.26667, "lat": 8.4}}, {"id": 3714734, "name": "Anc\u00f3n", "state": "", "country": "PA", "coord": {"lon": -79.550003, "lat": 8.96667}}, {"id": 3714778, "name": "Alto Montilla", "state": "", "country": "PA", "coord": {"lon": -80.599998, "lat": 7.56667}}, {"id": 3714830, "name": "Alto del Espino", "state": "", "country": "PA", "coord": {"lon": -79.849998, "lat": 8.83333}}, {"id": 3714849, "name": "Alto de La Estancia", "state": "", "country": "PA", "coord": {"lon": -80.166672, "lat": 8.6}}, {"id": 3714875, "name": "Alto Boquete", "state": "", "country": "PA", "coord": {"lon": -82.433327, "lat": 8.75}}, {"id": 3714896, "name": "Almirante", "state": "", "country": "PA", "coord": {"lon": -82.400002, "lat": 9.3}}, {"id": 3714932, "name": "Alcalde D\u00edaz", "state": "", "country": "PA", "coord": {"lon": -79.550003, "lat": 9.11667}}, {"id": 3714939, "name": "Alanje", "state": "", "country": "PA", "coord": {"lon": -82.550003, "lat": 8.4}}, {"id": 3714956, "name": "Ailigand\u00ed", "state": "", "country": "PA", "coord": {"lon": -78.01667, "lat": 9.23333}}, {"id": 3715042, "name": "Aguadulce", "state": "", "country": "PA", "coord": {"lon": -80.550003, "lat": 8.25}}, {"id": 3715111, "name": "Agua Buena", "state": "", "country": "PA", "coord": {"lon": -80.400002, "lat": 7.81667}}, {"id": 3715156, "name": "Achutupo", "state": "", "country": "PA", "coord": {"lon": -77.98333, "lat": 9.2}}, {"id": 3715947, "name": "Villars", "state": "", "country": "HT", "coord": {"lon": -72.599998, "lat": 19.200001}}, {"id": 3716044, "name": "Verrettes", "state": "", "country": "HT", "coord": {"lon": -72.466667, "lat": 19.049999}}, {"id": 3716224, "name": "Trou du Nord", "state": "", "country": "HT", "coord": {"lon": -72.01667, "lat": 19.633329}}, {"id": 3716403, "name": "Torbeck", "state": "", "country": "HT", "coord": {"lon": -73.811943, "lat": 18.16667}}, {"id": 3716619, "name": "Tiburon", "state": "", "country": "HT", "coord": {"lon": -74.400002, "lat": 18.33333}}, {"id": 3716661, "name": "Thor", "state": "", "country": "HT", "coord": {"lon": -72.401382, "lat": 18.536461}}, {"id": 3716663, "name": "Thomonde", "state": "", "country": "HT", "coord": {"lon": -71.966667, "lat": 19.01667}}, {"id": 3716667, "name": "Thomazeau", "state": "", "country": "HT", "coord": {"lon": -72.094719, "lat": 18.651939}}, {"id": 3716669, "name": "Thomassique", "state": "", "country": "HT", "coord": {"lon": -71.833328, "lat": 19.08333}}, {"id": 3716679, "name": "Thiotte", "state": "", "country": "HT", "coord": {"lon": -71.849998, "lat": 18.25}}, {"id": 3716950, "name": "Sud-Est", "state": "", "country": "HT", "coord": {"lon": -72.400002, "lat": 18.299999}}, {"id": 3716952, "name": "Sud", "state": "", "country": "HT", "coord": {"lon": -73.666672, "lat": 18.25}}, {"id": 3717136, "name": "Shada", "state": "", "country": "HT", "coord": {"lon": -72.199997, "lat": 19.73333}}, {"id": 3717546, "name": "Saint-Rapha\u00ebl", "state": "", "country": "HT", "coord": {"lon": -72.199997, "lat": 19.433331}}, {"id": 3717588, "name": "Saint-Marc", "state": "", "country": "HT", "coord": {"lon": -72.693787, "lat": 19.108191}}, {"id": 3717596, "name": "Saint-Louis du Sud", "state": "", "country": "HT", "coord": {"lon": -73.550003, "lat": 18.26667}}, {"id": 3717600, "name": "Saint-Louis du Nord", "state": "", "country": "HT", "coord": {"lon": -72.716667, "lat": 19.933331}}, {"id": 3717916, "name": "Roche-\u00e0-Bateau", "state": "", "country": "HT", "coord": {"lon": -74, "lat": 18.183331}}, {"id": 3718199, "name": "Ranquitte", "state": "", "country": "HT", "coord": {"lon": -72.083328, "lat": 19.41667}}, {"id": 3718278, "name": "Quartier Morin", "state": "", "country": "HT", "coord": {"lon": -72.156937, "lat": 19.696671}}, {"id": 3718411, "name": "Port-Margot", "state": "", "country": "HT", "coord": {"lon": -72.433327, "lat": 19.75}}, {"id": 3718426, "name": "Port-au-Prince", "state": "", "country": "HT", "coord": {"lon": -72.334999, "lat": 18.539169}}, {"id": 3718431, "name": "Port-\u00e0-Piment", "state": "", "country": "HT", "coord": {"lon": -74.099998, "lat": 18.25}}, {"id": 3718666, "name": "Plaisance", "state": "", "country": "HT", "coord": {"lon": -72.466667, "lat": 19.6}}, {"id": 3718707, "name": "Plaine du Nord", "state": "", "country": "HT", "coord": {"lon": -72.26667, "lat": 19.683331}}, {"id": 3718826, "name": "Pilate", "state": "", "country": "HT", "coord": {"lon": -72.550003, "lat": 19.66667}}, {"id": 3718834, "name": "Pignon", "state": "", "country": "HT", "coord": {"lon": -72.116669, "lat": 19.33333}}, {"id": 3718924, "name": "Pha\u00ebton", "state": "", "country": "HT", "coord": {"lon": -71.897217, "lat": 19.67417}}, {"id": 3718938, "name": "Petit Trou de Nippes", "state": "", "country": "HT", "coord": {"lon": -73.508148, "lat": 18.525351}}, {"id": 3718962, "name": "Tigwav", "state": "", "country": "HT", "coord": {"lon": -72.866943, "lat": 18.431391}}, {"id": 3718975, "name": "Petite Rivi\u00e8re de Nippes", "state": "", "country": "HT", "coord": {"lon": -73.234947, "lat": 18.47611}}, {"id": 3719008, "name": "Petite Anse", "state": "", "country": "HT", "coord": {"lon": -73.154442, "lat": 19.629721}}, {"id": 3719028, "name": "P\u00e9tionville", "state": "", "country": "HT", "coord": {"lon": -72.285278, "lat": 18.512501}}, {"id": 3719099, "name": "Perches", "state": "", "country": "HT", "coord": {"lon": -71.916672, "lat": 19.51667}}, {"id": 3719432, "name": "D\u00e9partement de l'Ouest", "state": "", "country": "HT", "coord": {"lon": -72.291412, "lat": 18.663811}}, {"id": 3719436, "name": "Ouanaminthe", "state": "", "country": "HT", "coord": {"lon": -71.73333, "lat": 19.549999}}, {"id": 3719536, "name": "Nord-Ouest", "state": "", "country": "HT", "coord": {"lon": -73.083328, "lat": 19.75}}, {"id": 3719543, "name": "Nord", "state": "", "country": "HT", "coord": {"lon": -72.300003, "lat": 19.6}}, {"id": 3720455, "name": "Moron", "state": "", "country": "HT", "coord": {"lon": -74.25, "lat": 18.566669}}, {"id": 3720667, "name": "Mont\u00f2rganize", "state": "", "country": "HT", "coord": {"lon": -71.783333, "lat": 19.4}}, {"id": 3720765, "name": "M\u00f4le Saint-Nicolas", "state": "", "country": "HT", "coord": {"lon": -73.383331, "lat": 19.799999}}, {"id": 3720811, "name": "Mirebalais", "state": "", "country": "HT", "coord": {"lon": -72.105278, "lat": 18.83333}}, {"id": 3720824, "name": "Mirago\u00e2ne", "state": "", "country": "HT", "coord": {"lon": -73.087578, "lat": 18.44232}}, {"id": 3720854, "name": "Milot", "state": "", "country": "HT", "coord": {"lon": -72.216667, "lat": 19.616671}}, {"id": 3721280, "name": "Marmelade", "state": "", "country": "HT", "coord": {"lon": -72.349998, "lat": 19.51667}}, {"id": 3721313, "name": "Marigot", "state": "", "country": "HT", "coord": {"lon": -72.316673, "lat": 18.233891}}, {"id": 3721711, "name": "Mayisad", "state": "", "country": "HT", "coord": {"lon": -72.133331, "lat": 19.16667}}, {"id": 3721718, "name": "Ma\u00efs G\u00e2t\u00e9", "state": "", "country": "HT", "coord": {"lon": -72.294724, "lat": 18.5725}}, {"id": 3722110, "name": "Limonade", "state": "", "country": "HT", "coord": {"lon": -72.125282, "lat": 19.66972}}, {"id": 3722124, "name": "Lenbe", "state": "", "country": "HT", "coord": {"lon": -72.400002, "lat": 19.700001}}, {"id": 3722239, "name": "Les Irois", "state": "", "country": "HT", "coord": {"lon": -74.449997, "lat": 18.4}}, {"id": 3722253, "name": "Les Anglais", "state": "", "country": "HT", "coord": {"lon": -74.219681, "lat": 18.305401}}, {"id": 3722286, "name": "L\u00e9og\u00e2ne", "state": "", "country": "HT", "coord": {"lon": -72.633888, "lat": 18.51083}}, {"id": 3722339, "name": "Borgne", "state": "", "country": "HT", "coord": {"lon": -72.533333, "lat": 19.85}}, {"id": 3722579, "name": "Lascahobas", "state": "", "country": "HT", "coord": {"lon": -71.936394, "lat": 18.829439}}, {"id": 3723440, "name": "Kenscoff", "state": "", "country": "HT", "coord": {"lon": -72.286942, "lat": 18.45056}}, {"id": 3723446, "name": "Ka Soleil", "state": "", "country": "HT", "coord": {"lon": -72.683327, "lat": 19.450001}}, {"id": 3723593, "name": "J\u00e9r\u00e9mie", "state": "", "country": "HT", "coord": {"lon": -74.116669, "lat": 18.65}}, {"id": 3723618, "name": "Jean-Rabel", "state": "", "country": "HT", "coord": {"lon": -73.191673, "lat": 19.853331}}, {"id": 3723779, "name": "Jacmel", "state": "", "country": "HT", "coord": {"lon": -72.534721, "lat": 18.234171}}, {"id": 3723841, "name": "Hinche", "state": "", "country": "HT", "coord": {"lon": -72.01667, "lat": 19.15}}, {"id": 3723968, "name": "Hatte Borel", "state": "", "country": "HT", "coord": {"lon": -72.466667, "lat": 19.049999}}, {"id": 3723988, "name": "Republic of Haiti", "state": "", "country": "HT", "coord": {"lon": -72.416672, "lat": 19}}, {"id": 3724145, "name": "Gros Morne", "state": "", "country": "HT", "coord": {"lon": -72.683327, "lat": 19.66667}}, {"id": 3724233, "name": "Gressier", "state": "", "country": "HT", "coord": {"lon": -72.51667, "lat": 18.549999}}, {"id": 3724337, "name": "Grangwav", "state": "", "country": "HT", "coord": {"lon": -72.770561, "lat": 18.42889}}, {"id": 3724432, "name": "Grande Saline", "state": "", "country": "HT", "coord": {"lon": -72.768967, "lat": 19.265129}}, {"id": 3724433, "name": "Grande Saline", "state": "", "country": "HT", "coord": {"lon": -72.476112, "lat": 18.543329}}, {"id": 3724439, "name": "Grande Rivi\u00e8re du Nord", "state": "", "country": "HT", "coord": {"lon": -72.183327, "lat": 19.58333}}, {"id": 3724613, "name": "Grandans", "state": "", "country": "HT", "coord": {"lon": -73.666672, "lat": 18.5}}, {"id": 3724696, "name": "Gona\u00efves", "state": "", "country": "HT", "coord": {"lon": -72.683327, "lat": 19.450001}}, {"id": 3724916, "name": "Garnier", "state": "", "country": "HT", "coord": {"lon": -72.216667, "lat": 18.58333}}, {"id": 3725170, "name": "Fort Libert\u00e9", "state": "", "country": "HT", "coord": {"lon": -71.839722, "lat": 19.66778}}, {"id": 3725222, "name": "Fonds Verrettes", "state": "", "country": "HT", "coord": {"lon": -71.856941, "lat": 18.39139}}, {"id": 3725276, "name": "Fond Parisien", "state": "", "country": "HT", "coord": {"lon": -71.976669, "lat": 18.505831}}, {"id": 3725301, "name": "Fond Major", "state": "", "country": "HT", "coord": {"lon": -72.333328, "lat": 18.83333}}, {"id": 3725364, "name": "Fond des Blancs", "state": "", "country": "HT", "coord": {"lon": -73.133331, "lat": 18.283331}}, {"id": 3725416, "name": "Fond Bassin Bleu", "state": "", "country": "HT", "coord": {"lon": -72.800003, "lat": 19.799999}}, {"id": 3725519, "name": "Ferrier", "state": "", "country": "HT", "coord": {"lon": -71.783333, "lat": 19.616671}}, {"id": 3725663, "name": "Ennery", "state": "", "country": "HT", "coord": {"lon": -72.48333, "lat": 19.48333}}, {"id": 3725970, "name": "Dufour", "state": "", "country": "HT", "coord": {"lon": -72.421387, "lat": 18.524441}}, {"id": 3726263, "name": "Dondon", "state": "", "country": "HT", "coord": {"lon": -72.23333, "lat": 19.533331}}, {"id": 3726540, "name": "Dessalines", "state": "", "country": "HT", "coord": {"lon": -72.5, "lat": 19.283331}}, {"id": 3726674, "name": "D\u00e9sarmes", "state": "", "country": "HT", "coord": {"lon": -72.388893, "lat": 18.991671}}, {"id": 3726728, "name": "D\u00e9rac", "state": "", "country": "HT", "coord": {"lon": -71.816673, "lat": 19.65}}, {"id": 3726786, "name": "Delmas 73", "state": "", "country": "HT", "coord": {"lon": -72.30278, "lat": 18.54472}}, {"id": 3727055, "name": "Dame-Marie", "state": "", "country": "HT", "coord": {"lon": -74.416672, "lat": 18.566669}}, {"id": 3727135, "name": "Croix-des-Bouquets", "state": "", "country": "HT", "coord": {"lon": -72.224998, "lat": 18.575001}}, {"id": 3727287, "name": "Kotdef\u00e8", "state": "", "country": "HT", "coord": {"lon": -73, "lat": 18.183331}}, {"id": 3727297, "name": "Koto", "state": "", "country": "HT", "coord": {"lon": -74.033333, "lat": 18.200001}}, {"id": 3727327, "name": "Cornillon", "state": "", "country": "HT", "coord": {"lon": -71.953331, "lat": 18.674721}}, {"id": 3727398, "name": "Corail", "state": "", "country": "HT", "coord": {"lon": -73.89222, "lat": 18.567221}}, {"id": 3727902, "name": "Chardonni\u00e8re", "state": "", "country": "HT", "coord": {"lon": -74.16613, "lat": 18.274839}}, {"id": 3727944, "name": "Chantal", "state": "", "country": "HT", "coord": {"lon": -73.883331, "lat": 18.200001}}, {"id": 3727984, "name": "Chambellan", "state": "", "country": "HT", "coord": {"lon": -74.316673, "lat": 18.566669}}, {"id": 3728054, "name": "Cerca la Source", "state": "", "country": "HT", "coord": {"lon": -71.783333, "lat": 19.16667}}, {"id": 3728069, "name": "Centre", "state": "", "country": "HT", "coord": {"lon": -72, "lat": 19}}, {"id": 3728087, "name": "Cazeau", "state": "", "country": "HT", "coord": {"lon": -72.300003, "lat": 18.58333}}, {"id": 3728093, "name": "Cayes-Jacmel", "state": "", "country": "HT", "coord": {"lon": -72.396111, "lat": 18.23028}}, {"id": 3728097, "name": "Les Cayes", "state": "", "country": "HT", "coord": {"lon": -73.75, "lat": 18.200001}}, {"id": 3728122, "name": "Cavaillon", "state": "", "country": "HT", "coord": {"lon": -73.650002, "lat": 18.299999}}, {"id": 3728156, "name": "Castor", "state": "", "country": "HT", "coord": {"lon": -72.400002, "lat": 19.700001}}, {"id": 3728308, "name": "Carrefour des Quatre Chemins", "state": "", "country": "HT", "coord": {"lon": -73.75, "lat": 18.200001}}, {"id": 3728319, "name": "Carrefour Canot", "state": "", "country": "HT", "coord": {"lon": -74.083328, "lat": 18.616671}}, {"id": 3728338, "name": "Carrefour", "state": "", "country": "HT", "coord": {"lon": -72.399223, "lat": 18.54114}}, {"id": 3728386, "name": "Carice", "state": "", "country": "HT", "coord": {"lon": -71.833328, "lat": 19.383329}}, {"id": 3728428, "name": "Caracol", "state": "", "country": "HT", "coord": {"lon": -72.016113, "lat": 19.69083}}, {"id": 3728474, "name": "Okap", "state": "", "country": "HT", "coord": {"lon": -72.20417, "lat": 19.75778}}, {"id": 3728673, "name": "Calice", "state": "", "country": "HT", "coord": {"lon": -72.193611, "lat": 18.342501}}, {"id": 3728964, "name": "Cabaret", "state": "", "country": "HT", "coord": {"lon": -72.417503, "lat": 18.73583}}, {"id": 3729045, "name": "Brochette", "state": "", "country": "HT", "coord": {"lon": -72.417503, "lat": 18.53583}}, {"id": 3729548, "name": "Bombardopolis", "state": "", "country": "HT", "coord": {"lon": -73.333328, "lat": 19.700001}}, {"id": 3730363, "name": "Belle-Anse", "state": "", "country": "HT", "coord": {"lon": -72.065559, "lat": 18.237221}}, {"id": 3730800, "name": "Barad\u00e8res", "state": "", "country": "HT", "coord": {"lon": -73.638611, "lat": 18.4825}}, {"id": 3730932, "name": "Baie de Henne", "state": "", "country": "HT", "coord": {"lon": -73.209442, "lat": 19.662781}}, {"id": 3730937, "name": "Bahon", "state": "", "country": "HT", "coord": {"lon": -72.116669, "lat": 19.466669}}, {"id": 3731053, "name": "D\u00e9partement de l'Artibonite", "state": "", "country": "HT", "coord": {"lon": -72.5, "lat": 19.33333}}, {"id": 3731087, "name": "Arcahaie", "state": "", "country": "HT", "coord": {"lon": -72.916672, "lat": 19.816669}}, {"id": 3731095, "name": "Aquin", "state": "", "country": "HT", "coord": {"lon": -73.400002, "lat": 18.283331}}, {"id": 3731105, "name": "Anse Rouge", "state": "", "country": "HT", "coord": {"lon": -73.050003, "lat": 19.633329}}, {"id": 3731123, "name": "Anse-\u00e0-Veau", "state": "", "country": "HT", "coord": {"lon": -73.344902, "lat": 18.501101}}, {"id": 3731126, "name": "Anse-\u00e0-Pitre", "state": "", "country": "HT", "coord": {"lon": -71.75, "lat": 18.049999}}, {"id": 3731132, "name": "Anse \u00e0 Galets", "state": "", "country": "HT", "coord": {"lon": -72.864166, "lat": 18.831671}}, {"id": 3731233, "name": "Acul du Nord", "state": "", "country": "HT", "coord": {"lon": -72.316673, "lat": 19.683331}}, {"id": 3731257, "name": "Les Abricots", "state": "", "country": "HT", "coord": {"lon": -74.300003, "lat": 18.633329}}, {"id": 3731287, "name": "Taquari", "state": "", "country": "BR", "coord": {"lon": -67.910278, "lat": -9.87361}}, {"id": 3731909, "name": "El Naranjito", "state": "", "country": "CO", "coord": {"lon": -73.48983, "lat": 7.1003}}, {"id": 3731933, "name": "Palmas del Socorro", "state": "", "country": "CO", "coord": {"lon": -73.286942, "lat": 6.40667}}, {"id": 3732002, "name": "Las Flores", "state": "", "country": "CO", "coord": {"lon": -73.980377, "lat": 9.04968}}, {"id": 3732203, "name": "Palonegro", "state": "", "country": "CO", "coord": {"lon": -73.198639, "lat": 7.11989}}, {"id": 3732273, "name": "Los Santos", "state": "", "country": "CO", "coord": {"lon": -73.093063, "lat": 7.17}}, {"id": 3732964, "name": "Lejan\u00edas", "state": "", "country": "CO", "coord": {"lon": -74.021561, "lat": 3.5251}}, {"id": 3733378, "name": "San Mart\u00edn de Porres", "state": "", "country": "PE", "coord": {"lon": -74.573334, "lat": -8.39306}}, {"id": 3733380, "name": "Campoverde", "state": "", "country": "PE", "coord": {"lon": -74.805832, "lat": -8.47528}}, {"id": 3733434, "name": "El Dorado", "state": "", "country": "CO", "coord": {"lon": -72.86834, "lat": 2.77411}}, {"id": 3733861, "name": "Curillo", "state": "", "country": "CO", "coord": {"lon": -75.91906, "lat": 1.03327}}, {"id": 3735111, "name": "Hacienda Tierra Blanca", "state": "", "country": "SV", "coord": {"lon": -88.059441, "lat": 13.26056}}, {"id": 3735680, "name": "Santacruz", "state": "", "country": "CO", "coord": {"lon": -77.262062, "lat": 1.5209}}, {"id": 3736146, "name": "Nochebuena", "state": "", "country": "CO", "coord": {"lon": -75.489441, "lat": 3.255}}, {"id": 3736808, "name": "Iranduba", "state": "", "country": "BR", "coord": {"lon": -60.186111, "lat": -3.28472}}, {"id": 3736812, "name": "Presidente Figueiredo", "state": "", "country": "BR", "coord": {"lon": -60.025002, "lat": -2.03444}}, {"id": 3736937, "name": "Cuba", "state": "", "country": "CO", "coord": {"lon": -75.738892, "lat": 4.8025}}, {"id": 3738301, "name": "El Tarra", "state": "", "country": "CO", "coord": {"lon": -73.094887, "lat": 8.57562}}, {"id": 3738787, "name": "Las Mesas", "state": "", "country": "VE", "coord": {"lon": -72.165558, "lat": 8.16454}}, {"id": 3739012, "name": "Vara de Mar\u00eda", "state": "", "country": "VE", "coord": {"lon": -70.762154, "lat": 7.20152}}, {"id": 3739034, "name": "La Habana", "state": "", "country": "VE", "coord": {"lon": -70.76001, "lat": 7.09391}}, {"id": 3739076, "name": "San Jose de Bolivar", "state": "", "country": "VE", "coord": {"lon": -71.971939, "lat": 7.91139}}, {"id": 3739557, "name": "Banco Playa", "state": "", "country": "MX", "coord": {"lon": -86.941673, "lat": 20.51111}}, {"id": 3740016, "name": "Ti Port-de-Paix", "state": "", "country": "HT", "coord": {"lon": -72.833328, "lat": 19.933331}}, {"id": 3742297, "name": "Camar\u00f3n", "state": "", "country": "VE", "coord": {"lon": -66.425003, "lat": 10.251944}}, {"id": 3742299, "name": "Las Dos Bocas", "state": "", "country": "VE", "coord": {"lon": -66.481697, "lat": 10.21773}}, {"id": 3742314, "name": "Agua Blanca", "state": "", "country": "VE", "coord": {"lon": -66.465561, "lat": 10.06028}}, {"id": 3746183, "name": "Centro Habana", "state": "", "country": "CU", "coord": {"lon": -82.364166, "lat": 23.13833}}, {"id": 3746599, "name": "Rolo Monterrey", "state": "", "country": "CU", "coord": {"lon": -74.921669, "lat": 20.647779}}, {"id": 3746666, "name": "Miraflores", "state": "", "country": "VE", "coord": {"lon": -69.18306, "lat": 9.594444}}, {"id": 3746938, "name": "Baguanos", "state": "", "country": "CU", "coord": {"lon": -76.026939, "lat": 20.751671}}, {"id": 3747803, "name": "Villa Aeron\u00e1utica", "state": "", "country": "PE", "coord": {"lon": -81.256668, "lat": -4.57917}}, {"id": 3748724, "name": "Redemption", "state": "", "country": "VC", "coord": {"lon": -61.229439, "lat": 13.16444}}, {"id": 3748726, "name": "Kingstown Park", "state": "", "country": "VC", "coord": {"lon": -61.235001, "lat": 13.15833}}, {"id": 3748736, "name": "Greathead", "state": "", "country": "VC", "coord": {"lon": -61.220829, "lat": 13.14417}}, {"id": 3749457, "name": "Sampayo", "state": "", "country": "VE", "coord": {"lon": -63.553761, "lat": 10.54663}}, {"id": 3749788, "name": "Mata Linda", "state": "", "country": "VE", "coord": {"lon": -63.62722, "lat": 9.701111}}, {"id": 3750856, "name": "El Card\u00f3n", "state": "", "country": "VE", "coord": {"lon": -63.24778, "lat": 8.719167}}, {"id": 3753107, "name": "Santa Rita", "state": "", "country": "VE", "coord": {"lon": -67.538841, "lat": 10.20696}}, {"id": 3753186, "name": "Paso Real", "state": "", "country": "VE", "coord": {"lon": -67.93322, "lat": 10.14493}}, {"id": 3753555, "name": "Vallecito", "state": "", "country": "VE", "coord": {"lon": -71.121109, "lat": 8.638056}}, {"id": 3753559, "name": "Santa Mar\u00eda", "state": "", "country": "VE", "coord": {"lon": -71.136108, "lat": 8.6225}}, {"id": 3753605, "name": "El Salado", "state": "", "country": "VE", "coord": {"lon": -71.224167, "lat": 8.56954}}, {"id": 3753606, "name": "Las Cruces", "state": "", "country": "VE", "coord": {"lon": -71.221664, "lat": 8.565556}}, {"id": 3753610, "name": "San Jos\u00e9", "state": "", "country": "VE", "coord": {"lon": -71.165558, "lat": 8.594722}}, {"id": 3753611, "name": "Loma de La Virgen", "state": "", "country": "VE", "coord": {"lon": -71.167282, "lat": 8.59231}}, {"id": 3753625, "name": "Las Tienditas", "state": "", "country": "VE", "coord": {"lon": -71.163055, "lat": 8.565556}}, {"id": 3753626, "name": "El Chamita", "state": "", "country": "VE", "coord": {"lon": -71.179726, "lat": 8.561389}}, {"id": 3753632, "name": "La Hoyada", "state": "", "country": "VE", "coord": {"lon": -71.241943, "lat": 8.540278}}, {"id": 3753668, "name": "Los Llanitos", "state": "", "country": "VE", "coord": {"lon": -71.360832, "lat": 8.4975}}, {"id": 3753695, "name": "Mucuran\u00fa", "state": "", "country": "VE", "coord": {"lon": -71.182777, "lat": 8.48}}, {"id": 3753711, "name": "Puente Viejo", "state": "", "country": "VE", "coord": {"lon": -71.433891, "lat": 8.471111}}, {"id": 3753714, "name": "Los Limos", "state": "", "country": "VE", "coord": {"lon": -71.443611, "lat": 8.465833}}, {"id": 3754114, "name": "Parque das Laranjeiras", "state": "", "country": "BR", "coord": {"lon": -60.013611, "lat": -3.06472}}, {"id": 3754131, "name": "Nossa Senhora das Gra\u00e7as", "state": "", "country": "BR", "coord": {"lon": -60.021111, "lat": -3.11083}}, {"id": 3754135, "name": "Educandos", "state": "", "country": "BR", "coord": {"lon": -60.00806, "lat": -3.14417}}, {"id": 3754145, "name": "Ponto Cacau Pireira", "state": "", "country": "BR", "coord": {"lon": -60.083611, "lat": -3.16694}}, {"id": 3754913, "name": "El Pr\u00f3ximo", "state": "", "country": "CU", "coord": {"lon": -77.854721, "lat": 21.42333}}, {"id": 3755632, "name": "Carinagua", "state": "", "country": "VE", "coord": {"lon": -67.60952, "lat": 5.63197}}, {"id": 3755700, "name": "El Vedero", "state": "", "country": "VE", "coord": {"lon": -63.138889, "lat": 9.746389}}, {"id": 3756455, "name": "Tuteh\u00f3n", "state": "", "country": "CO", "coord": {"lon": -72.576576, "lat": 11.46745}}, {"id": 3756852, "name": "San Carlos", "state": "", "country": "CO", "coord": {"lon": -70.747993, "lat": 7.07309}}, {"id": 3757172, "name": "El Aeropuerto", "state": "", "country": "VE", "coord": {"lon": -72.264549, "lat": 8.2353}}, {"id": 3758764, "name": "San Josecito", "state": "", "country": "VE", "coord": {"lon": -72.219582, "lat": 7.65997}}, {"id": 3759212, "name": "Cordero", "state": "", "country": "VE", "coord": {"lon": -72.180748, "lat": 7.85591}}, {"id": 3761012, "name": "Ajacuba", "state": "", "country": "MX", "coord": {"lon": -99.112503, "lat": 20.0875}}, {"id": 3761111, "name": "Villa Avila Camacho", "state": "", "country": "MX", "coord": {"lon": -97.879173, "lat": 20.381941}}, {"id": 3761194, "name": "Miraflores", "state": "", "country": "MX", "coord": {"lon": -98.808327, "lat": 19.216669}}, {"id": 3761660, "name": "Galeana", "state": "", "country": "MX", "coord": {"lon": -99.216667, "lat": 18.633329}}, {"id": 3761664, "name": "Higuer\u00f3n", "state": "", "country": "MX", "coord": {"lon": -99.166672, "lat": 18.58333}}, {"id": 3762210, "name": "Santiago Tlacotepec", "state": "", "country": "MX", "coord": {"lon": -99.674438, "lat": 19.22389}}, {"id": 3762770, "name": "San Antonio de la Cal", "state": "", "country": "MX", "coord": {"lon": -96.697502, "lat": 17.03083}}, {"id": 3762771, "name": "San Agustin de las Juntas", "state": "", "country": "MX", "coord": {"lon": -96.708061, "lat": 17.003889}}, {"id": 3762839, "name": "Mamonal", "state": "", "country": "VE", "coord": {"lon": -62.399445, "lat": 8.070556}}, {"id": 3762887, "name": "El Valle", "state": "", "country": "VE", "coord": {"lon": -62.409168, "lat": 8.105556}}, {"id": 3762895, "name": "Sierra Imataca", "state": "", "country": "VE", "coord": {"lon": -62.428909, "lat": 8.4555}}, {"id": 3763372, "name": "San Jacinto", "state": "", "country": "EC", "coord": {"lon": -76.557503, "lat": 0.05694}}, {"id": 3763578, "name": "Mesetas", "state": "", "country": "CO", "coord": {"lon": -74.044243, "lat": 3.38464}}, {"id": 3763693, "name": "Ambrosio", "state": "", "country": "VE", "coord": {"lon": -71.45874, "lat": 10.421}}, {"id": 3764011, "name": "Jalisco", "state": "", "country": "CO", "coord": {"lon": -76.543457, "lat": 3.25413}}, {"id": 3764343, "name": "Santa Rita Arriba", "state": "", "country": "PA", "coord": {"lon": -79.779999, "lat": 9.33778}}, {"id": 3765365, "name": "La Horqueta", "state": "", "country": "VE", "coord": {"lon": -67.493332, "lat": 7.87139}}, {"id": 3766939, "name": "Bellavista", "state": "", "country": "CO", "coord": {"lon": -76.972343, "lat": 6.5213}}, {"id": 3766955, "name": "Playa de Aguadores", "state": "", "country": "CU", "coord": {"lon": -75.832222, "lat": 19.96806}}, {"id": 3767884, "name": "La Miel", "state": "", "country": "VE", "coord": {"lon": -70.166298, "lat": 10.11881}}, {"id": 3768261, "name": "Pueblo Nuevo", "state": "", "country": "VE", "coord": {"lon": -69.368607, "lat": 10.04399}}, {"id": 3769623, "name": "Chivor", "state": "", "country": "CO", "coord": {"lon": -73.368889, "lat": 4.88556}}, {"id": 3769932, "name": "Monterrey", "state": "", "country": "CO", "coord": {"lon": -72.898788, "lat": 4.87206}}, {"id": 3769960, "name": "Paratebueno", "state": "", "country": "CO", "coord": {"lon": -73.215469, "lat": 4.37575}}, {"id": 3769975, "name": "Puerto Chig\u00fciro", "state": "", "country": "CO", "coord": {"lon": -73.343163, "lat": 4.03772}}, {"id": 3769976, "name": "Puerto Gait\u00e1n", "state": "", "country": "CO", "coord": {"lon": -72.081573, "lat": 4.31328}}, {"id": 3769988, "name": "Sabanalarga", "state": "", "country": "CO", "coord": {"lon": -73.040031, "lat": 4.8543}}, {"id": 3770066, "name": "San Luis", "state": "", "country": "CO", "coord": {"lon": -74.992783, "lat": 6.04167}}, {"id": 3770718, "name": "Morales", "state": "", "country": "CO", "coord": {"lon": -76.617233, "lat": 2.75701}}, {"id": 3770955, "name": "Villa Rica", "state": "", "country": "CO", "coord": {"lon": -76.844177, "lat": 2.50949}}, {"id": 3771124, "name": "Crucero de Pescador", "state": "", "country": "CO", "coord": {"lon": -76.545799, "lat": 2.80591}}, {"id": 3774127, "name": "San Jose de Guaribe", "state": "", "country": "VE", "coord": {"lon": -65.813057, "lat": 9.86025}}, {"id": 3774220, "name": "Sesteadero", "state": "", "country": "VE", "coord": {"lon": -65.96167, "lat": 7.992222}}, {"id": 3775199, "name": "Otanche", "state": "", "country": "CO", "coord": {"lon": -74.181107, "lat": 5.65917}}, {"id": 3775262, "name": "Qu\u00edpama", "state": "", "country": "CO", "coord": {"lon": -74.17765, "lat": 5.5194}}, {"id": 3775850, "name": "Bosconia", "state": "", "country": "CO", "coord": {"lon": -73.883614, "lat": 9.96889}}, {"id": 3776374, "name": "El Mirador", "state": "", "country": "CO", "coord": {"lon": -73.737221, "lat": 5.51333}}, {"id": 3776586, "name": "La Belleza", "state": "", "country": "CO", "coord": {"lon": -73.848892, "lat": 5.79083}}, {"id": 3777286, "name": "Tres Esquinas", "state": "", "country": "CO", "coord": {"lon": -73.648888, "lat": 5.57194}}, {"id": 3777638, "name": "Bol\u00edvar", "state": "", "country": "VE", "coord": {"lon": -63.561111, "lat": 10.18}}, {"id": 3778045, "name": "Maturin", "state": "", "country": "VE", "coord": {"lon": -63.17667, "lat": 9.75}}, {"id": 3778301, "name": "San Pedro", "state": "", "country": "VE", "coord": {"lon": -63.397221, "lat": 9.628333}}, {"id": 3778348, "name": "Temblador", "state": "", "country": "VE", "coord": {"lon": -62.642159, "lat": 9.00716}}, {"id": 3778835, "name": "La Cumbre", "state": "", "country": "CO", "coord": {"lon": -76.020828, "lat": 3.7225}}, {"id": 3778842, "name": "La Esmeralda", "state": "", "country": "CO", "coord": {"lon": -76.376892, "lat": 3.55564}}, {"id": 3779399, "name": "Canalete", "state": "", "country": "CO", "coord": {"lon": -76.20417, "lat": 8.67611}}, {"id": 3780602, "name": "Fredonia", "state": "", "country": "CO", "coord": {"lon": -75.670563, "lat": 5.92583}}, {"id": 3780754, "name": "Montebello", "state": "", "country": "CO", "coord": {"lon": -75.524277, "lat": 5.9449}}, {"id": 3780941, "name": "El Salero", "state": "", "country": "CO", "coord": {"lon": -75.661346, "lat": 2.65744}}, {"id": 3781858, "name": "El Toronjo", "state": "", "country": "CO", "coord": {"lon": -73.619019, "lat": 4.70131}}, {"id": 3781883, "name": "Gachet\u00e1", "state": "", "country": "CO", "coord": {"lon": -73.636589, "lat": 4.81854}}, {"id": 3782071, "name": "Las Tominejas", "state": "", "country": "CO", "coord": {"lon": -73.972816, "lat": 4.82806}}, {"id": 3782136, "name": "Minas", "state": "", "country": "CO", "coord": {"lon": -73.51889, "lat": 4.99694}}, {"id": 3782173, "name": "Palacio", "state": "", "country": "CO", "coord": {"lon": -73.821701, "lat": 4.71493}}, {"id": 3782886, "name": "Campoalegre", "state": "", "country": "CO", "coord": {"lon": -76.231499, "lat": 4.08538}}, {"id": 3783478, "name": "Tuch\u00edn", "state": "", "country": "CO", "coord": {"lon": -75.852966, "lat": 8.55072}}, {"id": 3783506, "name": "El Central", "state": "", "country": "CO", "coord": {"lon": -75.830002, "lat": 8.82333}}, {"id": 3783663, "name": "San Carlos", "state": "", "country": "CO", "coord": {"lon": -75.71331, "lat": 8.74372}}, {"id": 3784154, "name": "Palmasola", "state": "", "country": "VE", "coord": {"lon": -68.54422, "lat": 10.59363}}, {"id": 3786191, "name": "Guaricure", "state": "", "country": "VE", "coord": {"lon": -70.131111, "lat": 11.76667}}, {"id": 3786682, "name": "Azucenos", "state": "", "country": "CO", "coord": {"lon": -75.665833, "lat": 6.60833}}, {"id": 3787727, "name": "San Andr\u00e9s", "state": "", "country": "CO", "coord": {"lon": -75.682503, "lat": 6.90333}}, {"id": 3787902, "name": "Yarumal", "state": "", "country": "CO", "coord": {"lon": -75.67083, "lat": 6.89028}}, {"id": 3790028, "name": "El Pedregal", "state": "", "country": "VE", "coord": {"lon": -71.66655, "lat": 10.65553}}, {"id": 3791976, "name": "General Trevi\u00f1o", "state": "", "country": "MX", "coord": {"lon": -99.914436, "lat": 25.555559}}, {"id": 3792044, "name": "Hidalgo", "state": "", "country": "MX", "coord": {"lon": -99.616112, "lat": 25.842501}}, {"id": 3792374, "name": "Buritic\u00e1", "state": "", "country": "CO", "coord": {"lon": -75.907341, "lat": 6.71873}}, {"id": 3792375, "name": "Carepa", "state": "", "country": "CO", "coord": {"lon": -76.652542, "lat": 7.75849}}, {"id": 3792376, "name": "Ciudad Bol\u00edvar", "state": "", "country": "CO", "coord": {"lon": -76.025284, "lat": 5.85389}}, {"id": 3792377, "name": "Vegach\u00ed", "state": "", "country": "CO", "coord": {"lon": -74.794731, "lat": 6.76141}}, {"id": 3792378, "name": "Altos del Rosario", "state": "", "country": "CO", "coord": {"lon": -74.165833, "lat": 8.79444}}, {"id": 3792379, "name": "Santa Rosa del Sur", "state": "", "country": "CO", "coord": {"lon": -74.054443, "lat": 7.96444}}, {"id": 3792380, "name": "Tiquisio", "state": "", "country": "CO", "coord": {"lon": -74.266937, "lat": 8.55972}}, {"id": 3792382, "name": "Cartagena del Chair\u00e1", "state": "", "country": "CO", "coord": {"lon": -74.842888, "lat": 1.33488}}, {"id": 3792383, "name": "Agust\u00edn Codazzi", "state": "", "country": "CO", "coord": {"lon": -73.236107, "lat": 10.03409}}, {"id": 3792384, "name": "Manaure Balc\u00f3n del Cesar", "state": "", "country": "CO", "coord": {"lon": -73.032501, "lat": 10.39278}}, {"id": 3792385, "name": "San Mart\u00edn", "state": "", "country": "CO", "coord": {"lon": -73.511261, "lat": 8.00151}}, {"id": 3792386, "name": "El Cant\u00f3n de San Pablo", "state": "", "country": "CO", "coord": {"lon": -76.731392, "lat": 5.33889}}, {"id": 3792387, "name": "El Retorno", "state": "", "country": "CO", "coord": {"lon": -72.627647, "lat": 2.33022}}, {"id": 3792389, "name": "Isnos", "state": "", "country": "CO", "coord": {"lon": -76.240562, "lat": 1.93556}}, {"id": 3792392, "name": "Plato", "state": "", "country": "CO", "coord": {"lon": -74.78244, "lat": 9.79029}}, {"id": 3792394, "name": "Mapirip\u00e1n", "state": "", "country": "CO", "coord": {"lon": -72.125587, "lat": 2.88916}}, {"id": 3792395, "name": "Puerto Concordia", "state": "", "country": "CO", "coord": {"lon": -72.75724, "lat": 2.62206}}, {"id": 3792396, "name": "La Tola", "state": "", "country": "CO", "coord": {"lon": -78.242783, "lat": 2.41083}}, {"id": 3792398, "name": "Puerto Guzm\u00e1n", "state": "", "country": "CO", "coord": {"lon": -76.585831, "lat": 0.97028}}, {"id": 3792399, "name": "El Play\u00f3n", "state": "", "country": "CO", "coord": {"lon": -73.203102, "lat": 7.47131}}, {"id": 3792404, "name": "San Antonio del Tequendama", "state": "", "country": "CO", "coord": {"lon": -74.353889, "lat": 4.61889}}, {"id": 3792406, "name": "Tibacuy", "state": "", "country": "CO", "coord": {"lon": -72.45639, "lat": 4.35111}}, {"id": 3792408, "name": "Santa Genoveva de Docord\u00f3", "state": "", "country": "CO", "coord": {"lon": -77.365158, "lat": 4.25875}}, {"id": 3792425, "name": "Alto de Garz\u00f3n", "state": "", "country": "CO", "coord": {"lon": -75.64846, "lat": 2.19614}}, {"id": 3792692, "name": "Fosfaco", "state": "", "country": "CO", "coord": {"lon": -75.630463, "lat": 2.44368}}, {"id": 3792743, "name": "La Argentina", "state": "", "country": "CO", "coord": {"lon": -75.980003, "lat": 2.19611}}, {"id": 3793692, "name": "Viva Dios", "state": "", "country": "CO", "coord": {"lon": -76.448212, "lat": 8.06669}}, {"id": 3793791, "name": "Los Lagos", "state": "", "country": "CO", "coord": {"lon": -76.157707, "lat": 8.26914}}, {"id": 3795119, "name": "Delicias", "state": "", "country": "VE", "coord": {"lon": -72.44754, "lat": 7.56505}}, {"id": 3795152, "name": "La Fria", "state": "", "country": "VE", "coord": {"lon": -72.243896, "lat": 8.22027}}, {"id": 3795170, "name": "La Grita", "state": "", "country": "VE", "coord": {"lon": -71.983368, "lat": 8.13219}}, {"id": 3795218, "name": "Capacho Nuevo", "state": "", "country": "VE", "coord": {"lon": -72.308998, "lat": 7.82409}}, {"id": 3795620, "name": "La Tendida", "state": "", "country": "VE", "coord": {"lon": -71.831657, "lat": 8.50757}}, {"id": 3796083, "name": "Kennedy", "state": "", "country": "VE", "coord": {"lon": -62.302608, "lat": 10.58407}}, {"id": 3796318, "name": "Barrio Mundo Nuevo", "state": "", "country": "VE", "coord": {"lon": -64.16864, "lat": 10.46491}}, {"id": 3797347, "name": "La Otra Banda", "state": "", "country": "VE", "coord": {"lon": -71.548889, "lat": 8.493333}}, {"id": 3797470, "name": "El Raicero", "state": "", "country": "VE", "coord": {"lon": -71.654999, "lat": 8.603889}}, {"id": 3797606, "name": "Santa Marta", "state": "", "country": "VE", "coord": {"lon": -71.136108, "lat": 8.618333}}, {"id": 3797691, "name": "La Vega", "state": "", "country": "VE", "coord": {"lon": -71.628891, "lat": 8.594444}}, {"id": 3797740, "name": "Atarjea", "state": "", "country": "MX", "coord": {"lon": -99.718613, "lat": 21.26944}}, {"id": 3797773, "name": "Agua Blanca", "state": "", "country": "VE", "coord": {"lon": -69.107521, "lat": 9.66146}}, {"id": 3797821, "name": "Apamatal", "state": "", "country": "VE", "coord": {"lon": -69.737572, "lat": 9.03143}}, {"id": 3797895, "name": "Buenos Aires", "state": "", "country": "VE", "coord": {"lon": -69.747414, "lat": 9.04602}}, {"id": 3798450, "name": "El Playon", "state": "", "country": "VE", "coord": {"lon": -69.049141, "lat": 9.09857}}, {"id": 3798571, "name": "El Saman", "state": "", "country": "VE", "coord": {"lon": -69.243332, "lat": 9.181111}}, {"id": 3798818, "name": "Arapuey", "state": "", "country": "VE", "coord": {"lon": -70.952477, "lat": 9.25934}}, {"id": 3798900, "name": "La Burrera", "state": "", "country": "VE", "coord": {"lon": -71.508331, "lat": 8.456111}}, {"id": 3798923, "name": "Ca\u00f1o Negro", "state": "", "country": "VE", "coord": {"lon": -71.671669, "lat": 8.626667}}, {"id": 3798949, "name": "Campo Alegre", "state": "", "country": "VE", "coord": {"lon": -71.639442, "lat": 8.601667}}, {"id": 3799184, "name": "La Honda", "state": "", "country": "VE", "coord": {"lon": -71.602776, "lat": 8.565556}}, {"id": 3799319, "name": "Macapo", "state": "", "country": "VE", "coord": {"lon": -68.438988, "lat": 9.82602}}, {"id": 3800368, "name": "Santiago Llano Grande", "state": "", "country": "MX", "coord": {"lon": -98.281113, "lat": 16.49444}}, {"id": 3800500, "name": "Santos Reyes Nopala", "state": "", "country": "MX", "coord": {"lon": -97.156113, "lat": 16.109171}}, {"id": 3800523, "name": "San Jos\u00e9 del Progreso", "state": "", "country": "MX", "coord": {"lon": -97.701668, "lat": 16.108061}}, {"id": 3800562, "name": "Bajos de Chila", "state": "", "country": "MX", "coord": {"lon": -97.127502, "lat": 15.93889}}, {"id": 3800563, "name": "El J\u00edcaro", "state": "", "country": "MX", "coord": {"lon": -97.114723, "lat": 15.8975}}, {"id": 3800767, "name": "Teojomulco", "state": "", "country": "MX", "coord": {"lon": -97.23278, "lat": 16.593611}}, {"id": 3801045, "name": "Tamazulapam Villa del Progreso", "state": "", "country": "MX", "coord": {"lon": -97.568893, "lat": 17.680559}}, {"id": 3801145, "name": "Teotitl\u00e1n", "state": "", "country": "MX", "coord": {"lon": -97.076668, "lat": 18.131941}}, {"id": 3801225, "name": "Tezonapa", "state": "", "country": "MX", "coord": {"lon": -96.691673, "lat": 18.609171}}, {"id": 3801262, "name": "Isla Soyaltepec", "state": "", "country": "MX", "coord": {"lon": -96.483887, "lat": 18.21167}}, {"id": 3801276, "name": "Tierra Blanca", "state": "", "country": "MX", "coord": {"lon": -96.347778, "lat": 18.45722}}, {"id": 3801505, "name": "Suchilap\u00e1n", "state": "", "country": "MX", "coord": {"lon": -94.987503, "lat": 17.39472}}, {"id": 3801590, "name": "San Sebasti\u00e1n Tutla", "state": "", "country": "MX", "coord": {"lon": -96.671669, "lat": 17.058611}}, {"id": 3801595, "name": "San Jacinto Amilpas", "state": "", "country": "MX", "coord": {"lon": -96.757782, "lat": 17.085831}}, {"id": 3801596, "name": "Guadalupe Etla", "state": "", "country": "MX", "coord": {"lon": -96.80056, "lat": 17.171671}}, {"id": 3801635, "name": "Santa Mar\u00eda Coyotepec", "state": "", "country": "MX", "coord": {"lon": -96.699173, "lat": 16.97694}}, {"id": 3801789, "name": "Aguaje el Zapote", "state": "", "country": "MX", "coord": {"lon": -96.263062, "lat": 15.77111}}, {"id": 3801960, "name": "San Blas Atempa", "state": "", "country": "MX", "coord": {"lon": -95.222504, "lat": 16.326389}}, {"id": 3802132, "name": "Frontera", "state": "", "country": "MX", "coord": {"lon": -92.833328, "lat": 18.424999}}, {"id": 3802196, "name": "Villa la Venta", "state": "", "country": "MX", "coord": {"lon": -94.050003, "lat": 18.1}}, {"id": 3802287, "name": "El Tular", "state": "", "country": "MX", "coord": {"lon": -93.349998, "lat": 18.158331}}, {"id": 3802683, "name": "Dos Montes", "state": "", "country": "MX", "coord": {"lon": -92.824997, "lat": 17.987499}}, {"id": 3802710, "name": "Parilla", "state": "", "country": "MX", "coord": {"lon": -92.916672, "lat": 17.91667}}, {"id": 3802739, "name": "R\u00edo de Teapa", "state": "", "country": "MX", "coord": {"lon": -92.895828, "lat": 17.7875}}, {"id": 3803064, "name": "Jalapa", "state": "", "country": "MX", "coord": {"lon": -92.808327, "lat": 17.725}}, {"id": 3803137, "name": "Buenavista", "state": "", "country": "MX", "coord": {"lon": -92.708328, "lat": 17.6625}}, {"id": 3803271, "name": "Reforma", "state": "", "country": "MX", "coord": {"lon": -91.67083, "lat": 17.466669}}, {"id": 3803449, "name": "El Cafetal", "state": "", "country": "VE", "coord": {"lon": -66.830627, "lat": 10.46941}}, {"id": 3803515, "name": "Caucaguita", "state": "", "country": "VE", "coord": {"lon": -66.802521, "lat": 10.35782}}, {"id": 3803651, "name": "La Dolorita", "state": "", "country": "VE", "coord": {"lon": -66.786079, "lat": 10.4883}}, {"id": 3803695, "name": "Urbanizaci\u00f3n La Florida", "state": "", "country": "VE", "coord": {"lon": -65.988327, "lat": 10.31944}}, {"id": 3803863, "name": "Manguito", "state": "", "country": "VE", "coord": {"lon": -66.659889, "lat": 10.47275}}, {"id": 3804240, "name": "El Silencio", "state": "", "country": "VE", "coord": {"lon": -66.965019, "lat": 10.358}}, {"id": 3804949, "name": "Guasdalito", "state": "", "country": "VE", "coord": {"lon": -70.732361, "lat": 7.24241}}, {"id": 3805223, "name": "Las Mercedes", "state": "", "country": "VE", "coord": {"lon": -67.428329, "lat": 7.87722}}, {"id": 3805673, "name": "San Fernando Apure", "state": "", "country": "VE", "coord": {"lon": -67.472359, "lat": 7.88782}}, {"id": 3805700, "name": "San Juan de Payara", "state": "", "country": "VE", "coord": {"lon": -67.606743, "lat": 7.6456}}, {"id": 3806256, "name": "Cata", "state": "", "country": "VE", "coord": {"lon": -67.733803, "lat": 10.4626}}, {"id": 3806295, "name": "La Ceiba", "state": "", "country": "VE", "coord": {"lon": -67.345192, "lat": 10.23442}}, {"id": 3806494, "name": "Barrio Leonardo Ru\u00edz Pineda", "state": "", "country": "VE", "coord": {"lon": -67.165718, "lat": 10.25555}}, {"id": 3806799, "name": "San Sebastian", "state": "", "country": "VE", "coord": {"lon": -67.176811, "lat": 9.94543}}, {"id": 3806880, "name": "Turmerito", "state": "", "country": "VE", "coord": {"lon": -67.47319, "lat": 10.23262}}, {"id": 3806940, "name": "El Abismo", "state": "", "country": "VE", "coord": {"lon": -61.389442, "lat": 6.073333}}, {"id": 3807086, "name": "El Aserradero", "state": "", "country": "VE", "coord": {"lon": -61.132221, "lat": 4.55167}}, {"id": 3807130, "name": "El Barajuste", "state": "", "country": "VE", "coord": {"lon": -61.96722, "lat": 7.772778}}, {"id": 3807166, "name": "Boca de Monte", "state": "", "country": "VE", "coord": {"lon": -62.287224, "lat": 7.952778}}, {"id": 3807315, "name": "El Cacho", "state": "", "country": "VE", "coord": {"lon": -61.584999, "lat": 7.339444}}, {"id": 3807442, "name": "La Caratica", "state": "", "country": "VE", "coord": {"lon": -61.907223, "lat": 7.513333}}, {"id": 3807556, "name": "La Ceiba", "state": "", "country": "VE", "coord": {"lon": -61.596668, "lat": 6.871667}}, {"id": 3807665, "name": "Cintillo", "state": "", "country": "VE", "coord": {"lon": -61.956669, "lat": 7.651111}}, {"id": 3807669, "name": "La Clarita", "state": "", "country": "VE", "coord": {"lon": -61.417221, "lat": 6.173333}}, {"id": 3807816, "name": "La Culebra", "state": "", "country": "VE", "coord": {"lon": -61.876671, "lat": 7.375}}, {"id": 3807898, "name": "Ex-Colonia M\u00f3vil del Dorado", "state": "", "country": "VE", "coord": {"lon": -61.619446, "lat": 6.71}}, {"id": 3808040, "name": "La Gasolina", "state": "", "country": "VE", "coord": {"lon": -61.834999, "lat": 7.352778}}, {"id": 3808235, "name": "Kil\u00f3metro Ciento Diez", "state": "", "country": "VE", "coord": {"lon": -61.401112, "lat": 6.015}}, {"id": 3808236, "name": "Kil\u00f3metro Treinta y Tres", "state": "", "country": "VE", "coord": {"lon": -61.540558, "lat": 6.488333}}, {"id": 3808237, "name": "Kil\u00f3metro Sesenta y Siete", "state": "", "country": "VE", "coord": {"lon": -61.313889, "lat": 6.293889}}, {"id": 3808238, "name": "Kil\u00f3metro Ochenta y Ocho", "state": "", "country": "VE", "coord": {"lon": -61.429443, "lat": 6.153333}}, {"id": 3808245, "name": "Laguna Larga", "state": "", "country": "VE", "coord": {"lon": -61.527779, "lat": 7.25611}}, {"id": 3808408, "name": "Manare", "state": "", "country": "VE", "coord": {"lon": -63.59222, "lat": 6.327778}}, {"id": 3808478, "name": "Las Mar\u00edas", "state": "", "country": "VE", "coord": {"lon": -61.612221, "lat": 7.381111}}, {"id": 3808502, "name": "Marupaquen", "state": "", "country": "VE", "coord": {"lon": -61.066666, "lat": 4.652778}}, {"id": 3808834, "name": "Los Pasotes", "state": "", "country": "VE", "coord": {"lon": -63.669445, "lat": 8.073889}}, {"id": 3808933, "name": "El Perico", "state": "", "country": "VE", "coord": {"lon": -62.322224, "lat": 7.971667}}, {"id": 3809055, "name": "El Porvenir", "state": "", "country": "VE", "coord": {"lon": -61.855, "lat": 7.423889}}, {"id": 3809101, "name": "La Providencia", "state": "", "country": "VE", "coord": {"lon": -62.36639, "lat": 7.994444}}, {"id": 3809171, "name": "Rancho Cuyuni", "state": "", "country": "VE", "coord": {"lon": -61.625, "lat": 6.735}}, {"id": 3809215, "name": "Rinc\u00f3n Bonito", "state": "", "country": "VE", "coord": {"lon": -62.169445, "lat": 7.885}}, {"id": 3809274, "name": "Sampay", "state": "", "country": "VE", "coord": {"lon": -61.088333, "lat": 4.612222}}, {"id": 3809315, "name": "San Germ\u00e1n", "state": "", "country": "VE", "coord": {"lon": -62.310001, "lat": 7.946667}}, {"id": 3809319, "name": "San Isidro", "state": "", "country": "VE", "coord": {"lon": -61.426109, "lat": 6.148889}}, {"id": 3809398, "name": "San Rafael", "state": "", "country": "VE", "coord": {"lon": -61.952778, "lat": 7.685}}, {"id": 3809409, "name": "San Remo", "state": "", "country": "VE", "coord": {"lon": -61.549442, "lat": 7.327222}}, {"id": 3809474, "name": "Santa Mar\u00eda", "state": "", "country": "VE", "coord": {"lon": -61.112221, "lat": 4.861111}}, {"id": 3809486, "name": "Santa Rosa", "state": "", "country": "VE", "coord": {"lon": -61.789444, "lat": 7.353889}}, {"id": 3809489, "name": "Santa Rosa", "state": "", "country": "VE", "coord": {"lon": -61.950001, "lat": 7.701667}}, {"id": 3809700, "name": "Granja La Trinidad", "state": "", "country": "VE", "coord": {"lon": -63.543331, "lat": 8.064444}}, {"id": 3809813, "name": "Villa Gladis", "state": "", "country": "VE", "coord": {"lon": -61.615555, "lat": 6.768333}}, {"id": 3811264, "name": "Quemamacho", "state": "", "country": "HN", "coord": {"lon": -87.08889, "lat": 13.18722}}, {"id": 3811890, "name": "Caja", "state": "", "country": "CO", "coord": {"lon": -75.019173, "lat": 10.88722}}, {"id": 3812188, "name": "Tex\u00edguat", "state": "", "country": "HN", "coord": {"lon": -87.022499, "lat": 13.64972}}, {"id": 3814136, "name": "El Llano", "state": "", "country": "MX", "coord": {"lon": -99.300003, "lat": 20.04722}}, {"id": 3814140, "name": "Bomintzha", "state": "", "country": "MX", "coord": {"lon": -99.275002, "lat": 20.01944}}, {"id": 3814291, "name": "Huapalcalco", "state": "", "country": "MX", "coord": {"lon": -98.363892, "lat": 20.125}}, {"id": 3814320, "name": "El Encinal", "state": "", "country": "MX", "coord": {"lon": -98.216667, "lat": 20.05139}}, {"id": 3814568, "name": "La Breita", "state": "", "country": "PE", "coord": {"lon": -80.887497, "lat": -4.26083}}, {"id": 3814639, "name": "Papayal", "state": "", "country": "PE", "coord": {"lon": -80.736107, "lat": -4.07611}}, {"id": 3815299, "name": "Villa de El Carmen Tequexquitla", "state": "", "country": "MX", "coord": {"lon": -97.650002, "lat": 19.32778}}, {"id": 3815324, "name": "Huamantla", "state": "", "country": "MX", "coord": {"lon": -97.925003, "lat": 19.315281}}, {"id": 3815326, "name": "Ixtenco", "state": "", "country": "MX", "coord": {"lon": -97.893059, "lat": 19.25}}, {"id": 3815329, "name": "Zitlalt\u00e9pec", "state": "", "country": "MX", "coord": {"lon": -97.908333, "lat": 19.20694}}, {"id": 3815350, "name": "Tlaxco", "state": "", "country": "MX", "coord": {"lon": -98.10833, "lat": 19.326389}}, {"id": 3815359, "name": "Tetlanohc\u00e1n", "state": "", "country": "MX", "coord": {"lon": -98.165283, "lat": 19.262501}}, {"id": 3815362, "name": "Mazatecochco", "state": "", "country": "MX", "coord": {"lon": -98.186111, "lat": 19.17639}}, {"id": 3815363, "name": "Xicohtzinco", "state": "", "country": "MX", "coord": {"lon": -98.23333, "lat": 19.173611}}, {"id": 3815364, "name": "Contla", "state": "", "country": "MX", "coord": {"lon": -98.199997, "lat": 19.19722}}, {"id": 3815375, "name": "La Magdalena Tlaltelulco", "state": "", "country": "MX", "coord": {"lon": -98.193062, "lat": 19.275}}, {"id": 3815389, "name": "Tepeyanco", "state": "", "country": "MX", "coord": {"lon": -98.23333, "lat": 19.245831}}, {"id": 3815392, "name": "Zacatelco", "state": "", "country": "MX", "coord": {"lon": -98.238892, "lat": 19.215281}}, {"id": 3815405, "name": "San Antonio Teacalco", "state": "", "country": "MX", "coord": {"lon": -98.306938, "lat": 19.24028}}, {"id": 3815415, "name": "Tlaxcala", "state": "", "country": "MX", "coord": {"lon": -98.241669, "lat": 19.31389}}, {"id": 3815419, "name": "Totolac", "state": "", "country": "MX", "coord": {"lon": -98.258331, "lat": 19.325001}}, {"id": 3815447, "name": "Papalotla", "state": "", "country": "MX", "coord": {"lon": -98.20417, "lat": 19.1625}}, {"id": 3815451, "name": "Tenancingo", "state": "", "country": "MX", "coord": {"lon": -98.180557, "lat": 19.147221}}, {"id": 3815453, "name": "Villa Vicente Guerrero", "state": "", "country": "MX", "coord": {"lon": -98.17083, "lat": 19.11944}}, {"id": 3815459, "name": "Guadalupe Texcalac", "state": "", "country": "MX", "coord": {"lon": -98.076393, "lat": 19.440281}}, {"id": 3815479, "name": "Pueblo Ju\u00e1rez", "state": "", "country": "MX", "coord": {"lon": -93.150002, "lat": 17.65}}, {"id": 3815525, "name": "Catazaja", "state": "", "country": "MX", "coord": {"lon": -92.01667, "lat": 17.725}}, {"id": 3815723, "name": "Nuevo Sital\u00e1", "state": "", "country": "MX", "coord": {"lon": -92.48333, "lat": 17.133329}}, {"id": 3816039, "name": "Galecio Narcia", "state": "", "country": "MX", "coord": {"lon": -93.01667, "lat": 16.58333}}, {"id": 3816148, "name": "Larrainzar", "state": "", "country": "MX", "coord": {"lon": -92.708328, "lat": 16.883329}}, {"id": 3816160, "name": "Alamo", "state": "", "country": "MX", "coord": {"lon": -92.51667, "lat": 16.716669}}, {"id": 3816214, "name": "Oxchuc", "state": "", "country": "MX", "coord": {"lon": -92.33889, "lat": 16.79167}}, {"id": 3816237, "name": "Ocosingo", "state": "", "country": "MX", "coord": {"lon": -92.038887, "lat": 16.90556}}, {"id": 3816251, "name": "Altamirano", "state": "", "country": "MX", "coord": {"lon": -92.038887, "lat": 16.736111}}, {"id": 3816362, "name": "Benem\u00e9rito de las Am\u00e9ricas", "state": "", "country": "MX", "coord": {"lon": -90.64389, "lat": 16.51667}}, {"id": 3816508, "name": "Guadalupe Chichima", "state": "", "country": "MX", "coord": {"lon": -92.122223, "lat": 16.20833}}, {"id": 3816597, "name": "Las Maravillas", "state": "", "country": "MX", "coord": {"lon": -92.98333, "lat": 16.25}}, {"id": 3816721, "name": "Tonal\u00e1", "state": "", "country": "MX", "coord": {"lon": -93.75, "lat": 16.08333}}, {"id": 3816739, "name": "Arriaga", "state": "", "country": "MX", "coord": {"lon": -93.900002, "lat": 16.23333}}, {"id": 3816960, "name": "San Jos\u00e9 del Valle", "state": "", "country": "MX", "coord": {"lon": -92.387497, "lat": 14.79167}}, {"id": 3817354, "name": "Pilcaya", "state": "", "country": "MX", "coord": {"lon": -99.683327, "lat": 18.73333}}, {"id": 3817584, "name": "Cerro La Calera", "state": "", "country": "MX", "coord": {"lon": -99.816673, "lat": 19.183331}}, {"id": 3817641, "name": "San Mateo Huitzilzingo", "state": "", "country": "MX", "coord": {"lon": -98.916672, "lat": 19.225}}, {"id": 3817701, "name": "Xocotl\u00e1n", "state": "", "country": "MX", "coord": {"lon": -98.849998, "lat": 19.525}}, {"id": 3817731, "name": "Tezoyuca", "state": "", "country": "MX", "coord": {"lon": -98.916672, "lat": 19.591669}}, {"id": 3817745, "name": "Acolman", "state": "", "country": "MX", "coord": {"lon": -98.916672, "lat": 19.625}}, {"id": 3817771, "name": "Santiago Tolman", "state": "", "country": "MX", "coord": {"lon": -98.783333, "lat": 19.725}}, {"id": 3818008, "name": "Santiago Yancuitlalpan", "state": "", "country": "MX", "coord": {"lon": -99.300003, "lat": 19.379169}}, {"id": 3818373, "name": "Primavera", "state": "", "country": "PE", "coord": {"lon": -80.389717, "lat": -3.5375}}, {"id": 3818398, "name": "Zarumilla", "state": "", "country": "PE", "coord": {"lon": -80.273064, "lat": -3.50306}}, {"id": 3818580, "name": "Villa L\u00e1zaro C\u00e1rdenas", "state": "", "country": "MX", "coord": {"lon": -97.699997, "lat": 20.45833}}, {"id": 3818673, "name": "Ciudad de Tlatlauquitepec", "state": "", "country": "MX", "coord": {"lon": -97.5, "lat": 19.841669}}, {"id": 3818742, "name": "San Andr\u00e9s Cholula", "state": "", "country": "MX", "coord": {"lon": -98.300003, "lat": 19.049999}}, {"id": 3818786, "name": "Guadalupe Victoria", "state": "", "country": "MX", "coord": {"lon": -97.345833, "lat": 19.29167}}, {"id": 3818819, "name": "Chapulco", "state": "", "country": "MX", "coord": {"lon": -97.416672, "lat": 18.60833}}, {"id": 3818846, "name": "Actipan de Morelos", "state": "", "country": "MX", "coord": {"lon": -97.80278, "lat": 18.95833}}, {"id": 3818912, "name": "San Juan Raboso", "state": "", "country": "MX", "coord": {"lon": -98.449997, "lat": 18.566669}}, {"id": 3818938, "name": "Huehuetlan el Chico", "state": "", "country": "MX", "coord": {"lon": -98.695831, "lat": 18.375}}, {"id": 3818940, "name": "Tlancualpican", "state": "", "country": "MX", "coord": {"lon": -98.699997, "lat": 18.433331}}, {"id": 3818965, "name": "Acaxtlahuac\u00e1n de Albino Zertuche", "state": "", "country": "MX", "coord": {"lon": -98.54583, "lat": 18.02083}}, {"id": 3819040, "name": "Calipan", "state": "", "country": "MX", "coord": {"lon": -97.166672, "lat": 18.29583}}, {"id": 3819050, "name": "Jolalpan", "state": "", "country": "MX", "coord": {"lon": -98.841667, "lat": 18.325001}}, {"id": 3820971, "name": "La Chiquita", "state": "", "country": "MX", "coord": {"lon": -90.716667, "lat": 18.616671}}, {"id": 3822029, "name": "Marquelia", "state": "", "country": "MX", "coord": {"lon": -98.816673, "lat": 16.58333}}, {"id": 3822167, "name": "San Luis Acatlan", "state": "", "country": "MX", "coord": {"lon": -98.73333, "lat": 16.816669}}, {"id": 3822620, "name": "San Agust\u00edn (Salvador Alvarado)", "state": "", "country": "MX", "coord": {"lon": -89.491669, "lat": 19.98333}}, {"id": 3822702, "name": "Kantunilk\u00edn", "state": "", "country": "MX", "coord": {"lon": -87.449997, "lat": 21.091669}}, {"id": 3822723, "name": "Alfredo V. Bonfil", "state": "", "country": "MX", "coord": {"lon": -86.849998, "lat": 21.08333}}, {"id": 3822745, "name": "Leona Vicario", "state": "", "country": "MX", "coord": {"lon": -87.191673, "lat": 20.966669}}, {"id": 3822762, "name": "Aduana", "state": "", "country": "MX", "coord": {"lon": -86.866669, "lat": 20.991671}}, {"id": 3822810, "name": "Quintana", "state": "", "country": "MX", "coord": {"lon": -88.133331, "lat": 20.4625}}, {"id": 3823414, "name": "El Chico", "state": "", "country": "MX", "coord": {"lon": -96.83889, "lat": 19.461109}}, {"id": 3823425, "name": "Tlaltetela", "state": "", "country": "MX", "coord": {"lon": -96.908333, "lat": 19.3125}}, {"id": 3823576, "name": "La Bomba", "state": "", "country": "MX", "coord": {"lon": -96.622223, "lat": 19.04167}}, {"id": 3823669, "name": "Mata de Pita", "state": "", "country": "MX", "coord": {"lon": -96.183327, "lat": 19.15}}, {"id": 3823818, "name": "Paraje Nuevo", "state": "", "country": "MX", "coord": {"lon": -96.866669, "lat": 18.870831}}, {"id": 3823864, "name": "Tlilapan", "state": "", "country": "MX", "coord": {"lon": -97.102783, "lat": 18.799999}}, {"id": 3823960, "name": "San Angel", "state": "", "country": "MX", "coord": {"lon": -94.594437, "lat": 18.095831}}, {"id": 3824081, "name": "Coacotla", "state": "", "country": "MX", "coord": {"lon": -94.675003, "lat": 17.933331}}, {"id": 3824132, "name": "\u00c9bano (Colonia Veinte de Noviembre)", "state": "", "country": "MX", "coord": {"lon": -98.383331, "lat": 22.216669}}, {"id": 3824520, "name": "General I\u00e1zaro C\u00e1rdenas", "state": "", "country": "MX", "coord": {"lon": -97.48333, "lat": 20.58333}}, {"id": 3824667, "name": "Coyutla", "state": "", "country": "MX", "coord": {"lon": -97.650002, "lat": 20.241671}}, {"id": 3824674, "name": "Mecatlan", "state": "", "country": "MX", "coord": {"lon": -97.666672, "lat": 20.216669}}, {"id": 3824675, "name": "Hueytamalco", "state": "", "country": "MX", "coord": {"lon": -97.275002, "lat": 19.941669}}, {"id": 3824981, "name": "Gabino Barreda", "state": "", "country": "MX", "coord": {"lon": -96.083328, "lat": 18.180559}}, {"id": 3824996, "name": "Loma Bonita", "state": "", "country": "MX", "coord": {"lon": -95.883331, "lat": 18.1}}, {"id": 3825087, "name": "La Guadalupe", "state": "", "country": "MX", "coord": {"lon": -95.150002, "lat": 18.133329}}, {"id": 3825170, "name": "Estaci\u00f3n Juanita", "state": "", "country": "MX", "coord": {"lon": -95.216667, "lat": 17.816669}}, {"id": 3825174, "name": "Juan Rodriguez Clara", "state": "", "country": "MX", "coord": {"lon": -95.408333, "lat": 17.98333}}, {"id": 3825948, "name": "La Llave", "state": "", "country": "MX", "coord": {"lon": -99.997223, "lat": 20.466669}}, {"id": 3827000, "name": "San Agust\u00edn Mextepec", "state": "", "country": "MX", "coord": {"lon": -99.925827, "lat": 19.633329}}, {"id": 3827022, "name": "Santiago Citendej\u00e9", "state": "", "country": "MX", "coord": {"lon": -99.929169, "lat": 19.781389}}, {"id": 3827030, "name": "San Lorenzo Tlacotepec", "state": "", "country": "MX", "coord": {"lon": -99.911392, "lat": 19.81583}}, {"id": 3827038, "name": "San Antonio Enchisi", "state": "", "country": "MX", "coord": {"lon": -99.823059, "lat": 19.755831}}, {"id": 3827098, "name": "Ejido de Jilotepec", "state": "", "country": "MX", "coord": {"lon": -99.565826, "lat": 19.916941}}, {"id": 3827219, "name": "Enthavi", "state": "", "country": "MX", "coord": {"lon": -99.575829, "lat": 19.490829}}, {"id": 3827229, "name": "San Pedro Abajo", "state": "", "country": "MX", "coord": {"lon": -99.580559, "lat": 19.479441}}, {"id": 3827252, "name": "San Marcos Yachihuacaltepec", "state": "", "country": "MX", "coord": {"lon": -99.679443, "lat": 19.324169}}, {"id": 3827254, "name": "San Mateo Otzacatipan", "state": "", "country": "MX", "coord": {"lon": -99.606667, "lat": 19.327221}}, {"id": 3827256, "name": "Santa Mar\u00eda Totoltepec", "state": "", "country": "MX", "coord": {"lon": -99.592499, "lat": 19.305}}, {"id": 3827260, "name": "San Antonio Buenavista", "state": "", "country": "MX", "coord": {"lon": -99.713058, "lat": 19.260281}}, {"id": 3827267, "name": "San Pedro Tultepec", "state": "", "country": "MX", "coord": {"lon": -99.513893, "lat": 19.264999}}, {"id": 3827273, "name": "San Bartolom\u00e9 Tlaltelulco", "state": "", "country": "MX", "coord": {"lon": -99.634438, "lat": 19.22611}}, {"id": 3827274, "name": "San Juan Tilapa", "state": "", "country": "MX", "coord": {"lon": -99.662216, "lat": 19.21944}}, {"id": 3827278, "name": "San Pedro Tlaltizapan", "state": "", "country": "MX", "coord": {"lon": -99.503609, "lat": 19.194719}}, {"id": 3827283, "name": "San Andr\u00e9s Ocotl\u00e1n", "state": "", "country": "MX", "coord": {"lon": -99.58667, "lat": 19.191111}}, {"id": 3827299, "name": "San Pedro Zictepec", "state": "", "country": "MX", "coord": {"lon": -99.580833, "lat": 19.03389}}, {"id": 3827304, "name": "Santa Mar\u00eda Jajalpa", "state": "", "country": "MX", "coord": {"lon": -99.540001, "lat": 19.111389}}, {"id": 3827306, "name": "San Antonio La Isla", "state": "", "country": "MX", "coord": {"lon": -99.570831, "lat": 19.16111}}, {"id": 3827335, "name": "Santiago T\u00edlapa", "state": "", "country": "MX", "coord": {"lon": -99.423332, "lat": 19.185829}}, {"id": 3827341, "name": "Tres Mar\u00edas", "state": "", "country": "MX", "coord": {"lon": -99.243057, "lat": 19.052219}}, {"id": 3827358, "name": "San Pedro Cholula", "state": "", "country": "MX", "coord": {"lon": -99.488327, "lat": 19.26722}}, {"id": 3827368, "name": "San Mateo Atarasqu\u00edllo", "state": "", "country": "MX", "coord": {"lon": -99.460564, "lat": 19.32056}}, {"id": 3827381, "name": "San Lorenzo Tlacoyucan", "state": "", "country": "MX", "coord": {"lon": -99.034172, "lat": 19.17444}}, {"id": 3827382, "name": "San Salvador Cuauhtenco", "state": "", "country": "MX", "coord": {"lon": -99.090561, "lat": 19.190559}}, {"id": 3827383, "name": "San Francisco Tlalneplanta", "state": "", "country": "MX", "coord": {"lon": -99.123611, "lat": 19.19556}}, {"id": 3827401, "name": "San Nicol\u00e1s Totolapan", "state": "", "country": "MX", "coord": {"lon": -99.25444, "lat": 19.29944}}, {"id": 3827403, "name": "San Lorenzo Acopilco", "state": "", "country": "MX", "coord": {"lon": -99.327782, "lat": 19.331671}}, {"id": 3827406, "name": "Benito Juarez", "state": "", "country": "MX", "coord": {"lon": -99.165001, "lat": 19.385}}, {"id": 3827407, "name": "Venustiano Carranza", "state": "", "country": "MX", "coord": {"lon": -99.099167, "lat": 19.43}}, {"id": 3827408, "name": "Miguel Hidalgo", "state": "", "country": "MX", "coord": {"lon": -99.202782, "lat": 19.422501}}, {"id": 3827409, "name": "Cuauht\u00e9moc", "state": "", "country": "MX", "coord": {"lon": -99.156937, "lat": 19.417219}}, {"id": 3827414, "name": "Huixquilucan", "state": "", "country": "MX", "coord": {"lon": -99.351387, "lat": 19.360279}}, {"id": 3827416, "name": "Zacamulpa", "state": "", "country": "MX", "coord": {"lon": -99.333328, "lat": 19.35639}}, {"id": 3827418, "name": "San Bartolom\u00e9 Coatepec", "state": "", "country": "MX", "coord": {"lon": -99.313057, "lat": 19.39472}}, {"id": 3827426, "name": "San Nicol\u00e1s Peralta", "state": "", "country": "MX", "coord": {"lon": -99.486938, "lat": 19.35972}}, {"id": 3827446, "name": "Jardines de San Mateo", "state": "", "country": "MX", "coord": {"lon": -99.270279, "lat": 19.49333}}, {"id": 3827451, "name": "Lomas de Tecamachalco", "state": "", "country": "MX", "coord": {"lon": -99.254723, "lat": 19.401939}}, {"id": 3827476, "name": "San Jos\u00e9 el Vidrio", "state": "", "country": "MX", "coord": {"lon": -99.376671, "lat": 19.65111}}, {"id": 3827537, "name": "San Miguel Vindho", "state": "", "country": "MX", "coord": {"lon": -99.323334, "lat": 19.996941}}, {"id": 3827542, "name": "Vito", "state": "", "country": "MX", "coord": {"lon": -99.203056, "lat": 19.99444}}, {"id": 3827566, "name": "San Pedro Xalpa", "state": "", "country": "MX", "coord": {"lon": -99.188332, "lat": 19.823891}}, {"id": 3827586, "name": "Melchor Ocampo", "state": "", "country": "MX", "coord": {"lon": -99.147499, "lat": 19.69972}}, {"id": 3827588, "name": "Huilango", "state": "", "country": "MX", "coord": {"lon": -99.25, "lat": 19.686939}}, {"id": 3827596, "name": "Santiago Teyahualco", "state": "", "country": "MX", "coord": {"lon": -99.126938, "lat": 19.65889}}, {"id": 3827597, "name": "Tonanitla", "state": "", "country": "MX", "coord": {"lon": -99.056671, "lat": 19.685829}}, {"id": 3827598, "name": "Ojo de Agua", "state": "", "country": "MX", "coord": {"lon": -99.034721, "lat": 19.6775}}, {"id": 3827600, "name": "Santo Tom\u00e1s Chiconautla", "state": "", "country": "MX", "coord": {"lon": -99.008331, "lat": 19.64056}}, {"id": 3827656, "name": "Rondi\u00f1a", "state": "", "country": "CO", "coord": {"lon": -69.995827, "lat": -4.19111}}, {"id": 3827660, "name": "San Sebasti\u00e1n", "state": "", "country": "CO", "coord": {"lon": -69.94944, "lat": -4.18111}}, {"id": 3827693, "name": "La Macarena", "state": "", "country": "CO", "coord": {"lon": -73.784851, "lat": 2.18367}}, {"id": 3827723, "name": "Valle del Guamuez", "state": "", "country": "CO", "coord": {"lon": -76.919167, "lat": 0.4525}}, {"id": 3827832, "name": "Rumo Cocha", "state": "", "country": "PE", "coord": {"lon": -73.311943, "lat": -3.77917}}, {"id": 3828262, "name": "Ciudad Sandino", "state": "", "country": "NI", "coord": {"lon": -86.34417, "lat": 12.15889}}, {"id": 3828545, "name": "San Jos\u00e9 del Guaviare", "state": "", "country": "CO", "coord": {"lon": -72.645912, "lat": 2.57286}}, {"id": 3828656, "name": "Villa Rosa", "state": "", "country": "CO", "coord": {"lon": -77.677132, "lat": 0.85801}}, {"id": 3828718, "name": "Yapurquer", "state": "", "country": "CO", "coord": {"lon": -77.731049, "lat": 0.8482}}, {"id": 3828811, "name": "Kil\u00f3metro Diez y Ocho", "state": "", "country": "CO", "coord": {"lon": -76.62336, "lat": 3.5369}}, {"id": 3829343, "name": "Orito", "state": "", "country": "CO", "coord": {"lon": -76.877121, "lat": 0.67656}}, {"id": 3829349, "name": "Puerto Caicedo", "state": "", "country": "CO", "coord": {"lon": -76.604393, "lat": 0.68362}}, {"id": 3829421, "name": "Chananan\u00e9", "state": "", "country": "CO", "coord": {"lon": -70.550003, "lat": 4.32556}}, {"id": 3829940, "name": "Atenas", "state": "", "country": "CO", "coord": {"lon": -73.809441, "lat": 7.02639}}, {"id": 3830305, "name": "Provincia de Sucumb\u00edos", "state": "", "country": "EC", "coord": {"lon": -76.866669, "lat": 0.1}}, {"id": 3830306, "name": "Provincia de Francisco de Orellana", "state": "", "country": "EC", "coord": {"lon": -76.416672, "lat": -0.75}}, {"id": 3830307, "name": "Costa Caribe Norte", "state": "", "country": "NI", "coord": {"lon": -84.25, "lat": 14}}, {"id": 3830308, "name": "Costa Caribe Sur", "state": "", "country": "NI", "coord": {"lon": -84.25, "lat": 12.25}}, {"id": 3830309, "name": "Estado Vargas", "state": "", "country": "VE", "coord": {"lon": -66.900002, "lat": 10.566667}}, {"id": 3830322, "name": "Valley of Peace", "state": "", "country": "BZ", "coord": {"lon": -88.834717, "lat": 17.334721}}, {"id": 3830951, "name": "Kemps Point", "state": "", "country": "BS", "coord": {"lon": -76.183327, "lat": 24.906389}}, {"id": 3831208, "name": "Qaanaaq", "state": "", "country": "GL", "coord": {"lon": -69.363213, "lat": 77.483971}}, {"id": 3831451, "name": "Dundas", "state": "", "country": "GL", "coord": {"lon": -68.775558, "lat": 76.577217}}, {"id": 3831682, "name": "Dundas", "state": "", "country": "GL", "coord": {"lon": -68.800003, "lat": 76.550003}}, {"id": 3832079, "name": "Departamento de Zonda", "state": "", "country": "AR", "coord": {"lon": -68.583527, "lat": -31.68494}}, {"id": 3832080, "name": "Villa Basilio Nievas", "state": "", "country": "AR", "coord": {"lon": -68.73333, "lat": -31.549999}}, {"id": 3832098, "name": "Zavalla", "state": "", "country": "AR", "coord": {"lon": -60.879551, "lat": -33.01968}}, {"id": 3832120, "name": "Zapata", "state": "", "country": "AR", "coord": {"lon": -68.97905, "lat": -33.479801}}, {"id": 3832131, "name": "Departamento de Zapala", "state": "", "country": "AR", "coord": {"lon": -69.833328, "lat": -39}}, {"id": 3832132, "name": "Zapala", "state": "", "country": "AR", "coord": {"lon": -70.05442, "lat": -38.899158}}, {"id": 3832189, "name": "Yuto", "state": "", "country": "AR", "coord": {"lon": -64.471939, "lat": -23.643419}}, {"id": 3832260, "name": "Yerba Buena", "state": "", "country": "AR", "coord": {"lon": -65.316673, "lat": -26.816669}}, {"id": 3832376, "name": "Yacimiento R\u00edo Turbio", "state": "", "country": "AR", "coord": {"lon": -72.3508, "lat": -51.573212}}, {"id": 3832388, "name": "Winifreda", "state": "", "country": "AR", "coord": {"lon": -64.233879, "lat": -36.226429}}, {"id": 3832397, "name": "Wheelwright", "state": "", "country": "AR", "coord": {"lon": -61.208881, "lat": -33.79039}}, {"id": 3832398, "name": "Wenceslao Escalante", "state": "", "country": "AR", "coord": {"lon": -62.770779, "lat": -33.173031}}, {"id": 3832411, "name": "Warnes", "state": "", "country": "AR", "coord": {"lon": -60.535229, "lat": -34.91066}}, {"id": 3832509, "name": "Vistalba", "state": "", "country": "AR", "coord": {"lon": -68.883331, "lat": -33.01667}}, {"id": 3832512, "name": "Vista Flores", "state": "", "country": "AR", "coord": {"lon": -69.154442, "lat": -33.650589}}, {"id": 3832518, "name": "Vista Alegre", "state": "", "country": "AR", "coord": {"lon": -68.183327, "lat": -38.75}}, {"id": 3832560, "name": "Vinchina", "state": "", "country": "AR", "coord": {"lon": -68.206917, "lat": -28.75964}}, {"id": 3832599, "name": "Villa Vieja", "state": "", "country": "AR", "coord": {"lon": -62.700001, "lat": -31.26667}}, {"id": 3832602, "name": "Villa Valeria", "state": "", "country": "AR", "coord": {"lon": -64.920303, "lat": -34.340931}}, {"id": 3832603, "name": "Villa Urquiza", "state": "", "country": "AR", "coord": {"lon": -60.374802, "lat": -31.64731}}, {"id": 3832607, "name": "Villa Tulumba", "state": "", "country": "AR", "coord": {"lon": -64.122398, "lat": -30.395519}}, {"id": 3832608, "name": "Villa Trinidad", "state": "", "country": "AR", "coord": {"lon": -61.875969, "lat": -30.213289}}, {"id": 3832609, "name": "Villa Traful", "state": "", "country": "AR", "coord": {"lon": -71.40583, "lat": -40.657551}}, {"id": 3832625, "name": "Villa San Jos\u00e9", "state": "", "country": "AR", "coord": {"lon": -60.413589, "lat": -34.091259}}, {"id": 3832630, "name": "Villa Saboya", "state": "", "country": "AR", "coord": {"lon": -62.646729, "lat": -34.460339}}, {"id": 3832631, "name": "Villa Rumipal", "state": "", "country": "AR", "coord": {"lon": -64.48027, "lat": -32.187901}}, {"id": 3832637, "name": "Villa R\u00edo Hondo", "state": "", "country": "AR", "coord": {"lon": -64.915024, "lat": -27.59341}},