[{"id": 5085369, "name": "Deerfield", "state": "NH", "country": "US", "coord": {"lon": -71.617027, "lat": 44.230621}}, {"id": 5085374, "name": "Derry", "state": "NH", "country": "US", "coord": {"lon": -71.327293, "lat": 42.880638}}, {"id": 5085382, "name": "Derry Village", "state": "NH", "country": "US", "coord": {"lon": -71.312012, "lat": 42.89175}}, {"id": 5085520, "name": "Dover", "state": "NH", "country": "US", "coord": {"lon": -70.873672, "lat": 43.197861}}, {"id": 5085564, "name": "Dublin", "state": "NH", "country": "US", "coord": {"lon": -72.062576, "lat": 42.907581}}, {"id": 5085618, "name": "Durham", "state": "NH", "country": "US", "coord": {"lon": -70.926453, "lat": 43.133968}}, {"id": 5085688, "name": "East Concord", "state": "NH", "country": "US", "coord": {"lon": -71.538132, "lat": 43.24202}}, {"id": 5085719, "name": "East Kingston", "state": "NH", "country": "US", "coord": {"lon": -71.016724, "lat": 42.92564}}, {"id": 5085735, "name": "East Merrimack", "state": "NH", "country": "US", "coord": {"lon": -71.483398, "lat": 42.868141}}, {"id": 5085825, "name": "Effingham", "state": "NH", "country": "US", "coord": {"lon": -70.99646, "lat": 43.761189}}, {"id": 5085900, "name": "Enfield", "state": "NH", "country": "US", "coord": {"lon": -72.143982, "lat": 43.640629}}, {"id": 5085913, "name": "Epping", "state": "NH", "country": "US", "coord": {"lon": -71.074226, "lat": 43.033421}}, {"id": 5085918, "name": "Epsom", "state": "NH", "country": "US", "coord": {"lon": -71.332008, "lat": 43.222858}}, {"id": 5085966, "name": "Exeter", "state": "NH", "country": "US", "coord": {"lon": -70.94783, "lat": 42.98148}}, {"id": 5086024, "name": "Farmington", "state": "NH", "country": "US", "coord": {"lon": -71.065063, "lat": 43.389801}}, {"id": 5086182, "name": "Fitzwilliam", "state": "NH", "country": "US", "coord": {"lon": -72.141747, "lat": 42.78064}}, {"id": 5086344, "name": "Franklin", "state": "NH", "country": "US", "coord": {"lon": -71.647301, "lat": 43.444241}}, {"id": 5086373, "name": "Freedom", "state": "NH", "country": "US", "coord": {"lon": -71.035622, "lat": 43.812302}}, {"id": 5086383, "name": "Fremont", "state": "NH", "country": "US", "coord": {"lon": -71.142563, "lat": 42.990921}}, {"id": 5086544, "name": "Gilford", "state": "NH", "country": "US", "coord": {"lon": -71.406738, "lat": 43.547581}}, {"id": 5086564, "name": "Gilmanton", "state": "NH", "country": "US", "coord": {"lon": -71.41452, "lat": 43.424252}}, {"id": 5086624, "name": "Goffs Falls", "state": "NH", "country": "US", "coord": {"lon": -71.452568, "lat": 42.93203}}, {"id": 5086628, "name": "Goffstown", "state": "NH", "country": "US", "coord": {"lon": -71.600349, "lat": 43.020359}}, {"id": 5086700, "name": "Gorham", "state": "NH", "country": "US", "coord": {"lon": -71.173126, "lat": 44.38784}}, {"id": 5086765, "name": "Grafton", "state": "NH", "country": "US", "coord": {"lon": -71.94397, "lat": 43.558681}}, {"id": 5086766, "name": "Grafton Center", "state": "NH", "country": "US", "coord": {"lon": -71.973419, "lat": 43.573959}}, {"id": 5086767, "name": "Grafton County", "state": "NH", "country": "US", "coord": {"lon": -71.79953, "lat": 43.950069}}, {"id": 5086792, "name": "Grantham", "state": "NH", "country": "US", "coord": {"lon": -72.137589, "lat": 43.489521}}, {"id": 5086911, "name": "Greenfield", "state": "NH", "country": "US", "coord": {"lon": -71.872299, "lat": 42.950642}}, {"id": 5086915, "name": "Greenland", "state": "NH", "country": "US", "coord": {"lon": -70.832832, "lat": 43.036201}}, {"id": 5086935, "name": "Greenville", "state": "NH", "country": "US", "coord": {"lon": -71.812302, "lat": 42.767311}}, {"id": 5086978, "name": "Groveton", "state": "NH", "country": "US", "coord": {"lon": -71.5112, "lat": 44.598671}}, {"id": 5087105, "name": "Hampstead", "state": "NH", "country": "US", "coord": {"lon": -71.181168, "lat": 42.874531}}, {"id": 5087110, "name": "Hampton", "state": "NH", "country": "US", "coord": {"lon": -70.838943, "lat": 42.937592}}, {"id": 5087114, "name": "Hampton Beach", "state": "NH", "country": "US", "coord": {"lon": -70.811996, "lat": 42.90731}}, {"id": 5087122, "name": "Hampton Falls", "state": "NH", "country": "US", "coord": {"lon": -70.863663, "lat": 42.916199}}, {"id": 5087168, "name": "Hanover", "state": "NH", "country": "US", "coord": {"lon": -72.289543, "lat": 43.70229}}, {"id": 5087227, "name": "Harrisville", "state": "NH", "country": "US", "coord": {"lon": -72.096474, "lat": 42.94508}}, {"id": 5087270, "name": "Haverhill", "state": "NH", "country": "US", "coord": {"lon": -72.06398, "lat": 44.034512}}, {"id": 5087313, "name": "Hazens", "state": "NH", "country": "US", "coord": {"lon": -71.56147, "lat": 44.36895}}, {"id": 5087365, "name": "Henniker", "state": "NH", "country": "US", "coord": {"lon": -71.822304, "lat": 43.179798}}, {"id": 5087435, "name": "Hill", "state": "NH", "country": "US", "coord": {"lon": -71.700912, "lat": 43.524239}}, {"id": 5087451, "name": "Hillsboro", "state": "", "country": "US", "coord": {"lon": -71.895081, "lat": 43.114799}}, {"id": 5087463, "name": "Hillsborough County", "state": "NH", "country": "US", "coord": {"lon": -71.716187, "lat": 42.933418}}, {"id": 5087494, "name": "Hinsdale", "state": "NH", "country": "US", "coord": {"lon": -72.486481, "lat": 42.78619}}, {"id": 5087552, "name": "Holderness", "state": "NH", "country": "US", "coord": {"lon": -71.588409, "lat": 43.732021}}, {"id": 5087559, "name": "Hollis", "state": "NH", "country": "US", "coord": {"lon": -71.591743, "lat": 42.743141}}, {"id": 5087616, "name": "Hooksett", "state": "NH", "country": "US", "coord": {"lon": -71.465073, "lat": 43.096748}}, {"id": 5087639, "name": "Hopkinton", "state": "NH", "country": "US", "coord": {"lon": -71.675346, "lat": 43.191471}}, {"id": 5087752, "name": "Hudson", "state": "NH", "country": "US", "coord": {"lon": -71.439789, "lat": 42.764809}}, {"id": 5088061, "name": "Jaffrey", "state": "NH", "country": "US", "coord": {"lon": -72.02314, "lat": 42.813969}}, {"id": 5088090, "name": "Jefferson", "state": "NH", "country": "US", "coord": {"lon": -71.474533, "lat": 44.418949}}, {"id": 5088262, "name": "Keene", "state": "NH", "country": "US", "coord": {"lon": -72.278137, "lat": 42.933689}}, {"id": 5088311, "name": "Kensington", "state": "NH", "country": "US", "coord": {"lon": -70.943939, "lat": 42.927029}}, {"id": 5088377, "name": "Kingston", "state": "NH", "country": "US", "coord": {"lon": -71.053391, "lat": 42.936481}}, {"id": 5088438, "name": "Laconia", "state": "NH", "country": "US", "coord": {"lon": -71.470352, "lat": 43.527851}}, {"id": 5088529, "name": "Lancaster", "state": "NH", "country": "US", "coord": {"lon": -71.569252, "lat": 44.488949}}, {"id": 5088597, "name": "Lebanon", "state": "NH", "country": "US", "coord": {"lon": -72.251762, "lat": 43.642288}}, {"id": 5088619, "name": "Lee", "state": "NH", "country": "US", "coord": {"lon": -71.011452, "lat": 43.123138}}, {"id": 5088638, "name": "Lempster", "state": "NH", "country": "US", "coord": {"lon": -72.21064, "lat": 43.238411}}, {"id": 5088753, "name": "Litchfield", "state": "NH", "country": "US", "coord": {"lon": -71.47979, "lat": 42.84425}}, {"id": 5088856, "name": "Littleton", "state": "NH", "country": "US", "coord": {"lon": -71.770088, "lat": 44.306171}}, {"id": 5088905, "name": "Londonderry", "state": "NH", "country": "US", "coord": {"lon": -71.373947, "lat": 42.865089}}, {"id": 5089108, "name": "Lyme", "state": "NH", "country": "US", "coord": {"lon": -72.155922, "lat": 43.809509}}, {"id": 5089118, "name": "Lyndeborough", "state": "NH", "country": "US", "coord": {"lon": -71.766457, "lat": 42.907581}}, {"id": 5089140, "name": "Madbury", "state": "NH", "country": "US", "coord": {"lon": -70.92395, "lat": 43.16925}}, {"id": 5089144, "name": "Madison", "state": "NH", "country": "US", "coord": {"lon": -71.148399, "lat": 43.899239}}, {"id": 5089178, "name": "Manchester", "state": "NH", "country": "US", "coord": {"lon": -71.454788, "lat": 42.99564}}, {"id": 5089236, "name": "Marlborough", "state": "NH", "country": "US", "coord": {"lon": -72.207863, "lat": 42.904251}}, {"id": 5089293, "name": "Mason", "state": "NH", "country": "US", "coord": {"lon": -71.768959, "lat": 42.743698}}, {"id": 5089449, "name": "Meredith", "state": "NH", "country": "US", "coord": {"lon": -71.500351, "lat": 43.65757}}, {"id": 5089451, "name": "Meredith Center", "state": "NH", "country": "US", "coord": {"lon": -71.529243, "lat": 43.614239}}, {"id": 5089478, "name": "Merrimack", "state": "NH", "country": "US", "coord": {"lon": -71.493401, "lat": 42.865089}}, {"id": 5089480, "name": "Merrimack County", "state": "NH", "country": "US", "coord": {"lon": -71.682854, "lat": 43.300079}}, {"id": 5089546, "name": "Milan", "state": "NH", "country": "US", "coord": {"lon": -71.185081, "lat": 44.573391}}, {"id": 5089578, "name": "Milford", "state": "NH", "country": "US", "coord": {"lon": -71.648956, "lat": 42.835361}}, {"id": 5089746, "name": "Mont Vernon", "state": "NH", "country": "US", "coord": {"lon": -71.67424, "lat": 42.894531}}, {"id": 5089850, "name": "Moultonborough", "state": "NH", "country": "US", "coord": {"lon": -71.396744, "lat": 43.754799}}, {"id": 5090046, "name": "Nashua", "state": "NH", "country": "US", "coord": {"lon": -71.467567, "lat": 42.765369}}, {"id": 5090096, "name": "New Boston", "state": "NH", "country": "US", "coord": {"lon": -71.693962, "lat": 42.976189}}, {"id": 5090100, "name": "New Castle", "state": "NH", "country": "US", "coord": {"lon": -70.716164, "lat": 43.072311}}, {"id": 5090111, "name": "New Durham", "state": "NH", "country": "US", "coord": {"lon": -71.172287, "lat": 43.436749}}, {"id": 5090174, "name": "New Hampshire", "state": "NH", "country": "US", "coord": {"lon": -71.499802, "lat": 43.667019}}, {"id": 5090183, "name": "New Ipswich", "state": "NH", "country": "US", "coord": {"lon": -71.85424, "lat": 42.748138}}, {"id": 5090189, "name": "New London", "state": "NH", "country": "US", "coord": {"lon": -71.985077, "lat": 43.41396}}, {"id": 5090214, "name": "Newbury", "state": "NH", "country": "US", "coord": {"lon": -72.035919, "lat": 43.321461}}, {"id": 5090246, "name": "Newmarket", "state": "NH", "country": "US", "coord": {"lon": -70.935059, "lat": 43.082859}}, {"id": 5090256, "name": "Newport", "state": "NH", "country": "US", "coord": {"lon": -72.173424, "lat": 43.365349}}, {"id": 5090268, "name": "Newton", "state": "NH", "country": "US", "coord": {"lon": -71.0345, "lat": 42.86953}}, {"id": 5090347, "name": "North Conway", "state": "NH", "country": "US", "coord": {"lon": -71.128403, "lat": 44.05368}}, {"id": 5090375, "name": "North Haverhill", "state": "NH", "country": "US", "coord": {"lon": -72.026482, "lat": 44.09034}}, {"id": 5090383, "name": "North Hampton", "state": "NH", "country": "US", "coord": {"lon": -70.829781, "lat": 42.972591}}, {"id": 5090459, "name": "Northfield", "state": "NH", "country": "US", "coord": {"lon": -71.5923, "lat": 43.433128}}, {"id": 5090464, "name": "Northumberland", "state": "NH", "country": "US", "coord": {"lon": -71.558701, "lat": 44.563389}}, {"id": 5090470, "name": "Northwood", "state": "NH", "country": "US", "coord": {"lon": -71.150902, "lat": 43.194248}}, {"id": 5090496, "name": "Nottingham", "state": "NH", "country": "US", "coord": {"lon": -71.099777, "lat": 43.114529}}, {"id": 5090662, "name": "Orford", "state": "NH", "country": "US", "coord": {"lon": -72.140091, "lat": 43.90535}}, {"id": 5090683, "name": "Ossipee", "state": "NH", "country": "US", "coord": {"lon": -71.11673, "lat": 43.68536}}, {"id": 5090910, "name": "Pelham", "state": "NH", "country": "US", "coord": {"lon": -71.324509, "lat": 42.734531}}, {"id": 5090918, "name": "Pembroke", "state": "NH", "country": "US", "coord": {"lon": -71.457573, "lat": 43.146751}}, {"id": 5091002, "name": "Peterborough", "state": "NH", "country": "US", "coord": {"lon": -71.951752, "lat": 42.87064}}, {"id": 5091110, "name": "Pinardville", "state": "NH", "country": "US", "coord": {"lon": -71.507294, "lat": 42.994251}}, {"id": 5091184, "name": "Pinewood Village", "state": "NH", "country": "US", "coord": {"lon": -72.30204, "lat": 43.64563}}, {"id": 5091251, "name": "Pittsfield", "state": "NH", "country": "US", "coord": {"lon": -71.324226, "lat": 43.305908}}, {"id": 5091273, "name": "Plaistow", "state": "NH", "country": "US", "coord": {"lon": -71.09478, "lat": 42.836479}}, {"id": 5091310, "name": "Plymouth", "state": "NH", "country": "US", "coord": {"lon": -71.688133, "lat": 43.757019}}, {"id": 5091383, "name": "Portsmouth", "state": "NH", "country": "US", "coord": {"lon": -70.76255, "lat": 43.071758}}, {"id": 5091605, "name": "Randolph Hill", "state": "NH", "country": "US", "coord": {"lon": -71.278412, "lat": 44.388119}}, {"id": 5091636, "name": "Raymond", "state": "NH", "country": "US", "coord": {"lon": -71.183403, "lat": 43.036201}}, {"id": 5091729, "name": "Richmond", "state": "NH", "country": "US", "coord": {"lon": -72.271751, "lat": 42.75481}}, {"id": 5091744, "name": "Rindge", "state": "NH", "country": "US", "coord": {"lon": -72.009804, "lat": 42.751202}}, {"id": 5091860, "name": "Rockingham County", "state": "NH", "country": "US", "coord": {"lon": -71.099503, "lat": 42.966751}}, {"id": 5091872, "name": "Rochester", "state": "NH", "country": "US", "coord": {"lon": -70.975616, "lat": 43.304531}}, {"id": 5091916, "name": "Rollinsford", "state": "NH", "country": "US", "coord": {"lon": -70.820343, "lat": 43.236198}}, {"id": 5091981, "name": "Rumney", "state": "NH", "country": "US", "coord": {"lon": -71.812576, "lat": 43.805351}}, {"id": 5092018, "name": "Rye", "state": "NH", "country": "US", "coord": {"lon": -70.770889, "lat": 43.01342}}, {"id": 5092268, "name": "Salem", "state": "NH", "country": "US", "coord": {"lon": -71.20089, "lat": 42.788422}}, {"id": 5092276, "name": "Salisbury", "state": "NH", "country": "US", "coord": {"lon": -71.717018, "lat": 43.380081}}, {"id": 5092338, "name": "Sanbornton", "state": "NH", "country": "US", "coord": {"lon": -71.582298, "lat": 43.489239}}, {"id": 5092346, "name": "Sanbornville", "state": "NH", "country": "US", "coord": {"lon": -71.030899, "lat": 43.554249}}, {"id": 5092364, "name": "Sandown", "state": "NH", "country": "US", "coord": {"lon": -71.187012, "lat": 42.928699}}, {"id": 5092370, "name": "Sandwich", "state": "NH", "country": "US", "coord": {"lon": -71.411179, "lat": 43.790352}}, {"id": 5092485, "name": "Seabrook", "state": "NH", "country": "US", "coord": {"lon": -70.871162, "lat": 42.89481}}, {"id": 5092813, "name": "Somersworth", "state": "NH", "country": "US", "coord": {"lon": -70.865341, "lat": 43.261749}}, {"id": 5092902, "name": "South Hooksett", "state": "NH", "country": "US", "coord": {"lon": -71.435341, "lat": 43.02647}}, {"id": 5092947, "name": "South Tamworth", "state": "NH", "country": "US", "coord": {"lon": -71.303131, "lat": 43.824799}}, {"id": 5092952, "name": "South Wolfeboro", "state": "NH", "country": "US", "coord": {"lon": -71.177292, "lat": 43.56147}}, {"id": 5093016, "name": "Spragueville", "state": "NH", "country": "US", "coord": {"lon": -72.26342, "lat": 42.896469}}, {"id": 5093030, "name": "Springfield", "state": "NH", "country": "US", "coord": {"lon": -72.033417, "lat": 43.495071}}, {"id": 5093235, "name": "Strafford", "state": "NH", "country": "US", "coord": {"lon": -71.184227, "lat": 43.32703}}, {"id": 5093237, "name": "Strafford County", "state": "NH", "country": "US", "coord": {"lon": -71.049507, "lat": 43.31675}}, {"id": 5093242, "name": "Stratford", "state": "NH", "country": "US", "coord": {"lon": -71.555641, "lat": 44.655048}}, {"id": 5093249, "name": "Stratham", "state": "NH", "country": "US", "coord": {"lon": -70.913673, "lat": 43.023979}}, {"id": 5093259, "name": "Stratham Station", "state": "NH", "country": "US", "coord": {"lon": -70.895332, "lat": 43.052872}}, {"id": 5093347, "name": "Sunapee", "state": "NH", "country": "US", "coord": {"lon": -72.08786, "lat": 43.387569}}, {"id": 5093360, "name": "Suncook", "state": "NH", "country": "US", "coord": {"lon": -71.453117, "lat": 43.130638}}, {"id": 5093410, "name": "Sutton", "state": "NH", "country": "US", "coord": {"lon": -71.951469, "lat": 43.33424}}, {"id": 5093422, "name": "Swanzey", "state": "NH", "country": "US", "coord": {"lon": -72.281754, "lat": 42.869801}}, {"id": 5093467, "name": "Tanglewood Estates", "state": "NH", "country": "US", "coord": {"lon": -72.306473, "lat": 42.958141}}, {"id": 5093469, "name": "Tamworth", "state": "NH", "country": "US", "coord": {"lon": -71.26313, "lat": 43.859798}}, {"id": 5093508, "name": "Temple", "state": "NH", "country": "US", "coord": {"lon": -71.851471, "lat": 42.818138}}, {"id": 5093630, "name": "Thornton", "state": "NH", "country": "US", "coord": {"lon": -71.675911, "lat": 43.892849}}, {"id": 5093669, "name": "Tilton", "state": "NH", "country": "US", "coord": {"lon": -71.588959, "lat": 43.442299}}, {"id": 5093821, "name": "Troy", "state": "NH", "country": "US", "coord": {"lon": -72.18119, "lat": 42.823971}}, {"id": 5093845, "name": "Tuftonboro", "state": "NH", "country": "US", "coord": {"lon": -71.222008, "lat": 43.696468}}, {"id": 5093977, "name": "Unity", "state": "NH", "country": "US", "coord": {"lon": -72.260368, "lat": 43.293961}}, {"id": 5094191, "name": "Wakefield", "state": "NH", "country": "US", "coord": {"lon": -71.030067, "lat": 43.56813}}, {"id": 5094264, "name": "Warren", "state": "NH", "country": "US", "coord": {"lon": -71.892029, "lat": 43.923119}}, {"id": 5094329, "name": "Weare", "state": "NH", "country": "US", "coord": {"lon": -71.730629, "lat": 43.094799}}, {"id": 5094342, "name": "Webster", "state": "NH", "country": "US", "coord": {"lon": -71.717857, "lat": 43.328972}}, {"id": 5094497, "name": "West Brookline", "state": "NH", "country": "US", "coord": {"lon": -71.679237, "lat": 42.736198}}, {"id": 5094500, "name": "West Lebanon", "state": "NH", "country": "US", "coord": {"lon": -72.310371, "lat": 43.649239}}, {"id": 5094538, "name": "West Swanzey", "state": "NH", "country": "US", "coord": {"lon": -72.321747, "lat": 42.870079}}, {"id": 5094550, "name": "Westmoreland", "state": "NH", "country": "US", "coord": {"lon": -72.442307, "lat": 42.962029}}, {"id": 5094647, "name": "Whitefield", "state": "NH", "country": "US", "coord": {"lon": -71.610077, "lat": 44.373119}}, {"id": 5094791, "name": "Wilmot", "state": "NH", "country": "US", "coord": {"lon": -71.913689, "lat": 43.45174}}, {"id": 5094802, "name": "Wilton", "state": "NH", "country": "US", "coord": {"lon": -71.735069, "lat": 42.843418}}, {"id": 5094812, "name": "Winchester", "state": "NH", "country": "US", "coord": {"lon": -72.383141, "lat": 42.773418}}, {"id": 5094817, "name": "Windham", "state": "NH", "country": "US", "coord": {"lon": -71.30423, "lat": 42.80064}}, {"id": 5094843, "name": "Winniconic", "state": "NH", "country": "US", "coord": {"lon": -70.875893, "lat": 43.022308}}, {"id": 5094877, "name": "Wolfeboro", "state": "NH", "country": "US", "coord": {"lon": -71.207291, "lat": 43.583969}}, {"id": 5094939, "name": "Woodstock", "state": "NH", "country": "US", "coord": {"lon": -71.685081, "lat": 43.97757}}, {"id": 5094941, "name": "Woodsville", "state": "NH", "country": "US", "coord": {"lon": -72.037308, "lat": 44.15229}}, {"id": 5095111, "name": "Allaire", "state": "NJ", "country": "US", "coord": {"lon": -74.12542, "lat": 40.158451}}, {"id": 5095124, "name": "Allendale", "state": "NJ", "country": "US", "coord": {"lon": -74.129028, "lat": 41.041489}}, {"id": 5095133, "name": "Allentown", "state": "NJ", "country": "US", "coord": {"lon": -74.583488, "lat": 40.177891}}, {"id": 5095153, "name": "Alpine", "state": "NJ", "country": "US", "coord": {"lon": -73.931252, "lat": 40.955929}}, {"id": 5095171, "name": "Alpha", "state": "NJ", "country": "US", "coord": {"lon": -75.157402, "lat": 40.667042}}, {"id": 5095211, "name": "Annandale", "state": "NJ", "country": "US", "coord": {"lon": -74.881279, "lat": 40.64093}}, {"id": 5095231, "name": "Apshawa", "state": "NJ", "country": "US", "coord": {"lon": -74.36293, "lat": 41.017601}}, {"id": 5095281, "name": "Asbury Park", "state": "NJ", "country": "US", "coord": {"lon": -74.012077, "lat": 40.22039}}, {"id": 5095312, "name": "Atlantic Highlands", "state": "NJ", "country": "US", "coord": {"lon": -74.034309, "lat": 40.40789}}, {"id": 5095325, "name": "Avenel", "state": "NJ", "country": "US", "coord": {"lon": -74.285149, "lat": 40.580379}}, {"id": 5095335, "name": "Avon-by-the-Sea", "state": "NJ", "country": "US", "coord": {"lon": -74.015968, "lat": 40.192341}}, {"id": 5095445, "name": "Bayonne", "state": "NJ", "country": "US", "coord": {"lon": -74.114311, "lat": 40.668709}}, {"id": 5095500, "name": "Beattystown", "state": "NJ", "country": "US", "coord": {"lon": -74.842941, "lat": 40.813148}}, {"id": 5095549, "name": "Belleville", "state": "NJ", "country": "US", "coord": {"lon": -74.150139, "lat": 40.793709}}, {"id": 5095558, "name": "Belford", "state": "NJ", "country": "US", "coord": {"lon": -74.086807, "lat": 40.425941}}, {"id": 5095561, "name": "Belmar", "state": "NJ", "country": "US", "coord": {"lon": -74.021797, "lat": 40.178452}}, {"id": 5095571, "name": "Belvidere", "state": "NJ", "country": "US", "coord": {"lon": -75.077667, "lat": 40.829819}}, {"id": 5095598, "name": "Bergen County", "state": "NJ", "country": "US", "coord": {"lon": -74.049583, "lat": 40.93343}}, {"id": 5095611, "name": "Bergenfield", "state": "NJ", "country": "US", "coord": {"lon": -73.99736, "lat": 40.927601}}, {"id": 5095617, "name": "Berkeley Heights", "state": "NJ", "country": "US", "coord": {"lon": -74.44265, "lat": 40.68343}}, {"id": 5095626, "name": "Bernardsville", "state": "NJ", "country": "US", "coord": {"lon": -74.569321, "lat": 40.718712}}, {"id": 5095691, "name": "Beverly", "state": "NJ", "country": "US", "coord": {"lon": -74.91906, "lat": 40.065392}}, {"id": 5095711, "name": "Birch Hills", "state": "NJ", "country": "US", "coord": {"lon": -74.431541, "lat": 40.80954}}, {"id": 5095779, "name": "Bloomfield", "state": "NJ", "country": "US", "coord": {"lon": -74.185417, "lat": 40.80677}}, {"id": 5095786, "name": "Bloomingdale", "state": "NJ", "country": "US", "coord": {"lon": -74.326538, "lat": 41.002041}}, {"id": 5095787, "name": "Bloomingdale", "state": "NJ", "country": "US", "coord": {"lon": -74.647377, "lat": 40.497601}}, {"id": 5095808, "name": "Bogota", "state": "NJ", "country": "US", "coord": {"lon": -74.029861, "lat": 40.876209}}, {"id": 5095826, "name": "Boonton", "state": "NJ", "country": "US", "coord": {"lon": -74.407097, "lat": 40.902599}}, {"id": 5095847, "name": "Bordentown", "state": "NJ", "country": "US", "coord": {"lon": -74.71183, "lat": 40.146221}}, {"id": 5095860, "name": "Bound Brook", "state": "NJ", "country": "US", "coord": {"lon": -74.53849, "lat": 40.568439}}, {"id": 5095881, "name": "Bradley Beach", "state": "NJ", "country": "US", "coord": {"lon": -74.012077, "lat": 40.202339}}, {"id": 5095887, "name": "Bradley Gardens", "state": "NJ", "country": "US", "coord": {"lon": -74.654602, "lat": 40.562881}}, {"id": 5095920, "name": "Brass Castle", "state": "NJ", "country": "US", "coord": {"lon": -75.011009, "lat": 40.76482}}, {"id": 5095960, "name": "Brielle", "state": "NJ", "country": "US", "coord": {"lon": -74.056534, "lat": 40.107891}}, {"id": 5095971, "name": "Brindletown", "state": "NJ", "country": "US", "coord": {"lon": -74.50515, "lat": 40.04734}}, {"id": 5096031, "name": "Brownville", "state": "NJ", "country": "US", "coord": {"lon": -74.295151, "lat": 40.400661}}, {"id": 5096049, "name": "Brookdale", "state": "NJ", "country": "US", "coord": {"lon": -74.182922, "lat": 40.83371}}, {"id": 5096057, "name": "Budd Lake", "state": "NJ", "country": "US", "coord": {"lon": -74.734047, "lat": 40.871208}}, {"id": 5096075, "name": "Burlington", "state": "NJ", "country": "US", "coord": {"lon": -74.864891, "lat": 40.07122}}, {"id": 5096100, "name": "Butler", "state": "NJ", "country": "US", "coord": {"lon": -74.341537, "lat": 41.003712}}, {"id": 5096133, "name": "Caldwell", "state": "NJ", "country": "US", "coord": {"lon": -74.276543, "lat": 40.839821}}, {"id": 5096141, "name": "Califon", "state": "NJ", "country": "US", "coord": {"lon": -74.835716, "lat": 40.71954}}, {"id": 5096289, "name": "Carlstadt", "state": "NJ", "country": "US", "coord": {"lon": -74.090698, "lat": 40.840382}}, {"id": 5096316, "name": "Carteret", "state": "NJ", "country": "US", "coord": {"lon": -74.228203, "lat": 40.577332}}, {"id": 5096370, "name": "Cedar Glen West", "state": "NJ", "country": "US", "coord": {"lon": -74.292648, "lat": 40.042061}}, {"id": 5096371, "name": "Cedar Grove", "state": "NJ", "country": "US", "coord": {"lon": -74.229042, "lat": 40.851768}}, {"id": 5096495, "name": "Chatham", "state": "NJ", "country": "US", "coord": {"lon": -74.383759, "lat": 40.740929}}, {"id": 5096523, "name": "Chester", "state": "NJ", "country": "US", "coord": {"lon": -74.696831, "lat": 40.784271}}, {"id": 5096655, "name": "Clark", "state": "NJ", "country": "US", "coord": {"lon": -74.310699, "lat": 40.640942}}, {"id": 5096671, "name": "Clearbrook Park", "state": "NJ", "country": "US", "coord": {"lon": -74.4646, "lat": 40.30983}}, {"id": 5096686, "name": "Cliffside Park", "state": "NJ", "country": "US", "coord": {"lon": -73.98764, "lat": 40.821491}}, {"id": 5096693, "name": "Cliffwood Beach", "state": "NJ", "country": "US", "coord": {"lon": -74.216812, "lat": 40.442051}}, {"id": 5096699, "name": "Clifton", "state": "NJ", "country": "US", "coord": {"lon": -74.163757, "lat": 40.858429}}, {"id": 5096709, "name": "Clinton", "state": "NJ", "country": "US", "coord": {"lon": -74.909889, "lat": 40.636768}}, {"id": 5096742, "name": "Closter", "state": "NJ", "country": "US", "coord": {"lon": -73.961533, "lat": 40.973148}}, {"id": 5096798, "name": "Colonia", "state": "NJ", "country": "US", "coord": {"lon": -74.302094, "lat": 40.574551}}, {"id": 5096867, "name": "Concordia", "state": "NJ", "country": "US", "coord": {"lon": -74.448212, "lat": 40.31094}}, {"id": 5097006, "name": "Cranbury", "state": "NJ", "country": "US", "coord": {"lon": -74.513763, "lat": 40.316219}}, {"id": 5097014, "name": "Crandon Lakes", "state": "NJ", "country": "US", "coord": {"lon": -74.83989, "lat": 41.12426}}, {"id": 5097017, "name": "Cranford", "state": "NJ", "country": "US", "coord": {"lon": -74.299591, "lat": 40.65844}}, {"id": 5097035, "name": "Cresskill", "state": "NJ", "country": "US", "coord": {"lon": -73.959297, "lat": 40.94149}}, {"id": 5097152, "name": "Dayton", "state": "NJ", "country": "US", "coord": {"lon": -74.510147, "lat": 40.372608}}, {"id": 5097206, "name": "Delanco", "state": "NJ", "country": "US", "coord": {"lon": -74.953499, "lat": 40.050671}}, {"id": 5097224, "name": "Demarest", "state": "NJ", "country": "US", "coord": {"lon": -73.96347, "lat": 40.957321}}, {"id": 5097315, "name": "Dover", "state": "NJ", "country": "US", "coord": {"lon": -74.562103, "lat": 40.883991}}, {"id": 5097349, "name": "Dunellen", "state": "NJ", "country": "US", "coord": {"lon": -74.471817, "lat": 40.589272}}, {"id": 5097357, "name": "Dumont", "state": "NJ", "country": "US", "coord": {"lon": -73.996811, "lat": 40.940651}}, {"id": 5097402, "name": "East Brunswick", "state": "NJ", "country": "US", "coord": {"lon": -74.415977, "lat": 40.427879}}, {"id": 5097419, "name": "East Freehold", "state": "NJ", "country": "US", "coord": {"lon": -74.251259, "lat": 40.280941}}, {"id": 5097421, "name": "East Hanover", "state": "NJ", "country": "US", "coord": {"lon": -74.364868, "lat": 40.820099}}, {"id": 5097438, "name": "East Newark", "state": "NJ", "country": "US", "coord": {"lon": -74.161812, "lat": 40.748428}}, {"id": 5097441, "name": "East Orange", "state": "NJ", "country": "US", "coord": {"lon": -74.204872, "lat": 40.767319}}, {"id": 5097459, "name": "East Rutherford", "state": "NJ", "country": "US", "coord": {"lon": -74.097092, "lat": 40.833988}}, {"id": 5097482, "name": "Eatontown", "state": "NJ", "country": "US", "coord": {"lon": -74.050972, "lat": 40.296219}}, {"id": 5097521, "name": "Edgewater Park", "state": "NJ", "country": "US", "coord": {"lon": -74.900719, "lat": 40.068169}}, {"id": 5097529, "name": "Edison", "state": "NJ", "country": "US", "coord": {"lon": -74.412102, "lat": 40.518719}}, {"id": 5097575, "name": "Edgewater", "state": "NJ", "country": "US", "coord": {"lon": -73.975693, "lat": 40.827042}}, {"id": 5097598, "name": "Elizabeth", "state": "NJ", "country": "US", "coord": {"lon": -74.210701, "lat": 40.66399}}, {"id": 5097627, "name": "Elmwood Park", "state": "NJ", "country": "US", "coord": {"lon": -74.118477, "lat": 40.903992}}, {"id": 5097649, "name": "Emerson", "state": "NJ", "country": "US", "coord": {"lon": -74.026253, "lat": 40.976212}}, {"id": 5097672, "name": "Englewood", "state": "NJ", "country": "US", "coord": {"lon": -73.972641, "lat": 40.892879}}, {"id": 5097677, "name": "Englewood Cliffs", "state": "NJ", "country": "US", "coord": {"lon": -73.952362, "lat": 40.88538}}, {"id": 5097686, "name": "Englishtown", "state": "NJ", "country": "US", "coord": {"lon": -74.3582, "lat": 40.297329}}, {"id": 5097707, "name": "Essex County", "state": "NJ", "country": "US", "coord": {"lon": -74.216263, "lat": 40.783428}}, {"id": 5097718, "name": "Essex Fells", "state": "NJ", "country": "US", "coord": {"lon": -74.284592, "lat": 40.824539}}, {"id": 5097751, "name": "Ewing", "state": "NJ", "country": "US", "coord": {"lon": -74.799881, "lat": 40.269829}}, {"id": 5097769, "name": "Fair Haven", "state": "NJ", "country": "US", "coord": {"lon": -74.038193, "lat": 40.360668}}, {"id": 5097773, "name": "Fair Lawn", "state": "NJ", "country": "US", "coord": {"lon": -74.131813, "lat": 40.94038}}, {"id": 5097778, "name": "Fairfield", "state": "NJ", "country": "US", "coord": {"lon": -74.305977, "lat": 40.883709}}, {"id": 5097801, "name": "Fairview", "state": "NJ", "country": "US", "coord": {"lon": -73.999031, "lat": 40.812599}}, {"id": 5097803, "name": "Fairview", "state": "NJ", "country": "US", "coord": {"lon": -74.086807, "lat": 40.373161}}, {"id": 5097830, "name": "Fanwood", "state": "NJ", "country": "US", "coord": {"lon": -74.383476, "lat": 40.640942}}, {"id": 5097844, "name": "Farmingdale", "state": "NJ", "country": "US", "coord": {"lon": -74.16848, "lat": 40.196499}}, {"id": 5097900, "name": "Finderne", "state": "NJ", "country": "US", "coord": {"lon": -74.57766, "lat": 40.56316}}, {"id": 5098095, "name": "Florham Park", "state": "NJ", "country": "US", "coord": {"lon": -74.388206, "lat": 40.78788}}, {"id": 5098109, "name": "Fords", "state": "NJ", "country": "US", "coord": {"lon": -74.315979, "lat": 40.52927}}, {"id": 5098124, "name": "Flemington", "state": "NJ", "country": "US", "coord": {"lon": -74.859329, "lat": 40.512329}}, {"id": 5098132, "name": "Fort Dix", "state": "NJ", "country": "US", "coord": {"lon": -74.618492, "lat": 40.029839}}, {"id": 5098135, "name": "Fort Lee", "state": "NJ", "country": "US", "coord": {"lon": -73.970139, "lat": 40.850929}}, {"id": 5098214, "name": "Franklin", "state": "NJ", "country": "US", "coord": {"lon": -74.580437, "lat": 41.12204}}, {"id": 5098242, "name": "Franklin Lakes", "state": "NJ", "country": "US", "coord": {"lon": -74.205704, "lat": 41.016762}}, {"id": 5098278, "name": "Freehold", "state": "NJ", "country": "US", "coord": {"lon": -74.273758, "lat": 40.260109}}, {"id": 5098303, "name": "Frenchtown", "state": "NJ", "country": "US", "coord": {"lon": -75.061562, "lat": 40.526211}}, {"id": 5098343, "name": "Garfield", "state": "NJ", "country": "US", "coord": {"lon": -74.113197, "lat": 40.881489}}, {"id": 5098358, "name": "Garwood", "state": "NJ", "country": "US", "coord": {"lon": -74.322929, "lat": 40.651772}}, {"id": 5098418, "name": "Gladstone", "state": "NJ", "country": "US", "coord": {"lon": -74.665443, "lat": 40.722599}}, {"id": 5098425, "name": "Glen Gardner", "state": "NJ", "country": "US", "coord": {"lon": -74.94072, "lat": 40.69677}}, {"id": 5098430, "name": "Glen Ridge", "state": "NJ", "country": "US", "coord": {"lon": -74.203758, "lat": 40.805382}}, {"id": 5098436, "name": "Glen Rock", "state": "NJ", "country": "US", "coord": {"lon": -74.132919, "lat": 40.962879}}, {"id": 5098617, "name": "Green Knoll", "state": "NJ", "country": "US", "coord": {"lon": -74.612099, "lat": 40.600101}}, {"id": 5098691, "name": "Groveville", "state": "NJ", "country": "US", "coord": {"lon": -74.671547, "lat": 40.16983}}, {"id": 5098698, "name": "Guttenberg", "state": "NJ", "country": "US", "coord": {"lon": -74.003754, "lat": 40.792049}}, {"id": 5098706, "name": "Hackensack", "state": "NJ", "country": "US", "coord": {"lon": -74.043472, "lat": 40.885929}}, {"id": 5098745, "name": "Hackettstown", "state": "NJ", "country": "US", "coord": {"lon": -74.829063, "lat": 40.853989}}, {"id": 5098760, "name": "Hamburg", "state": "NJ", "country": "US", "coord": {"lon": -74.573479, "lat": 41.148479}}, {"id": 5098781, "name": "Hamilton Square", "state": "NJ", "country": "US", "coord": {"lon": -74.653214, "lat": 40.227329}}, {"id": 5098787, "name": "Hampton", "state": "NJ", "country": "US", "coord": {"lon": -74.956001, "lat": 40.707039}}, {"id": 5098794, "name": "Haledon", "state": "NJ", "country": "US", "coord": {"lon": -74.186256, "lat": 40.93565}}, {"id": 5098842, "name": "Harrington Park", "state": "NJ", "country": "US", "coord": {"lon": -73.979858, "lat": 40.983711}}, {"id": 5098863, "name": "Harrison", "state": "NJ", "country": "US", "coord": {"lon": -74.156258, "lat": 40.74649}}, {"id": 5098878, "name": "Hasbrouck Heights", "state": "NJ", "country": "US", "coord": {"lon": -74.080704, "lat": 40.858158}}, {"id": 5098904, "name": "Haworth", "state": "NJ", "country": "US", "coord": {"lon": -73.990143, "lat": 40.96093}}, {"id": 5098909, "name": "Hawthorne", "state": "NJ", "country": "US", "coord": {"lon": -74.153748, "lat": 40.949261}}, {"id": 5098945, "name": "Heathcote", "state": "NJ", "country": "US", "coord": {"lon": -74.575706, "lat": 40.388721}}, {"id": 5098958, "name": "Helmetta", "state": "NJ", "country": "US", "coord": {"lon": -74.424599, "lat": 40.37677}}, {"id": 5099025, "name": "High Bridge", "state": "NJ", "country": "US", "coord": {"lon": -74.895721, "lat": 40.667049}}, {"id": 5099052, "name": "Highland Lake", "state": "NJ", "country": "US", "coord": {"lon": -74.456551, "lat": 41.176762}}, {"id": 5099057, "name": "Highland Park", "state": "NJ", "country": "US", "coord": {"lon": -74.424316, "lat": 40.495941}}, {"id": 5099060, "name": "Highlands", "state": "NJ", "country": "US", "coord": {"lon": -73.991531, "lat": 40.403721}}, {"id": 5099067, "name": "Hightstown", "state": "NJ", "country": "US", "coord": {"lon": -74.523209, "lat": 40.26955}}, {"id": 5099087, "name": "Hillsdale", "state": "NJ", "country": "US", "coord": {"lon": -74.040421, "lat": 41.002602}}, {"id": 5099093, "name": "Hillside", "state": "NJ", "country": "US", "coord": {"lon": -74.230148, "lat": 40.70121}}, {"id": 5099129, "name": "Ho-Ho-Kus", "state": "NJ", "country": "US", "coord": {"lon": -74.10125, "lat": 40.99649}}, {"id": 5099133, "name": "Hoboken", "state": "NJ", "country": "US", "coord": {"lon": -74.032356, "lat": 40.743992}}, {"id": 5099289, "name": "Hopatcong", "state": "NJ", "country": "US", "coord": {"lon": -74.659332, "lat": 40.93288}}, {"id": 5099292, "name": "Hopatcong Hills", "state": "NJ", "country": "US", "coord": {"lon": -74.670723, "lat": 40.943989}}, {"id": 5099312, "name": "Hopewell", "state": "NJ", "country": "US", "coord": {"lon": -74.761833, "lat": 40.389271}}, {"id": 5099357, "name": "Hudson County", "state": "NJ", "country": "US", "coord": {"lon": -74.066254, "lat": 40.71677}}, {"id": 5099381, "name": "Hunterdon County", "state": "NJ", "country": "US", "coord": {"lon": -74.932953, "lat": 40.566769}}, {"id": 5099724, "name": "Irvington", "state": "NJ", "country": "US", "coord": {"lon": -74.234871, "lat": 40.732319}}, {"id": 5099738, "name": "Iselin", "state": "NJ", "country": "US", "coord": {"lon": -74.322372, "lat": 40.575378}}, {"id": 5099767, "name": "Jacksonburg", "state": "NJ", "country": "US", "coord": {"lon": -74.980453, "lat": 40.99176}}, {"id": 5099795, "name": "Jamesburg", "state": "NJ", "country": "US", "coord": {"lon": -74.440147, "lat": 40.352612}}, {"id": 5099836, "name": "Jersey City", "state": "NJ", "country": "US", "coord": {"lon": -74.077637, "lat": 40.728161}}, {"id": 5099961, "name": "Keansburg", "state": "NJ", "country": "US", "coord": {"lon": -74.12986, "lat": 40.441769}}, {"id": 5099967, "name": "Kearny", "state": "NJ", "country": "US", "coord": {"lon": -74.145416, "lat": 40.768429}}, {"id": 5099988, "name": "Kendall Park", "state": "NJ", "country": "US", "coord": {"lon": -74.560707, "lat": 40.42094}}, {"id": 5100001, "name": "Kenvil", "state": "NJ", "country": "US", "coord": {"lon": -74.618492, "lat": 40.879822}}, {"id": 5100007, "name": "Kenilworth", "state": "NJ", "country": "US", "coord": {"lon": -74.290703, "lat": 40.676491}}, {"id": 5100008, "name": "Keyport", "state": "NJ", "country": "US", "coord": {"lon": -74.199593, "lat": 40.433159}}, {"id": 5100050, "name": "Kingston", "state": "NJ", "country": "US", "coord": {"lon": -74.613487, "lat": 40.375381}}, {"id": 5100062, "name": "Kinnelon", "state": "NJ", "country": "US", "coord": {"lon": -74.367104, "lat": 41.001759}}, {"id": 5100144, "name": "Lake Como", "state": "NJ", "country": "US", "coord": {"lon": -74.028191, "lat": 40.15984}}, {"id": 5100190, "name": "Lake Mohawk", "state": "NJ", "country": "US", "coord": {"lon": -74.660156, "lat": 41.018429}}, {"id": 5100246, "name": "Lake Telemark", "state": "NJ", "country": "US", "coord": {"lon": -74.497932, "lat": 40.956772}}, {"id": 5100269, "name": "Lakehurst", "state": "NJ", "country": "US", "coord": {"lon": -74.311256, "lat": 40.014561}}, {"id": 5100280, "name": "Lakewood", "state": "NJ", "country": "US", "coord": {"lon": -74.217644, "lat": 40.097889}}, {"id": 5100297, "name": "Lambertville", "state": "NJ", "country": "US", "coord": {"lon": -74.94294, "lat": 40.36594}}, {"id": 5100340, "name": "Laurence Harbor", "state": "NJ", "country": "US", "coord": {"lon": -74.246529, "lat": 40.456772}}, {"id": 5100356, "name": "Lawrenceville", "state": "NJ", "country": "US", "coord": {"lon": -74.729599, "lat": 40.297329}}, {"id": 5100362, "name": "Lebanon", "state": "NJ", "country": "US", "coord": {"lon": -74.835999, "lat": 40.641769}}, {"id": 5100381, "name": "Leisure Knoll", "state": "NJ", "country": "US", "coord": {"lon": -74.292091, "lat": 40.019009}}, {"id": 5100382, "name": "Leisure Village", "state": "NJ", "country": "US", "coord": {"lon": -74.18486, "lat": 40.042622}}, {"id": 5100383, "name": "Leisure Village East", "state": "NJ", "country": "US", "coord": {"lon": -74.164307, "lat": 40.030121}}, {"id": 5100394, "name": "Leonardo", "state": "NJ", "country": "US", "coord": {"lon": -74.06208, "lat": 40.417332}}, {"id": 5100399, "name": "Leonia", "state": "NJ", "country": "US", "coord": {"lon": -73.98819, "lat": 40.861488}}, {"id": 5100477, "name": "Lincoln Park", "state": "NJ", "country": "US", "coord": {"lon": -74.302094, "lat": 40.924271}}, {"id": 5100498, "name": "Lincroft", "state": "NJ", "country": "US", "coord": {"lon": -74.120972, "lat": 40.330669}}, {"id": 5100506, "name": "Linden", "state": "NJ", "country": "US", "coord": {"lon": -74.244591, "lat": 40.622051}}, {"id": 5100540, "name": "Little Falls", "state": "NJ", "country": "US", "coord": {"lon": -74.208199, "lat": 40.868992}}, {"id": 5100542, "name": "Little Ferry", "state": "NJ", "country": "US", "coord": {"lon": -74.042084, "lat": 40.852879}}, {"id": 5100559, "name": "Little Silver", "state": "NJ", "country": "US", "coord": {"lon": -74.047081, "lat": 40.336781}}, {"id": 5100572, "name": "Livingston", "state": "NJ", "country": "US", "coord": {"lon": -74.314873, "lat": 40.795929}}, {"id": 5100604, "name": "Lodi", "state": "NJ", "country": "US", "coord": {"lon": -74.083199, "lat": 40.88232}}, {"id": 5100619, "name": "Long Branch", "state": "NJ", "country": "US", "coord": {"lon": -73.992363, "lat": 40.304279}}, {"id": 5100640, "name": "Long Valley", "state": "NJ", "country": "US", "coord": {"lon": -74.780159, "lat": 40.785931}}, {"id": 5100706, "name": "Lyndhurst", "state": "NJ", "country": "US", "coord": {"lon": -74.124313, "lat": 40.812038}}, {"id": 5100748, "name": "Madison", "state": "NJ", "country": "US", "coord": {"lon": -74.417099, "lat": 40.759819}}, {"id": 5100764, "name": "Madison Park", "state": "NJ", "country": "US", "coord": {"lon": -74.307922, "lat": 40.4515}}, {"id": 5100809, "name": "Manasquan", "state": "NJ", "country": "US", "coord": {"lon": -74.049301, "lat": 40.126228}}, {"id": 5100830, "name": "Manville", "state": "NJ", "country": "US", "coord": {"lon": -74.587662, "lat": 40.540939}}, {"id": 5100854, "name": "Maplewood", "state": "NJ", "country": "US", "coord": {"lon": -74.273483, "lat": 40.731209}}, {"id": 5100924, "name": "Martinsville", "state": "NJ", "country": "US", "coord": {"lon": -74.559052, "lat": 40.601212}}, {"id": 5100940, "name": "Matawan", "state": "NJ", "country": "US", "coord": {"lon": -74.229591, "lat": 40.414829}}, {"id": 5100972, "name": "Maywood", "state": "NJ", "country": "US", "coord": {"lon": -74.061813, "lat": 40.902599}}, {"id": 5101073, "name": "Mendham", "state": "NJ", "country": "US", "coord": {"lon": -74.600708, "lat": 40.775928}}, {"id": 5101090, "name": "Mercer County", "state": "NJ", "country": "US", "coord": {"lon": -74.882942, "lat": 40.383438}}, {"id": 5101103, "name": "Mercerville", "state": "NJ", "country": "US", "coord": {"lon": -74.686546, "lat": 40.237049}}, {"id": 5101125, "name": "Metuchen", "state": "NJ", "country": "US", "coord": {"lon": -74.363197, "lat": 40.543159}}, {"id": 5101156, "name": "Middlebush", "state": "NJ", "country": "US", "coord": {"lon": -74.52932, "lat": 40.497601}}, {"id": 5101159, "name": "Middlesex", "state": "NJ", "country": "US", "coord": {"lon": -74.492653, "lat": 40.572601}}, {"id": 5101160, "name": "Middlesex County", "state": "NJ", "country": "US", "coord": {"lon": -74.39959, "lat": 40.433441}}, {"id": 5101178, "name": "Midland Park", "state": "NJ", "country": "US", "coord": {"lon": -74.140701, "lat": 40.989262}}, {"id": 5101197, "name": "Milford", "state": "NJ", "country": "US", "coord": {"lon": -75.09462, "lat": 40.56871}}, {"id": 5101244, "name": "Milltown", "state": "NJ", "country": "US", "coord": {"lon": -74.443207, "lat": 40.456219}}, {"id": 5101300, "name": "Monmouth Beach", "state": "NJ", "country": "US", "coord": {"lon": -73.981529, "lat": 40.330391}}, {"id": 5101305, "name": "Monmouth County", "state": "NJ", "country": "US", "coord": {"lon": -74.166252, "lat": 40.30011}}, {"id": 5101312, "name": "Monmouth Junction", "state": "NJ", "country": "US", "coord": {"lon": -74.546539, "lat": 40.379002}}, {"id": 5101334, "name": "Montclair", "state": "NJ", "country": "US", "coord": {"lon": -74.20903, "lat": 40.825932}}, {"id": 5101361, "name": "Montvale", "state": "NJ", "country": "US", "coord": {"lon": -74.022919, "lat": 41.046761}}, {"id": 5101376, "name": "Moonachie", "state": "NJ", "country": "US", "coord": {"lon": -74.045143, "lat": 40.841209}}, {"id": 5101393, "name": "Morganville", "state": "NJ", "country": "US", "coord": {"lon": -74.244308, "lat": 40.376499}}, {"id": 5101405, "name": "Morris County", "state": "NJ", "country": "US", "coord": {"lon": -74.532928, "lat": 40.833431}}, {"id": 5101417, "name": "Morris Plains", "state": "NJ", "country": "US", "coord": {"lon": -74.480988, "lat": 40.82177}}, {"id": 5101427, "name": "Morristown", "state": "NJ", "country": "US", "coord": {"lon": -74.481537, "lat": 40.796768}}, {"id": 5101459, "name": "Mount Arlington", "state": "NJ", "country": "US", "coord": {"lon": -74.63488, "lat": 40.92593}}, {"id": 5101585, "name": "Mountain Lakes", "state": "NJ", "country": "US", "coord": {"lon": -74.43293, "lat": 40.894821}}, {"id": 5101601, "name": "Mountainside", "state": "NJ", "country": "US", "coord": {"lon": -74.357368, "lat": 40.672321}}, {"id": 5101669, "name": "Navesink", "state": "NJ", "country": "US", "coord": {"lon": -74.035423, "lat": 40.399551}}, {"id": 5101687, "name": "Neptune City", "state": "NJ", "country": "US", "coord": {"lon": -74.027924, "lat": 40.200111}}, {"id": 5101701, "name": "Netcong", "state": "NJ", "country": "US", "coord": {"lon": -74.706551, "lat": 40.898991}}, {"id": 5101717, "name": "New Brunswick", "state": "NJ", "country": "US", "coord": {"lon": -74.45182, "lat": 40.486221}}, {"id": 5101737, "name": "New Egypt", "state": "NJ", "country": "US", "coord": {"lon": -74.530708, "lat": 40.067612}}, {"id": 5101760, "name": "New Jersey", "state": "NJ", "country": "US", "coord": {"lon": -74.49987, "lat": 40.167061}}, {"id": 5101766, "name": "New Milford", "state": "NJ", "country": "US", "coord": {"lon": -74.017853, "lat": 40.932678}}, {"id": 5101775, "name": "New Providence", "state": "NJ", "country": "US", "coord": {"lon": -74.401543, "lat": 40.698429}}, {"id": 5101798, "name": "Newark", "state": "NJ", "country": "US", "coord": {"lon": -74.172371, "lat": 40.735661}}, {"id": 5101848, "name": "Newton", "state": "NJ", "country": "US", "coord": {"lon": -74.75267, "lat": 41.058151}}, {"id": 5101873, "name": "North Arlington", "state": "NJ", "country": "US", "coord": {"lon": -74.133202, "lat": 40.788429}}, {"id": 5101879, "name": "North Bergen", "state": "NJ", "country": "US", "coord": {"lon": -74.012077, "lat": 40.804272}}, {"id": 5101901, "name": "North Caldwell", "state": "NJ", "country": "US", "coord": {"lon": -74.258202, "lat": 40.864819}}, {"id": 5101922, "name": "North Haledon", "state": "NJ", "country": "US", "coord": {"lon": -74.185982, "lat": 40.955101}}, {"id": 5101935, "name": "North Middletown", "state": "NJ", "country": "US", "coord": {"lon": -74.119034, "lat": 40.439548}}, {"id": 5101938, "name": "North Plainfield", "state": "NJ", "country": "US", "coord": {"lon": -74.427368, "lat": 40.6301}}, {"id": 5101962, "name": "Northfield", "state": "NJ", "country": "US", "coord": {"lon": -74.324593, "lat": 40.774269}}, {"id": 5101967, "name": "Northvale", "state": "NJ", "country": "US", "coord": {"lon": -73.949028, "lat": 41.006489}}, {"id": 5101973, "name": "Norton", "state": "NJ", "country": "US", "coord": {"lon": -74.979057, "lat": 40.657318}}, {"id": 5101978, "name": "Norwood", "state": "NJ", "country": "US", "coord": {"lon": -73.9618, "lat": 40.99815}}, {"id": 5102076, "name": "Nutley", "state": "NJ", "country": "US", "coord": {"lon": -74.159866, "lat": 40.822319}}, {"id": 5102094, "name": "Oak Island Junction", "state": "NJ", "country": "US", "coord": {"lon": -74.145981, "lat": 40.712318}}, {"id": 5102115, "name": "Oakhurst", "state": "NJ", "country": "US", "coord": {"lon": -74.016251, "lat": 40.270939}}, {"id": 5102118, "name": "Oakland", "state": "NJ", "country": "US", "coord": {"lon": -74.264313, "lat": 41.013149}}, {"id": 5102136, "name": "Ocean Grove", "state": "NJ", "country": "US", "coord": {"lon": -74.006531, "lat": 40.212059}}, {"id": 5102147, "name": "Oceanport", "state": "NJ", "country": "US", "coord": {"lon": -74.015137, "lat": 40.318169}}, {"id": 5102153, "name": "Ogdensburg", "state": "NJ", "country": "US", "coord": {"lon": -74.592377, "lat": 41.08176}}, {"id": 5102162, "name": "Old Bridge", "state": "NJ", "country": "US", "coord": {"lon": -74.365433, "lat": 40.414829}}, {"id": 5102190, "name": "Old Tappan", "state": "NJ", "country": "US", "coord": {"lon": -73.991249, "lat": 41.010651}}, {"id": 5102208, "name": "Oradell", "state": "NJ", "country": "US", "coord": {"lon": -74.036812, "lat": 40.95871}}, {"id": 5102213, "name": "Orange", "state": "NJ", "country": "US", "coord": {"lon": -74.232651, "lat": 40.77066}}, {"id": 5102339, "name": "Oxford", "state": "NJ", "country": "US", "coord": {"lon": -74.989616, "lat": 40.80315}}, {"id": 5102369, "name": "Palisades Park", "state": "NJ", "country": "US", "coord": {"lon": -73.997643, "lat": 40.84816}}, {"id": 5102378, "name": "Palmyra", "state": "NJ", "country": "US", "coord": {"lon": -75.028229, "lat": 40.007061}}, {"id": 5102387, "name": "Paramus", "state": "NJ", "country": "US", "coord": {"lon": -74.075417, "lat": 40.944538}}, {"id": 5102400, "name": "Park Ridge", "state": "NJ", "country": "US", "coord": {"lon": -74.040703, "lat": 41.037601}}, {"id": 5102427, "name": "Parsippany", "state": "NJ", "country": "US", "coord": {"lon": -74.425987, "lat": 40.85788}}, {"id": 5102443, "name": "Passaic", "state": "NJ", "country": "US", "coord": {"lon": -74.128479, "lat": 40.85677}}, {"id": 5102445, "name": "Passaic County", "state": "NJ", "country": "US", "coord": {"lon": -74.3657, "lat": 41.066799}}, {"id": 5102466, "name": "Paterson", "state": "NJ", "country": "US", "coord": {"lon": -74.171806, "lat": 40.916771}}, {"id": 5102515, "name": "Peapack", "state": "NJ", "country": "US", "coord": {"lon": -74.656548, "lat": 40.71677}}, {"id": 5102535, "name": "Pennington", "state": "NJ", "country": "US", "coord": {"lon": -74.790718, "lat": 40.328442}}, {"id": 5102578, "name": "Perth Amboy", "state": "NJ", "country": "US", "coord": {"lon": -74.265419, "lat": 40.506771}}, {"id": 5102615, "name": "Phillipsburg", "state": "NJ", "country": "US", "coord": {"lon": -75.190178, "lat": 40.69371}}, {"id": 5102691, "name": "Pine Lake Park", "state": "NJ", "country": "US", "coord": {"lon": -74.256531, "lat": 40.00317}}, {"id": 5102713, "name": "Piscataway", "state": "NJ", "country": "US", "coord": {"lon": -74.39904, "lat": 40.499271}}, {"id": 5102720, "name": "Plainfield", "state": "NJ", "country": "US", "coord": {"lon": -74.417267, "lat": 40.616821}}, {"id": 5102727, "name": "Plains", "state": "NJ", "country": "US", "coord": {"lon": -74.701828, "lat": 41.140652}}, {"id": 5102729, "name": "Plainsboro Center", "state": "NJ", "country": "US", "coord": {"lon": -74.594597, "lat": 40.331772}}, {"id": 5102796, "name": "Point Pleasant", "state": "NJ", "country": "US", "coord": {"lon": -74.068192, "lat": 40.083172}}, {"id": 5102798, "name": "Point Pleasant Beach", "state": "NJ", "country": "US", "coord": {"lon": -74.047913, "lat": 40.091228}}, {"id": 5102814, "name": "Pointville", "state": "NJ", "country": "US", "coord": {"lon": -74.602928, "lat": 40.003719}}, {"id": 5102825, "name": "Pompton Lakes", "state": "NJ", "country": "US", "coord": {"lon": -74.290703, "lat": 41.005379}}, {"id": 5102853, "name": "Port Monmouth", "state": "NJ", "country": "US", "coord": {"lon": -74.098473, "lat": 40.430111}}, {"id": 5102863, "name": "Port Reading", "state": "NJ", "country": "US", "coord": {"lon": -74.260422, "lat": 40.56538}}, {"id": 5102886, "name": "Pottersville", "state": "NJ", "country": "US", "coord": {"lon": -74.721832, "lat": 40.713711}}, {"id": 5102922, "name": "Princeton", "state": "NJ", "country": "US", "coord": {"lon": -74.65905, "lat": 40.348721}}, {"id": 5102940, "name": "Princeton Junction", "state": "NJ", "country": "US", "coord": {"lon": -74.619881, "lat": 40.317329}}, {"id": 5102941, "name": "Princeton Meadows", "state": "NJ", "country": "US", "coord": {"lon": -74.563766, "lat": 40.331772}}, {"id": 5102970, "name": "Prospect Park", "state": "NJ", "country": "US", "coord": {"lon": -74.766273, "lat": 40.240391}}, {"id": 5102973, "name": "Prospect Park", "state": "NJ", "country": "US", "coord": {"lon": -74.174309, "lat": 40.937038}}, {"id": 5103055, "name": "Rahway", "state": "NJ", "country": "US", "coord": {"lon": -74.277649, "lat": 40.608158}}, {"id": 5103086, "name": "Ramsey", "state": "NJ", "country": "US", "coord": {"lon": -74.140984, "lat": 41.05732}}, {"id": 5103095, "name": "Ramtown", "state": "NJ", "country": "US", "coord": {"lon": -74.143753, "lat": 40.120949}}, {"id": 5103116, "name": "Raritan", "state": "NJ", "country": "US", "coord": {"lon": -74.632942, "lat": 40.56955}}, {"id": 5103159, "name": "Red Bank", "state": "NJ", "country": "US", "coord": {"lon": -74.064308, "lat": 40.34705}}, {"id": 5103254, "name": "Ridgefield", "state": "NJ", "country": "US", "coord": {"lon": -74.008751, "lat": 40.83427}}, {"id": 5103256, "name": "Ridgefield Park", "state": "NJ", "country": "US", "coord": {"lon": -74.02153, "lat": 40.85704}}, {"id": 5103269, "name": "Ridgewood", "state": "NJ", "country": "US", "coord": {"lon": -74.116531, "lat": 40.979259}}, {"id": 5103286, "name": "Ringwood", "state": "NJ", "country": "US", "coord": {"lon": -74.24543, "lat": 41.11343}}, {"id": 5103301, "name": "River Edge", "state": "NJ", "country": "US", "coord": {"lon": -74.039864, "lat": 40.928711}}, {"id": 5103310, "name": "River Vale", "state": "NJ", "country": "US", "coord": {"lon": -74.012077, "lat": 40.99538}}, {"id": 5103313, "name": "Riverdale", "state": "NJ", "country": "US", "coord": {"lon": -74.303482, "lat": 40.993992}}, {"id": 5103334, "name": "Riverton", "state": "", "country": "US", "coord": {"lon": -74.996841, "lat": 40.00845}}, {"id": 5103335, "name": "Riverton", "state": "NJ", "country": "US", "coord": {"lon": -75.014893, "lat": 40.011501}}, {"id": 5103354, "name": "Robbinsville", "state": "NJ", "country": "US", "coord": {"lon": -74.619324, "lat": 40.21455}}, {"id": 5103374, "name": "Robertsville", "state": "NJ", "country": "US", "coord": {"lon": -74.287918, "lat": 40.346218}}, {"id": 5103384, "name": "Rochelle Park", "state": "NJ", "country": "US", "coord": {"lon": -74.075142, "lat": 40.907318}}, {"id": 5103396, "name": "Rockaway", "state": "NJ", "country": "US", "coord": {"lon": -74.51432, "lat": 40.901211}}, {"id": 5103431, "name": "Roebling", "state": "NJ", "country": "US", "coord": {"lon": -74.78627, "lat": 40.11594}}, {"id": 5103497, "name": "Roseland", "state": "NJ", "country": "US", "coord": {"lon": -74.293762, "lat": 40.82066}}, {"id": 5103500, "name": "Roselle", "state": "NJ", "country": "US", "coord": {"lon": -74.263199, "lat": 40.664268}}, {"id": 5103503, "name": "Roselle Park", "state": "NJ", "country": "US", "coord": {"lon": -74.264313, "lat": 40.664551}}, {"id": 5103523, "name": "Rossmoor", "state": "NJ", "country": "US", "coord": {"lon": -74.473488, "lat": 40.336498}}, {"id": 5103564, "name": "Rumson", "state": "NJ", "country": "US", "coord": {"lon": -73.999031, "lat": 40.372051}}, {"id": 5103580, "name": "Rutherford", "state": "NJ", "country": "US", "coord": {"lon": -74.106812, "lat": 40.826488}}, {"id": 5103635, "name": "Saddle River", "state": "NJ", "country": "US", "coord": {"lon": -74.102089, "lat": 41.031761}}, {"id": 5103637, "name": "Saddle Brook", "state": "NJ", "country": "US", "coord": {"lon": -74.092644, "lat": 40.898991}}, {"id": 5104404, "name": "Sayreville", "state": "NJ", "country": "US", "coord": {"lon": -74.360977, "lat": 40.45927}}, {"id": 5104405, "name": "Sayreville Junction", "state": "NJ", "country": "US", "coord": {"lon": -74.330429, "lat": 40.465382}}, {"id": 5104473, "name": "Scotch Plains", "state": "NJ", "country": "US", "coord": {"lon": -74.38987, "lat": 40.65538}}, {"id": 5104493, "name": "Sea Bright", "state": "NJ", "country": "US", "coord": {"lon": -73.97403, "lat": 40.3615}}, {"id": 5104495, "name": "Sea Girt", "state": "NJ", "country": "US", "coord": {"lon": -74.034576, "lat": 40.132061}}, {"id": 5104504, "name": "Secaucus", "state": "NJ", "country": "US", "coord": {"lon": -74.055321, "lat": 40.796719}}, {"id": 5104552, "name": "Sewaren", "state": "NJ", "country": "US", "coord": {"lon": -74.258759, "lat": 40.552052}}, {"id": 5104576, "name": "Shark River Hills", "state": "NJ", "country": "US", "coord": {"lon": -74.048752, "lat": 40.194}}, {"id": 5104630, "name": "Short Hills", "state": "NJ", "country": "US", "coord": {"lon": -74.325432, "lat": 40.747879}}, {"id": 5104637, "name": "Shrewsbury", "state": "NJ", "country": "US", "coord": {"lon": -74.52932, "lat": 40.18261}}, {"id": 5104638, "name": "Shrewsbury", "state": "NJ", "country": "US", "coord": {"lon": -74.061531, "lat": 40.329552}}, {"id": 5104679, "name": "Singac", "state": "NJ", "country": "US", "coord": {"lon": -74.240982, "lat": 40.886768}}, {"id": 5104746, "name": "Society Hill", "state": "NJ", "country": "US", "coord": {"lon": -74.457932, "lat": 40.533989}}, {"id": 5104755, "name": "Somerset", "state": "NJ", "country": "US", "coord": {"lon": -74.488487, "lat": 40.497601}}, {"id": 5104759, "name": "Somerset County", "state": "NJ", "country": "US", "coord": {"lon": -74.549599, "lat": 40.566769}}, {"id": 5104774, "name": "Somerville", "state": "NJ", "country": "US", "coord": {"lon": -74.609879, "lat": 40.574268}}, {"id": 5104784, "name": "South Amboy", "state": "NJ", "country": "US", "coord": {"lon": -74.290703, "lat": 40.477879}}, {"id": 5104795, "name": "South Belmar", "state": "NJ", "country": "US", "coord": {"lon": -74.027359, "lat": 40.170952}}, {"id": 5104798, "name": "South Bound Brook", "state": "NJ", "country": "US", "coord": {"lon": -74.53154, "lat": 40.55344}}, {"id": 5104835, "name": "South Old Bridge", "state": "NJ", "country": "US", "coord": {"lon": -74.354317, "lat": 40.408161}}, {"id": 5104836, "name": "South Orange", "state": "NJ", "country": "US", "coord": {"lon": -74.261261, "lat": 40.748989}}, {"id": 5104844, "name": "South Plainfield", "state": "NJ", "country": "US", "coord": {"lon": -74.411537, "lat": 40.579269}}, {"id": 5104853, "name": "South River", "state": "NJ", "country": "US", "coord": {"lon": -74.385979, "lat": 40.446499}}, {"id": 5104907, "name": "Spotswood", "state": "NJ", "country": "US", "coord": {"lon": -74.398483, "lat": 40.391769}}, {"id": 5104923, "name": "Spring Lake", "state": "NJ", "country": "US", "coord": {"lon": -74.028191, "lat": 40.15345}}, {"id": 5104930, "name": "Spring Lake Heights", "state": "NJ", "country": "US", "coord": {"lon": -74.030968, "lat": 40.150391}}, {"id": 5104952, "name": "Springfield", "state": "NJ", "country": "US", "coord": {"lon": -74.31723, "lat": 40.70491}}, {"id": 5104986, "name": "Stanhope", "state": "NJ", "country": "US", "coord": {"lon": -74.709053, "lat": 40.902882}}, {"id": 5105095, "name": "Strathmore", "state": "NJ", "country": "US", "coord": {"lon": -74.213478, "lat": 40.395939}}, {"id": 5105113, "name": "Succasunna", "state": "NJ", "country": "US", "coord": {"lon": -74.640442, "lat": 40.868431}}, {"id": 5105127, "name": "Summit", "state": "NJ", "country": "US", "coord": {"lon": -74.359589, "lat": 40.741489}}, {"id": 5105164, "name": "Sussex", "state": "NJ", "country": "US", "coord": {"lon": -74.607658, "lat": 41.20982}}, {"id": 5105168, "name": "Sussex County", "state": "NJ", "country": "US", "coord": {"lon": -74.666267, "lat": 41.18343}}, {"id": 5105262, "name": "Teaneck", "state": "NJ", "country": "US", "coord": {"lon": -74.015968, "lat": 40.897598}}, {"id": 5105296, "name": "Ten Mile Run", "state": "NJ", "country": "US", "coord": {"lon": -74.602226, "lat": 40.41301}}, {"id": 5105300, "name": "Tenafly", "state": "NJ", "country": "US", "coord": {"lon": -73.962921, "lat": 40.925381}}, {"id": 5105333, "name": "Teterboro", "state": "NJ", "country": "US", "coord": {"lon": -74.059311, "lat": 40.859821}}, {"id": 5105433, "name": "Tinton Falls", "state": "NJ", "country": "US", "coord": {"lon": -74.100418, "lat": 40.304279}}, {"id": 5105455, "name": "Totowa", "state": "NJ", "country": "US", "coord": {"lon": -74.209869, "lat": 40.905102}}, {"id": 5105496, "name": "Trenton", "state": "NJ", "country": "US", "coord": {"lon": -74.742943, "lat": 40.217049}}, {"id": 5105594, "name": "Twin Rivers", "state": "NJ", "country": "US", "coord": {"lon": -74.491257, "lat": 40.264}}, {"id": 5105608, "name": "Union", "state": "NJ", "country": "US", "coord": {"lon": -74.263199, "lat": 40.697601}}, {"id": 5105615, "name": "Union Beach", "state": "NJ", "country": "US", "coord": {"lon": -74.1782, "lat": 40.446499}}, {"id": 5105634, "name": "Union City", "state": "NJ", "country": "US", "coord": {"lon": -74.02375, "lat": 40.779549}}, {"id": 5105640, "name": "Union County", "state": "NJ", "country": "US", "coord": {"lon": -74.266258, "lat": 40.633438}}, {"id": 5105722, "name": "Upper Montclair", "state": "NJ", "country": "US", "coord": {"lon": -74.201263, "lat": 40.84621}}, {"id": 5105733, "name": "Upper Saddle River", "state": "NJ", "country": "US", "coord": {"lon": -74.09848, "lat": 41.05843}}, {"id": 5105809, "name": "Verona", "state": "NJ", "country": "US", "coord": {"lon": -74.24015, "lat": 40.829819}}, {"id": 5105831, "name": "Victory Gardens", "state": "NJ", "country": "US", "coord": {"lon": -74.542381, "lat": 40.875931}}, {"id": 5105855, "name": "Vista Center", "state": "NJ", "country": "US", "coord": {"lon": -74.317917, "lat": 40.159279}}, {"id": 5105867, "name": "Vernon Valley", "state": "NJ", "country": "US", "coord": {"lon": -74.487099, "lat": 41.236759}}, {"id": 5105957, "name": "Waldwick", "state": "NJ", "country": "US", "coord": {"lon": -74.11792, "lat": 41.010651}}, {"id": 5105974, "name": "Wallington", "state": "NJ", "country": "US", "coord": {"lon": -74.113747, "lat": 40.853161}}, {"id": 5106014, "name": "Wanaque", "state": "NJ", "country": "US", "coord": {"lon": -74.294037, "lat": 41.038151}}, {"id": 5106021, "name": "Wanamassa", "state": "NJ", "country": "US", "coord": {"lon": -74.025421, "lat": 40.231781}}, {"id": 5106044, "name": "Warren County", "state": "NJ", "country": "US", "coord": {"lon": -74.949623, "lat": 40.833431}}, {"id": 5106057, "name": "Washington", "state": "NJ", "country": "US", "coord": {"lon": -74.97934, "lat": 40.75843}}, {"id": 5106129, "name": "Watchung", "state": "NJ", "country": "US", "coord": {"lon": -74.450989, "lat": 40.637878}}, {"id": 5106160, "name": "Wayne", "state": "NJ", "country": "US", "coord": {"lon": -74.276543, "lat": 40.925381}}, {"id": 5106184, "name": "Weehawken", "state": "NJ", "country": "US", "coord": {"lon": -74.020416, "lat": 40.76955}}, {"id": 5106226, "name": "West Belmar", "state": "NJ", "country": "US", "coord": {"lon": -74.035423, "lat": 40.169281}}, {"id": 5106238, "name": "West Caldwell", "state": "", "country": "US", "coord": {"lon": -74.301819, "lat": 40.840931}}, {"id": 5106262, "name": "West Freehold", "state": "NJ", "country": "US", "coord": {"lon": -74.301262, "lat": 40.242062}}, {"id": 5106275, "name": "West Long Branch", "state": "NJ", "country": "US", "coord": {"lon": -74.017639, "lat": 40.29039}}, {"id": 5106279, "name": "West Milford", "state": "NJ", "country": "US", "coord": {"lon": -74.367371, "lat": 41.13121}}, {"id": 5106292, "name": "West New York", "state": "NJ", "country": "US", "coord": {"lon": -74.014313, "lat": 40.78788}}, {"id": 5106298, "name": "West Orange", "state": "NJ", "country": "US", "coord": {"lon": -74.239037, "lat": 40.79871}}, {"id": 5106303, "name": "Woodland Park", "state": "NJ", "country": "US", "coord": {"lon": -74.19487, "lat": 40.88982}}, {"id": 5106331, "name": "Westfield", "state": "NJ", "country": "US", "coord": {"lon": -74.347366, "lat": 40.658989}}, {"id": 5106341, "name": "Weston", "state": "NJ", "country": "US", "coord": {"lon": -74.590714, "lat": 40.535099}}, {"id": 5106350, "name": "Westville", "state": "NJ", "country": "US", "coord": {"lon": -74.299591, "lat": 40.84454}}, {"id": 5106351, "name": "Westwood", "state": "NJ", "country": "US", "coord": {"lon": -74.032639, "lat": 40.991211}}, {"id": 5106361, "name": "Wharton", "state": "NJ", "country": "US", "coord": {"lon": -74.581833, "lat": 40.89315}}, {"id": 5106378, "name": "White Horse", "state": "NJ", "country": "US", "coord": {"lon": -74.702377, "lat": 40.19067}}, {"id": 5106379, "name": "White Meadow Lake", "state": "NJ", "country": "US", "coord": {"lon": -74.510712, "lat": 40.92371}}, {"id": 5106399, "name": "Whitehouse Station", "state": "NJ", "country": "US", "coord": {"lon": -74.770439, "lat": 40.615379}}, {"id": 5106453, "name": "Willingboro", "state": "NJ", "country": "US", "coord": {"lon": -74.869049, "lat": 40.027889}}, {"id": 5106520, "name": "Wood-Ridge", "state": "NJ", "country": "US", "coord": {"lon": -74.087921, "lat": 40.845661}}, {"id": 5106529, "name": "Woodbridge", "state": "NJ", "country": "US", "coord": {"lon": -74.284592, "lat": 40.557598}}, {"id": 5106548, "name": "Woodcliff Lake", "state": "NJ", "country": "US", "coord": {"lon": -74.066528, "lat": 41.02343}}, {"id": 5106615, "name": "Wyckoff", "state": "NJ", "country": "US", "coord": {"lon": -74.17292, "lat": 41.009541}}, {"id": 5106645, "name": "Yorketown", "state": "NJ", "country": "US", "coord": {"lon": -74.337646, "lat": 40.307892}}, {"id": 5106734, "name": "Adams", "state": "NY", "country": "US", "coord": {"lon": -76.024094, "lat": 43.809231}}, {"id": 5106738, "name": "Adams Center", "state": "NY", "country": "US", "coord": {"lon": -76.005478, "lat": 43.860062}}, {"id": 5106756, "name": "Addison", "state": "NY", "country": "US", "coord": {"lon": -77.233589, "lat": 42.102852}}, {"id": 5106817, "name": "Airmont", "state": "NY", "country": "US", "coord": {"lon": -74.116249, "lat": 41.100929}}, {"id": 5106825, "name": "Akron", "state": "NY", "country": "US", "coord": {"lon": -78.4953, "lat": 43.020889}}, {"id": 5106834, "name": "Albany", "state": "NY", "country": "US", "coord": {"lon": -73.756233, "lat": 42.65258}}, {"id": 5106841, "name": "Albany County", "state": "NY", "country": "US", "coord": {"lon": -73.96624, "lat": 42.600079}}, {"id": 5106857, "name": "Albertson", "state": "NY", "country": "US", "coord": {"lon": -73.643181, "lat": 40.77343}}, {"id": 5106862, "name": "Albion", "state": "NY", "country": "US", "coord": {"lon": -78.193626, "lat": 43.246449}}, {"id": 5106877, "name": "Alden", "state": "NY", "country": "US", "coord": {"lon": -78.491966, "lat": 42.900059}}, {"id": 5106950, "name": "Alexandria Bay", "state": "NY", "country": "US", "coord": {"lon": -75.917732, "lat": 44.33588}}, {"id": 5106955, "name": "Alfred", "state": "NY", "country": "US", "coord": {"lon": -77.79055, "lat": 42.254238}}, {"id": 5106994, "name": "Allegany", "state": "NY", "country": "US", "coord": {"lon": -78.494186, "lat": 42.090061}}, {"id": 5106997, "name": "Allegany County", "state": "NY", "country": "US", "coord": {"lon": -78.033058, "lat": 42.250622}}, {"id": 5107075, "name": "Altamont", "state": "NY", "country": "US", "coord": {"lon": -74.033737, "lat": 42.70063}}, {"id": 5107091, "name": "Amagansett", "state": "NY", "country": "US", "coord": {"lon": -72.143692, "lat": 40.973709}}, {"id": 5107140, "name": "Amityville", "state": "NY", "country": "US", "coord": {"lon": -73.417068, "lat": 40.678989}}, {"id": 5107152, "name": "Amsterdam", "state": "NY", "country": "US", "coord": {"lon": -74.188187, "lat": 42.93869}}, {"id": 5107176, "name": "Andover", "state": "NY", "country": "US", "coord": {"lon": -77.795547, "lat": 42.15646}}, {"id": 5107212, "name": "Angola on the Lake", "state": "NY", "country": "US", "coord": {"lon": -79.048927, "lat": 42.654781}}, {"id": 5107227, "name": "Angola", "state": "NY", "country": "US", "coord": {"lon": -79.027817, "lat": 42.63839}}, {"id": 5107257, "name": "Apalachin", "state": "NY", "country": "US", "coord": {"lon": -76.154648, "lat": 42.069519}}, {"id": 5107273, "name": "Aquebogue", "state": "NY", "country": "US", "coord": {"lon": -72.627037, "lat": 40.944538}}, {"id": 5107290, "name": "Arcade", "state": "NY", "country": "US", "coord": {"lon": -78.423073, "lat": 42.533951}}, {"id": 5107311, "name": "Ardsley", "state": "NY", "country": "US", "coord": {"lon": -73.84375, "lat": 41.010651}}, {"id": 5107337, "name": "Arlington", "state": "NY", "country": "US", "coord": {"lon": -73.896797, "lat": 41.69593}}, {"id": 5107346, "name": "Armonk", "state": "NY", "country": "US", "coord": {"lon": -73.71402, "lat": 41.12648}}, {"id": 5107467, "name": "Athens", "state": "NY", "country": "US", "coord": {"lon": -73.80957, "lat": 42.260361}}, {"id": 5107481, "name": "Atlantic Beach", "state": "NY", "country": "US", "coord": {"lon": -73.729019, "lat": 40.588989}}, {"id": 5107486, "name": "Attica", "state": "NY", "country": "US", "coord": {"lon": -78.280289, "lat": 42.864231}}, {"id": 5107505, "name": "Auburn", "state": "NY", "country": "US", "coord": {"lon": -76.566048, "lat": 42.931728}}, {"id": 5107543, "name": "Austerlitz", "state": "NY", "country": "US", "coord": {"lon": -73.473167, "lat": 42.311749}}, {"id": 5107561, "name": "Averill Park", "state": "NY", "country": "US", "coord": {"lon": -73.553726, "lat": 42.633968}}, {"id": 5107571, "name": "Avon", "state": "NY", "country": "US", "coord": {"lon": -77.74556, "lat": 42.91201}}, {"id": 5107612, "name": "Babylon", "state": "NY", "country": "US", "coord": {"lon": -73.325684, "lat": 40.69566}}, {"id": 5107659, "name": "Bainbridge", "state": "NY", "country": "US", "coord": {"lon": -75.479347, "lat": 42.293411}}, {"id": 5107670, "name": "Baiting Hollow", "state": "NY", "country": "US", "coord": {"lon": -72.74427, "lat": 40.956211}}, {"id": 5107760, "name": "Baldwin", "state": "NY", "country": "US", "coord": {"lon": -73.609299, "lat": 40.65649}}, {"id": 5107771, "name": "Baldwin Harbor", "state": "NY", "country": "US", "coord": {"lon": -73.608459, "lat": 40.639549}}, {"id": 5107785, "name": "Baldwinsville", "state": "NY", "country": "US", "coord": {"lon": -76.33271, "lat": 43.15868}}, {"id": 5107812, "name": "Ballston Spa", "state": "NY", "country": "US", "coord": {"lon": -73.849007, "lat": 43.000912}}, {"id": 5107821, "name": "Balmville", "state": "NY", "country": "US", "coord": {"lon": -74.014862, "lat": 41.534821}}, {"id": 5107893, "name": "Bardonia", "state": "NY", "country": "US", "coord": {"lon": -73.996246, "lat": 41.109539}}, {"id": 5108000, "name": "Barnum Island", "state": "NY", "country": "US", "coord": {"lon": -73.64402, "lat": 40.604549}}, {"id": 5108093, "name": "Batavia", "state": "NY", "country": "US", "coord": {"lon": -78.187523, "lat": 42.998119}}, {"id": 5108110, "name": "Bath", "state": "NY", "country": "US", "coord": {"lon": -77.317757, "lat": 42.337021}}, {"id": 5108155, "name": "Bay Park", "state": "NY", "country": "US", "coord": {"lon": -73.67041, "lat": 40.63316}}, {"id": 5108169, "name": "Bay Shore", "state": "NY", "country": "US", "coord": {"lon": -73.245392, "lat": 40.725101}}, {"id": 5108179, "name": "Bay Wood", "state": "NY", "country": "US", "coord": {"lon": -73.291229, "lat": 40.750099}}, {"id": 5108191, "name": "Bayport", "state": "NY", "country": "US", "coord": {"lon": -73.050667, "lat": 40.73843}}, {"id": 5108202, "name": "Bayville", "state": "NY", "country": "US", "coord": {"lon": -73.562073, "lat": 40.910648}}, {"id": 5108219, "name": "Beacon", "state": "NY", "country": "US", "coord": {"lon": -73.969582, "lat": 41.504822}}, {"id": 5108531, "name": "Bedford", "state": "NY", "country": "US", "coord": {"lon": -73.643738, "lat": 41.204262}}, {"id": 5108541, "name": "Bedford Hills", "state": "NY", "country": "US", "coord": {"lon": -73.69458, "lat": 41.236759}}, {"id": 5108692, "name": "Bellerose", "state": "NY", "country": "US", "coord": {"lon": -73.715134, "lat": 40.72427}}, {"id": 5108693, "name": "Bellerose Terrace", "state": "NY", "country": "US", "coord": {"lon": -73.72596, "lat": 40.720661}}, {"id": 5108707, "name": "Bellmore", "state": "NY", "country": "US", "coord": {"lon": -73.527069, "lat": 40.668709}}, {"id": 5108714, "name": "Bellport", "state": "NY", "country": "US", "coord": {"lon": -72.93927, "lat": 40.757038}}, {"id": 5108728, "name": "Belmont", "state": "NY", "country": "US", "coord": {"lon": -78.034447, "lat": 42.223122}}, {"id": 5108815, "name": "Bensonhurst", "state": "NY", "country": "US", "coord": {"lon": -73.994034, "lat": 40.601768}}, {"id": 5108842, "name": "Bergen", "state": "NY", "country": "US", "coord": {"lon": -77.94223, "lat": 43.085339}}, {"id": 5108955, "name": "Bethpage", "state": "NY", "country": "US", "coord": {"lon": -73.482071, "lat": 40.74427}}, {"id": 5109053, "name": "Big Flats", "state": "NY", "country": "US", "coord": {"lon": -76.936913, "lat": 42.137299}}, {"id": 5109168, "name": "Billington Heights", "state": "NY", "country": "US", "coord": {"lon": -78.626419, "lat": 42.784229}}, {"id": 5109177, "name": "Binghamton", "state": "NY", "country": "US", "coord": {"lon": -75.917969, "lat": 42.09869}}, {"id": 5109410, "name": "Black River", "state": "NY", "country": "US", "coord": {"lon": -75.794373, "lat": 44.012562}}, {"id": 5109477, "name": "Blasdell", "state": "NY", "country": "US", "coord": {"lon": -78.823372, "lat": 42.797279}}, {"id": 5109479, "name": "Blauvelt", "state": "NY", "country": "US", "coord": {"lon": -73.957642, "lat": 41.063431}}, {"id": 5109554, "name": "Bloomfield", "state": "NY", "country": "US", "coord": {"lon": -74.1782, "lat": 40.612598}}, {"id": 5109603, "name": "Blue Point", "state": "NY", "country": "US", "coord": {"lon": -73.034554, "lat": 40.743992}}, {"id": 5109694, "name": "Bohemia", "state": "NY", "country": "US", "coord": {"lon": -73.115112, "lat": 40.76926}}, {"id": 5109702, "name": "Bolivar", "state": "NY", "country": "US", "coord": {"lon": -78.167793, "lat": 42.06673}}, {"id": 5109703, "name": "Bolivar", "state": "NY", "country": "US", "coord": {"lon": -75.888802, "lat": 43.071178}}, {"id": 5109757, "name": "Boonville", "state": "NY", "country": "US", "coord": {"lon": -75.336563, "lat": 43.483681}}, {"id": 5110019, "name": "Brant", "state": "NY", "country": "US", "coord": {"lon": -79.017822, "lat": 42.58839}}, {"id": 5110077, "name": "Brentwood", "state": "NY", "country": "US", "coord": {"lon": -73.246231, "lat": 40.781212}}, {"id": 5110090, "name": "Brewerton", "state": "NY", "country": "US", "coord": {"lon": -76.140762, "lat": 43.238121}}, {"id": 5110092, "name": "Brewster", "state": "NY", "country": "US", "coord": {"lon": -73.617073, "lat": 41.39732}}, {"id": 5110096, "name": "Brewster Hill", "state": "NY", "country": "US", "coord": {"lon": -73.604286, "lat": 41.423981}}, {"id": 5110108, "name": "Briarcliff Manor", "state": "NY", "country": "US", "coord": {"lon": -73.823753, "lat": 41.145649}}, {"id": 5110130, "name": "Bridgehampton", "state": "NY", "country": "US", "coord": {"lon": -72.300919, "lat": 40.937881}}, {"id": 5110132, "name": "Bridgeport", "state": "NY", "country": "US", "coord": {"lon": -75.96936, "lat": 43.15535}}, {"id": 5110133, "name": "Bridgeport", "state": "NY", "country": "US", "coord": {"lon": -76.752449, "lat": 42.915901}}, {"id": 5110159, "name": "Brighton", "state": "NY", "country": "US", "coord": {"lon": -77.550552, "lat": 43.14756}}, {"id": 5110168, "name": "Brightwaters", "state": "NY", "country": "US", "coord": {"lon": -73.267342, "lat": 40.720928}}, {"id": 5110176, "name": "Brinckerhoff", "state": "NY", "country": "US", "coord": {"lon": -73.868187, "lat": 41.54398}}, {"id": 5110211, "name": "Broadalbin", "state": "NY", "country": "US", "coord": {"lon": -74.196518, "lat": 43.058681}}, {"id": 5110227, "name": "Brockport", "state": "NY", "country": "US", "coord": {"lon": -77.939178, "lat": 43.213669}}, {"id": 5110239, "name": "Brocton", "state": "NY", "country": "US", "coord": {"lon": -79.441162, "lat": 42.388672}}, {"id": 5110253, "name": "Bronx", "state": "NY", "country": "US", "coord": {"lon": -73.923569, "lat": 40.82732}}, {"id": 5110269, "name": "Bronxville", "state": "NY", "country": "US", "coord": {"lon": -73.832077, "lat": 40.938148}}, {"id": 5110292, "name": "Brookhaven", "state": "NY", "country": "US", "coord": {"lon": -72.915382, "lat": 40.77927}}, {"id": 5110302, "name": "Brooklyn", "state": "NY", "country": "US", "coord": {"lon": -73.949577, "lat": 40.650101}}, {"id": 5110358, "name": "Brookville", "state": "NY", "country": "US", "coord": {"lon": -73.567352, "lat": 40.81316}}, {"id": 5110365, "name": "Broome County", "state": "NY", "country": "US", "coord": {"lon": -75.83297, "lat": 42.250629}}, {"id": 5110449, "name": "Brownville", "state": "NY", "country": "US", "coord": {"lon": -75.984093, "lat": 44.007}}, {"id": 5110450, "name": "Brownville", "state": "NY", "country": "US", "coord": {"lon": -74.380707, "lat": 41.79982}}, {"id": 5110506, "name": "Buchanan", "state": "NY", "country": "US", "coord": {"lon": -73.938187, "lat": 41.262039}}, {"id": 5110629, "name": "Buffalo", "state": "NY", "country": "US", "coord": {"lon": -78.878372, "lat": 42.886452}}, {"id": 5111056, "name": "Cairo", "state": "NY", "country": "US", "coord": {"lon": -73.998466, "lat": 42.298969}}, {"id": 5111065, "name": "Calcium", "state": "NY", "country": "US", "coord": {"lon": -75.846039, "lat": 44.021729}}, {"id": 5111073, "name": "Caledonia", "state": "NY", "country": "US", "coord": {"lon": -77.852783, "lat": 42.973122}}, {"id": 5111137, "name": "Calverton", "state": "NY", "country": "US", "coord": {"lon": -72.743431, "lat": 40.90649}}, {"id": 5111144, "name": "Cambridge", "state": "NY", "country": "US", "coord": {"lon": -73.381218, "lat": 43.02813}}, {"id": 5111148, "name": "Camden", "state": "NY", "country": "US", "coord": {"lon": -75.747963, "lat": 43.334511}}, {"id": 5111398, "name": "Canajoharie", "state": "NY", "country": "US", "coord": {"lon": -74.571808, "lat": 42.905628}}, {"id": 5111405, "name": "Canandaigua", "state": "NY", "country": "US", "coord": {"lon": -77.28804, "lat": 42.874229}}, {"id": 5111427, "name": "Canastota", "state": "NY", "country": "US", "coord": {"lon": -75.75074, "lat": 43.07951}}, {"id": 5111449, "name": "Canisteo", "state": "NY", "country": "US", "coord": {"lon": -77.60582, "lat": 42.270351}}, {"id": 5111472, "name": "Canoga Springs", "state": "NY", "country": "US", "coord": {"lon": -76.766617, "lat": 42.851181}}, {"id": 5111484, "name": "Canton", "state": "NY", "country": "US", "coord": {"lon": -75.16909, "lat": 44.595619}}, {"id": 5111533, "name": "Carle Place", "state": "NY", "country": "US", "coord": {"lon": -73.610413, "lat": 40.752602}}, {"id": 5111576, "name": "Carmel", "state": "NY", "country": "US", "coord": {"lon": -73.68013, "lat": 41.430092}}, {"id": 5111656, "name": "Carthage", "state": "NY", "country": "US", "coord": {"lon": -75.60936, "lat": 43.978119}}, {"id": 5111721, "name": "Castile", "state": "NY", "country": "US", "coord": {"lon": -78.054451, "lat": 42.628948}}, {"id": 5111745, "name": "Castleton-on-Hudson", "state": "NY", "country": "US", "coord": {"lon": -73.751228, "lat": 42.51841}}, {"id": 5111833, "name": "Catskill", "state": "NY", "country": "US", "coord": {"lon": -73.864571, "lat": 42.217312}}, {"id": 5111849, "name": "Cattaraugus", "state": "NY", "country": "US", "coord": {"lon": -78.868088, "lat": 42.329231}}, {"id": 5111868, "name": "Cayuga County", "state": "NY", "country": "US", "coord": {"lon": -76.583, "lat": 42.966728}}, {"id": 5111874, "name": "Cayuga Heights", "state": "NY", "country": "US", "coord": {"lon": -76.48661, "lat": 42.459518}}, {"id": 5111886, "name": "Cazenovia", "state": "NY", "country": "US", "coord": {"lon": -75.852692, "lat": 42.930069}}, {"id": 5111974, "name": "Cedarhurst", "state": "NY", "country": "US", "coord": {"lon": -73.724297, "lat": 40.622879}}, {"id": 5111990, "name": "Celoron", "state": "NY", "country": "US", "coord": {"lon": -79.283096, "lat": 42.109501}}, {"id": 5112020, "name": "Center Moriches", "state": "NY", "country": "US", "coord": {"lon": -72.789818, "lat": 40.800381}}, {"id": 5112035, "name": "Centereach", "state": "NY", "country": "US", "coord": {"lon": -73.099548, "lat": 40.858429}}, {"id": 5112037, "name": "Centerport", "state": "NY", "country": "US", "coord": {"lon": -76.59272, "lat": 43.040901}}, {"id": 5112038, "name": "Centerport", "state": "NY", "country": "US", "coord": {"lon": -73.376228, "lat": 40.88538}}, {"id": 5112078, "name": "Central Islip", "state": "NY", "country": "US", "coord": {"lon": -73.201782, "lat": 40.790649}}, {"id": 5112160, "name": "Central Square", "state": "NY", "country": "US", "coord": {"lon": -76.146042, "lat": 43.286739}}, {"id": 5112162, "name": "Central Valley", "state": "NY", "country": "US", "coord": {"lon": -74.120979, "lat": 41.33176}}, {"id": 5112181, "name": "Chadwicks", "state": "NY", "country": "US", "coord": {"lon": -75.271553, "lat": 43.027851}}, {"id": 5112215, "name": "Champlain", "state": "NY", "country": "US", "coord": {"lon": -73.446533, "lat": 44.986431}}, {"id": 5112259, "name": "Chappaqua", "state": "NY", "country": "US", "coord": {"lon": -73.764862, "lat": 41.159538}}, {"id": 5112326, "name": "Chasm Falls", "state": "NY", "country": "US", "coord": {"lon": -74.218773, "lat": 44.757271}}, {"id": 5112335, "name": "Chatham", "state": "NY", "country": "US", "coord": {"lon": -73.594841, "lat": 42.36425}}, {"id": 5112358, "name": "Chautauqua County", "state": "NY", "country": "US", "coord": {"lon": -79.399773, "lat": 42.25061}}, {"id": 5112375, "name": "Cheektowaga", "state": "NY", "country": "US", "coord": {"lon": -78.754753, "lat": 42.903389}}, {"id": 5112392, "name": "Chemung County", "state": "NY", "country": "US", "coord": {"lon": -76.766342, "lat": 42.15007}}, {"id": 5112395, "name": "Chenango Bridge", "state": "NY", "country": "US", "coord": {"lon": -75.862419, "lat": 42.16674}}, {"id": 5112398, "name": "Chenango County", "state": "NY", "country": "US", "coord": {"lon": -75.582962, "lat": 42.46674}}, {"id": 5112467, "name": "Cheshire", "state": "NY", "country": "US", "coord": {"lon": -77.327477, "lat": 42.821449}}, {"id": 5112470, "name": "Chester", "state": "NY", "country": "US", "coord": {"lon": -74.271263, "lat": 41.362591}}, {"id": 5112493, "name": "Chestnut Ridge", "state": "NY", "country": "US", "coord": {"lon": -74.055702, "lat": 41.084259}}, {"id": 5112559, "name": "Chittenango", "state": "NY", "country": "US", "coord": {"lon": -75.866577, "lat": 43.045071}}, {"id": 5112703, "name": "Churchville", "state": "NY", "country": "US", "coord": {"lon": -77.884453, "lat": 43.104229}}, {"id": 5112738, "name": "City Line", "state": "NY", "country": "US", "coord": {"lon": -73.887077, "lat": 40.676208}}, {"id": 5112769, "name": "Clarence", "state": "NY", "country": "US", "coord": {"lon": -78.591972, "lat": 42.97673}}, {"id": 5112771, "name": "Clarence Center", "state": "NY", "country": "US", "coord": {"lon": -78.637527, "lat": 43.010609}}, {"id": 5112812, "name": "Clark Mills", "state": "NY", "country": "US", "coord": {"lon": -75.379623, "lat": 43.092289}}, {"id": 5112837, "name": "Clarkson", "state": "NY", "country": "US", "coord": {"lon": -77.927513, "lat": 43.23312}}, {"id": 5112870, "name": "Clayton", "state": "NY", "country": "US", "coord": {"lon": -76.085777, "lat": 44.239491}}, {"id": 5112915, "name": "Cleaver", "state": "NY", "country": "US", "coord": {"lon": -75.235451, "lat": 42.180641}}, {"id": 5112965, "name": "Clifton Springs", "state": "NY", "country": "US", "coord": {"lon": -77.139977, "lat": 42.961731}}, {"id": 5112972, "name": "Clinton", "state": "NY", "country": "US", "coord": {"lon": -75.378502, "lat": 43.048401}}, {"id": 5112977, "name": "Clinton County", "state": "NY", "country": "US", "coord": {"lon": -73.682922, "lat": 44.733372}}, {"id": 5112995, "name": "Clintondale", "state": "NY", "country": "US", "coord": {"lon": -74.051247, "lat": 41.69482}}, {"id": 5113095, "name": "Cobleskill", "state": "NY", "country": "US", "coord": {"lon": -74.48542, "lat": 42.677849}}, {"id": 5113142, "name": "Cohoes", "state": "NY", "country": "US", "coord": {"lon": -73.700119, "lat": 42.774239}}, {"id": 5113196, "name": "Cold Spring", "state": "NY", "country": "US", "coord": {"lon": -73.954582, "lat": 41.42009}}, {"id": 5113223, "name": "Cold Spring Harbor", "state": "NY", "country": "US", "coord": {"lon": -73.456787, "lat": 40.87149}}, {"id": 5113291, "name": "Collabar", "state": "NY", "country": "US", "coord": {"lon": -74.316818, "lat": 41.53426}}, {"id": 5113348, "name": "Colonie", "state": "NY", "country": "US", "coord": {"lon": -73.833458, "lat": 42.717861}}, {"id": 5113366, "name": "Columbia County", "state": "NY", "country": "US", "coord": {"lon": -73.649559, "lat": 42.250641}}, {"id": 5113380, "name": "Columbus", "state": "NY", "country": "US", "coord": {"lon": -75.372673, "lat": 42.68396}}, {"id": 5113412, "name": "Commack", "state": "NY", "country": "US", "coord": {"lon": -73.292892, "lat": 40.84288}}, {"id": 5113481, "name": "Coney Island", "state": "NY", "country": "US", "coord": {"lon": -73.994034, "lat": 40.577881}}, {"id": 5113500, "name": "Congers", "state": "NY", "country": "US", "coord": {"lon": -73.945419, "lat": 41.15065}}, {"id": 5113565, "name": "Constantia", "state": "NY", "country": "US", "coord": {"lon": -76.000198, "lat": 43.247849}}, {"id": 5113664, "name": "Cooperstown", "state": "NY", "country": "US", "coord": {"lon": -74.924316, "lat": 42.70063}}, {"id": 5113683, "name": "Copiague", "state": "NY", "country": "US", "coord": {"lon": -73.399841, "lat": 40.681492}}, {"id": 5113694, "name": "Coram", "state": "NY", "country": "US", "coord": {"lon": -73.001488, "lat": 40.86871}}, {"id": 5113723, "name": "Corinth", "state": "NY", "country": "US", "coord": {"lon": -73.832336, "lat": 43.244518}}, {"id": 5113760, "name": "Corning", "state": "NY", "country": "US", "coord": {"lon": -77.054688, "lat": 42.142849}}, {"id": 5113775, "name": "Cornwall", "state": "NY", "country": "US", "coord": {"lon": -74.015701, "lat": 41.44482}}, {"id": 5113790, "name": "Cortland", "state": "NY", "country": "US", "coord": {"lon": -76.180481, "lat": 42.601181}}, {"id": 5113792, "name": "Cortland County", "state": "NY", "country": "US", "coord": {"lon": -76.082977, "lat": 42.600071}}, {"id": 5113850, "name": "Country Knolls", "state": "NY", "country": "US", "coord": {"lon": -73.805122, "lat": 42.915081}}, {"id": 5113933, "name": "Coxsackie", "state": "NY", "country": "US", "coord": {"lon": -73.802902, "lat": 42.350922}}, {"id": 5114128, "name": "Crompond", "state": "NY", "country": "US", "coord": {"lon": -73.86541, "lat": 41.29509}}, {"id": 5114221, "name": "Croton-on-Hudson", "state": "NY", "country": "US", "coord": {"lon": -73.891251, "lat": 41.208431}}, {"id": 5114252, "name": "Crown Heights", "state": "NY", "country": "US", "coord": {"lon": -73.93792, "lat": 41.637321}}, {"id": 5114260, "name": "Crugers", "state": "NY", "country": "US", "coord": {"lon": -73.922638, "lat": 41.233429}}, {"id": 5114271, "name": "Crum Town", "state": "NY", "country": "US", "coord": {"lon": -76.444656, "lat": 42.255348}}, {"id": 5114325, "name": "Cuba", "state": "NY", "country": "US", "coord": {"lon": -78.275291, "lat": 42.217571}}, {"id": 5114357, "name": "Cumberland Head", "state": "NY", "country": "US", "coord": {"lon": -73.402634, "lat": 44.716431}}, {"id": 5114401, "name": "Cutchogue", "state": "NY", "country": "US", "coord": {"lon": -72.485092, "lat": 41.010658}}, {"id": 5114487, "name": "Dannemora", "state": "NY", "country": "US", "coord": {"lon": -73.723747, "lat": 44.721432}}, {"id": 5114492, "name": "Dansville", "state": "NY", "country": "US", "coord": {"lon": -77.696114, "lat": 42.560902}}, {"id": 5114731, "name": "Deer Park", "state": "NY", "country": "US", "coord": {"lon": -73.329292, "lat": 40.761768}}, {"id": 5114810, "name": "Delaware County", "state": "NY", "country": "US", "coord": {"lon": -74.96627, "lat": 42.200089}}, {"id": 5114821, "name": "Delevan", "state": "NY", "country": "US", "coord": {"lon": -78.48085, "lat": 42.489231}}, {"id": 5114824, "name": "Delhi", "state": "NY", "country": "US", "coord": {"lon": -74.915993, "lat": 42.278141}}, {"id": 5114831, "name": "Delmar", "state": "NY", "country": "US", "coord": {"lon": -73.832619, "lat": 42.622021}}, {"id": 5114900, "name": "Depew", "state": "NY", "country": "US", "coord": {"lon": -78.692253, "lat": 42.90395}}, {"id": 5114903, "name": "Deposit", "state": "NY", "country": "US", "coord": {"lon": -75.427681, "lat": 42.060081}}, {"id": 5114920, "name": "Derrick", "state": "NY", "country": "US", "coord": {"lon": -74.479607, "lat": 44.36673}}, {"id": 5114982, "name": "Dexter", "state": "NY", "country": "US", "coord": {"lon": -76.044373, "lat": 44.007839}}, {"id": 5115091, "name": "Ditch Plains", "state": "NY", "country": "US", "coord": {"lon": -71.917847, "lat": 41.040661}}, {"id": 5115107, "name": "Dix Hills", "state": "NY", "country": "US", "coord": {"lon": -73.336227, "lat": 40.804821}}, {"id": 5115123, "name": "Dobbs Ferry", "state": "NY", "country": "US", "coord": {"lon": -73.872643, "lat": 41.014542}}, {"id": 5115177, "name": "Dolgeville", "state": "NY", "country": "US", "coord": {"lon": -74.772926, "lat": 43.100899}}, {"id": 5115261, "name": "Dover Plains", "state": "NY", "country": "US", "coord": {"lon": -73.576523, "lat": 41.741211}}, {"id": 5115374, "name": "Dryden", "state": "NY", "country": "US", "coord": {"lon": -76.297157, "lat": 42.49091}}, {"id": 5115475, "name": "Dundee", "state": "NY", "country": "US", "coord": {"lon": -76.976631, "lat": 42.523399}}, {"id": 5115495, "name": "Dunkirk", "state": "NY", "country": "US", "coord": {"lon": -79.333931, "lat": 42.4795}}, {"id": 5115580, "name": "Dutchess County", "state": "NY", "country": "US", "coord": {"lon": -73.73291, "lat": 41.766762}}, {"id": 5115703, "name": "East Atlantic Beach", "state": "NY", "country": "US", "coord": {"lon": -73.747078, "lat": 40.789822}}, {"id": 5115704, "name": "East Aurora", "state": "NY", "country": "US", "coord": {"lon": -78.613358, "lat": 42.767841}}, {"id": 5115722, "name": "East Beekmantown", "state": "NY", "country": "US", "coord": {"lon": -73.470139, "lat": 44.752541}}, {"id": 5115728, "name": "East Bethany", "state": "NY", "country": "US", "coord": {"lon": -78.101402, "lat": 42.93145}}, {"id": 5115838, "name": "East Farmingdale", "state": "NY", "country": "US", "coord": {"lon": -73.416786, "lat": 40.729271}}, {"id": 5115844, "name": "East Floyd", "state": "NY", "country": "US", "coord": {"lon": -75.26767, "lat": 43.273129}}, {"id": 5115854, "name": "East Garden City", "state": "NY", "country": "US", "coord": {"lon": -73.598061, "lat": 40.730831}}, {"id": 5115857, "name": "East Glenville", "state": "NY", "country": "US", "coord": {"lon": -73.927902, "lat": 42.89452}}, {"id": 5115860, "name": "East Greenbush", "state": "NY", "country": "US", "coord": {"lon": -73.70179, "lat": 42.590912}}, {"id": 5115871, "name": "East Hampton", "state": "NY", "country": "US", "coord": {"lon": -72.184799, "lat": 40.963428}}, {"id": 5115904, "name": "East Hills", "state": "NY", "country": "US", "coord": {"lon": -73.627068, "lat": 40.793709}}, {"id": 5115923, "name": "East Islip", "state": "NY", "country": "US", "coord": {"lon": -73.185669, "lat": 40.73204}}, {"id": 5115926, "name": "East Ithaca", "state": "NY", "country": "US", "coord": {"lon": -76.478554, "lat": 42.439522}}, {"id": 5115960, "name": "East Meadow", "state": "NY", "country": "US", "coord": {"lon": -73.559021, "lat": 40.713989}}, {"id": 5115962, "name": "East Massapequa", "state": "NY", "country": "US", "coord": {"lon": -73.436508, "lat": 40.673431}}, {"id": 5115974, "name": "East Moriches", "state": "NY", "country": "US", "coord": {"lon": -72.760933, "lat": 40.805099}}, {"id": 5115985, "name": "East New York", "state": "NY", "country": "US", "coord": {"lon": -73.882362, "lat": 40.666771}}, {"id": 5115989, "name": "East Northport", "state": "NY", "country": "US", "coord": {"lon": -73.324562, "lat": 40.876759}}, {"id": 5115990, "name": "East Norwich", "state": "NY", "country": "US", "coord": {"lon": -73.535118, "lat": 40.846771}}, {"id": 5116004, "name": "East Patchogue", "state": "NY", "country": "US", "coord": {"lon": -72.996223, "lat": 40.76704}}, {"id": 5116035, "name": "East Quogue", "state": "NY", "country": "US", "coord": {"lon": -72.581482, "lat": 40.84066}}, {"id": 5116047, "name": "East Rochester", "state": "NY", "country": "US", "coord": {"lon": -77.487503, "lat": 43.108669}}, {"id": 5116049, "name": "East Rockaway", "state": "NY", "country": "US", "coord": {"lon": -73.669571, "lat": 40.642052}}, {"id": 5116060, "name": "East Setauket", "state": "NY", "country": "US", "coord": {"lon": -73.105942, "lat": 40.94149}}, {"id": 5116063, "name": "East Shoreham", "state": "NY", "country": "US", "coord": {"lon": -72.879547, "lat": 40.94482}}, {"id": 5116079, "name": "East Syracuse", "state": "NY", "country": "US", "coord": {"lon": -76.078529, "lat": 43.065338}}, {"id": 5116107, "name": "East Williston", "state": "NY", "country": "US", "coord": {"lon": -73.63485, "lat": 40.75843}}, {"id": 5116119, "name": "Eastchester", "state": "NY", "country": "US", "coord": {"lon": -73.832909, "lat": 40.8876}}, {"id": 5116149, "name": "Eastport", "state": "NY", "country": "US", "coord": {"lon": -72.731773, "lat": 40.825932}}, {"id": 5116169, "name": "Eatons Neck", "state": "NY", "country": "US", "coord": {"lon": -73.401512, "lat": 40.930649}}, {"id": 5116215, "name": "Eden", "state": "NY", "country": "US", "coord": {"lon": -78.89698, "lat": 42.652279}}, {"id": 5116216, "name": "Eden", "state": "NY", "country": "US", "coord": {"lon": -74.494331, "lat": 41.288712}}, {"id": 5116303, "name": "Eggertsville", "state": "NY", "country": "US", "coord": {"lon": -78.803917, "lat": 42.96339}}, {"id": 5116317, "name": "Eighmyville", "state": "NY", "country": "US", "coord": {"lon": -73.857361, "lat": 41.943699}}, {"id": 5116342, "name": "Elbridge", "state": "NY", "country": "US", "coord": {"lon": -76.44799, "lat": 43.034512}}, {"id": 5116380, "name": "Elizabethtown", "state": "NY", "country": "US", "coord": {"lon": -73.590973, "lat": 44.21616}}, {"id": 5116408, "name": "Ellenville", "state": "NY", "country": "US", "coord": {"lon": -74.395714, "lat": 41.717041}}, {"id": 5116480, "name": "Elma Center", "state": "NY", "country": "US", "coord": {"lon": -78.636139, "lat": 42.829781}}, {"id": 5116497, "name": "Elmira", "state": "NY", "country": "US", "coord": {"lon": -76.807732, "lat": 42.089802}}, {"id": 5116500, "name": "Elmira Heights", "state": "NY", "country": "US", "coord": {"lon": -76.820793, "lat": 42.129799}}, {"id": 5116508, "name": "Elmont", "state": "NY", "country": "US", "coord": {"lon": -73.712914, "lat": 40.700939}}, {"id": 5116512, "name": "Elmsford", "state": "NY", "country": "US", "coord": {"lon": -73.820129, "lat": 41.055099}}, {"id": 5116550, "name": "Elwood", "state": "NY", "country": "US", "coord": {"lon": -73.335121, "lat": 40.845379}}, {"id": 5116582, "name": "Emmons", "state": "NY", "country": "US", "coord": {"lon": -75.011833, "lat": 42.463409}}, {"id": 5116602, "name": "Endicott", "state": "NY", "country": "US", "coord": {"lon": -76.04937, "lat": 42.098412}}, {"id": 5116603, "name": "Endwell", "state": "NY", "country": "US", "coord": {"lon": -76.021027, "lat": 42.11285}}, {"id": 5116642, "name": "Erie County", "state": "NY", "country": "US", "coord": {"lon": -78.66642, "lat": 42.766731}}, {"id": 5116680, "name": "Essex County", "state": "NY", "country": "US", "coord": {"lon": -73.816254, "lat": 44.100052}}, {"id": 5116811, "name": "Fairmount", "state": "NY", "country": "US", "coord": {"lon": -76.238541, "lat": 43.047291}}, {"id": 5116815, "name": "Fairport", "state": "NY", "country": "US", "coord": {"lon": -77.44194, "lat": 43.098671}}, {"id": 5116819, "name": "Fairview", "state": "NY", "country": "US", "coord": {"lon": -73.919861, "lat": 41.723701}}, {"id": 5116820, "name": "Fairview", "state": "NY", "country": "US", "coord": {"lon": -73.797363, "lat": 41.04343}}, {"id": 5116864, "name": "Falconer", "state": "NY", "country": "US", "coord": {"lon": -79.19838, "lat": 42.118671}}, {"id": 5116931, "name": "Farmingdale", "state": "NY", "country": "US", "coord": {"lon": -73.445396, "lat": 40.732601}}, {"id": 5116937, "name": "Farmingville", "state": "NY", "country": "US", "coord": {"lon": -73.029549, "lat": 40.831211}}, {"id": 5116968, "name": "Fayetteville", "state": "NY", "country": "US", "coord": {"lon": -76.004356, "lat": 43.029789}}, {"id": 5117208, "name": "Firthcliffe", "state": "NY", "country": "US", "coord": {"lon": -74.045143, "lat": 41.439259}}, {"id": 5117274, "name": "Fishkill", "state": "NY", "country": "US", "coord": {"lon": -73.899033, "lat": 41.535648}}, {"id": 5117347, "name": "Flanders", "state": "NY", "country": "US", "coord": {"lon": -72.617592, "lat": 40.903431}}, {"id": 5117438, "name": "Floral Park", "state": "NY", "country": "US", "coord": {"lon": -73.704849, "lat": 40.723709}}, {"id": 5117451, "name": "Florida", "state": "NY", "country": "US", "coord": {"lon": -74.356819, "lat": 41.33176}}, {"id": 5117458, "name": "Flower Hill", "state": "NY", "country": "US", "coord": {"lon": -73.681236, "lat": 40.80732}}, {"id": 5117529, "name": "Fonda", "state": "NY", "country": "US", "coord": {"lon": -74.376518, "lat": 42.954521}}, {"id": 5117657, "name": "Fort Edward", "state": "NY", "country": "US", "coord": {"lon": -73.584557, "lat": 43.267021}}, {"id": 5117685, "name": "Fort Montgomery", "state": "NY", "country": "US", "coord": {"lon": -73.986809, "lat": 41.331478}}, {"id": 5117694, "name": "Fort Plain", "state": "NY", "country": "US", "coord": {"lon": -74.622643, "lat": 42.931461}}, {"id": 5117703, "name": "Fort Salonga", "state": "NY", "country": "US", "coord": {"lon": -73.300949, "lat": 40.912601}}, {"id": 5117856, "name": "Frankfort", "state": "NY", "country": "US", "coord": {"lon": -75.070442, "lat": 43.03896}}, {"id": 5117867, "name": "Franklin County", "state": "NY", "country": "US", "coord": {"lon": -74.349609, "lat": 44.650051}}, {"id": 5117891, "name": "Franklin Square", "state": "NY", "country": "US", "coord": {"lon": -73.675957, "lat": 40.707321}}, {"id": 5117902, "name": "Franklinville", "state": "NY", "country": "US", "coord": {"lon": -78.458076, "lat": 42.337009}}, {"id": 5117926, "name": "Fredonia", "state": "NY", "country": "US", "coord": {"lon": -79.331711, "lat": 42.44006}}, {"id": 5117949, "name": "Freeport", "state": "NY", "country": "US", "coord": {"lon": -73.583183, "lat": 40.6576}}, {"id": 5118018, "name": "Frewsburg", "state": "NY", "country": "US", "coord": {"lon": -79.158096, "lat": 42.054501}}, {"id": 5118036, "name": "Friendship", "state": "NY", "country": "US", "coord": {"lon": -78.137512, "lat": 42.206459}}, {"id": 5118116, "name": "Fulton County", "state": "NY", "country": "US", "coord": {"lon": -74.449577, "lat": 43.116741}}, {"id": 5118136, "name": "Fulton", "state": "NY", "country": "US", "coord": {"lon": -76.41716, "lat": 43.322849}}, {"id": 5118185, "name": "Galeville", "state": "NY", "country": "US", "coord": {"lon": -76.172981, "lat": 43.090069}}, {"id": 5118226, "name": "Garden City", "state": "NY", "country": "US", "coord": {"lon": -73.6343, "lat": 40.726768}}, {"id": 5118228, "name": "Garden City Park", "state": "NY", "country": "US", "coord": {"lon": -73.662628, "lat": 40.740929}}, {"id": 5118229, "name": "Garden City South", "state": "NY", "country": "US", "coord": {"lon": -73.660957, "lat": 40.712318}}, {"id": 5118251, "name": "Gang Mills", "state": "NY", "country": "US", "coord": {"lon": -77.111641, "lat": 42.146191}}, {"id": 5118261, "name": "Gardnertown", "state": "NY", "country": "US", "coord": {"lon": -74.070137, "lat": 41.535091}}, {"id": 5118304, "name": "Gasport", "state": "NY", "country": "US", "coord": {"lon": -78.576141, "lat": 43.199219}}, {"id": 5118380, "name": "Genesee County", "state": "NY", "country": "US", "coord": {"lon": -78.183067, "lat": 43.000622}}, {"id": 5118394, "name": "Geneseo", "state": "NY", "country": "US", "coord": {"lon": -77.816948, "lat": 42.795898}}, {"id": 5118398, "name": "Geneva", "state": "NY", "country": "US", "coord": {"lon": -76.977737, "lat": 42.868961}}, {"id": 5118606, "name": "Glasco", "state": "NY", "country": "US", "coord": {"lon": -73.947357, "lat": 42.043701}}, {"id": 5118626, "name": "Glen Cove", "state": "NY", "country": "US", "coord": {"lon": -73.633743, "lat": 40.86232}}, {"id": 5118642, "name": "Glen Head", "state": "NY", "country": "US", "coord": {"lon": -73.623741, "lat": 40.835381}}, {"id": 5118693, "name": "Glens Falls", "state": "NY", "country": "US", "coord": {"lon": -73.644012, "lat": 43.309521}}, {"id": 5118729, "name": "Glenwood Landing", "state": "NY", "country": "US", "coord": {"lon": -73.638741, "lat": 40.830662}}, {"id": 5118743, "name": "Gloversville", "state": "NY", "country": "US", "coord": {"lon": -74.34375, "lat": 43.052849}}, {"id": 5118781, "name": "Goldens Bridge", "state": "NY", "country": "US", "coord": {"lon": -73.676804, "lat": 41.29343}}, {"id": 5118889, "name": "Gordon Heights", "state": "NY", "country": "US", "coord": {"lon": -72.970657, "lat": 40.858711}}, {"id": 5118920, "name": "Goshen", "state": "NY", "country": "US", "coord": {"lon": -74.324318, "lat": 41.402039}}, {"id": 5118939, "name": "Gouverneur", "state": "NY", "country": "US", "coord": {"lon": -75.46299, "lat": 44.336731}}, {"id": 5118990, "name": "Gowanda", "state": "NY", "country": "US", "coord": {"lon": -78.935867, "lat": 42.46312}}, {"id": 5119034, "name": "Grandyle Village", "state": "NY", "country": "US", "coord": {"lon": -78.95504, "lat": 42.996449}}, {"id": 5119076, "name": "Granville", "state": "NY", "country": "US", "coord": {"lon": -73.259552, "lat": 43.407848}}, {"id": 5119218, "name": "Great Neck", "state": "NY", "country": "US", "coord": {"lon": -73.728462, "lat": 40.800659}}, {"id": 5119223, "name": "Great Neck Gardens", "state": "NY", "country": "US", "coord": {"lon": -73.723892, "lat": 40.797218}}, {"id": 5119226, "name": "Great Neck Plaza", "state": "NY", "country": "US", "coord": {"lon": -73.726517, "lat": 40.78677}}, {"id": 5119232, "name": "Great River", "state": "NY", "country": "US", "coord": {"lon": -73.157608, "lat": 40.72121}}, {"id": 5119235, "name": "Great Neck Estates", "state": "NY", "country": "US", "coord": {"lon": -73.736801, "lat": 40.787048}}, {"id": 5119251, "name": "Greece", "state": "NY", "country": "US", "coord": {"lon": -77.693062, "lat": 43.209782}}, {"id": 5119290, "name": "Green Island", "state": "NY", "country": "US", "coord": {"lon": -73.691513, "lat": 42.74424}}, {"id": 5119347, "name": "Greenburgh", "state": "NY", "country": "US", "coord": {"lon": -73.842911, "lat": 41.032879}}, {"id": 5119353, "name": "Greene", "state": "NY", "country": "US", "coord": {"lon": -75.769913, "lat": 42.329239}}, {"id": 5119377, "name": "Greenlawn", "state": "NY", "country": "US", "coord": {"lon": -73.36512, "lat": 40.868992}}, {"id": 5119385, "name": "Greenport", "state": "NY", "country": "US", "coord": {"lon": -72.359253, "lat": 41.103432}}, {"id": 5119398, "name": "Greenvale", "state": "NY", "country": "US", "coord": {"lon": -73.628464, "lat": 40.810661}}, {"id": 5119405, "name": "Greenville", "state": "NY", "country": "US", "coord": {"lon": -73.820831, "lat": 40.998169}}, {"id": 5119416, "name": "Greenwich", "state": "NY", "country": "US", "coord": {"lon": -73.498734, "lat": 43.09063}}, {"id": 5119432, "name": "Greenwood Lake", "state": "NY", "country": "US", "coord": {"lon": -74.294319, "lat": 41.222591}}, {"id": 5119513, "name": "Groton", "state": "NY", "country": "US", "coord": {"lon": -76.366882, "lat": 42.587849}}, {"id": 5119689, "name": "Hadley", "state": "NY", "country": "US", "coord": {"lon": -73.848183, "lat": 43.317291}}, {"id": 5119709, "name": "Hagaman", "state": "NY", "country": "US", "coord": {"lon": -74.150963, "lat": 42.974522}}, {"id": 5119742, "name": "Halesite", "state": "NY", "country": "US", "coord": {"lon": -73.415398, "lat": 40.888432}}, {"id": 5119833, "name": "Hamburg", "state": "NY", "country": "US", "coord": {"lon": -78.829483, "lat": 42.715889}}, {"id": 5119842, "name": "Hamilton", "state": "NY", "country": "US", "coord": {"lon": -75.544617, "lat": 42.827011}}, {"id": 5119847, "name": "Hamilton County", "state": "NY", "country": "US", "coord": {"lon": -74.50016, "lat": 43.666729}}, {"id": 5119868, "name": "Hamlin", "state": "NY", "country": "US", "coord": {"lon": -77.92112, "lat": 43.30312}}, {"id": 5119899, "name": "Hampton Bays", "state": "NY", "country": "US", "coord": {"lon": -72.517593, "lat": 40.868992}}, {"id": 5119907, "name": "Hampton Manor", "state": "NY", "country": "US", "coord": {"lon": -73.728447, "lat": 42.620911}}, {"id": 5119916, "name": "Hancock", "state": "NY", "country": "US", "coord": {"lon": -75.280449, "lat": 41.953979}}, {"id": 5119946, "name": "Hannawa Falls", "state": "NY", "country": "US", "coord": {"lon": -74.971031, "lat": 44.612282}}, {"id": 5119981, "name": "Harbor Isle", "state": "NY", "country": "US", "coord": {"lon": -73.664574, "lat": 40.603439}}, {"id": 5120062, "name": "Harriman", "state": "NY", "country": "US", "coord": {"lon": -74.144592, "lat": 41.30843}}, {"id": 5120074, "name": "Harris Hill", "state": "NY", "country": "US", "coord": {"lon": -78.677528, "lat": 42.964779}}, {"id": 5120095, "name": "Harrison", "state": "NY", "country": "US", "coord": {"lon": -73.712631, "lat": 40.96899}}, {"id": 5120141, "name": "Hartsdale", "state": "NY", "country": "US", "coord": {"lon": -73.798187, "lat": 41.01899}}, {"id": 5120197, "name": "Hastings-on-Hudson", "state": "NY", "country": "US", "coord": {"lon": -73.878754, "lat": 40.994541}}, {"id": 5120228, "name": "Hauppauge", "state": "NY", "country": "US", "coord": {"lon": -73.202606, "lat": 40.825649}}, {"id": 5120238, "name": "Haverstraw", "state": "NY", "country": "US", "coord": {"lon": -73.964577, "lat": 41.19759}}, {"id": 5120241, "name": "Haviland", "state": "NY", "country": "US", "coord": {"lon": -73.90152, "lat": 41.766762}}, {"id": 5120284, "name": "Hawthorne", "state": "NY", "country": "US", "coord": {"lon": -73.795967, "lat": 41.107319}}, {"id": 5120334, "name": "Hayt Corners", "state": "NY", "country": "US", "coord": {"lon": -76.788841, "lat": 42.6959}}, {"id": 5120348, "name": "Head of the Harbor", "state": "NY", "country": "US", "coord": {"lon": -73.15789, "lat": 40.903431}}, {"id": 5120478, "name": "Hempstead", "state": "NY", "country": "US", "coord": {"lon": -73.618736, "lat": 40.706211}}, {"id": 5120479, "name": "New Hempstead", "state": "NY", "country": "US", "coord": {"lon": -74.033752, "lat": 41.149818}}, {"id": 5120545, "name": "Herkimer", "state": "NY", "country": "US", "coord": {"lon": -74.985992, "lat": 43.025631}}, {"id": 5120548, "name": "Herkimer County", "state": "NY", "country": "US", "coord": {"lon": -74.9496, "lat": 43.450069}}, {"id": 5120550, "name": "Heritage Hills", "state": "NY", "country": "US", "coord": {"lon": -73.69735, "lat": 41.339539}}, {"id": 5120595, "name": "Herricks", "state": "NY", "country": "US", "coord": {"lon": -73.666801, "lat": 40.755379}}, {"id": 5120598, "name": "Hewlett", "state": "NY", "country": "US", "coord": {"lon": -73.695686, "lat": 40.643162}}, {"id": 5120601, "name": "Hewlett Harbor", "state": "NY", "country": "US", "coord": {"lon": -73.681519, "lat": 40.636211}}, {"id": 5120656, "name": "Hicksville", "state": "NY", "country": "US", "coord": {"lon": -73.525131, "lat": 40.768429}}, {"id": 5120741, "name": "Highland", "state": "NY", "country": "US", "coord": {"lon": -73.960136, "lat": 41.720928}}, {"id": 5120752, "name": "Highland Falls", "state": "NY", "country": "US", "coord": {"lon": -73.966248, "lat": 41.369259}}, {"id": 5120759, "name": "Highland Mills", "state": "NY", "country": "US", "coord": {"lon": -74.126259, "lat": 41.347038}}, {"id": 5120797, "name": "Hillcrest", "state": "NY", "country": "US", "coord": {"lon": -74.04097, "lat": 41.127869}}, {"id": 5120851, "name": "Hillside Lake", "state": "NY", "country": "US", "coord": {"lon": -73.798187, "lat": 41.614819}}, {"id": 5120871, "name": "Hilton", "state": "NY", "country": "US", "coord": {"lon": -77.793343, "lat": 43.28812}}, {"id": 5120888, "name": "Hinsdale", "state": "NY", "country": "US", "coord": {"lon": -76.137703, "lat": 43.104511}}, {"id": 5120956, "name": "Hogansburg", "state": "NY", "country": "US", "coord": {"lon": -74.663239, "lat": 44.973942}}, {"id": 5120987, "name": "Holbrook", "state": "NY", "country": "US", "coord": {"lon": -73.078438, "lat": 40.812321}}, {"id": 5120990, "name": "Holcomb", "state": "NY", "country": "US", "coord": {"lon": -77.419708, "lat": 42.90229}}, {"id": 5121004, "name": "Holland", "state": "NY", "country": "US", "coord": {"lon": -78.541687, "lat": 42.641171}}, {"id": 5121009, "name": "Holland Cove", "state": "NY", "country": "US", "coord": {"lon": -77.143593, "lat": 43.28701}}, {"id": 5121016, "name": "Holley", "state": "NY", "country": "US", "coord": {"lon": -78.02668, "lat": 43.226452}}, {"id": 5121163, "name": "Holtsville", "state": "NY", "country": "US", "coord": {"lon": -73.045113, "lat": 40.81538}}, {"id": 5121169, "name": "Homer", "state": "NY", "country": "US", "coord": {"lon": -76.178818, "lat": 42.637009}}, {"id": 5121182, "name": "Honeoye Falls", "state": "NY", "country": "US", "coord": {"lon": -77.590279, "lat": 42.95229}}, {"id": 5121230, "name": "Hoosick Falls", "state": "NY", "country": "US", "coord": {"lon": -73.351501, "lat": 42.901192}}, {"id": 5121283, "name": "Hornell", "state": "NY", "country": "US", "coord": {"lon": -77.661102, "lat": 42.32785}}, {"id": 5121309, "name": "Horseheads", "state": "NY", "country": "US", "coord": {"lon": -76.820511, "lat": 42.167019}}, {"id": 5121352, "name": "Hortontown", "state": "NY", "country": "US", "coord": {"lon": -76.384377, "lat": 43.188679}}, {"id": 5121382, "name": "Houghton", "state": "NY", "country": "US", "coord": {"lon": -78.157227, "lat": 42.423401}}, {"id": 5121509, "name": "Hudson", "state": "NY", "country": "US", "coord": {"lon": -73.790962, "lat": 42.252861}}, {"id": 5121513, "name": "Hudson Falls", "state": "NY", "country": "US", "coord": {"lon": -73.585953, "lat": 43.300629}}, {"id": 5121636, "name": "Huntington", "state": "NY", "country": "US", "coord": {"lon": -73.425682, "lat": 40.868149}}, {"id": 5121638, "name": "Huntington Bay", "state": "NY", "country": "US", "coord": {"lon": -73.414841, "lat": 40.899818}}, {"id": 5121650, "name": "Huntington Station", "state": "NY", "country": "US", "coord": {"lon": -73.411507, "lat": 40.853432}}, {"id": 5121679, "name": "Hurley", "state": "NY", "country": "US", "coord": {"lon": -74.061249, "lat": 41.924541}}, {"id": 5121727, "name": "Hyde Park", "state": "NY", "country": "US", "coord": {"lon": -73.933189, "lat": 41.784821}}, {"id": 5121765, "name": "Ilion", "state": "NY", "country": "US", "coord": {"lon": -75.035431, "lat": 43.015072}}, {"id": 5122279, "name": "Inwood", "state": "NY", "country": "US", "coord": {"lon": -73.746803, "lat": 40.622051}}, {"id": 5122280, "name": "Inwood", "state": "NY", "country": "US", "coord": {"lon": -73.926804, "lat": 40.865662}}, {"id": 5122331, "name": "Irondequoit", "state": "NY", "country": "US", "coord": {"lon": -77.57972, "lat": 43.213402}}, {"id": 5122365, "name": "Irvington", "state": "NY", "country": "US", "coord": {"lon": -73.868233, "lat": 41.039219}}, {"id": 5122397, "name": "Island Park", "state": "NY", "country": "US", "coord": {"lon": -73.655411, "lat": 40.604271}}, {"id": 5122409, "name": "Islandia", "state": "NY", "country": "US", "coord": {"lon": -73.168999, "lat": 40.80426}}, {"id": 5122413, "name": "Islip", "state": "NY", "country": "US", "coord": {"lon": -73.210388, "lat": 40.72982}}, {"id": 5122417, "name": "Islip Terrace", "state": "NY", "country": "US", "coord": {"lon": -73.192619, "lat": 40.743149}}, {"id": 5122432, "name": "Ithaca", "state": "NY", "country": "US", "coord": {"lon": -76.496613, "lat": 42.440632}}, {"id": 5122533, "name": "Jamesport", "state": "NY", "country": "US", "coord": {"lon": -72.581482, "lat": 40.949539}}, {"id": 5122534, "name": "Jamestown", "state": "NY", "country": "US", "coord": {"lon": -79.235329, "lat": 42.097}}, {"id": 5122581, "name": "Jefferson County", "state": "NY", "country": "US", "coord": {"lon": -75.899651, "lat": 44.05006}}, {"id": 5122584, "name": "Jefferson Heights", "state": "NY", "country": "US", "coord": {"lon": -73.882347, "lat": 42.233978}}, {"id": 5122638, "name": "Jericho", "state": "NY", "country": "US", "coord": {"lon": -73.539848, "lat": 40.792042}}, {"id": 5122794, "name": "Johnson City", "state": "NY", "country": "US", "coord": {"lon": -75.958809, "lat": 42.115631}}, {"id": 5122833, "name": "Johnstown", "state": "NY", "country": "US", "coord": {"lon": -74.367638, "lat": 43.006741}}, {"id": 5122893, "name": "Jordan", "state": "NY", "country": "US", "coord": {"lon": -76.472992, "lat": 43.065338}}, {"id": 5123094, "name": "Kaisertown", "state": "NY", "country": "US", "coord": {"lon": -74.284042, "lat": 41.50732}}, {"id": 5123109, "name": "Kaser", "state": "NY", "country": "US", "coord": {"lon": -74.067093, "lat": 41.121208}}, {"id": 5123118, "name": "Katonah", "state": "NY", "country": "US", "coord": {"lon": -73.68541, "lat": 41.25898}}, {"id": 5123135, "name": "Kauneonga Lake", "state": "NY", "country": "US", "coord": {"lon": -74.835716, "lat": 41.6912}}, {"id": 5123173, "name": "Keeseville", "state": "NY", "country": "US", "coord": {"lon": -73.480133, "lat": 44.505051}}, {"id": 5123247, "name": "Kenmore", "state": "NY", "country": "US", "coord": {"lon": -78.870041, "lat": 42.965889}}, {"id": 5123281, "name": "Kensington", "state": "NY", "country": "US", "coord": {"lon": -73.722076, "lat": 40.79343}}, {"id": 5123309, "name": "Kerhonkson", "state": "NY", "country": "US", "coord": {"lon": -74.29821, "lat": 41.774818}}, {"id": 5123347, "name": "Keuka Park", "state": "NY", "country": "US", "coord": {"lon": -77.092194, "lat": 42.615349}}, {"id": 5123396, "name": "Kimball Stand", "state": "NY", "country": "US", "coord": {"lon": -79.255051, "lat": 42.174782}}, {"id": 5123400, "name": "Kinderhook", "state": "NY", "country": "US", "coord": {"lon": -73.697899, "lat": 42.395359}}, {"id": 5123456, "name": "Kings Park", "state": "NY", "country": "US", "coord": {"lon": -73.257339, "lat": 40.886211}}, {"id": 5123459, "name": "Kings Point", "state": "NY", "country": "US", "coord": {"lon": -73.73513, "lat": 40.81982}}, {"id": 5123477, "name": "Kingston", "state": "NY", "country": "US", "coord": {"lon": -73.99736, "lat": 41.92704}}, {"id": 5123533, "name": "Kiryas Joel", "state": "NY", "country": "US", "coord": {"lon": -74.167923, "lat": 41.342041}}, {"id": 5123718, "name": "Lackawanna", "state": "NY", "country": "US", "coord": {"lon": -78.823372, "lat": 42.825611}}, {"id": 5123777, "name": "Lake Carmel", "state": "NY", "country": "US", "coord": {"lon": -73.670959, "lat": 41.461479}}, {"id": 5123788, "name": "Lake Erie Beach", "state": "NY", "country": "US", "coord": {"lon": -79.066978, "lat": 42.624229}}, {"id": 5123796, "name": "Lake Grove", "state": "NY", "country": "US", "coord": {"lon": -73.115112, "lat": 40.852879}}, {"id": 5123809, "name": "Lake Katrine", "state": "NY", "country": "US", "coord": {"lon": -73.98819, "lat": 41.985649}}, {"id": 5123823, "name": "Lake Mohegan", "state": "NY", "country": "US", "coord": {"lon": -73.846252, "lat": 41.317871}}, {"id": 5123831, "name": "Lake Placid", "state": "NY", "country": "US", "coord": {"lon": -73.979874, "lat": 44.279491}}, {"id": 5123834, "name": "Lake Pleasant", "state": "NY", "country": "US", "coord": {"lon": -74.412651, "lat": 43.470901}}, {"id": 5123840, "name": "Lake Ronkonkoma", "state": "NY", "country": "US", "coord": {"lon": -73.131218, "lat": 40.835098}}, {"id": 5123853, "name": "Lake Success", "state": "NY", "country": "US", "coord": {"lon": -73.717628, "lat": 40.77066}}, {"id": 5123872, "name": "Lakeland", "state": "NY", "country": "US", "coord": {"lon": -76.240479, "lat": 43.09034}}, {"id": 5123873, "name": "Lakeland", "state": "NY", "country": "US", "coord": {"lon": -73.12011, "lat": 40.80788}}, {"id": 5123907, "name": "Lakeview", "state": "NY", "country": "US", "coord": {"lon": -75.865471, "lat": 42.432018}}, {"id": 5123908, "name": "Lakeview", "state": "NY", "country": "US", "coord": {"lon": -73.652634, "lat": 40.685379}}, {"id": 5123929, "name": "Lakewood", "state": "NY", "country": "US", "coord": {"lon": -79.333099, "lat": 42.104221}}, {"id": 5123954, "name": "Lancaster", "state": "NY", "country": "US", "coord": {"lon": -78.670311, "lat": 42.900612}}, {"id": 5123993, "name": "Lansing", "state": "NY", "country": "US", "coord": {"lon": -76.479942, "lat": 42.484241}}, {"id": 5124007, "name": "Laona", "state": "NY", "country": "US", "coord": {"lon": -79.305603, "lat": 42.421719}}, {"id": 5124017, "name": "Larchmont", "state": "NY", "country": "US", "coord": {"lon": -73.751801, "lat": 40.927879}}, {"id": 5124049, "name": "Lattingtown", "state": "NY", "country": "US", "coord": {"lon": -73.60096, "lat": 40.895378}}, {"id": 5124059, "name": "Laurel", "state": "NY", "country": "US", "coord": {"lon": -72.562027, "lat": 40.96954}}, {"id": 5124069, "name": "Laurel Hollow", "state": "NY", "country": "US", "coord": {"lon": -73.469566, "lat": 40.85677}}, {"id": 5124087, "name": "Lawrence", "state": "NY", "country": "US", "coord": {"lon": -73.729584, "lat": 40.615662}}, {"id": 5124128, "name": "Le Roy", "state": "NY", "country": "US", "coord": {"lon": -77.984177, "lat": 42.97839}}, {"id": 5124276, "name": "Levittown", "state": "NY", "country": "US", "coord": {"lon": -73.51429, "lat": 40.725929}}, {"id": 5124290, "name": "Lewis County", "state": "NY", "country": "US", "coord": {"lon": -75.482964, "lat": 43.800072}}, {"id": 5124307, "name": "Lewiston", "state": "NY", "country": "US", "coord": {"lon": -79.035881, "lat": 43.172562}}, {"id": 5124323, "name": "Liberty", "state": "NY", "country": "US", "coord": {"lon": -74.746552, "lat": 41.801201}}, {"id": 5124352, "name": "Lido Beach", "state": "NY", "country": "US", "coord": {"lon": -73.625412, "lat": 40.588989}}, {"id": 5124411, "name": "Lima", "state": "NY", "country": "US", "coord": {"lon": -77.611389, "lat": 42.904789}}, {"id": 5124463, "name": "Lincoln Park", "state": "NY", "country": "US", "coord": {"lon": -73.994034, "lat": 41.950649}}, {"id": 5124482, "name": "Lincolndale", "state": "NY", "country": "US", "coord": {"lon": -73.718193, "lat": 41.322868}}, {"id": 5124497, "name": "Lindenhurst", "state": "NY", "country": "US", "coord": {"lon": -73.373451, "lat": 40.686771}}, {"id": 5124642, "name": "Little Falls", "state": "NY", "country": "US", "coord": {"lon": -74.859596, "lat": 43.0434}}, {"id": 5124889, "name": "Little Valley", "state": "NY", "country": "US", "coord": {"lon": -78.805588, "lat": 42.25256}}, {"id": 5124925, "name": "Liverpool", "state": "NY", "country": "US", "coord": {"lon": -76.217697, "lat": 43.106461}}, {"id": 5124931, "name": "Livingston Manor", "state": "NY", "country": "US", "coord": {"lon": -74.828217, "lat": 41.900372}}, {"id": 5124936, "name": "Livonia", "state": "NY", "country": "US", "coord": {"lon": -77.66861, "lat": 42.821449}}, {"id": 5124946, "name": "Lloyd Harbor", "state": "NY", "country": "US", "coord": {"lon": -73.459839, "lat": 40.903431}}, {"id": 5125011, "name": "Lockport", "state": "NY", "country": "US", "coord": {"lon": -78.690308, "lat": 43.170609}}, {"id": 5125041, "name": "Locust Valley", "state": "NY", "country": "US", "coord": {"lon": -73.597069, "lat": 40.875931}}, {"id": 5125065, "name": "Lomond Shore", "state": "NY", "country": "US", "coord": {"lon": -78.080299, "lat": 43.372559}}, {"id": 5125086, "name": "Long Beach", "state": "NY", "country": "US", "coord": {"lon": -73.657913, "lat": 40.58844}}, {"id": 5125125, "name": "Long Island City", "state": "NY", "country": "US", "coord": {"lon": -73.948753, "lat": 40.74482}}]