[{"id": 1348581, "name": "Haripur", "state": "", "country": "IN", "coord": {"lon": 88.231941, "lat": 22.93611}}, {"id": 1348583, "name": "Kesabpur", "state": "", "country": "IN", "coord": {"lon": 88.262779, "lat": 22.96833}}, {"id": 1348591, "name": "Meria", "state": "", "country": "IN", "coord": {"lon": 88.327782, "lat": 22.976669}}, {"id": 1348600, "name": "R\u0101mchandrapur", "state": "", "country": "IN", "coord": {"lon": 88.475281, "lat": 22.896391}}, {"id": 1348615, "name": "B\u0101gn\u0101n", "state": "", "country": "IN", "coord": {"lon": 88.139999, "lat": 22.92417}}, {"id": 1348671, "name": "R\u0101mnagar", "state": "", "country": "IN", "coord": {"lon": 88.246391, "lat": 22.777781}}, {"id": 1348676, "name": "Sankarpur", "state": "", "country": "IN", "coord": {"lon": 88.455276, "lat": 22.848061}}, {"id": 1348694, "name": "Begampur", "state": "", "country": "IN", "coord": {"lon": 88.243332, "lat": 22.741671}}, {"id": 1348734, "name": "Parbatipur", "state": "", "country": "IN", "coord": {"lon": 88.222221, "lat": 22.6625}}, {"id": 1348737, "name": "Bhand\u0101rdaha", "state": "", "country": "IN", "coord": {"lon": 88.214439, "lat": 22.61694}}, {"id": 1348739, "name": "Dumjor", "state": "", "country": "IN", "coord": {"lon": 88.220284, "lat": 22.640829}}, {"id": 1348742, "name": "Krishnapur", "state": "", "country": "IN", "coord": {"lon": 88.26944, "lat": 22.67028}}, {"id": 1348747, "name": "Bankra", "state": "", "country": "IN", "coord": {"lon": 88.298058, "lat": 22.627501}}, {"id": 1348753, "name": "Chakapara", "state": "", "country": "IN", "coord": {"lon": 88.34861, "lat": 22.632219}}, {"id": 1348775, "name": "Mahiari", "state": "", "country": "IN", "coord": {"lon": 88.237778, "lat": 22.59222}}, {"id": 1348776, "name": "Masila", "state": "", "country": "IN", "coord": {"lon": 88.23278, "lat": 22.58083}}, {"id": 1348780, "name": "Dhulagari", "state": "", "country": "IN", "coord": {"lon": 88.173058, "lat": 22.586941}}, {"id": 1348785, "name": "P\u0101nchla", "state": "", "country": "IN", "coord": {"lon": 88.138062, "lat": 22.54389}}, {"id": 1348788, "name": "S\u0101h\u0101pur", "state": "", "country": "IN", "coord": {"lon": 88.166939, "lat": 22.524441}}, {"id": 1348789, "name": "Raghudebbati", "state": "", "country": "IN", "coord": {"lon": 88.195831, "lat": 22.52556}}, {"id": 1348791, "name": "Gobindapur", "state": "", "country": "IN", "coord": {"lon": 88.091393, "lat": 22.59306}}, {"id": 1348818, "name": "Nangi", "state": "", "country": "IN", "coord": {"lon": 88.215279, "lat": 22.508329}}, {"id": 1348820, "name": "Pujali", "state": "", "country": "IN", "coord": {"lon": 88.151672, "lat": 22.465281}}, {"id": 1348870, "name": "Amtala", "state": "", "country": "IN", "coord": {"lon": 88.294441, "lat": 22.371389}}, {"id": 1348872, "name": "B\u0101w\u0101li", "state": "", "country": "IN", "coord": {"lon": 88.196114, "lat": 22.41917}}, {"id": 1348942, "name": "Balar\u0101mpur", "state": "", "country": "IN", "coord": {"lon": 88.297783, "lat": 22.334169}}, {"id": 1348944, "name": "J\u0101farpur", "state": "", "country": "IN", "coord": {"lon": 88.23056, "lat": 22.320829}}, {"id": 1348947, "name": "Serpur", "state": "", "country": "IN", "coord": {"lon": 88.305, "lat": 22.32056}}, {"id": 1349041, "name": "Monoharpur", "state": "", "country": "IN", "coord": {"lon": 88.078888, "lat": 22.10833}}, {"id": 1349047, "name": "Solap", "state": "", "country": "IN", "coord": {"lon": 88.158607, "lat": 22.127781}}, {"id": 1349090, "name": "Harind\u0101nga", "state": "", "country": "IN", "coord": {"lon": 88.321388, "lat": 22.03833}}, {"id": 1349195, "name": "Chapra", "state": "", "country": "IN", "coord": {"lon": 88.61972, "lat": 22.8825}}, {"id": 1349229, "name": "Gurdaha", "state": "", "country": "IN", "coord": {"lon": 88.759438, "lat": 22.73472}}, {"id": 1349247, "name": "Ula", "state": "", "country": "IN", "coord": {"lon": 88.555557, "lat": 22.7225}}, {"id": 1349263, "name": "Gop\u0101lpur", "state": "", "country": "IN", "coord": {"lon": 88.751389, "lat": 22.614441}}, {"id": 1349355, "name": "Raypur", "state": "", "country": "IN", "coord": {"lon": 88.509438, "lat": 22.41083}}, {"id": 1349357, "name": "Nabagr\u0101m", "state": "", "country": "IN", "coord": {"lon": 88.509171, "lat": 22.288059}}, {"id": 1349513, "name": "Ghul\u0101m \u2018Al\u012b", "state": "", "country": "AF", "coord": {"lon": 69.228699, "lat": 34.95076}}, {"id": 1349709, "name": "Qarah B\u0101gh B\u0101z\u0101r", "state": "", "country": "AF", "coord": {"lon": 69.170624, "lat": 34.852901}}, {"id": 1349845, "name": "Zargar\u0101n", "state": "", "country": "AF", "coord": {"lon": 69.058777, "lat": 34.78764}}, {"id": 1349934, "name": "Surkh Biland\u012b", "state": "", "country": "AF", "coord": {"lon": 69.028633, "lat": 34.684738}}, {"id": 1349962, "name": "Qaryah-ye Khw\u0101jah Bughr\u0101", "state": "", "country": "AF", "coord": {"lon": 69.160233, "lat": 34.582939}}, {"id": 1349969, "name": "Pul-e Sang\u012b", "state": "", "country": "AF", "coord": {"lon": 69.259933, "lat": 34.59972}}, {"id": 1351762, "name": "Linju", "state": "", "country": "PK", "coord": {"lon": 66.619339, "lat": 27.7992}}, {"id": 1352874, "name": "Shamshai", "state": "", "country": "PK", "coord": {"lon": 71.056488, "lat": 34.50666}}, {"id": 1356491, "name": "Ahmadpur Sial", "state": "", "country": "PK", "coord": {"lon": 71.748283, "lat": 30.67539}}, {"id": 1357445, "name": "Wahan Murad", "state": "", "country": "PK", "coord": {"lon": 68.221939, "lat": 27.548519}}, {"id": 1357699, "name": "New B\u0101d\u0101h", "state": "", "country": "PK", "coord": {"lon": 68.031937, "lat": 27.341669}}, {"id": 1359850, "name": "Goth Obhaio Mehar", "state": "", "country": "PK", "coord": {"lon": 68.950104, "lat": 25.613041}}, {"id": 1360491, "name": "Tando Ghulam Ali", "state": "", "country": "PK", "coord": {"lon": 68.867592, "lat": 25.131109}}, {"id": 1360941, "name": "Goth Vi Machhi", "state": "", "country": "PK", "coord": {"lon": 68.415031, "lat": 25.82163}}, {"id": 1360995, "name": "Wanjheri Sharif", "state": "", "country": "CN", "coord": {"lon": 110.63324, "lat": 29.02634}}, {"id": 1373491, "name": "Balach", "state": "", "country": "PK", "coord": {"lon": 71.796707, "lat": 35.88615}}, {"id": 1377754, "name": "Dhunel Ganj", "state": "", "country": "PK", "coord": {"lon": 72.040367, "lat": 34.194221}}, {"id": 1381523, "name": "Mianapura Khurd", "state": "", "country": "PK", "coord": {"lon": 74.52005, "lat": 32.493389}}, {"id": 1381923, "name": "Chak Twenty-nine Bahawal Canal", "state": "", "country": "PK", "coord": {"lon": 71.732941, "lat": 29.354469}}, {"id": 1382461, "name": "Chak Two Hundred Thirty-one Rakh Branch", "state": "", "country": "PK", "coord": {"lon": 73.008278, "lat": 31.36447}}, {"id": 1382698, "name": "Chak Fourteen- Eight Right", "state": "", "country": "PK", "coord": {"lon": 72.158333, "lat": 30.45694}}, {"id": 1386385, "name": "Saiyidan", "state": "", "country": "PK", "coord": {"lon": 73.762642, "lat": 33.18795}}, {"id": 1393797, "name": "Kasi", "state": "", "country": "PK", "coord": {"lon": 67.018723, "lat": 30.18721}}, {"id": 1394355, "name": "Ziarat Kharwari Baba", "state": "", "country": "PK", "coord": {"lon": 67.741318, "lat": 30.343651}}, {"id": 1397479, "name": "Dera Murad Jamali", "state": "", "country": "PK", "coord": {"lon": 68.223083, "lat": 28.54657}}, {"id": 1399489, "name": "Ziarat Shah-i-Mardan", "state": "", "country": "PK", "coord": {"lon": 66.580559, "lat": 29.03194}}, {"id": 1403126, "name": "Relan", "state": "", "country": "PK", "coord": {"lon": 70.512253, "lat": 29.98748}}, {"id": 1403303, "name": "Sadabad", "state": "", "country": "PK", "coord": {"lon": 68.787567, "lat": 27.709869}}, {"id": 1403734, "name": "J\u0101m S\u0101hib", "state": "", "country": "PK", "coord": {"lon": 68.629173, "lat": 26.29583}}, {"id": 1407167, "name": "Za\u2019far\u0101nza\u012b", "state": "", "country": "AF", "coord": {"lon": 65.502968, "lat": 31.509991}}, {"id": 1410796, "name": "Chowki Jamali", "state": "", "country": "PK", "coord": {"lon": 67.92083, "lat": 28.01944}}, {"id": 1411140, "name": "Bahawalpur Ghallu", "state": "", "country": "PK", "coord": {"lon": 71.220833, "lat": 29.379169}}, {"id": 1412008, "name": "Setharja Old", "state": "", "country": "PK", "coord": {"lon": 68.468826, "lat": 27.2127}}, {"id": 1413176, "name": "Babian", "state": "", "country": "PK", "coord": {"lon": 74.173538, "lat": 32.150379}}, {"id": 1413746, "name": "Sawan", "state": "", "country": "PK", "coord": {"lon": 73.857162, "lat": 33.640282}}, {"id": 1418826, "name": "Subedar Khan Khosa", "state": "", "country": "PK", "coord": {"lon": 68.291908, "lat": 28.16873}}, {"id": 1419065, "name": "Sarai", "state": "", "country": "PK", "coord": {"lon": 70.87957, "lat": 31.91221}}, {"id": 1422873, "name": "Langar", "state": "", "country": "AF", "coord": {"lon": 68.050812, "lat": 35.99474}}, {"id": 1423264, "name": "B\u0101gh-e Ma\u012bd\u0101n", "state": "", "country": "AF", "coord": {"lon": 69.213966, "lat": 35.221561}}, {"id": 1423348, "name": "M\u012br \u2018Al\u0101", "state": "", "country": "AF", "coord": {"lon": 69.168083, "lat": 35.05928}}, {"id": 1423399, "name": "Gul Bah\u0101r", "state": "", "country": "AF", "coord": {"lon": 69.269638, "lat": 35.145901}}, {"id": 1423451, "name": "Ibr\u0101h\u012bm Kh\u0101n", "state": "", "country": "AF", "coord": {"lon": 69.256538, "lat": 35.05352}}, {"id": 1423722, "name": "Khw\u0101jah Payt\u0101gh", "state": "", "country": "AF", "coord": {"lon": 64.7761, "lat": 35.93589}}, {"id": 1424092, "name": "Hil\u0101lz\u014d K\u00ealay", "state": "", "country": "AF", "coord": {"lon": 71.263046, "lat": 35.00631}}, {"id": 1425381, "name": "Chagh\u0101l\u0101n\u014d Ghun\u1e0f\u00eay", "state": "", "country": "AF", "coord": {"lon": 64.427193, "lat": 31.56366}}, {"id": 1427089, "name": "Qarangh\u016b T\u014dgha\u012b", "state": "", "country": "AF", "coord": {"lon": 67.639717, "lat": 37.215279}}, {"id": 1428258, "name": "Qal\u2018ah-ye Ghul\u0101m Sakh\u012b", "state": "", "country": "AF", "coord": {"lon": 62.152641, "lat": 32.374889}}, {"id": 1428368, "name": "Chanura", "state": "", "country": "AF", "coord": {"lon": 62.100471, "lat": 32.19117}}, {"id": 1429434, "name": "B\u0101z\u0101rak", "state": "", "country": "AF", "coord": {"lon": 69.51519, "lat": 35.31292}}, {"id": 1429499, "name": "Sh\u0113rw\u0101n\u012b-ye B\u0101l\u0101", "state": "", "country": "AF", "coord": {"lon": 69.599342, "lat": 35.014679}}, {"id": 1429521, "name": "Kir\u0101m\u0101n", "state": "", "country": "AF", "coord": {"lon": 69.681252, "lat": 35.297298}}, {"id": 1430991, "name": "Soy\u012bbug", "state": "", "country": "IN", "coord": {"lon": 74.711113, "lat": 34.07917}}, {"id": 1431732, "name": "Jauri\u0101n", "state": "", "country": "IN", "coord": {"lon": 74.576393, "lat": 32.83194}}, {"id": 1433879, "name": "K\u0101k\u0101 Kh\u0113l", "state": "", "country": "AF", "coord": {"lon": 69.266472, "lat": 32.53952}}, {"id": 1434016, "name": "\u2018Al\u0101qahd\u0101r\u012b Sa\u1e5f\u014db\u012b", "state": "", "country": "AF", "coord": {"lon": 69.086601, "lat": 32.793308}}, {"id": 1434613, "name": "Lan\u1e0fay K\u00ealay", "state": "", "country": "AF", "coord": {"lon": 69.952377, "lat": 33.327801}}, {"id": 1435007, "name": "Zerok-Alakadari", "state": "", "country": "AF", "coord": {"lon": 69.312782, "lat": 33.158058}}, {"id": 1435246, "name": "Kh\u0101n\u012b-ye \u2018Uly\u0101", "state": "", "country": "AF", "coord": {"lon": 68.530434, "lat": 33.386532}}, {"id": 1436087, "name": "P\u0101tikza\u012b Ch\u012bnah", "state": "", "country": "AF", "coord": {"lon": 67.016281, "lat": 31.56798}}, {"id": 1436610, "name": "Ch\u012bma", "state": "", "country": "IN", "coord": {"lon": 76.086304, "lat": 30.6854}}, {"id": 1436623, "name": "Fatehpur", "state": "", "country": "IN", "coord": {"lon": 76.087898, "lat": 30.642599}}, {"id": 1436767, "name": "Kheri S\u0101mpla", "state": "", "country": "IN", "coord": {"lon": 76.775284, "lat": 28.777781}}, {"id": 1437312, "name": "Kushkak", "state": "", "country": "AF", "coord": {"lon": 61.521938, "lat": 32.289909}}, {"id": 1437517, "name": "Khayr K\u014d\u1e6f", "state": "", "country": "AF", "coord": {"lon": 68.449722, "lat": 32.85355}}, {"id": 1438158, "name": "M\u012b\u0101n\u016br Kal\u0101", "state": "", "country": "AF", "coord": {"lon": 69.252777, "lat": 33.628132}}, {"id": 1438738, "name": "\u1e28am\u0101mak", "state": "", "country": "AF", "coord": {"lon": 61.87384, "lat": 31.705509}}, {"id": 1439622, "name": "Gho Br\u0101hman\u0101n de", "state": "", "country": "IN", "coord": {"lon": 74.948608, "lat": 32.555561}}, {"id": 1441210, "name": "Chhutmalpur", "state": "", "country": "IN", "coord": {"lon": 77.752502, "lat": 30.031389}}, {"id": 1442037, "name": "Borkhera", "state": "", "country": "IN", "coord": {"lon": 75.641388, "lat": 25.52083}}, {"id": 1442384, "name": "Shar\u012bf", "state": "", "country": "AF", "coord": {"lon": 66.635437, "lat": 33.46413}}, {"id": 1443470, "name": "Nagar", "state": "", "country": "IN", "coord": {"lon": 77.055283, "lat": 31.226391}}, {"id": 1444362, "name": "Vel\u0101yat-e Khowst", "state": "", "country": "AF", "coord": {"lon": 69.883331, "lat": 33.383331}}, {"id": 1444363, "name": "Vel\u0101yat-e N\u016brest\u0101n", "state": "", "country": "AF", "coord": {"lon": 70.833328, "lat": 35.299999}}, {"id": 1444364, "name": "State of Chhatt\u012bsgarh", "state": "", "country": "IN", "coord": {"lon": 82, "lat": 21.5}}, {"id": 1444365, "name": "State of Jharkhand", "state": "", "country": "IN", "coord": {"lon": 85.5, "lat": 23.75}}, {"id": 1444366, "name": "State of Uttarakhand", "state": "", "country": "IN", "coord": {"lon": 79.25, "lat": 30.25}}, {"id": 1445156, "name": "Sing\u0101pur", "state": "", "country": "IN", "coord": {"lon": 78.127502, "lat": 17.469721}}, {"id": 1445294, "name": "Dosuw\u0101da", "state": "", "country": "IN", "coord": {"lon": 78.257782, "lat": 17.266939}}, {"id": 1445310, "name": "B\u0101l\u0101pur", "state": "", "country": "IN", "coord": {"lon": 78.480003, "lat": 17.310829}}, {"id": 1445378, "name": "Ghatkesar", "state": "", "country": "IN", "coord": {"lon": 78.68528, "lat": 17.44944}}, {"id": 1445624, "name": "Chand\u016br", "state": "", "country": "IN", "coord": {"lon": 78.099442, "lat": 17.87361}}, {"id": 1447254, "name": "Qal\u2018ah-ye Now-e Sar-e R\u0113g", "state": "", "country": "AF", "coord": {"lon": 68.416389, "lat": 33.53833}}, {"id": 1447259, "name": "Jam\u2018eh \u2018Uly\u0101", "state": "", "country": "AF", "coord": {"lon": 68.426109, "lat": 33.553059}}, {"id": 1447263, "name": "Qal\u2018ah-ye \u2018Abd ul A\u1e29mad Kh\u0101n", "state": "", "country": "AF", "coord": {"lon": 68.427498, "lat": 33.53722}}, {"id": 1448087, "name": "Chow\u1e49\u00eay", "state": "", "country": "AF", "coord": {"lon": 66.272331, "lat": 33.382778}}, {"id": 1448637, "name": "Risalpur Cantonment", "state": "", "country": "PK", "coord": {"lon": 71.991661, "lat": 34.061859}}, {"id": 1451863, "name": "Wu\u1e6fahp\u016br", "state": "", "country": "AF", "coord": {"lon": 71.098633, "lat": 34.91914}}, {"id": 1452109, "name": "Karbori", "state": "", "country": "AF", "coord": {"lon": 71.274437, "lat": 34.964722}}, {"id": 1453103, "name": "Sul\u0163\u0101np\u016br-e \u2018Uly\u0101", "state": "", "country": "AF", "coord": {"lon": 70.296341, "lat": 34.412041}}, {"id": 1453226, "name": "Noorabad", "state": "", "country": "PK", "coord": {"lon": 71.96656, "lat": 34.251949}}, {"id": 1453263, "name": "Malaky\u0101r K\u00ealay", "state": "", "country": "AF", "coord": {"lon": 69.118011, "lat": 32.923309}}, {"id": 1453777, "name": "Babasakhib", "state": "", "country": "AF", "coord": {"lon": 65.66098, "lat": 31.66144}}, {"id": 1454033, "name": "Qal\u2018ah-ye Dowlat", "state": "", "country": "AF", "coord": {"lon": 69.180573, "lat": 34.581692}}, {"id": 1454590, "name": "Chandal B\u0101\u2019\u012b", "state": "", "country": "AF", "coord": {"lon": 68.95536, "lat": 34.584702}}, {"id": 1455430, "name": "Dahan-e Jarf", "state": "", "country": "AF", "coord": {"lon": 68.464172, "lat": 34.927219}}, {"id": 1456506, "name": "Siy\u0101h Kharak-e W\u0101tarmah", "state": "", "country": "AF", "coord": {"lon": 66.172211, "lat": 34.292488}}, {"id": 1456960, "name": "Maydanshakhr", "state": "", "country": "AF", "coord": {"lon": 68.86618, "lat": 34.395611}}, {"id": 1457199, "name": "\u0100kh\u016bndz\u0101dah Kh\u0113l", "state": "", "country": "AF", "coord": {"lon": 68.584442, "lat": 34.352501}}, {"id": 1457317, "name": "Sar \u0100sy\u0101b", "state": "", "country": "AF", "coord": {"lon": 67.821671, "lat": 34.8125}}, {"id": 1459084, "name": "Khal\u012bl Murdah", "state": "", "country": "AF", "coord": {"lon": 68.044724, "lat": 34.327499}}, {"id": 1459933, "name": "D\u016b La\u012bnah", "state": "", "country": "AF", "coord": {"lon": 64.78566, "lat": 34.155991}}, {"id": 1460441, "name": "Regak", "state": "", "country": "AF", "coord": {"lon": 67.503891, "lat": 34.16972}}, {"id": 1461264, "name": "Qaryah-ye Band Now", "state": "", "country": "AF", "coord": {"lon": 63.382301, "lat": 32.360828}}, {"id": 1462157, "name": "Shiwnah Takhak", "state": "", "country": "AF", "coord": {"lon": 67.011597, "lat": 34.21674}}, {"id": 1462681, "name": "Manikchari", "state": "", "country": "BD", "coord": {"lon": 91.844002, "lat": 22.840799}}, {"id": 1462711, "name": "Vadigenhalli", "state": "", "country": "IN", "coord": {"lon": 77.801666, "lat": 13.29361}}, {"id": 1462733, "name": "Adampur", "state": "", "country": "IN", "coord": {"lon": 75.717499, "lat": 31.432779}}, {"id": 1463580, "name": "Batken", "state": "", "country": "KG", "coord": {"lon": 71, "lat": 39.833328}}, {"id": 1463749, "name": "Guliston", "state": "", "country": "UZ", "coord": {"lon": 65.518929, "lat": 38.510029}}, {"id": 1464552, "name": "Qaram Q\u014dl", "state": "", "country": "AF", "coord": {"lon": 65.042992, "lat": 36.830059}}, {"id": 1464922, "name": "Pul-e \u1e28i\u015f\u0101r", "state": "", "country": "AF", "coord": {"lon": 69.471336, "lat": 35.617939}}, {"id": 1465349, "name": "Lab-Sar", "state": "", "country": "AF", "coord": {"lon": 66.83799, "lat": 36.02634}}, {"id": 1465595, "name": "Chinnasekkadu", "state": "", "country": "IN", "coord": {"lon": 80.260002, "lat": 13.16528}}, {"id": 1465622, "name": "Porur", "state": "", "country": "IN", "coord": {"lon": 80.157501, "lat": 13.03194}}, {"id": 1465624, "name": "Manappakkam", "state": "", "country": "IN", "coord": {"lon": 80.16861, "lat": 13.01083}}, {"id": 1465625, "name": "Palavantangai", "state": "", "country": "IN", "coord": {"lon": 80.191109, "lat": 12.98556}}, {"id": 1465730, "name": "Park Town", "state": "", "country": "IN", "coord": {"lon": 80.278061, "lat": 13.08194}}, {"id": 1465802, "name": "Anna Nagar", "state": "", "country": "IN", "coord": {"lon": 80.21917, "lat": 13.08278}}, {"id": 1465825, "name": "Madipakkam", "state": "", "country": "IN", "coord": {"lon": 80.209167, "lat": 12.9725}}, {"id": 1465828, "name": "Perungudi", "state": "", "country": "IN", "coord": {"lon": 80.247223, "lat": 12.97139}}, {"id": 1465868, "name": "Vengavasal", "state": "", "country": "IN", "coord": {"lon": 80.167778, "lat": 12.89972}}, {"id": 1465879, "name": "Nandambakkam", "state": "", "country": "IN", "coord": {"lon": 80.067497, "lat": 12.97944}}, {"id": 1465910, "name": "Madambakkam", "state": "", "country": "IN", "coord": {"lon": 80.046669, "lat": 12.8525}}, {"id": 1466027, "name": "Vell\u0101n\u016br", "state": "", "country": "IN", "coord": {"lon": 80.099167, "lat": 13.15444}}, {"id": 1466891, "name": "\u1e28ow\u1e95 K\u00ealay", "state": "", "country": "AF", "coord": {"lon": 65.553902, "lat": 31.41453}}, {"id": 1467349, "name": "\u0162\u0101qchah Kh\u0101nah", "state": "", "country": "AF", "coord": {"lon": 69.628052, "lat": 36.619221}}, {"id": 1467433, "name": "March", "state": "", "country": "AF", "coord": {"lon": 70.448196, "lat": 37.52845}}, {"id": 1467505, "name": "Z\u012brak\u012b", "state": "", "country": "AF", "coord": {"lon": 70.558571, "lat": 37.592121}}, {"id": 1467940, "name": "K\u014dr Chashmah", "state": "", "country": "AF", "coord": {"lon": 70.344139, "lat": 37.051189}}, {"id": 1467976, "name": "Aliabad", "state": "", "country": "AF", "coord": {"lon": 68.899849, "lat": 36.521149}}, {"id": 1467993, "name": "Qarah Qishl\u0101q", "state": "", "country": "AF", "coord": {"lon": 68.892883, "lat": 36.657059}}, {"id": 1468514, "name": "Pas Pul", "state": "", "country": "AF", "coord": {"lon": 70.61586, "lat": 37.474072}}, {"id": 1469237, "name": "Qal\u2018ah-ye Na\u2018\u012bm", "state": "", "country": "AF", "coord": {"lon": 69.166786, "lat": 34.399799}}, {"id": 1469706, "name": "Markaz-e Woluswal\u012b-ye \u0100ch\u012bn", "state": "", "country": "AF", "coord": {"lon": 70.707779, "lat": 34.125832}}, {"id": 1470705, "name": "Dahan-e Akhtah Kh\u0101nah", "state": "", "country": "AF", "coord": {"lon": 65.169777, "lat": 34.509521}}, {"id": 1473022, "name": "Nahr-e Sh\u0101h\u012b", "state": "", "country": "AF", "coord": {"lon": 70.491814, "lat": 34.414822}}, {"id": 1473390, "name": "Gangah Kh\u0113l", "state": "", "country": "AF", "coord": {"lon": 70.043488, "lat": 34.24239}}, {"id": 1473427, "name": "\u0100sm\u0101n B\u0101n\u1e0fah", "state": "", "country": "AF", "coord": {"lon": 70.091843, "lat": 34.162819}}, {"id": 1474140, "name": "Manogay", "state": "", "country": "AF", "coord": {"lon": 70.913017, "lat": 34.99015}}, {"id": 1474601, "name": "Kandah", "state": "", "country": "AF", "coord": {"lon": 70.213509, "lat": 34.572929}}, {"id": 1474856, "name": "D\u00ea Kan\u0101t-e La\u0163\u012bf", "state": "", "country": "AF", "coord": {"lon": 65.039543, "lat": 32.107262}}, {"id": 1475065, "name": "Bakhoristan", "state": "", "country": "UZ", "coord": {"lon": 67.327499, "lat": 37.294441}}, {"id": 1475271, "name": "Krasnoostrovskiy", "state": "", "country": "TJ", "coord": {"lon": 68.680717, "lat": 37.348869}}, {"id": 1476203, "name": "St\u00ear Giy\u0101n", "state": "", "country": "AF", "coord": {"lon": 69.373077, "lat": 32.977039}}, {"id": 1477362, "name": "Sylhet Division", "state": "", "country": "BD", "coord": {"lon": 91.666672, "lat": 24.5}}, {"id": 1477498, "name": "Bh\u0101nd\u0101ria", "state": "", "country": "BD", "coord": {"lon": 90.060898, "lat": 22.486099}}, {"id": 1480737, "name": "Inkyangon", "state": "", "country": "MM", "coord": {"lon": 96.30722, "lat": 17.191389}}, {"id": 1481709, "name": "Mithwegon", "state": "", "country": "MM", "coord": {"lon": 96.127777, "lat": 16.903891}}, {"id": 1481825, "name": "Botataung", "state": "", "country": "MM", "coord": {"lon": 96.16861, "lat": 16.772779}}, {"id": 1482099, "name": "Chaungbo", "state": "", "country": "MM", "coord": {"lon": 96.096939, "lat": 16.503889}}, {"id": 1482305, "name": "Alpurai", "state": "", "country": "PK", "coord": {"lon": 72.632561, "lat": 34.920582}}, {"id": 1484165, "name": "Taldykuduk", "state": "", "country": "KZ", "coord": {"lon": 73.008331, "lat": 49.663891}}, {"id": 1484838, "name": "Toshkent Viloyati", "state": "", "country": "UZ", "coord": {"lon": 69.666672, "lat": 41}}, {"id": 1484839, "name": "Toshkent Shahri", "state": "", "country": "UZ", "coord": {"lon": 69.25, "lat": 41.333328}}, {"id": 1484840, "name": "Sirdaryo Viloyati", "state": "", "country": "UZ", "coord": {"lon": 68.75, "lat": 40.5}}, {"id": 1484841, "name": "Navoiy Province", "state": "", "country": "UZ", "coord": {"lon": 64, "lat": 42}}, {"id": 1484842, "name": "Namangan Province", "state": "", "country": "UZ", "coord": {"lon": 71.247841, "lat": 40.997471}}, {"id": 1484843, "name": "Xorazm Viloyati", "state": "", "country": "UZ", "coord": {"lon": 60.5, "lat": 41.5}}, {"id": 1484844, "name": "Jizzakh Province", "state": "", "country": "UZ", "coord": {"lon": 67.666672, "lat": 40.333328}}, {"id": 1484845, "name": "Fergana", "state": "", "country": "UZ", "coord": {"lon": 71.25, "lat": 40.5}}, {"id": 1484846, "name": "Andijan", "state": "", "country": "UZ", "coord": {"lon": 72.333328, "lat": 40.75}}, {"id": 1484871, "name": "Krasnobrodskiy", "state": "", "country": "RU", "coord": {"lon": 86.448601, "lat": 54.1581}}, {"id": 1484889, "name": "Zyuzel\u2019skiy", "state": "", "country": "RU", "coord": {"lon": 60.133099, "lat": 56.4856}}, {"id": 1484892, "name": "Zyryanskoye", "state": "", "country": "RU", "coord": {"lon": 86.625801, "lat": 56.830601}}, {"id": 1484923, "name": "Zykovo", "state": "", "country": "RU", "coord": {"lon": 93.146111, "lat": 55.951939}}, {"id": 1484943, "name": "Zverinogolovskoye", "state": "", "country": "RU", "coord": {"lon": 64.854172, "lat": 54.458611}}, {"id": 1484956, "name": "Zudilovo", "state": "", "country": "RU", "coord": {"lon": 83.8937, "lat": 53.492699}}, {"id": 1484982, "name": "Zonal\u2019noye", "state": "", "country": "RU", "coord": {"lon": 84.933098, "lat": 52.6665}}, {"id": 1485020, "name": "Znamenskoye", "state": "", "country": "RU", "coord": {"lon": 73.828209, "lat": 57.128059}}, {"id": 1485042, "name": "Zmeinogorsk", "state": "", "country": "RU", "coord": {"lon": 82.195, "lat": 51.15667}}, {"id": 1485057, "name": "Zimov\u2019ye Kezhemskoye", "state": "", "country": "RU", "coord": {"lon": 99.849998, "lat": 59.966671}}, {"id": 1485193, "name": "Zheleznodorozhnyy", "state": "", "country": "RU", "coord": {"lon": 61.486698, "lat": 55.102402}}, {"id": 1485275, "name": "Zel\u00ebnyy Bor", "state": "", "country": "RU", "coord": {"lon": 91.666672, "lat": 53.666672}}, {"id": 1485284, "name": "Zelenogorskiy", "state": "", "country": "RU", "coord": {"lon": 87, "lat": 55.033329}}, {"id": 1485286, "name": "Zelenoborsk", "state": "", "country": "RU", "coord": {"lon": 64.033333, "lat": 61.466942}}, {"id": 1485312, "name": "Zdvinsk", "state": "", "country": "RU", "coord": {"lon": 78.661049, "lat": 54.702061}}, {"id": 1485323, "name": "Zaykovo", "state": "", "country": "RU", "coord": {"lon": 62.756809, "lat": 57.561298}}, {"id": 1485354, "name": "Zavodouspenskoye", "state": "", "country": "RU", "coord": {"lon": 65.015533, "lat": 56.86256}}, {"id": 1485357, "name": "Zavodoukovsk", "state": "", "country": "RU", "coord": {"lon": 66.551529, "lat": 56.5042}}, {"id": 1485389, "name": "Zaural\u2019skiy", "state": "", "country": "RU", "coord": {"lon": 61.2421, "lat": 54.7855}}, {"id": 1485397, "name": "Zaton", "state": "", "country": "RU", "coord": {"lon": 83.80722, "lat": 53.29361}}, {"id": 1485439, "name": "Zarinsk", "state": "", "country": "RU", "coord": {"lon": 84.949303, "lat": 53.707401}}, {"id": 1485445, "name": "Zarechnyy", "state": "", "country": "RU", "coord": {"lon": 61.325401, "lat": 56.811001}}, {"id": 1485470, "name": "Zapolyarnyy", "state": "", "country": "RU", "coord": {"lon": 63.75, "lat": 67.48333}}, {"id": 1485490, "name": "Zaoz\u00ebrka", "state": "", "country": "RU", "coord": {"lon": 95.818329, "lat": 56.71278}}, {"id": 1485528, "name": "Zalesovo", "state": "", "country": "RU", "coord": {"lon": 84.743057, "lat": 53.993889}}, {"id": 1485627, "name": "Yuzhnyy", "state": "", "country": "RU", "coord": {"lon": 83.693611, "lat": 53.254169}}, {"id": 1485634, "name": "Yuzhnoural\u2019sk", "state": "", "country": "RU", "coord": {"lon": 61.253601, "lat": 54.441799}}, {"id": 1485664, "name": "Yushala", "state": "", "country": "RU", "coord": {"lon": 64.260117, "lat": 57.076111}}, {"id": 1485680, "name": "Yurty", "state": "", "country": "RU", "coord": {"lon": 97.634804, "lat": 56.049801}}, {"id": 1485712, "name": "Yurginskoye", "state": "", "country": "RU", "coord": {"lon": 67.392113, "lat": 56.818878}}, {"id": 1485721, "name": "Yurgamysh", "state": "", "country": "RU", "coord": {"lon": 64.465561, "lat": 55.371391}}, {"id": 1485724, "name": "Yurga", "state": "", "country": "RU", "coord": {"lon": 84.886108, "lat": 55.723061}}, {"id": 1485793, "name": "Yugan", "state": "", "country": "RU", "coord": {"lon": 73.687798, "lat": 60.878101}}, {"id": 1485824, "name": "Yevstaf\u2019yevo", "state": "", "country": "RU", "coord": {"lon": 68.599998, "lat": 57.466667}}, {"id": 1485849, "name": "Yetkul\u2019", "state": "", "country": "RU", "coord": {"lon": 61.588001, "lat": 54.822102}}, {"id": 1485873, "name": "Yertarskiy", "state": "", "country": "RU", "coord": {"lon": 64.299522, "lat": 56.790161}}, {"id": 1485904, "name": "Yermakovskoye", "state": "", "country": "RU", "coord": {"lon": 92.400284, "lat": 53.283058}}, {"id": 1485997, "name": "Yeniseysk", "state": "", "country": "RU", "coord": {"lon": 92.17028, "lat": 58.449718}}, {"id": 1486031, "name": "Yemel\u2019yanovo", "state": "", "country": "RU", "coord": {"lon": 92.676666, "lat": 56.16806}}, {"id": 1486039, "name": "Yemanzhelinsk", "state": "", "country": "RU", "coord": {"lon": 61.320831, "lat": 54.754719}}, {"id": 1486040, "name": "Yemanzhelinka", "state": "", "country": "RU", "coord": {"lon": 61.298901, "lat": 54.800999}}, {"id": 1486093, "name": "Yelovaya", "state": "", "country": "RU", "coord": {"lon": 92.541107, "lat": 56.138611}}, {"id": 1486164, "name": "Yelanskiy", "state": "", "country": "RU", "coord": {"lon": 62.5014, "lat": 56.8419}}, {"id": 1486209, "name": "Yekaterinburg", "state": "", "country": "RU", "coord": {"lon": 60.612499, "lat": 56.857498}}, {"id": 1486261, "name": "Yaya", "state": "", "country": "RU", "coord": {"lon": 86.440002, "lat": 56.206001}}, {"id": 1486298, "name": "Yashkino", "state": "", "country": "RU", "coord": {"lon": 85.426498, "lat": 55.8736}}, {"id": 1486321, "name": "Yar-Sale", "state": "", "country": "RU", "coord": {"lon": 70.833328, "lat": 66.833328}}, {"id": 1486340, "name": "Yarovoye", "state": "", "country": "RU", "coord": {"lon": 78.580002, "lat": 52.927299}}, {"id": 1486369, "name": "Yarkovo", "state": "", "country": "RU", "coord": {"lon": 67.078613, "lat": 57.402779}}, {"id": 1486371, "name": "Yarkovo", "state": "", "country": "RU", "coord": {"lon": 82.5989, "lat": 54.805599}}, {"id": 1486462, "name": "Yamalo-Nenetskiy Avtonomnyy Okrug", "state": "", "country": "RU", "coord": {"lon": 76, "lat": 66}}, {"id": 1486468, "name": "Yalutorovsk", "state": "", "country": "RU", "coord": {"lon": 66.300583, "lat": 56.65358}}, {"id": 1486525, "name": "Yagunovskiy", "state": "", "country": "RU", "coord": {"lon": 85.977997, "lat": 55.282799}}, {"id": 1486551, "name": "Yaga", "state": "", "country": "RU", "coord": {"lon": 90.263062, "lat": 55.501671}}, {"id": 1486594, "name": "Vysotinka", "state": "", "country": "RU", "coord": {"lon": 60.116669, "lat": 60.166672}}, {"id": 1486604, "name": "Vysokiy", "state": "", "country": "RU", "coord": {"lon": 60.049999, "lat": 58.349998}}, {"id": 1486677, "name": "Vvedenskoye", "state": "", "country": "RU", "coord": {"lon": 65.084717, "lat": 55.475281}}, {"id": 1486795, "name": "Vostochnyy", "state": "", "country": "RU", "coord": {"lon": 61.813911, "lat": 58.799911}}, {"id": 1486910, "name": "Vorkuta", "state": "", "country": "RU", "coord": {"lon": 64, "lat": 67.5}}, {"id": 1486913, "name": "Vorgashor", "state": "", "country": "RU", "coord": {"lon": 63.950001, "lat": 67.583328}}, {"id": 1486983, "name": "Volchikha", "state": "", "country": "RU", "coord": {"lon": 80.383331, "lat": 52.033329}}, {"id": 1486984, "name": "Volchansk", "state": "", "country": "RU", "coord": {"lon": 60.081001, "lat": 59.937801}}, {"id": 1487022, "name": "Vlasikha", "state": "", "country": "RU", "coord": {"lon": 83.574173, "lat": 53.297218}}, {"id": 1487048, "name": "Vkhodnoy", "state": "", "country": "RU", "coord": {"lon": 73.171082, "lat": 54.951809}}, {"id": 1487074, "name": "Vishn\u00ebvogorsk", "state": "", "country": "RU", "coord": {"lon": 60.657902, "lat": 55.991299}}, {"id": 1487086, "name": "Vinzili", "state": "", "country": "RU", "coord": {"lon": 65.770798, "lat": 56.959381}}, {"id": 1487112, "name": "Vikulovo", "state": "", "country": "RU", "coord": {"lon": 70.610687, "lat": 56.816669}}, {"id": 1487164, "name": "Veseloyarsk", "state": "", "country": "RU", "coord": {"lon": 81.10556, "lat": 51.283611}}, {"id": 1487195, "name": "Vershina Tei", "state": "", "country": "RU", "coord": {"lon": 89.555, "lat": 53.26194}}, {"id": 1487214, "name": "Verkh-Suetka", "state": "", "country": "RU", "coord": {"lon": 80.050003, "lat": 53.299999}}, {"id": 1487219, "name": "Verkhotur\u2019ye", "state": "", "country": "RU", "coord": {"lon": 60.805359, "lat": 58.862709}}, {"id": 1487241, "name": "Verkh-Tula", "state": "", "country": "RU", "coord": {"lon": 82.776199, "lat": 54.8839}}, {"id": 1487260, "name": "Verkhnyaya Sysert\u2019", "state": "", "country": "RU", "coord": {"lon": 60.75, "lat": 56.437222}}, {"id": 1487272, "name": "Verkhnyaya Sinyachikha", "state": "", "country": "RU", "coord": {"lon": 61.667332, "lat": 57.97604}}, {"id": 1487277, "name": "Verkhnyaya Salda", "state": "", "country": "RU", "coord": {"lon": 60.553329, "lat": 58.045559}}, {"id": 1487281, "name": "Verkhnyaya Pyshma", "state": "", "country": "RU", "coord": {"lon": 60.58083, "lat": 56.966671}}, {"id": 1487332, "name": "Verkhnyaya Inta", "state": "", "country": "RU", "coord": {"lon": 60.309448, "lat": 65.981148}}, {"id": 1487394, "name": "Verkhniy Ufaley", "state": "", "country": "RU", "coord": {"lon": 60.23056, "lat": 56.056671}}, {"id": 1487504, "name": "Verkh-Neyvinskiy", "state": "", "country": "RU", "coord": {"lon": 60.137619, "lat": 57.27013}}, {"id": 1487520, "name": "Verkhneye Dubrovo", "state": "", "country": "RU", "coord": {"lon": 61.046799, "lat": 56.7528}}, {"id": 1487599, "name": "Verkh-Chebula", "state": "", "country": "RU", "coord": {"lon": 87.621803, "lat": 56.0308}}, {"id": 1487615, "name": "Vengerovo", "state": "", "country": "RU", "coord": {"lon": 76.74707, "lat": 55.684849}}, {"id": 1487762, "name": "Varnek", "state": "", "country": "RU", "coord": {"lon": 60.052898, "lat": 69.714203}}, {"id": 1487764, "name": "Varna", "state": "", "country": "RU", "coord": {"lon": 60.97472, "lat": 53.381939}}, {"id": 1487784, "name": "Vargashi", "state": "", "country": "RU", "coord": {"lon": 65.846672, "lat": 55.35556}}, {"id": 1487839, "name": "Vakhrushevo", "state": "", "country": "RU", "coord": {"lon": 61.7173, "lat": 55.231701}}, {"id": 1487860, "name": "Vagay", "state": "", "country": "RU", "coord": {"lon": 69.021667, "lat": 57.9375}}, {"id": 1487882, "name": "Uzhur", "state": "", "country": "RU", "coord": {"lon": 89.833893, "lat": 55.303612}}, {"id": 1487922, "name": "Uyar", "state": "", "country": "RU", "coord": {"lon": 94.315277, "lat": 55.810001}}, {"id": 1487933, "name": "Uvel\u2019skiy", "state": "", "country": "RU", "coord": {"lon": 61.357399, "lat": 54.444599}}, {"id": 1487939, "name": "Uvat", "state": "", "country": "RU", "coord": {"lon": 68.895279, "lat": 59.14333}}, {"id": 1488048, "name": "Ust\u2019-Ulagan", "state": "", "country": "RU", "coord": {"lon": 87.966667, "lat": 50.633331}}, {"id": 1488074, "name": "Ust\u2019-Tarka", "state": "", "country": "RU", "coord": {"lon": 75.705002, "lat": 55.56715}}, {"id": 1488167, "name": "Ust\u2019-Koksa", "state": "", "country": "RU", "coord": {"lon": 85.610802, "lat": 50.2696}}, {"id": 1488190, "name": "Ust\u2019-Kan", "state": "", "country": "RU", "coord": {"lon": 84.761002, "lat": 50.927601}}, {"id": 1488200, "name": "Ust\u2019-Kalmanka", "state": "", "country": "RU", "coord": {"lon": 83.305, "lat": 52.120701}}, {"id": 1488206, "name": "Ust\u2019-Ishim", "state": "", "country": "RU", "coord": {"lon": 71.166496, "lat": 57.693501}}, {"id": 1488235, "name": "Ust\u2019-Charyshskaya Pristan\u2019", "state": "", "country": "RU", "coord": {"lon": 83.663498, "lat": 52.393398}}, {"id": 1488253, "name": "Zelenogorsk", "state": "", "country": "RU", "coord": {"lon": 94.586113, "lat": 56.114719}}, {"id": 1488255, "name": "Ust\u2019-Balyk", "state": "", "country": "RU", "coord": {"lon": 72.633331, "lat": 61.066669}}, {"id": 1488258, "name": "Ust\u2019-Bagaryak", "state": "", "country": "RU", "coord": {"lon": 61.847221, "lat": 56.132778}}, {"id": 1488272, "name": "Ust\u2019-Abakan", "state": "", "country": "RU", "coord": {"lon": 91.374168, "lat": 53.852501}}, {"id": 1488288, "name": "Uspenka", "state": "", "country": "RU", "coord": {"lon": 69.22702, "lat": 56.801579}}, {"id": 1488414, "name": "Urengoy", "state": "", "country": "RU", "coord": {"lon": 78.366669, "lat": 65.966667}}, {"id": 1488429, "name": "Uray", "state": "", "country": "RU", "coord": {"lon": 64.775833, "lat": 60.124722}}, {"id": 1488458, "name": "Ural", "state": "", "country": "RU", "coord": {"lon": 94.746391, "lat": 55.90778}}, {"id": 1488465, "name": "Uporovo", "state": "", "country": "RU", "coord": {"lon": 66.269257, "lat": 56.310928}}, {"id": 1488616, "name": "Uk", "state": "", "country": "RU", "coord": {"lon": 98.858597, "lat": 55.078999}}, {"id": 1488632, "name": "Uglovskoye", "state": "", "country": "RU", "coord": {"lon": 80.194199, "lat": 51.355701}}, {"id": 1488708, "name": "Ubinskoye", "state": "", "country": "RU", "coord": {"lon": 79.680161, "lat": 55.306751}}, {"id": 1488741, "name": "Tyumentsevo", "state": "", "country": "RU", "coord": {"lon": 81.498001, "lat": 53.322399}}, {"id": 1488747, "name": "Tyumenskaya Oblast\u2019", "state": "", "country": "RU", "coord": {"lon": 68.5, "lat": 57.333332}}, {"id": 1488754, "name": "Tyumen", "state": "", "country": "RU", "coord": {"lon": 65.527222, "lat": 57.152222}}, {"id": 1488774, "name": "Tyukhtet", "state": "", "country": "RU", "coord": {"lon": 89.301109, "lat": 56.538891}}, {"id": 1488780, "name": "Tyukalinsk", "state": "", "country": "RU", "coord": {"lon": 72.196732, "lat": 55.873211}}, {"id": 1488788, "name": "Tyubuk", "state": "", "country": "RU", "coord": {"lon": 60.940498, "lat": 56.05521}}, {"id": 1488838, "name": "Tyazhinskiy", "state": "", "country": "RU", "coord": {"lon": 88.524002, "lat": 56.116001}}, {"id": 1488873, "name": "Respublika Tyva", "state": "", "country": "RU", "coord": {"lon": 95, "lat": 51.5}}, {"id": 1488903, "name": "Turukhansk", "state": "", "country": "RU", "coord": {"lon": 87.98333, "lat": 65.816673}}, {"id": 1488920, "name": "Turochak", "state": "", "country": "RU", "coord": {"lon": 87.122398, "lat": 52.257599}}, {"id": 1488931, "name": "Turinskaya Sloboda", "state": "", "country": "RU", "coord": {"lon": 64.38575, "lat": 57.623199}}, {"id": 1488933, "name": "Turinsk", "state": "", "country": "RU", "coord": {"lon": 63.696049, "lat": 58.04575}}, {"id": 1488937, "name": "Turgoyak", "state": "", "country": "RU", "coord": {"lon": 60.118328, "lat": 55.150002}}, {"id": 1488950, "name": "Turan", "state": "", "country": "RU", "coord": {"lon": 93.919167, "lat": 52.145279}}, {"id": 1489048, "name": "Tuim", "state": "", "country": "RU", "coord": {"lon": 89.926109, "lat": 54.341671}}, {"id": 1489057, "name": "Tugulym", "state": "", "country": "RU", "coord": {"lon": 64.642509, "lat": 57.059059}}, {"id": 1489125, "name": "Tsementnyy", "state": "", "country": "RU", "coord": {"lon": 60.14389, "lat": 57.467781}}, {"id": 1489126, "name": "Tsementnozavodskiy", "state": "", "country": "RU", "coord": {"lon": 64.099998, "lat": 67.616669}}, {"id": 1489137, "name": "Tselinnoye", "state": "", "country": "RU", "coord": {"lon": 63.673611, "lat": 54.50111}}, {"id": 1489138, "name": "Tselinnoye", "state": "", "country": "RU", "coord": {"lon": 85.666672, "lat": 53.083328}}, {"id": 1489162, "name": "Trud Otdykh", "state": "", "country": "RU", "coord": {"lon": 61.466671, "lat": 56.966671}}, {"id": 1489167, "name": "Trudarmeyskiy", "state": "", "country": "RU", "coord": {"lon": 86.409798, "lat": 54.132}}, {"id": 1489202, "name": "Troitsk", "state": "", "country": "RU", "coord": {"lon": 72.233688, "lat": 55.701279}}, {"id": 1489209, "name": "Troitskoye", "state": "", "country": "RU", "coord": {"lon": 84.675697, "lat": 52.982101}}, {"id": 1489218, "name": "Troitskiy", "state": "", "country": "RU", "coord": {"lon": 63.748112, "lat": 57.06028}}, {"id": 1489246, "name": "Troitsk", "state": "", "country": "RU", "coord": {"lon": 61.577301, "lat": 54.0979}}, {"id": 1489394, "name": "Topki", "state": "", "country": "RU", "coord": {"lon": 85.616302, "lat": 55.276901}}, {"id": 1489398, "name": "Topchikha", "state": "", "country": "RU", "coord": {"lon": 83.1185, "lat": 52.819199}}, {"id": 1489401, "name": "Toora-Khem", "state": "", "country": "RU", "coord": {"lon": 96.110001, "lat": 52.467499}}, {"id": 1489421, "name": "Tomskaya Oblast\u2019", "state": "", "country": "RU", "coord": {"lon": 82.5, "lat": 58.5}}, {"id": 1489423, "name": "Tomskaya", "state": "", "country": "RU", "coord": {"lon": 64.19014, "lat": 58.784431}}, {"id": 1489425, "name": "Tomsk", "state": "", "country": "RU", "coord": {"lon": 84.966667, "lat": 56.5}}, {"id": 1489474, "name": "Tolmach\u00ebvo", "state": "", "country": "RU", "coord": {"lon": 82.736298, "lat": 54.982399}}, {"id": 1489499, "name": "Togur", "state": "", "country": "RU", "coord": {"lon": 82.8265, "lat": 58.363098}}, {"id": 1489504, "name": "Togul", "state": "", "country": "RU", "coord": {"lon": 85.912804, "lat": 53.465}}, {"id": 1489508, "name": "Toguchin", "state": "", "country": "RU", "coord": {"lon": 84.385834, "lat": 55.235279}}, {"id": 1489530, "name": "Tobol\u2019sk", "state": "", "country": "RU", "coord": {"lon": 68.26667, "lat": 58.200001}}, {"id": 1489554, "name": "Tisul\u2019", "state": "", "country": "RU", "coord": {"lon": 88.312218, "lat": 55.761108}}, {"id": 1489571, "name": "Tinskoy", "state": "", "country": "RU", "coord": {"lon": 96.916107, "lat": 56.1525}}, {"id": 1489597, "name": "Timiryazevskoye", "state": "", "country": "RU", "coord": {"lon": 84.876938, "lat": 56.490002}}, {"id": 1489656, "name": "Teya", "state": "", "country": "RU", "coord": {"lon": 92.626671, "lat": 60.377781}}, {"id": 1489661, "name": "Tevriz", "state": "", "country": "RU", "coord": {"lon": 72.404198, "lat": 57.508999}}, {"id": 1489779, "name": "Temirtau", "state": "", "country": "RU", "coord": {"lon": 87.453796, "lat": 53.137699}}, {"id": 1489822, "name": "Tegul\u2019det", "state": "", "country": "RU", "coord": {"lon": 88.166672, "lat": 57.306389}}, {"id": 1489828, "name": "Teeli", "state": "", "country": "RU", "coord": {"lon": 90.23333, "lat": 51.033329}}, {"id": 1489853, "name": "Tazovsky", "state": "", "country": "RU", "coord": {"lon": 78.699997, "lat": 67.466667}}, {"id": 1489863, "name": "Tayzhina", "state": "", "country": "RU", "coord": {"lon": 87.436203, "lat": 53.6679}}, {"id": 1489870, "name": "Tayshet", "state": "", "country": "RU", "coord": {"lon": 98.004402, "lat": 55.9342}}, {"id": 1489900, "name": "Tayginka", "state": "", "country": "RU", "coord": {"lon": 60.507599, "lat": 55.624401}}, {"id": 1489907, "name": "Tayga", "state": "", "country": "RU", "coord": {"lon": 85.61972, "lat": 56.060001}}, {"id": 1489938, "name": "Tavricheskoye", "state": "", "country": "RU", "coord": {"lon": 73.639503, "lat": 54.585079}}, {"id": 1489962, "name": "Tavda", "state": "", "country": "RU", "coord": {"lon": 65.272583, "lat": 58.042542}}, {"id": 1490001, "name": "Tatarskaya", "state": "", "country": "RU", "coord": {"lon": 93.214722, "lat": 56.315281}}, {"id": 1490003, "name": "Tatarsk", "state": "", "country": "RU", "coord": {"lon": 75.982841, "lat": 55.21904}}, {"id": 1490036, "name": "Tashtyp", "state": "", "country": "RU", "coord": {"lon": 89.898331, "lat": 52.793892}}, {"id": 1490042, "name": "Tashtagol", "state": "", "country": "RU", "coord": {"lon": 87.889397, "lat": 52.765701}}, {"id": 1490053, "name": "Kalinino", "state": "", "country": "RU", "coord": {"lon": 91.387497, "lat": 53.738331}}, {"id": 1490054, "name": "Tashara", "state": "", "country": "RU", "coord": {"lon": 83.509399, "lat": 55.519501}}, {"id": 1490055, "name": "Tashanta", "state": "", "country": "RU", "coord": {"lon": 89.183327, "lat": 49.716671}}, {"id": 1490058, "name": "Taseyevo", "state": "", "country": "RU", "coord": {"lon": 94.897781, "lat": 57.216942}}, {"id": 1490085, "name": "Tarko-Sale", "state": "", "country": "RU", "coord": {"lon": 77.785004, "lat": 64.922501}}, {"id": 1490140, "name": "Tara", "state": "", "country": "RU", "coord": {"lon": 74.370956, "lat": 56.89436}}, {"id": 1490256, "name": "Talnakh", "state": "", "country": "RU", "coord": {"lon": 88.397202, "lat": 69.486504}}, {"id": 1490266, "name": "Tal\u2019menka", "state": "", "country": "RU", "coord": {"lon": 83.567703, "lat": 53.818298}}, {"id": 1490277, "name": "Talitsa", "state": "", "country": "RU", "coord": {"lon": 60.021301, "lat": 56.880402}}, {"id": 1490281, "name": "Talitsa", "state": "", "country": "RU", "coord": {"lon": 63.73254, "lat": 57.010948}}, {"id": 1490356, "name": "Tabuny", "state": "", "country": "RU", "coord": {"lon": 78.789597, "lat": 52.777302}}, {"id": 1490364, "name": "Tabory", "state": "", "country": "RU", "coord": {"lon": 64.549469, "lat": 58.519821}}, {"id": 1490402, "name": "Sysert\u2019", "state": "", "country": "RU", "coord": {"lon": 60.819172, "lat": 56.495281}}, {"id": 1490496, "name": "Svetlyy", "state": "", "country": "RU", "coord": {"lon": 85.966667, "lat": 56.916672}}, {"id": 1490501, "name": "Svetlyy", "state": "", "country": "RU", "coord": {"lon": 60.85194, "lat": 50.818329}}, {"id": 1490516, "name": "Svetlogorsk", "state": "", "country": "RU", "coord": {"lon": 88.349998, "lat": 66.916672}}, {"id": 1490542, "name": "Sverdlovskaya Oblast\u2019", "state": "", "country": "RU", "coord": {"lon": 62, "lat": 58}}, {"id": 1490551, "name": "Suzun", "state": "", "country": "RU", "coord": {"lon": 82.3116, "lat": 53.7841}}, {"id": 1490590, "name": "Sut-Khol\u2019", "state": "", "country": "RU", "coord": {"lon": 91.283333, "lat": 51.400002}}, {"id": 1490591, "name": "Suslovo", "state": "", "country": "RU", "coord": {"lon": 88.116669, "lat": 56.216671}}, {"id": 1490617, "name": "Surikova", "state": "", "country": "RU", "coord": {"lon": 91.398613, "lat": 56.985279}}, {"id": 1490624, "name": "Surgut", "state": "", "country": "RU", "coord": {"lon": 73.416672, "lat": 61.25}}, {"id": 1490655, "name": "Sumkino", "state": "", "country": "RU", "coord": {"lon": 68.32444, "lat": 58.110828}}, {"id": 1490656, "name": "Sumki", "state": "", "country": "RU", "coord": {"lon": 65.731392, "lat": 55.04583}}, {"id": 1490676, "name": "Sukpak", "state": "", "country": "RU", "coord": {"lon": 94.633331, "lat": 51.666672}}, {"id": 1490686, "name": "Sukhoy Log", "state": "", "country": "RU", "coord": {"lon": 62.029598, "lat": 56.909401}}, {"id": 1490711, "name": "Sukhobuzimskoye", "state": "", "country": "RU", "coord": {"lon": 93.272781, "lat": 56.5}}, {"id": 1490796, "name": "Strezhevoy", "state": "", "country": "RU", "coord": {"lon": 77.588898, "lat": 60.733299}}, {"id": 1490805, "name": "Strelka", "state": "", "country": "RU", "coord": {"lon": 93.034439, "lat": 58.072781}}, {"id": 1490918, "name": "Staryy Nadym", "state": "", "country": "RU", "coord": {"lon": 72.684174, "lat": 65.611816}}, {"id": 1490962, "name": "Staropyshminsk", "state": "", "country": "RU", "coord": {"lon": 60.90295, "lat": 56.938671}}, {"id": 1490966, "name": "Staropesterevo", "state": "", "country": "RU", "coord": {"lon": 86.409401, "lat": 54.500099}}, {"id": 1490980, "name": "Starokuznetsk", "state": "", "country": "RU", "coord": {"lon": 87.166664, "lat": 53.75}}, {"id": 1491004, "name": "Starobachaty", "state": "", "country": "RU", "coord": {"lon": 86.207199, "lat": 54.2425}}, {"id": 1491006, "name": "Staroaleyskoye", "state": "", "country": "RU", "coord": {"lon": 82, "lat": 51.006111}}, {"id": 1491053, "name": "Stantsionnyy-Polevskoy", "state": "", "country": "RU", "coord": {"lon": 60.315601, "lat": 56.4412}}, {"id": 1491055, "name": "Stantsionno-Oyashinskiy", "state": "", "country": "RU", "coord": {"lon": 83.824501, "lat": 55.4664}}, {"id": 1491088, "name": "Srostki", "state": "", "country": "RU", "coord": {"lon": 85.702217, "lat": 52.418892}}, {"id": 1491159, "name": "Sredneuralsk", "state": "", "country": "RU", "coord": {"lon": 60.466621, "lat": 56.989208}}, {"id": 1491197, "name": "Spassk", "state": "", "country": "RU", "coord": {"lon": 87.754501, "lat": 52.747002}}, {"id": 1491215, "name": "Sovkhoznyy", "state": "", "country": "RU", "coord": {"lon": 61.425999, "lat": 56.559898}}, {"id": 1491219, "name": "Sovetskoye", "state": "", "country": "RU", "coord": {"lon": 85.413063, "lat": 52.28611}}, {"id": 1491229, "name": "Sovetskiy", "state": "", "country": "RU", "coord": {"lon": 64.416672, "lat": 67.48333}}, {"id": 1491230, "name": "Sovetskiy", "state": "", "country": "RU", "coord": {"lon": 63.584171, "lat": 61.361389}}, {"id": 1491267, "name": "Sos\u2019va", "state": "", "country": "RU", "coord": {"lon": 61.855789, "lat": 59.17662}}, {"id": 1491291, "name": "Sosnovoborsk", "state": "", "country": "RU", "coord": {"lon": 93.358887, "lat": 56.1325}}, {"id": 1491360, "name": "Sorsk", "state": "", "country": "RU", "coord": {"lon": 90.246674, "lat": 54.00333}}, {"id": 1491378, "name": "Sorokino", "state": "", "country": "RU", "coord": {"lon": 84.916672, "lat": 53.75}}, {"id": 1491428, "name": "Solton", "state": "", "country": "RU", "coord": {"lon": 86.478699, "lat": 52.842899}}, {"id": 1491461, "name": "Soloneshnoye", "state": "", "country": "RU", "coord": {"lon": 84.319702, "lat": 51.6544}}, {"id": 1491481, "name": "Solnechnyy", "state": "", "country": "RU", "coord": {"lon": 61.5327, "lat": 55.324501}}, {"id": 1491519, "name": "Soldatkino", "state": "", "country": "RU", "coord": {"lon": 88.630829, "lat": 55.48111}}, {"id": 1491525, "name": "Sokur", "state": "", "country": "RU", "coord": {"lon": 83.319, "lat": 55.209301}}, {"id": 1491535, "name": "Sokolovo", "state": "", "country": "RU", "coord": {"lon": 84.789597, "lat": 52.531799}}, {"id": 1491600, "name": "Snezhnogorsk", "state": "", "country": "RU", "coord": {"lon": 87.739998, "lat": 68.093063}}, {"id": 1491633, "name": "Smolenskoye", "state": "", "country": "RU", "coord": {"lon": 85.078056, "lat": 52.30444}}, {"id": 1491704, "name": "Slavgorodskoye", "state": "", "country": "RU", "coord": {"lon": 78.643501, "lat": 53.0214}}, {"id": 1491706, "name": "Slavgorod", "state": "", "country": "RU", "coord": {"lon": 78.644897, "lat": 52.997799}}, {"id": 1491719, "name": "Sladkovo", "state": "", "country": "RU", "coord": {"lon": 70.338539, "lat": 55.528351}}, {"id": 1491762, "name": "Skala", "state": "", "country": "RU", "coord": {"lon": 82.776199, "lat": 55.377399}}, {"id": 1491953, "name": "Shushenskoye", "state": "", "country": "RU", "coord": {"lon": 91.935562, "lat": 53.325001}}, {"id": 1491977, "name": "Shumskiy", "state": "", "country": "RU", "coord": {"lon": 99.132797, "lat": 54.831799}}, {"id": 1491999, "name": "Shumikha", "state": "", "country": "RU", "coord": {"lon": 63.296108, "lat": 55.226109}}, {"id": 1492021, "name": "Shukhovo", "state": "", "country": "RU", "coord": {"lon": 73.488609, "lat": 57.234169}}, {"id": 1492053, "name": "Shoshino", "state": "", "country": "RU", "coord": {"lon": 92.433327, "lat": 53.816669}}, {"id": 1492110, "name": "Shitkino", "state": "", "country": "RU", "coord": {"lon": 98.354301, "lat": 56.3703}}, {"id": 1492142, "name": "Shirokaya Rechka", "state": "", "country": "RU", "coord": {"lon": 60.485222, "lat": 56.79858}}, {"id": 1492149, "name": "Shira", "state": "", "country": "RU", "coord": {"lon": 89.953056, "lat": 54.491112}}, {"id": 1492160, "name": "Shipunovo", "state": "", "country": "RU", "coord": {"lon": 82.2173, "lat": 52.158199}}, {"id": 1492252, "name": "Sheregesh", "state": "", "country": "RU", "coord": {"lon": 87.9869, "lat": 52.920898}}, {"id": 1492255, "name": "Sherbakul\u2019", "state": "", "country": "RU", "coord": {"lon": 72.396347, "lat": 54.63158}}, {"id": 1492281, "name": "Shelabolikha", "state": "", "country": "RU", "coord": {"lon": 82.616699, "lat": 53.413101}}, {"id": 1492299, "name": "Shebalino", "state": "", "country": "RU", "coord": {"lon": 85.677223, "lat": 51.291672}}, {"id": 1492342, "name": "Shchelkun", "state": "", "country": "RU", "coord": {"lon": 60.948311, "lat": 56.303379}}, {"id": 1492388, "name": "Shatrovo", "state": "", "country": "RU", "coord": {"lon": 64.633331, "lat": 56.51667}}, {"id": 1492401, "name": "Sharypovo", "state": "", "country": "RU", "coord": {"lon": 89.200829, "lat": 55.540279}}, {"id": 1492466, "name": "Shalinskoye", "state": "", "country": "RU", "coord": {"lon": 93.759438, "lat": 55.722778}}, {"id": 1492499, "name": "Shagonar", "state": "", "country": "RU", "coord": {"lon": 92.800003, "lat": 51.533329}}, {"id": 1492517, "name": "Shadrinsk", "state": "", "country": "RU", "coord": {"lon": 63.633499, "lat": 56.085201}}, {"id": 1492536, "name": "Shabrovskiy", "state": "", "country": "RU", "coord": {"lon": 60.58065, "lat": 56.635971}}, {"id": 1492566, "name": "Severo-Yeniseyskiy", "state": "", "country": "RU", "coord": {"lon": 93.040833, "lat": 60.372501}}, {"id": 1492607, "name": "Severnoye", "state": "", "country": "RU", "coord": {"lon": 78.361893, "lat": 56.349121}}, {"id": 1492637, "name": "Severka", "state": "", "country": "RU", "coord": {"lon": 60.301498, "lat": 56.868801}}, {"id": 1492663, "name": "Serov", "state": "", "country": "RU", "coord": {"lon": 60.578701, "lat": 59.60334}}, {"id": 1492782, "name": "Sem\u00ebnovka", "state": "", "country": "RU", "coord": {"lon": 62.016651, "lat": 58.015091}}, {"id": 1492810, "name": "Seliyarovo", "state": "", "country": "RU", "coord": {"lon": 70.342499, "lat": 61.290562}}, {"id": 1492811, "name": "Seliv\u00ebrstovo", "state": "", "country": "RU", "coord": {"lon": 80.966667, "lat": 52.299999}}, {"id": 1492827, "name": "Novoselezn\u00ebvo", "state": "", "country": "RU", "coord": {"lon": 69.20562, "lat": 55.682072}}, {"id": 1492891, "name": "Sayansk", "state": "", "country": "RU", "coord": {"lon": 91.885002, "lat": 54.150002}}, {"id": 1492893, "name": "Sayanogorsk", "state": "", "country": "RU", "coord": {"lon": 91.399719, "lat": 53.087502}}, {"id": 1492948, "name": "Saryg-Sep", "state": "", "country": "RU", "coord": {"lon": 95.599998, "lat": 51.5}}, {"id": 1492972, "name": "Sartykov", "state": "", "country": "RU", "coord": {"lon": 91.17556, "lat": 53.467499}}, {"id": 1493004, "name": "Sargatskoye", "state": "", "country": "RU", "coord": {"lon": 73.497162, "lat": 55.610062}}, {"id": 1493044, "name": "Sarapulka", "state": "", "country": "RU", "coord": {"lon": 61.055199, "lat": 56.867802}}, {"id": 1493049, "name": "Saranpaul\u2019", "state": "", "country": "RU", "coord": {"lon": 60.916672, "lat": 64.26667}}, {"id": 1493083, "name": "Sannikovo", "state": "", "country": "RU", "coord": {"lon": 83.974899, "lat": 53.344799}}, {"id": 1493110, "name": "Samus\u2019", "state": "", "country": "RU", "coord": {"lon": 84.699173, "lat": 56.747501}}, {"id": 1493155, "name": "Samagaltay", "state": "", "country": "RU", "coord": {"lon": 95.0047, "lat": 50.6022}}, {"id": 1493162, "name": "Salym", "state": "", "country": "RU", "coord": {"lon": 71.478889, "lat": 60.0625}}, {"id": 1493197, "name": "Salekhard", "state": "", "country": "RU", "coord": {"lon": 66.601936, "lat": 66.529999}}, {"id": 1493224, "name": "Salair", "state": "", "country": "RU", "coord": {"lon": 85.797203, "lat": 54.231201}}, {"id": 1493241, "name": "Sakhal\u2019", "state": "", "country": "RU", "coord": {"lon": 71.033333, "lat": 61.299999}}, {"id": 1493268, "name": "Safakulevo", "state": "", "country": "RU", "coord": {"lon": 62.544201, "lat": 54.990101}}, {"id": 1493273, "name": "Sovkhoznyy", "state": "", "country": "RU", "coord": {"lon": 60.549381, "lat": 56.763741}}, {"id": 1493308, "name": "Rynkova Ye. V.", "state": "", "country": "RU", "coord": {"lon": 74.466667, "lat": 62.200001}}, {"id": 1493313, "name": "Rynkova F.", "state": "", "country": "RU", "coord": {"lon": 72.449997, "lat": 61.599998}}, {"id": 1493314, "name": "Rynki", "state": "", "country": "RU", "coord": {"lon": 67.712219, "lat": 55.179722}}, {"id": 1493378, "name": "Ryazansk", "state": "", "country": "RU", "coord": {"lon": 78.925438, "lat": 56.003479}}, {"id": 1493423, "name": "Russkaya Polyana", "state": "", "country": "RU", "coord": {"lon": 73.880562, "lat": 53.779442}}, {"id": 1493457, "name": "Rudnichnyy", "state": "", "country": "RU", "coord": {"lon": 60.28817, "lat": 59.70118}}, {"id": 1493458, "name": "Rudnichnyy", "state": "", "country": "RU", "coord": {"lon": 86.251701, "lat": 56.083698}}, {"id": 1493467, "name": "Rubtsovsk", "state": "", "country": "RU", "coord": {"lon": 81.25, "lat": 51.5}}, {"id": 1493511, "name": "Roza", "state": "", "country": "RU", "coord": {"lon": 61.458599, "lat": 54.916302}}, {"id": 1493523, "name": "Rostovka", "state": "", "country": "RU", "coord": {"lon": 71.88913, "lat": 55.384201}}, {"id": 1493554, "name": "Roshchino", "state": "", "country": "RU", "coord": {"lon": 73.033333, "lat": 54.700001}}, {"id": 1493577, "name": "Romanovo", "state": "", "country": "RU", "coord": {"lon": 81.227097, "lat": 52.618198}}, {"id": 1493623, "name": "Rodino", "state": "", "country": "RU", "coord": {"lon": 80.25, "lat": 52.5}}, {"id": 1493648, "name": "Rezh", "state": "", "country": "RU", "coord": {"lon": 61.404282, "lat": 57.370049}}, {"id": 1493657, "name": "Respublikanskiy", "state": "", "country": "RU", "coord": {"lon": 80.773613, "lat": 54.273331}}, {"id": 1493687, "name": "Reftinskiy", "state": "", "country": "RU", "coord": {"lon": 61.676922, "lat": 57.09013}}, {"id": 1493691, "name": "Redut\u2019", "state": "", "country": "RU", "coord": {"lon": 64.926941, "lat": 54.653061}}, {"id": 1493707, "name": "Rechkunovskiy", "state": "", "country": "RU", "coord": {"lon": 83.080902, "lat": 54.787498}}, {"id": 1493722, "name": "Rebrikha", "state": "", "country": "RU", "coord": {"lon": 82.340828, "lat": 53.07333}}, {"id": 1493756, "name": "Razdolinsk", "state": "", "country": "RU", "coord": {"lon": 94.665833, "lat": 58.421108}}, {"id": 1493783, "name": "Rassvet", "state": "", "country": "RU", "coord": {"lon": 91.478607, "lat": 57.005001}}, {"id": 1493855, "name": "Rabochiy", "state": "", "country": "RU", "coord": {"lon": 79, "lat": 59.083328}}, {"id": 1493870, "name": "Pyshma", "state": "", "country": "RU", "coord": {"lon": 63.251289, "lat": 56.952259}}, {"id": 1494071, "name": "Prosvet", "state": "", "country": "RU", "coord": {"lon": 65.082497, "lat": 55.570278}}, {"id": 1494088, "name": "Promyshlennyy", "state": "", "country": "RU", "coord": {"lon": 63.916672, "lat": 67.583328}}, {"id": 1494090, "name": "Promyshlennovskiy", "state": "", "country": "RU", "coord": {"lon": 86.199997, "lat": 55.48333}}, {"id": 1494091, "name": "Promyshlennaya", "state": "", "country": "RU", "coord": {"lon": 85.638496, "lat": 54.915901}}, {"id": 1494111, "name": "Prokudskoye", "state": "", "country": "RU", "coord": {"lon": 82.457397, "lat": 55.0089}}, {"id": 1494114, "name": "Prokop\u2019yevsk", "state": "", "country": "RU", "coord": {"lon": 86.719002, "lat": 53.905899}}, {"id": 1494156, "name": "Pritomskiy", "state": "", "country": "RU", "coord": {"lon": 87.6082, "lat": 53.7724}}, {"id": 1494190, "name": "Priiskovoe", "state": "", "country": "RU", "coord": {"lon": 88.687218, "lat": 54.656109}}, {"id": 1494237, "name": "Predivinsk", "state": "", "country": "RU", "coord": {"lon": 93.437782, "lat": 57.06694}}, {"id": 1494239, "name": "Prigorodnyy", "state": "", "country": "RU", "coord": {"lon": 85.243889, "lat": 52.572498}}, {"id": 1494276, "name": "Poykovskiy", "state": "", "country": "RU", "coord": {"lon": 73.333328, "lat": 61.23333}}, {"id": 1494309, "name": "Potanino", "state": "", "country": "RU", "coord": {"lon": 61.6222, "lat": 55.1786}}, {"id": 1494326, "name": "Pospelova", "state": "", "country": "RU", "coord": {"lon": 66.071068, "lat": 56.234989}}, {"id": 1494331, "name": "Pospelikha", "state": "", "country": "RU", "coord": {"lon": 81.76667, "lat": 51.950001}}, {"id": 1494335, "name": "Posol", "state": "", "country": "RU", "coord": {"lon": 62.994999, "lat": 60.059441}}, {"id": 1494346, "name": "Pos\u00eblok Rabochiy", "state": "", "country": "RU", "coord": {"lon": 60.599998, "lat": 56.849998}}, {"id": 1494456, "name": "Polysayevo", "state": "", "country": "RU", "coord": {"lon": 86.245903, "lat": 54.6012}}, {"id": 1494463, "name": "Polyarnyy", "state": "", "country": "RU", "coord": {"lon": 86.616669, "lat": 67.449997}}, {"id": 1494482, "name": "Polunochnoye", "state": "", "country": "RU", "coord": {"lon": 60.415279, "lat": 60.86972}}, {"id": 1494500, "name": "Poltavka", "state": "", "country": "RU", "coord": {"lon": 71.763191, "lat": 54.366291}}, {"id": 1494523, "name": "Polovinnoye", "state": "", "country": "RU", "coord": {"lon": 65.986389, "lat": 54.791389}}, {"id": 1494525, "name": "Polovinnoye", "state": "", "country": "RU", "coord": {"lon": 79.243271, "lat": 53.75671}}, {"id": 1494554, "name": "Polnovat", "state": "", "country": "RU", "coord": {"lon": 65.909172, "lat": 63.78833}}, {"id": 1494573, "name": "Polevskoy", "state": "", "country": "RU", "coord": {"lon": 60.187778, "lat": 56.442219}}, {"id": 1494587, "name": "Poletayevo", "state": "", "country": "RU", "coord": {"lon": 61.1138, "lat": 55.0336}}, {"id": 1494603, "name": "Pokrovskoye", "state": "", "country": "RU", "coord": {"lon": 61.6092, "lat": 56.470402}}, {"id": 1494739, "name": "Podsosnovo", "state": "", "country": "RU", "coord": {"lon": 78.918404, "lat": 53.372101}}, {"id": 1494745, "name": "Podsineye", "state": "", "country": "RU", "coord": {"lon": 91.536392, "lat": 53.665829}}, {"id": 1494790, "name": "Podgornoye", "state": "", "country": "RU", "coord": {"lon": 82.651939, "lat": 57.788609}}, {"id": 1494905, "name": "Platina", "state": "", "country": "RU", "coord": {"lon": 60.191109, "lat": 58.641109}}, {"id": 1494907, "name": "Plast", "state": "", "country": "RU", "coord": {"lon": 60.81361, "lat": 54.369141}}, {"id": 1494941, "name": "Pirovskoye", "state": "", "country": "RU", "coord": {"lon": 92.265831, "lat": 57.626671}}, {"id": 1494949, "name": "Pionerskiy", "state": "", "country": "RU", "coord": {"lon": 62.868889, "lat": 61.194721}}, {"id": 1494955, "name": "Pioner", "state": "", "country": "RU", "coord": {"lon": 85.950798, "lat": 55.316601}}, {"id": 1495022, "name": "Petukhovo", "state": "", "country": "RU", "coord": {"lon": 67.901947, "lat": 55.069168}}, {"id": 1495101, "name": "Petropavlovskoye", "state": "", "country": "RU", "coord": {"lon": 84.107002, "lat": 52.071201}}, {"id": 1495144, "name": "Petrokamenskoye", "state": "", "country": "RU", "coord": {"lon": 60.648399, "lat": 57.716}}, {"id": 1495148, "name": "Petrogradskiy", "state": "", "country": "RU", "coord": {"lon": 80.01667, "lat": 54.933334}}, {"id": 1495256, "name": "Pervomayskoye", "state": "", "country": "RU", "coord": {"lon": 86.2313, "lat": 57.076099}}, {"id": 1495259, "name": "Pervomayskoye", "state": "", "country": "RU", "coord": {"lon": 84.018333, "lat": 53.721111}}, {"id": 1495260, "name": "Pervomayskiy", "state": "", "country": "RU", "coord": {"lon": 81.662399, "lat": 52.917301}}, {"id": 1495385, "name": "Pelym", "state": "", "country": "RU", "coord": {"lon": 61.99778, "lat": 61.01083}}, {"id": 1495448, "name": "Pavlovsk", "state": "", "country": "RU", "coord": {"lon": 82.982224, "lat": 53.318611}}, {"id": 1495480, "name": "Pavlogradka", "state": "", "country": "RU", "coord": {"lon": 73.559196, "lat": 54.2024}}, {"id": 1495483, "name": "Pavino", "state": "", "country": "RU", "coord": {"lon": 82.615997, "lat": 55.0131}}, {"id": 1495538, "name": "Partizanskoye", "state": "", "country": "RU", "coord": {"lon": 94.389999, "lat": 55.500561}}, {"id": 1495561, "name": "Parizh", "state": "", "country": "RU", "coord": {"lon": 60.100498, "lat": 53.297401}}, {"id": 1495586, "name": "Parabel\u2019", "state": "", "country": "RU", "coord": {"lon": 81.482498, "lat": 58.697781}}, {"id": 1495613, "name": "Pankrushikha", "state": "", "country": "RU", "coord": {"lon": 80.340561, "lat": 53.83194}}, {"id": 1495626, "name": "Pangody", "state": "", "country": "RU", "coord": {"lon": 74.485931, "lat": 65.850021}}, {"id": 1495797, "name": "Ovsyanka", "state": "", "country": "RU", "coord": {"lon": 92.551941, "lat": 55.9575}}, {"id": 1495812, "name": "Ous", "state": "", "country": "RU", "coord": {"lon": 61.518608, "lat": 60.90583}}, {"id": 1495859, "name": "Ostrovskaya Ploshchadka", "state": "", "country": "RU", "coord": {"lon": 87.150002, "lat": 53.766666}}, {"id": 1495939, "name": "Osinovo", "state": "", "country": "RU", "coord": {"lon": 89.75, "lat": 61.383331}}, {"id": 1495974, "name": "Osinniki", "state": "", "country": "RU", "coord": {"lon": 87.359802, "lat": 53.623901}}, {"id": 1496005, "name": "Orton", "state": "", "country": "RU", "coord": {"lon": 88.618889, "lat": 53.206108}}, {"id": 1496073, "name": "Orlik", "state": "", "country": "RU", "coord": {"lon": 99.824997, "lat": 52.517799}}, {"id": 1496100, "name": "Ordynskoye", "state": "", "country": "RU", "coord": {"lon": 81.899399, "lat": 54.365601}}, {"id": 1496124, "name": "Onokhino", "state": "", "country": "RU", "coord": {"lon": 65.539398, "lat": 56.925011}}, {"id": 1496130, "name": "Onguday", "state": "", "country": "RU", "coord": {"lon": 86.150002, "lat": 50.75}}, {"id": 1496142, "name": "Omutinskiy", "state": "", "country": "RU", "coord": {"lon": 67.670868, "lat": 56.474529}}, {"id": 1496152, "name": "Omskaya Oblast\u2019", "state": "", "country": "RU", "coord": {"lon": 73, "lat": 56}}, {"id": 1496153, "name": "Omsk", "state": "", "country": "RU", "coord": {"lon": 73.400002, "lat": 55}}, {"id": 1496329, "name": "Okoneshnikovo", "state": "", "country": "RU", "coord": {"lon": 75.083427, "lat": 54.837669}}, {"id": 1496357, "name": "Ogni", "state": "", "country": "RU", "coord": {"lon": 83.541199, "lat": 51.909401}}, {"id": 1496380, "name": "Odesskoye", "state": "", "country": "RU", "coord": {"lon": 72.965103, "lat": 54.211102}}, {"id": 1496421, "name": "Ob\u2019", "state": "", "country": "RU", "coord": {"lon": 82.716599, "lat": 54.987202}}, {"id": 1496441, "name": "Nyda", "state": "", "country": "RU", "coord": {"lon": 72.922783, "lat": 66.624718}}, {"id": 1496476, "name": "Nyagan", "state": "", "country": "RU", "coord": {"lon": 65.393608, "lat": 62.14056}}, {"id": 1496503, "name": "Noyabrsk", "state": "", "country": "RU", "coord": {"lon": 75.450668, "lat": 63.19936}}, {"id": 1496511, "name": "Novyy Urengoy", "state": "", "country": "RU", "coord": {"lon": 76.633331, "lat": 66.083328}}, {"id": 1496588, "name": "Novaya Zaimka", "state": "", "country": "RU", "coord": {"lon": 66.924118, "lat": 56.485722}}, {"id": 1496633, "name": "Novovarshavka", "state": "", "country": "RU", "coord": {"lon": 74.694603, "lat": 54.1721}}, {"id": 1496738, "name": "Novosineglazovskiy", "state": "", "country": "RU", "coord": {"lon": 61.3792, "lat": 55.0401}}, {"id": 1496739, "name": "Novosilikatnyy", "state": "", "country": "RU", "coord": {"lon": 83.623894, "lat": 53.309719}}, {"id": 1496745, "name": "Novosibirskaya Oblast\u2019", "state": "", "country": "RU", "coord": {"lon": 80, "lat": 55}}, {"id": 1496747, "name": "Novosibirsk", "state": "", "country": "RU", "coord": {"lon": 82.934441, "lat": 55.041111}}, {"id": 1496889, "name": "Novoomskiy", "state": "", "country": "RU", "coord": {"lon": 73.301743, "lat": 54.841518}}, {"id": 1496976, "name": "Novolugovoye", "state": "", "country": "RU", "coord": {"lon": 83.1138, "lat": 54.979198}}, {"id": 1496990, "name": "Novokuznetsk", "state": "", "country": "RU", "coord": {"lon": 87.109901, "lat": 53.755699}}, {"id": 1497017, "name": "Novokopylovo", "state": "", "country": "RU", "coord": {"lon": 84.335564, "lat": 53.505001}}, {"id": 1497095, "name": "Novogornyy", "state": "", "country": "RU", "coord": {"lon": 60.791901, "lat": 55.630001}}, {"id": 1497132, "name": "Novochernorechenskiy", "state": "", "country": "RU", "coord": {"lon": 91.082779, "lat": 56.266941}}, {"id": 1497142, "name": "Novobiryusinskiy", "state": "", "country": "RU", "coord": {"lon": 97.707603, "lat": 56.957802}}, {"id": 1497163, "name": "Novoasbest", "state": "", "country": "RU", "coord": {"lon": 60.287731, "lat": 57.742249}}, {"id": 1497173, "name": "Novoaltaysk", "state": "", "country": "RU", "coord": {"lon": 83.936302, "lat": 53.391701}}, {"id": 1497210, "name": "Novoagansk", "state": "", "country": "RU", "coord": {"lon": 76.662498, "lat": 61.944901}}, {"id": 1497220, "name": "Novichikha", "state": "", "country": "RU", "coord": {"lon": 81.387703, "lat": 52.203999}}, {"id": 1497276, "name": "Novaya Lyalya", "state": "", "country": "RU", "coord": {"lon": 60.598991, "lat": 59.055031}}, {"id": 1497337, "name": "Norilsk", "state": "", "country": "RU", "coord": {"lon": 88.202698, "lat": 69.3535}}, {"id": 1497376, "name": "Nizhnyaya Tavda", "state": "", "country": "RU", "coord": {"lon": 66.172501, "lat": 57.673061}}, {"id": 1497393, "name": "Nizhnyaya Salda", "state": "", "country": "RU", "coord": {"lon": 60.7202, "lat": 58.07756}}, {"id": 1497397, "name": "Nizhnyaya Poyma", "state": "", "country": "RU", "coord": {"lon": 97.193329, "lat": 56.16222}}, {"id": 1497406, "name": "Nizhnyaya Omka", "state": "", "country": "RU", "coord": {"lon": 74.942558, "lat": 55.433762}}, {"id": 1497497, "name": "Nizhniy Ingash", "state": "", "country": "RU", "coord": {"lon": 96.529999, "lat": 56.200001}}, {"id": 1497543, "name": "Nizhnevartovsk", "state": "", "country": "RU", "coord": {"lon": 76.553101, "lat": 60.934399}}, {"id": 1497549, "name": "Nizhneudinsk", "state": "", "country": "RU", "coord": {"lon": 99.027603, "lat": 54.9076}}, {"id": 1497654, "name": "Nikolo-Pavlovskoye", "state": "", "country": "RU", "coord": {"lon": 60.057781, "lat": 57.783058}}, {"id": 1497736, "name": "Nikitinskiy", "state": "", "country": "RU", "coord": {"lon": 86.011497, "lat": 54.584499}}, {"id": 1497749, "name": "Nikita", "state": "", "country": "RU", "coord": {"lon": 63.783329, "lat": 67.050003}}, {"id": 1497778, "name": "Neyvo-Shaytanskiy", "state": "", "country": "RU", "coord": {"lon": 61.249561, "lat": 57.7286}}, {"id": 1497780, "name": "Neyvo-Rudyanka", "state": "", "country": "RU", "coord": {"lon": 60.1343, "lat": 57.344398}}, {"id": 1497795, "name": "Nev\u2019yansk", "state": "", "country": "RU", "coord": {"lon": 60.211201, "lat": 57.4953}}, {"id": 1497899, "name": "Gal\u2019bshtadt", "state": "", "country": "RU", "coord": {"lon": 78.984497, "lat": 53.226398}}, {"id": 1497917, "name": "Nefteyugansk", "state": "", "country": "RU", "coord": {"lon": 72.603493, "lat": 61.099789}}, {"id": 1497929, "name": "Nechavom", "state": "", "country": "RU", "coord": {"lon": 60.133331, "lat": 66.083328}}, {"id": 1497932, "name": "Nazyvayevsk", "state": "", "country": "RU", "coord": {"lon": 71.352943, "lat": 55.569752}}, {"id": 1497951, "name": "Nazarovo", "state": "", "country": "RU", "coord": {"lon": 90.391388, "lat": 56.00639}}, {"id": 1497973, "name": "Nauchnyy Gorodok", "state": "", "country": "RU", "coord": {"lon": 83.521004, "lat": 53.4203}}, {"id": 1498027, "name": "Nalobikha", "state": "", "country": "RU", "coord": {"lon": 84.603889, "lat": 53.200562}}, {"id": 1498067, "name": "Nagornyy", "state": "", "country": "RU", "coord": {"lon": 83.549797, "lat": 52.795898}}, {"id": 1498077, "name": "Nagibina", "state": "", "country": "RU", "coord": {"lon": 63.2672, "lat": 56.602798}}, {"id": 1498087, "name": "Nadym", "state": "", "country": "RU", "coord": {"lon": 72.51667, "lat": 65.533333}}, {"id": 1498129, "name": "Myski", "state": "", "country": "RU", "coord": {"lon": 87.801399, "lat": 53.709}}, {"id": 1498161, "name": "Muzhi", "state": "", "country": "RU", "coord": {"lon": 64.666672, "lat": 65.366669}}, {"id": 1498173, "name": "Musy", "state": "", "country": "RU", "coord": {"lon": 80.429718, "lat": 55.459999}}, {"id": 1498179, "name": "Muslyumovo", "state": "", "country": "RU", "coord": {"lon": 61.625999, "lat": 55.6133}}, {"id": 1498205, "name": "Muromtsevo", "state": "", "country": "RU", "coord": {"lon": 75.241753, "lat": 56.372379}}, {"id": 1498248, "name": "Mundybash", "state": "", "country": "RU", "coord": {"lon": 87.298302, "lat": 53.210999}}, {"id": 1498283, "name": "Mugur-Aksy", "state": "", "country": "RU", "coord": {"lon": 90.5, "lat": 50.349998}}, {"id": 1498314, "name": "Motygino", "state": "", "country": "RU", "coord": {"lon": 94.759171, "lat": 58.18306}}, {"id": 1498337, "name": "Mostovka", "state": "", "country": "RU", "coord": {"lon": 60.712502, "lat": 57.238098}}, {"id": 1498365, "name": "Moskovskiy", "state": "", "country": "RU", "coord": {"lon": 65.422981, "lat": 57.11108}}, {"id": 1498389, "name": "Moshkovo", "state": "", "country": "RU", "coord": {"lon": 83.610397, "lat": 55.305302}}, {"id": 1498399, "name": "Moryakovskiy Zaton", "state": "", "country": "RU", "coord": {"lon": 84.646667, "lat": 56.69556}}, {"id": 1498402, "name": "Mortka", "state": "", "country": "RU", "coord": {"lon": 66.021393, "lat": 59.332218}}, {"id": 1498456, "name": "Monetnyy", "state": "", "country": "RU", "coord": {"lon": 60.879398, "lat": 57.047199}}, {"id": 1498493, "name": "Molchanovo", "state": "", "country": "RU", "coord": {"lon": 83.769173, "lat": 57.581669}}, {"id": 1498504, "name": "Mokrushino", "state": "", "country": "RU", "coord": {"lon": 63.41333, "lat": 55.659439}}, {"id": 1498511, "name": "Mokrousovo", "state": "", "country": "RU", "coord": {"lon": 66.765282, "lat": 55.81028}}, {"id": 1498547, "name": "Mokhovoye", "state": "", "country": "RU", "coord": {"lon": 75.37114, "lat": 54.939602}}, {"id": 1498589, "name": "Mochishche", "state": "", "country": "RU", "coord": {"lon": 83.122902, "lat": 55.1586}}, {"id": 1498633, "name": "Mishkino", "state": "", "country": "RU", "coord": {"lon": 63.9175, "lat": 55.33889}}, {"id": 1498693, "name": "Minusinsk", "state": "", "country": "RU", "coord": {"lon": 91.6875, "lat": 53.710281}}, {"id": 1498775, "name": "Mikhaylovskoye", "state": "", "country": "RU", "coord": {"lon": 79.717216, "lat": 51.823891}}, {"id": 1498887, "name": "Miasskoye", "state": "", "country": "RU", "coord": {"lon": 61.890499, "lat": 55.2784}}, {"id": 1498894, "name": "Miass", "state": "", "country": "RU", "coord": {"lon": 60.10833, "lat": 55.044998}}, {"id": 1498919, "name": "Mezhdurechenskiy", "state": "", "country": "RU", "coord": {"lon": 65.933327, "lat": 59.599998}}, {"id": 1498920, "name": "Mezhdurechensk", "state": "", "country": "RU", "coord": {"lon": 88.06028, "lat": 53.694172}}, {"id": 1498997, "name": "Mendeleyevo", "state": "", "country": "RU", "coord": {"lon": 68.300003, "lat": 58.166672}}, {"id": 1499007, "name": "Mel\u2019nikovo", "state": "", "country": "RU", "coord": {"lon": 84.084999, "lat": 56.555828}}, {"id": 1499042, "name": "Melioratorov", "state": "", "country": "RU", "coord": {"lon": 65.607742, "lat": 57.210651}}, {"id": 1499053, "name": "Megion", "state": "", "country": "RU", "coord": {"lon": 76.113602, "lat": 61.029598}}, {"id": 1499109, "name": "Medveda", "state": "", "country": "RU", "coord": {"lon": 92.407784, "lat": 56.50806}}, {"id": 1499158, "name": "Mayna", "state": "", "country": "RU", "coord": {"lon": 91.483612, "lat": 53.00639}}, {"id": 1499163, "name": "Mayma", "state": "", "country": "RU", "coord": {"lon": 85.911392, "lat": 52.019718}}, {"id": 1499192, "name": "Mayak", "state": "", "country": "RU", "coord": {"lon": 64.019997, "lat": 55.487221}}, {"id": 1499247, "name": "Maslyanino", "state": "", "country": "RU", "coord": {"lon": 84.211113, "lat": 54.343609}}, {"id": 1499288, "name": "Martyush", "state": "", "country": "RU", "coord": {"lon": 61.881939, "lat": 56.400002}}, {"id": 1499350, "name": "Mariinsk", "state": "", "country": "RU", "coord": {"lon": 87.747223, "lat": 56.21389}}, {"id": 1499385, "name": "Manzya", "state": "", "country": "RU", "coord": {"lon": 96.261673, "lat": 58.492222}}, {"id": 1499386, "name": "Manzherok", "state": "", "country": "RU", "coord": {"lon": 85.76722, "lat": 51.828609}}, {"id": 1499428, "name": "Mamontovo", "state": "", "country": "RU", "coord": {"lon": 81.624397, "lat": 52.705502}}, {"id": 1499436, "name": "Mamon", "state": "", "country": "RU", "coord": {"lon": 78.266907, "lat": 54.443432}}, {"id": 1499668, "name": "Malysheva", "state": "", "country": "RU", "coord": {"lon": 61.40345, "lat": 57.118511}}, {"id": 1499676, "name": "Malyavkinskiy", "state": "", "country": "RU", "coord": {"lon": 60.533329, "lat": 54.01667}}, {"id": 1499779, "name": "Malinovoye Ozero", "state": "", "country": "RU", "coord": {"lon": 79.782501, "lat": 51.675282}}, {"id": 1500036, "name": "Makushino", "state": "", "country": "RU", "coord": {"lon": 67.244171, "lat": 55.210281}}, {"id": 1500125, "name": "Lyubinskiy", "state": "", "country": "RU", "coord": {"lon": 72.692467, "lat": 55.154209}}, {"id": 1500207, "name": "Luzino", "state": "", "country": "RU", "coord": {"lon": 73.035309, "lat": 54.948109}}, {"id": 1500252, "name": "Lugovskoy", "state": "", "country": "RU", "coord": {"lon": 64.528969, "lat": 56.958488}}, {"id": 1500305, "name": "Luchshevo", "state": "", "country": "RU", "coord": {"lon": 86.907303, "lat": 53.837101}}, {"id": 1500309, "name": "Luchanovo", "state": "", "country": "RU", "coord": {"lon": 85.050003, "lat": 56.349998}}, {"id": 1500335, "name": "Losinyy", "state": "", "country": "RU", "coord": {"lon": 61.066631, "lat": 57.138618}}, {"id": 1500399, "name": "Lokosovo", "state": "", "country": "RU", "coord": {"lon": 74.816673, "lat": 61.133331}}, {"id": 1500426, "name": "Lobva", "state": "", "country": "RU", "coord": {"lon": 60.518459, "lat": 59.185379}}, {"id": 1500468, "name": "Listvyanskiy", "state": "", "country": "RU", "coord": {"lon": 83.498398, "lat": 54.439899}}, {"id": 1500485, "name": "Listvyagi", "state": "", "country": "RU", "coord": {"lon": 86.950996, "lat": 53.6772}}, {"id": 1500532, "name": "Lin\u00ebvo", "state": "", "country": "RU", "coord": {"lon": 83.376404, "lat": 54.4589}}, {"id": 1500607, "name": "Lesosibirsk", "state": "", "country": "RU", "coord": {"lon": 92.48278, "lat": 58.235828}}, {"id": 1500609, "name": "Lesogorsk", "state": "", "country": "RU", "coord": {"lon": 99.513603, "lat": 56.045799}}, {"id": 1500629, "name": "Lesnikovo", "state": "", "country": "RU", "coord": {"lon": 65.317497, "lat": 55.282219}}, {"id": 1500665, "name": "Leninsk-Kuznetsky", "state": "", "country": "RU", "coord": {"lon": 86.173698, "lat": 54.6567}}, {"id": 1500764, "name": "Lebyazh\u2019ye", "state": "", "country": "RU", "coord": {"lon": 66.49472, "lat": 55.26889}}, {"id": 1500770, "name": "Lebyazh\u2019ye", "state": "", "country": "RU", "coord": {"lon": 83.653328, "lat": 53.24361}}, {"id": 1500816, "name": "Lebed\u2019", "state": "", "country": "RU", "coord": {"lon": 89.186394, "lat": 62.09444}}, {"id": 1500933, "name": "Labytnangi", "state": "", "country": "RU", "coord": {"lon": 66.418327, "lat": 66.657219}}, {"id": 1500957, "name": "Kyzyl-Mazhalyk", "state": "", "country": "RU", "coord": {"lon": 90.599998, "lat": 51.133331}}, {"id": 1500962, "name": "Kyzyl-Khaya", "state": "", "country": "RU", "coord": {"lon": 89.878212, "lat": 50.049858}}, {"id": 1500973, "name": "Kyzyl", "state": "", "country": "RU", "coord": {"lon": 94.449997, "lat": 51.700001}}, {"id": 1500990, "name": "Kytmanovo", "state": "", "country": "RU", "coord": {"lon": 85.447899, "lat": 53.459301}}, {"id": 1500997, "name": "Kyshtym", "state": "", "country": "RU", "coord": {"lon": 60.552799, "lat": 55.714001}}, {"id": 1501000, "name": "Kyshtovka", "state": "", "country": "RU", "coord": {"lon": 76.627129, "lat": 56.554981}}, {"id": 1501036, "name": "Kvitok", "state": "", "country": "RU", "coord": {"lon": 98.4813, "lat": 56.072399}}, {"id": 1501079, "name": "Kuznetskiy Rayon", "state": "", "country": "RU", "coord": {"lon": 87.099998, "lat": 53.75}}, {"id": 1501118, "name": "Kuzedeyevo", "state": "", "country": "RU", "coord": {"lon": 87.201897, "lat": 53.330799}}, {"id": 1501141, "name": "Kuybyshev", "state": "", "country": "RU", "coord": {"lon": 78.321808, "lat": 55.447529}}, {"id": 1501196, "name": "Kuskun", "state": "", "country": "RU", "coord": {"lon": 93.591667, "lat": 55.94833}}, {"id": 1501230, "name": "Kur\u2019ya", "state": "", "country": "RU", "coord": {"lon": 82.316673, "lat": 51.599998}}, {"id": 1501255, "name": "Kurtamysh", "state": "", "country": "RU", "coord": {"lon": 64.431938, "lat": 54.910278}}, {"id": 1501278, "name": "Kuro-Iskitim", "state": "", "country": "RU", "coord": {"lon": 86.033333, "lat": 55.299999}}, {"id": 1501308, "name": "Kur\u2019i", "state": "", "country": "RU", "coord": {"lon": 62.1222, "lat": 56.917099}}, {"id": 1501312, "name": "Kurganskaya Oblast\u2019", "state": "", "country": "RU", "coord": {"lon": 64, "lat": 55.5}}, {"id": 1501315, "name": "Kurganovo", "state": "", "country": "RU", "coord": {"lon": 60.385448, "lat": 56.629421}}, {"id": 1501316, "name": "Kurganovka", "state": "", "country": "RU", "coord": {"lon": 86.199997, "lat": 55.583328}}, {"id": 1501321, "name": "Kurgan", "state": "", "country": "RU", "coord": {"lon": 65.333328, "lat": 55.450001}}, {"id": 1501356, "name": "Kuragino", "state": "", "country": "RU", "coord": {"lon": 92.672501, "lat": 53.897499}}, {"id": 1501365, "name": "Kupino", "state": "", "country": "RU", "coord": {"lon": 77.29805, "lat": 54.366348}}, {"id": 1501377, "name": "Kungurtug", "state": "", "country": "RU", "coord": {"lon": 97.522781, "lat": 50.599442}}, {"id": 1501402, "name": "Kunashak", "state": "", "country": "RU", "coord": {"lon": 61.549801, "lat": 55.703201}}, {"id": 1501429, "name": "Kuminskiy", "state": "", "country": "RU", "coord": {"lon": 66.566673, "lat": 58.666672}}, {"id": 1501460, "name": "Kulunda", "state": "", "country": "RU", "coord": {"lon": 78.938499, "lat": 52.566002}}, {"id": 1501573, "name": "Kudryashovskiy", "state": "", "country": "RU", "coord": {"lon": 82.7742, "lat": 55.097401}}, {"id": 1501690, "name": "Krutinka", "state": "", "country": "RU", "coord": {"lon": 71.511307, "lat": 56.005501}}, {"id": 1501706, "name": "Krutikha", "state": "", "country": "RU", "coord": {"lon": 81.209297, "lat": 53.9599}}, {"id": 1501710, "name": "Krutaya Gorka", "state": "", "country": "RU", "coord": {"lon": 73.223099, "lat": 55.364929}}, {"id": 1501795, "name": "Krivosheino", "state": "", "country": "RU", "coord": {"lon": 83.926109, "lat": 57.34306}}, {"id": 1501803, "name": "Krivodanovka", "state": "", "country": "RU", "coord": {"lon": 82.655098, "lat": 55.0881}}, {"id": 1501876, "name": "Krasnyy Yar", "state": "", "country": "RU", "coord": {"lon": 84.530281, "lat": 57.127499}}, {"id": 1501887, "name": "Krasnyy Yar", "state": "", "country": "RU", "coord": {"lon": 72.926353, "lat": 55.24242}}, {"id": 1501925, "name": "Krasnyy Oktyabr\u2019", "state": "", "country": "RU", "coord": {"lon": 64.813332, "lat": 55.65667}}, {"id": 1501988, "name": "Krasnoz\u00ebrskoye", "state": "", "country": "RU", "coord": {"lon": 79.23735, "lat": 53.982769}}, {"id": 1502013, "name": "Krasnoye", "state": "", "country": "RU", "coord": {"lon": 85.3899, "lat": 54.6068}}, {"id": 1502020, "name": "Krasnoyarskiy Kray", "state": "", "country": "RU", "coord": {"lon": 93, "lat": 58}}, {"id": 1502026, "name": "Krasnoyarsk", "state": "", "country": "RU", "coord": {"lon": 92.791672, "lat": 56.00972}}, {"id": 1502041, "name": "Krasnoyarka", "state": "", "country": "RU", "coord": {"lon": 73.116669, "lat": 55.333328}}, {"id": 1502060, "name": "Krasnoural\u2019sk", "state": "", "country": "RU", "coord": {"lon": 60.040699, "lat": 58.3638}}, {"id": 1502061, "name": "Krasnotur\u2019insk", "state": "", "country": "RU", "coord": {"lon": 60.208599, "lat": 59.766602}}, {"id": 1502063, "name": "Krasnoturansk", "state": "", "country": "RU", "coord": {"lon": 91.563889, "lat": 54.318611}}, {"id": 1502066, "name": "Krasnoshchekovo", "state": "", "country": "RU", "coord": {"lon": 82.728889, "lat": 51.67083}}, {"id": 1502073, "name": "Krasnosel\u2019kup", "state": "", "country": "RU", "coord": {"lon": 82.466667, "lat": 65.699997}}, {"id": 1502091, "name": "Krasnoobsk", "state": "", "country": "RU", "coord": {"lon": 82.990898, "lat": 54.9198}}, {"id": 1502096, "name": "Krasnokamensk", "state": "", "country": "RU", "coord": {"lon": 93.259438, "lat": 54.333889}}, {"id": 1502100, "name": "Krasnogvardeyskiy", "state": "", "country": "RU", "coord": {"lon": 62.319519, "lat": 57.37928}}, {"id": 1502105, "name": "Krasnogorskoye", "state": "", "country": "RU", "coord": {"lon": 86.197899, "lat": 52.2953}}, {"id": 1502112, "name": "Krasnogorskiy", "state": "", "country": "RU", "coord": {"lon": 61.230999, "lat": 54.602501}}, {"id": 1502113, "name": "Krasnogorskiy", "state": "", "country": "RU", "coord": {"lon": 86.280998, "lat": 54.5471}}, {"id": 1502192, "name": "Krapivinskiy", "state": "", "country": "RU", "coord": {"lon": 86.813301, "lat": 54.999199}}, {"id": 1502257, "name": "Kozhevnikovo", "state": "", "country": "RU", "coord": {"lon": 83.97139, "lat": 56.258888}}, {"id": 1502280, "name": "Koyelga", "state": "", "country": "RU", "coord": {"lon": 60.9049, "lat": 54.652241}}, {"id": 1502387, "name": "Kosikha", "state": "", "country": "RU", "coord": {"lon": 84.582222, "lat": 53.361671}}, {"id": 1502389, "name": "Koshurnikovo", "state": "", "country": "RU", "coord": {"lon": 93.300003, "lat": 54.166672}}, {"id": 1502422, "name": "Kosh-Agach", "state": "", "country": "RU", "coord": {"lon": 88.666672, "lat": 50}}, {"id": 1502429, "name": "Kasargi", "state": "", "country": "RU", "coord": {"lon": 61.179699, "lat": 55.365601}}, {"id": 1502526, "name": "Kormilovka", "state": "", "country": "RU", "coord": {"lon": 74.102814, "lat": 55.00264}}, {"id": 1502536, "name": "Korkino", "state": "", "country": "RU", "coord": {"lon": 61.3969, "lat": 54.8913}}, {"id": 1502603, "name": "Kopeysk", "state": "", "country": "RU", "coord": {"lon": 61.679199, "lat": 55.131001}}, {"id": 1502697, "name": "Kondinskoye", "state": "", "country": "RU", "coord": {"lon": 67.410004, "lat": 59.64806}}, {"id": 1502725, "name": "Yugorsk", "state": "", "country": "RU", "coord": {"lon": 63.33194, "lat": 61.313332}}, {"id": 1502750, "name": "Kommunisticheskiy", "state": "", "country": "RU", "coord": {"lon": 64.481941, "lat": 61.67889}}, {"id": 1502758, "name": "Kommunar", "state": "", "country": "RU", "coord": {"lon": 89.292221, "lat": 54.353889}}, {"id": 1502822, "name": "Kolyvan\u2019", "state": "", "country": "RU", "coord": {"lon": 82.739098, "lat": 55.305302}}, {"id": 1502847, "name": "Kol\u2019tsovo", "state": "", "country": "RU", "coord": {"lon": 83.182503, "lat": 54.937599}}, {"id": 1502862, "name": "Kolpashevo", "state": "", "country": "RU", "coord": {"lon": 82.90889, "lat": 58.313061}}, {"id": 1502879, "name": "Kolosovka", "state": "", "country": "RU", "coord": {"lon": 73.610962, "lat": 56.467789}}, {"id": 1502885, "name": "Kolos", "state": "", "country": "RU", "coord": {"lon": 60.816669, "lat": 56.5}}, {"id": 1502962, "name": "Kolbasa", "state": "", "country": "RU", "coord": {"lon": 76.697952, "lat": 56.887981}}, {"id": 1503037, "name": "Kodinsk", "state": "", "country": "RU", "coord": {"lon": 99.184441, "lat": 58.688061}}, {"id": 1503061, "name": "Kochki", "state": "", "country": "RU", "coord": {"lon": 80.48056, "lat": 54.335831}}, {"id": 1503082, "name": "Kochen\u00ebvo", "state": "", "country": "RU", "coord": {"lon": 82.202003, "lat": 55.021801}}, {"id": 1503117, "name": "Klyukvinka", "state": "", "country": "RU", "coord": {"lon": 82.555099, "lat": 58.169899}}, {"id": 1503153, "name": "Klyuchi", "state": "", "country": "RU", "coord": {"lon": 79.166672, "lat": 52.26667}}, {"id": 1503169, "name": "Klyuchevsk", "state": "", "country": "RU", "coord": {"lon": 60.941399, "lat": 57.121601}}, {"id": 1503277, "name": "Kisel\u00ebvsk", "state": "", "country": "RU", "coord": {"lon": 86.662102, "lat": 53.990002}}, {"id": 1503304, "name": "Kirsanova", "state": "", "country": "RU", "coord": {"lon": 65.034897, "lat": 56.675251}}, {"id": 1503335, "name": "Kirovgrad", "state": "", "country": "RU", "coord": {"lon": 60.059719, "lat": 57.429722}}, {"id": 1503404, "name": "Kindyakovo", "state": "", "country": "RU", "coord": {"lon": 93.330833, "lat": 56.05917}}, {"id": 1503481, "name": "Khulimsunt", "state": "", "country": "RU", "coord": {"lon": 61.643608, "lat": 62.863331}}, {"id": 1503527, "name": "Khovu-Aksy", "state": "", "country": "RU", "coord": {"lon": 93.599998, "lat": 51.133331}}, {"id": 1503557, "name": "Khorosheborka", "state": "", "country": "RU", "coord": {"lon": 85.427299, "lat": 55.5201}}, {"id": 1503726, "name": "Kharp", "state": "", "country": "RU", "coord": {"lon": 65.80806, "lat": 66.801392}}, {"id": 1503772, "name": "Khanty-Mansiysk", "state": "", "country": "RU", "coord": {"lon": 69.001938, "lat": 61.004169}}, {"id": 1503773, "name": "Khanty-Mansiyskiy Avtonomnyy Okrug-Yugra", "state": "", "country": "RU", "coord": {"lon": 72, "lat": 62}}, {"id": 1503796, "name": "Khandagayty", "state": "", "country": "RU", "coord": {"lon": 92.050003, "lat": 50.73333}}, {"id": 1503834, "name": "Respublika Khakasiya", "state": "", "country": "RU", "coord": {"lon": 90, "lat": 53.333328}}, {"id": 1503856, "name": "Khabary", "state": "", "country": "RU", "coord": {"lon": 79.5345, "lat": 53.625881}}, {"id": 1503879, "name": "Ketovo", "state": "", "country": "RU", "coord": {"lon": 65.325829, "lat": 55.355}}, {"id": 1503896, "name": "Kenga", "state": "", "country": "RU", "coord": {"lon": 80.995827, "lat": 57.429722}}, {"id": 1503900, "name": "Kemerovskaya Oblast\u2019", "state": "", "country": "RU", "coord": {"lon": 86, "lat": 55}}, {"id": 1503901, "name": "Kemerovo", "state": "", "country": "RU", "coord": {"lon": 86.083328, "lat": 55.333328}}, {"id": 1503931, "name": "Kedrovoye", "state": "", "country": "RU", "coord": {"lon": 60.569801, "lat": 57.1576}}, {"id": 1503940, "name": "Kedrovka", "state": "", "country": "RU", "coord": {"lon": 86.050003, "lat": 55.533329}}, {"id": 1503955, "name": "Kedr", "state": "", "country": "RU", "coord": {"lon": 60.650002, "lat": 60.433331}}, {"id": 1504019, "name": "Kazanskoye", "state": "", "country": "RU", "coord": {"lon": 69.235001, "lat": 55.644772}}, {"id": 1504075, "name": "Kazachinskoye", "state": "", "country": "RU", "coord": {"lon": 93.276108, "lat": 57.695278}}, {"id": 1504081, "name": "Kaz", "state": "", "country": "RU", "coord": {"lon": 87.310501, "lat": 52.911301}}, {"id": 1504139, "name": "Kayyerkan", "state": "", "country": "RU", "coord": {"lon": 87.743889, "lat": 69.378609}}, {"id": 1504212, "name": "Kataysk", "state": "", "country": "RU", "coord": {"lon": 62.584099, "lat": 56.289001}}, {"id": 1504251, "name": "Kasli", "state": "", "country": "RU", "coord": {"lon": 60.7616, "lat": 55.8909}}, {"id": 1504317, "name": "Kartaly", "state": "", "country": "RU", "coord": {"lon": 60.646671, "lat": 53.052219}}, {"id": 1504343, "name": "Karpinsk", "state": "", "country": "RU", "coord": {"lon": 60.008499, "lat": 59.7654}}, {"id": 1504355, "name": "Karmanov", "state": "", "country": "RU", "coord": {"lon": 60.849998, "lat": 53.216671}}, {"id": 1504368, "name": "Karkatayevy", "state": "", "country": "RU", "coord": {"lon": 73.333328, "lat": 61.066669}}, {"id": 1504380, "name": "Kargat", "state": "", "country": "RU", "coord": {"lon": 80.281113, "lat": 55.19556}}, {"id": 1504382, "name": "Kargasok", "state": "", "country": "RU", "coord": {"lon": 80.857224, "lat": 59.055561}}, {"id": 1504408, "name": "Karbyshevo", "state": "", "country": "RU", "coord": {"lon": 84.449173, "lat": 56.487221}}, {"id": 1504442, "name": "Karatuzskoye", "state": "", "country": "RU", "coord": {"lon": 92.866669, "lat": 53.60722}}, {"id": 1504489, "name": "Karasuk", "state": "", "country": "RU", "coord": {"lon": 78.04026, "lat": 53.73772}}, {"id": 1504590, "name": "Karagayla", "state": "", "country": "RU", "coord": {"lon": 86.552101, "lat": 54.172001}}, {"id": 1504636, "name": "Karabash", "state": "", "country": "RU", "coord": {"lon": 60.215698, "lat": 55.480801}}, {"id": 1504670, "name": "Kanterova", "state": "", "country": "RU", "coord": {"lon": 72.033333, "lat": 61.916672}}, {"id": 1504682, "name": "Kansk", "state": "", "country": "RU", "coord": {"lon": 95.717499, "lat": 56.201672}}, {"id": 1504708, "name": "Kanda", "state": "", "country": "RU", "coord": {"lon": 60.200001, "lat": 60.416672}}, {"id": 1504716, "name": "Kanashevo", "state": "", "country": "RU", "coord": {"lon": 62.0634, "lat": 55.2169}}, {"id": 1504769, "name": "Kamyshlov", "state": "", "country": "RU", "coord": {"lon": 62.711109, "lat": 56.842781}}, {"id": 1504826, "name": "Kamensk-Ural\u2019skiy", "state": "", "country": "RU", "coord": {"lon": 61.932899, "lat": 56.418499}}, {"id": 1504850, "name": "Mys-Kamennyy", "state": "", "country": "RU", "coord": {"lon": 73.590279, "lat": 68.459717}}, {"id": 1504871, "name": "Kamen\u2019-na-Obi", "state": "", "country": "RU", "coord": {"lon": 81.3423, "lat": 53.788399}}, {"id": 1504968, "name": "Kaltay", "state": "", "country": "RU", "coord": {"lon": 84.878609, "lat": 56.279171}}, {"id": 1504972, "name": "Kaltan", "state": "", "country": "RU", "coord": {"lon": 87.245697, "lat": 53.534698}}, {"id": 1504985, "name": "Kalmanka", "state": "", "country": "RU", "coord": {"lon": 83.543327, "lat": 52.89917}}, {"id": 1505003, "name": "Kalinovo", "state": "", "country": "RU", "coord": {"lon": 60.1464, "lat": 57.131699}}, {"id": 1505074, "name": "Kalachinsk", "state": "", "country": "RU", "coord": {"lon": 74.575111, "lat": 55.05286}}, {"id": 1505187, "name": "Kaa-Khem", "state": "", "country": "RU", "coord": {"lon": 94.73333, "lat": 51.683331}}, {"id": 1505212, "name": "Izumrud", "state": "", "country": "RU", "coord": {"lon": 61.399319, "lat": 57.078819}}, {"id": 1505228, "name": "Izhmorskiy", "state": "", "country": "RU", "coord": {"lon": 86.641403, "lat": 56.194}}, {"id": 1505260, "name": "Ivdel\u2019", "state": "", "country": "RU", "coord": {"lon": 60.420559, "lat": 60.691109}}, {"id": 1505347, "name": "Ivankino", "state": "", "country": "RU", "coord": {"lon": 82.4254, "lat": 58.4417}}, {"id": 1505383, "name": "Itatskiy", "state": "", "country": "RU", "coord": {"lon": 89.036942, "lat": 56.07}}, {"id": 1505429, "name": "Iskitim", "state": "", "country": "RU", "coord": {"lon": 83.304497, "lat": 54.6366}}, {"id": 1505430, "name": "Staryy Iskitim", "state": "", "country": "RU", "coord": {"lon": 83.400597, "lat": 54.612202}}, {"id": 1505432, "name": "Iska-Chebakova", "state": "", "country": "RU", "coord": {"lon": 66.60556, "lat": 57.423061}}, {"id": 1505438, "name": "Isil\u2019kul\u2019", "state": "", "country": "RU", "coord": {"lon": 71.27282, "lat": 54.910912}}, {"id": 1505453, "name": "Ishim", "state": "", "country": "RU", "coord": {"lon": 69.49015, "lat": 56.112808}}, {"id": 1505466, "name": "Isetskoye", "state": "", "country": "RU", "coord": {"lon": 65.322601, "lat": 56.485802}}, {"id": 1505472, "name": "Iset\u2019", "state": "", "country": "RU", "coord": {"lon": 60.371799, "lat": 56.977901}}, {"id": 1505495, "name": "Irtyshskiy", "state": "", "country": "RU", "coord": {"lon": 68.133331, "lat": 58.333328}}, {"id": 1505496, "name": "Irtyshskiy", "state": "", "country": "RU", "coord": {"lon": 73.587219, "lat": 54.814259}}, {"id": 1505502, "name": "Irsha", "state": "", "country": "RU", "coord": {"lon": 94.791107, "lat": 55.926941}}, {"id": 1505506, "name": "Irmen\u2019", "state": "", "country": "RU", "coord": {"lon": 82.550003, "lat": 54.616669}}, {"id": 1505526, "name": "Irbit", "state": "", "country": "RU", "coord": {"lon": 63.070999, "lat": 57.670521}}, {"id": 1505529, "name": "Irbeyskoye", "state": "", "country": "RU", "coord": {"lon": 95.452217, "lat": 55.64278}}, {"id": 1505579, "name": "Inta", "state": "", "country": "RU", "coord": {"lon": 60.165939, "lat": 66.031693}}, {"id": 1505584, "name": "Inskoy", "state": "", "country": "RU", "coord": {"lon": 86.440002, "lat": 54.429699}}, {"id": 1505628, "name": "Inder\u2019", "state": "", "country": "RU", "coord": {"lon": 79.965828, "lat": 54.548061}}, {"id": 1505933, "name": "Ilanskiy", "state": "", "country": "RU", "coord": {"lon": 96.065002, "lat": 56.235828}}, {"id": 1505946, "name": "Ikovka", "state": "", "country": "RU", "coord": {"lon": 64.9375, "lat": 55.608891}}, {"id": 1505965, "name": "Igrim", "state": "", "country": "RU", "coord": {"lon": 64.416199, "lat": 63.190601}}, {"id": 1505984, "name": "Iglakovo", "state": "", "country": "RU", "coord": {"lon": 84.833328, "lat": 56.599998}}, {"id": 1505991, "name": "Igarka", "state": "", "country": "RU", "coord": {"lon": 86.583328, "lat": 67.466667}}, {"id": 1505998, "name": "Idrinskoye", "state": "", "country": "RU", "coord": {"lon": 92.135834, "lat": 54.370831}}, {"id": 1506073, "name": "Gur\u2019yevsk", "state": "", "country": "RU", "coord": {"lon": 85.933327, "lat": 54.283329}}, {"id": 1506192, "name": "Gramoteino", "state": "", "country": "RU", "coord": {"lon": 86.383904, "lat": 54.5368}}, {"id": 1506244, "name": "Gornyy Shchit", "state": "", "country": "RU", "coord": {"lon": 60.51947, "lat": 56.688148}}, {"id": 1506254, "name": "Gornyy", "state": "", "country": "RU", "coord": {"lon": 83.905899, "lat": 55.115299}}, {"id": 1506258, "name": "Gornyak", "state": "", "country": "RU", "coord": {"lon": 61.6833, "lat": 55.1362}}, {"id": 1506260, "name": "Gornyak", "state": "", "country": "RU", "coord": {"lon": 81.46611, "lat": 50.994171}}, {"id": 1506268, "name": "Gornopravdinsk", "state": "", "country": "RU", "coord": {"lon": 69.900002, "lat": 60.049999}}, {"id": 1506271, "name": "Gorno-Altaysk", "state": "", "country": "RU", "coord": {"lon": 85.955002, "lat": 51.956108}}, {"id": 1506272, "name": "Respublika Altay", "state": "", "country": "RU", "coord": {"lon": 87, "lat": 51}}, {"id": 1506394, "name": "Plotnikovo", "state": "", "country": "RU", "coord": {"lon": 85.943611, "lat": 55.024723}}, {"id": 1506418, "name": "Gon\u2019ba", "state": "", "country": "RU", "coord": {"lon": 83.574699, "lat": 53.417198}}, {"id": 1506422, "name": "Golyshmanovo", "state": "", "country": "RU", "coord": {"lon": 68.372787, "lat": 56.3979}}, {"id": 1506499, "name": "Glyadyanskoye", "state": "", "country": "RU", "coord": {"lon": 65.088333, "lat": 54.907501}}, {"id": 1506565, "name": "Glavnyy", "state": "", "country": "RU", "coord": {"lon": 87.933327, "lat": 55.216671}}, {"id": 1506676, "name": "Gari", "state": "", "country": "RU", "coord": {"lon": 62.34967, "lat": 59.43074}}, {"id": 1506757, "name": "Funtiki", "state": "", "country": "RU", "coord": {"lon": 83.026108, "lat": 52.78389}}, {"id": 1506834, "name": "Filimonovo", "state": "", "country": "RU", "coord": {"lon": 95.461113, "lat": 56.201111}}, {"id": 1506938, "name": "Erzin", "state": "", "country": "RU", "coord": {"lon": 95.1623, "lat": 50.261002}}, {"id": 1507035, "name": "Dzerzhinskoye", "state": "", "country": "RU", "coord": {"lon": 95.228333, "lat": 56.834438}}, {"id": 1507059, "name": "Dvurechensk", "state": "", "country": "RU", "coord": {"lon": 61.095299, "lat": 56.598202}}, {"id": 1507116, "name": "Dudinka", "state": "", "country": "RU", "coord": {"lon": 86.17778, "lat": 69.40583}}, {"id": 1507172, "name": "Dubinino", "state": "", "country": "RU", "coord": {"lon": 89.09111, "lat": 55.619171}}, {"id": 1507203, "name": "Drovyanoy", "state": "", "country": "RU", "coord": {"lon": 72.762497, "lat": 72.401672}}, {"id": 1507220, "name": "Dovol\u2019noye", "state": "", "country": "RU", "coord": {"lon": 79.667267, "lat": 54.496498}}, {"id": 1507239, "name": "Dorogino", "state": "", "country": "RU", "coord": {"lon": 83.319801, "lat": 54.359798}}, {"id": 1507300, "name": "Dolgoderevenskoye", "state": "", "country": "RU", "coord": {"lon": 61.34444, "lat": 55.34444}}, {"id": 1507379, "name": "Divnogorsk", "state": "", "country": "RU", "coord": {"lon": 92.361938, "lat": 55.959438}}, {"id": 1507390, "name": "Dikson", "state": "", "country": "RU", "coord": {"lon": 80.546387, "lat": 73.506943}}, {"id": 1507488, "name": "Degtyarsk", "state": "", "country": "RU", "coord": {"lon": 60.087898, "lat": 56.703999}}, {"id": 1507565, "name": "Dalmatovo", "state": "", "country": "RU", "coord": {"lon": 62.936199, "lat": 56.259998}}, {"id": 1507636, "name": "Chunskiy", "state": "", "country": "RU", "coord": {"lon": 99.634201, "lat": 56.081501}}, {"id": 1507638, "name": "Chunoyar", "state": "", "country": "RU", "coord": {"lon": 97.321671, "lat": 57.446671}}, {"id": 1507679, "name": "Chulym", "state": "", "country": "RU", "coord": {"lon": 80.957222, "lat": 55.09972}}, {"id": 1507745, "name": "Choya", "state": "", "country": "RU", "coord": {"lon": 86.5467, "lat": 52.010799}}, {"id": 1507801, "name": "Chistogorskiy", "state": "", "country": "RU", "coord": {"lon": 87.3843, "lat": 53.983501}}, {"id": 1507873, "name": "Chik", "state": "", "country": "RU", "coord": {"lon": 82.431099, "lat": 54.992802}},