[{"id": 4161352, "name": "Lake Sarasota", "state": "FL", "country": "US", "coord": {"lon": -82.437599, "lat": 27.292549}}, {"id": 4161373, "name": "Lake Mary", "state": "FL", "country": "US", "coord": {"lon": -81.317841, "lat": 28.758881}}, {"id": 4161400, "name": "Lake Wales", "state": "FL", "country": "US", "coord": {"lon": -81.585907, "lat": 27.901409}}, {"id": 4161422, "name": "Lake Worth", "state": "FL", "country": "US", "coord": {"lon": -80.056992, "lat": 26.6159}}, {"id": 4161424, "name": "Lake Worth Corridor", "state": "FL", "country": "US", "coord": {"lon": -80.101021, "lat": 26.616489}}, {"id": 4161438, "name": "Lakeland", "state": "FL", "country": "US", "coord": {"lon": -81.949799, "lat": 28.039471}}, {"id": 4161444, "name": "Lakeland Highlands", "state": "FL", "country": "US", "coord": {"lon": -81.950081, "lat": 27.959749}}, {"id": 4161460, "name": "Lakes by the Bay", "state": "FL", "country": "US", "coord": {"lon": -80.325333, "lat": 25.57233}}, {"id": 4161461, "name": "Lakeside", "state": "FL", "country": "US", "coord": {"lon": -81.76815, "lat": 30.129959}}, {"id": 4161474, "name": "Lakeside Green", "state": "", "country": "US", "coord": {"lon": -80.114487, "lat": 26.739229}}, {"id": 4161510, "name": "Lakewood Park", "state": "FL", "country": "US", "coord": {"lon": -80.402267, "lat": 27.543091}}, {"id": 4161511, "name": "Lakewood Park", "state": "FL", "country": "US", "coord": {"lon": -80.374222, "lat": 27.48143}}, {"id": 4161534, "name": "Land O' Lakes", "state": "FL", "country": "US", "coord": {"lon": -82.457588, "lat": 28.218901}}, {"id": 4161571, "name": "Lantana", "state": "FL", "country": "US", "coord": {"lon": -80.051987, "lat": 26.58674}}, {"id": 4161580, "name": "Largo", "state": "FL", "country": "US", "coord": {"lon": -82.787323, "lat": 27.90947}}, {"id": 4161616, "name": "Lauderdale Lakes", "state": "FL", "country": "US", "coord": {"lon": -80.208382, "lat": 26.16647}}, {"id": 4161624, "name": "Lauderdale-by-the-Sea", "state": "FL", "country": "US", "coord": {"lon": -80.096428, "lat": 26.19203}}, {"id": 4161625, "name": "Lauderhill", "state": "FL", "country": "US", "coord": {"lon": -80.213379, "lat": 26.14036}}, {"id": 4161659, "name": "Laurel", "state": "FL", "country": "US", "coord": {"lon": -82.461578, "lat": 27.14378}}, {"id": 4161705, "name": "Lealman", "state": "FL", "country": "US", "coord": {"lon": -82.679268, "lat": 27.82114}}, {"id": 4161733, "name": "Lecanto", "state": "FL", "country": "US", "coord": {"lon": -82.487602, "lat": 28.85165}}, {"id": 4161743, "name": "Lee County", "state": "FL", "country": "US", "coord": {"lon": -81.883141, "lat": 26.56702}}, {"id": 4161771, "name": "Leesburg", "state": "FL", "country": "US", "coord": {"lon": -81.877861, "lat": 28.81082}}, {"id": 4161785, "name": "Lehigh Acres", "state": "FL", "country": "US", "coord": {"lon": -81.624802, "lat": 26.625351}}, {"id": 4161797, "name": "Leisure City", "state": "FL", "country": "US", "coord": {"lon": -80.429222, "lat": 25.49539}}, {"id": 4161807, "name": "Lely", "state": "FL", "country": "US", "coord": {"lon": -81.728416, "lat": 26.100651}}, {"id": 4161810, "name": "Lely Resort", "state": "FL", "country": "US", "coord": {"lon": -81.697861, "lat": 26.080931}}, {"id": 4161831, "name": "Leon County", "state": "FL", "country": "US", "coord": {"lon": -84.208229, "lat": 30.49464}}, {"id": 4161957, "name": "Lighthouse Point", "state": "FL", "country": "US", "coord": {"lon": -80.087273, "lat": 26.27564}}, {"id": 4162004, "name": "Limestone Creek", "state": "FL", "country": "US", "coord": {"lon": -80.141151, "lat": 26.942841}}, {"id": 4162461, "name": "Live Oak", "state": "FL", "country": "US", "coord": {"lon": -82.984016, "lat": 30.29495}}, {"id": 4162526, "name": "Lochloosa", "state": "FL", "country": "US", "coord": {"lon": -82.100372, "lat": 29.511641}}, {"id": 4162532, "name": "Lochmoor Waterway Estates", "state": "FL", "country": "US", "coord": {"lon": -81.909813, "lat": 26.644239}}, {"id": 4162539, "name": "Lockhart", "state": "FL", "country": "US", "coord": {"lon": -81.442574, "lat": 28.61944}}, {"id": 4162776, "name": "Longboat Key", "state": "FL", "country": "US", "coord": {"lon": -82.658989, "lat": 27.41254}}, {"id": 4162783, "name": "Longwood", "state": "FL", "country": "US", "coord": {"lon": -81.338402, "lat": 28.703051}}, {"id": 4162811, "name": "Lorraine", "state": "FL", "country": "US", "coord": {"lon": -82.39537, "lat": 27.43199}}, {"id": 4162856, "name": "Loughman", "state": "FL", "country": "US", "coord": {"lon": -81.566742, "lat": 28.241961}}, {"id": 4162911, "name": "Lower Grand Lagoon", "state": "FL", "country": "US", "coord": {"lon": -85.750763, "lat": 30.144091}}, {"id": 4162948, "name": "Loxahatchee Groves", "state": "FL", "country": "US", "coord": {"lon": -80.27977, "lat": 26.68368}}, {"id": 4163033, "name": "Lutz", "state": "FL", "country": "US", "coord": {"lon": -82.461479, "lat": 28.151119}}, {"id": 4163049, "name": "Lynn Haven", "state": "FL", "country": "US", "coord": {"lon": -85.648262, "lat": 30.24548}}, {"id": 4163083, "name": "Macclenny", "state": "FL", "country": "US", "coord": {"lon": -82.122063, "lat": 30.282181}}, {"id": 4163123, "name": "Macon", "state": "FL", "country": "US", "coord": {"lon": -84.279068, "lat": 30.49464}}, {"id": 4163129, "name": "Madeira Beach", "state": "FL", "country": "US", "coord": {"lon": -82.797318, "lat": 27.79808}}, {"id": 4163140, "name": "Madison", "state": "FL", "country": "US", "coord": {"lon": -83.412933, "lat": 30.469379}}, {"id": 4163220, "name": "Maitland", "state": "FL", "country": "US", "coord": {"lon": -81.363121, "lat": 28.627781}}, {"id": 4163232, "name": "Malabar", "state": "FL", "country": "US", "coord": {"lon": -80.565613, "lat": 28.00363}}, {"id": 4163248, "name": "Malone", "state": "FL", "country": "US", "coord": {"lon": -85.162148, "lat": 30.957689}}, {"id": 4163267, "name": "Manasota Key", "state": "FL", "country": "US", "coord": {"lon": -82.352043, "lat": 26.925341}}, {"id": 4163277, "name": "Manatee County", "state": "FL", "country": "US", "coord": {"lon": -82.291481, "lat": 27.50087}}, {"id": 4163296, "name": "Manatee Road", "state": "FL", "country": "US", "coord": {"lon": -82.914291, "lat": 29.51302}}, {"id": 4163316, "name": "Mandeville", "state": "FL", "country": "US", "coord": {"lon": -81.89399, "lat": 30.329411}}, {"id": 4163318, "name": "Mango", "state": "FL", "country": "US", "coord": {"lon": -82.30648, "lat": 27.97974}}, {"id": 4163322, "name": "Mangonia Park", "state": "FL", "country": "US", "coord": {"lon": -80.073647, "lat": 26.76034}}, {"id": 4163379, "name": "Marathon", "state": "FL", "country": "US", "coord": {"lon": -81.090347, "lat": 24.713751}}, {"id": 4163384, "name": "Marco", "state": "FL", "country": "US", "coord": {"lon": -81.728981, "lat": 25.972601}}, {"id": 4163407, "name": "Margate", "state": "FL", "country": "US", "coord": {"lon": -80.206444, "lat": 26.24453}}, {"id": 4163428, "name": "Marianna", "state": "FL", "country": "US", "coord": {"lon": -85.226868, "lat": 30.774361}}, {"id": 4163456, "name": "Marion County", "state": "FL", "country": "US", "coord": {"lon": -82.041481, "lat": 29.249701}}, {"id": 4163566, "name": "Martin County", "state": "FL", "country": "US", "coord": {"lon": -80.416443, "lat": 27.08366}}, {"id": 4163599, "name": "Mary Esther", "state": "FL", "country": "US", "coord": {"lon": -86.66301, "lat": 30.40992}}, {"id": 4163633, "name": "Masaryktown", "state": "FL", "country": "US", "coord": {"lon": -82.457039, "lat": 28.441669}}, {"id": 4163635, "name": "Mascotte", "state": "FL", "country": "US", "coord": {"lon": -81.886749, "lat": 28.578329}}, {"id": 4163723, "name": "Mayo", "state": "FL", "country": "US", "coord": {"lon": -83.174858, "lat": 30.052999}}, {"id": 4163833, "name": "McGregor", "state": "FL", "country": "US", "coord": {"lon": -81.914528, "lat": 26.560909}}, {"id": 4163918, "name": "Meadow Woods", "state": "FL", "country": "US", "coord": {"lon": -81.366463, "lat": 28.385559}}, {"id": 4163954, "name": "Medulla", "state": "FL", "country": "US", "coord": {"lon": -81.973419, "lat": 27.9678}}, {"id": 4163971, "name": "Melbourne", "state": "FL", "country": "US", "coord": {"lon": -80.608109, "lat": 28.08363}}, {"id": 4163972, "name": "Melbourne Beach", "state": "FL", "country": "US", "coord": {"lon": -80.560333, "lat": 28.06835}}, {"id": 4163994, "name": "Melrose Park", "state": "FL", "country": "US", "coord": {"lon": -80.193382, "lat": 26.11342}}, {"id": 4164047, "name": "Memphis", "state": "FL", "country": "US", "coord": {"lon": -82.561211, "lat": 27.53587}}, {"id": 4164092, "name": "Merritt Island", "state": "FL", "country": "US", "coord": {"lon": -80.671997, "lat": 28.539169}}, {"id": 4164131, "name": "Mexico Beach", "state": "FL", "country": "US", "coord": {"lon": -85.417976, "lat": 29.947981}}, {"id": 4164138, "name": "Miami", "state": "FL", "country": "US", "coord": {"lon": -80.193657, "lat": 25.774269}}, {"id": 4164143, "name": "Miami Beach", "state": "FL", "country": "US", "coord": {"lon": -80.130051, "lat": 25.790649}}, {"id": 4164166, "name": "Miami Gardens", "state": "FL", "country": "US", "coord": {"lon": -80.202553, "lat": 25.979811}}, {"id": 4164167, "name": "Miami Gardens", "state": "FL", "country": "US", "coord": {"lon": -80.245598, "lat": 25.942039}}, {"id": 4164186, "name": "Miami Lakes", "state": "FL", "country": "US", "coord": {"lon": -80.308662, "lat": 25.90871}}, {"id": 4164211, "name": "Miami Shores", "state": "FL", "country": "US", "coord": {"lon": -80.192833, "lat": 25.86315}}, {"id": 4164223, "name": "Miami Springs", "state": "FL", "country": "US", "coord": {"lon": -80.289497, "lat": 25.822321}}, {"id": 4164238, "name": "Miami-Dade County", "state": "FL", "country": "US", "coord": {"lon": -80.533112, "lat": 25.61705}}, {"id": 4164253, "name": "Micco", "state": "FL", "country": "US", "coord": {"lon": -80.500328, "lat": 27.880581}}, {"id": 4164343, "name": "Midway", "state": "FL", "country": "US", "coord": {"lon": -84.454353, "lat": 30.49548}}, {"id": 4164346, "name": "Midway", "state": "FL", "country": "US", "coord": {"lon": -81.230904, "lat": 28.79027}}, {"id": 4164387, "name": "Middleburg", "state": "FL", "country": "US", "coord": {"lon": -81.860382, "lat": 30.06885}}, {"id": 4164547, "name": "Milton", "state": "FL", "country": "US", "coord": {"lon": -87.039688, "lat": 30.63241}}, {"id": 4164554, "name": "Mims", "state": "FL", "country": "US", "coord": {"lon": -80.84478, "lat": 28.66527}}, {"id": 4164575, "name": "Minneola", "state": "FL", "country": "US", "coord": {"lon": -81.746193, "lat": 28.57444}}, {"id": 4164601, "name": "Miramar", "state": "FL", "country": "US", "coord": {"lon": -80.232269, "lat": 25.98731}}, {"id": 4164602, "name": "Miramar Beach", "state": "FL", "country": "US", "coord": {"lon": -86.358559, "lat": 30.374371}}, {"id": 4164632, "name": "Mission Bay", "state": "", "country": "US", "coord": {"lon": -80.20977, "lat": 26.370081}}, {"id": 4164728, "name": "Molino", "state": "FL", "country": "US", "coord": {"lon": -87.31414, "lat": 30.724079}}, {"id": 4164762, "name": "Monroe County", "state": "FL", "country": "US", "coord": {"lon": -80.937286, "lat": 25.312901}}, {"id": 4164803, "name": "Monticello", "state": "FL", "country": "US", "coord": {"lon": -83.870163, "lat": 30.5452}}, {"id": 4164806, "name": "Montverde", "state": "FL", "country": "US", "coord": {"lon": -81.673958, "lat": 28.600281}}, {"id": 4164836, "name": "Moore Haven", "state": "FL", "country": "US", "coord": {"lon": -81.093117, "lat": 26.83312}}, {"id": 4165069, "name": "Mount Dora", "state": "FL", "country": "US", "coord": {"lon": -81.644524, "lat": 28.80249}}, {"id": 4165218, "name": "Mount Plymouth", "state": "FL", "country": "US", "coord": {"lon": -81.533127, "lat": 28.80805}}, {"id": 4165419, "name": "Mulberry", "state": "FL", "country": "US", "coord": {"lon": -81.973419, "lat": 27.8953}}, {"id": 4165519, "name": "Myrtle Grove", "state": "FL", "country": "US", "coord": {"lon": -87.307472, "lat": 30.42103}}, {"id": 4165565, "name": "Naples", "state": "FL", "country": "US", "coord": {"lon": -81.794807, "lat": 26.14204}}, {"id": 4165574, "name": "Naples Manor", "state": "FL", "country": "US", "coord": {"lon": -81.726196, "lat": 26.088699}}, {"id": 4165576, "name": "Naples Park", "state": "FL", "country": "US", "coord": {"lon": -81.80925, "lat": 26.261749}}, {"id": 4165580, "name": "Naranja", "state": "FL", "country": "US", "coord": {"lon": -80.422829, "lat": 25.51816}}, {"id": 4165637, "name": "Navarre", "state": "FL", "country": "US", "coord": {"lon": -86.863571, "lat": 30.40159}}, {"id": 4165695, "name": "Neptune Beach", "state": "FL", "country": "US", "coord": {"lon": -81.396469, "lat": 30.311911}}, {"id": 4165763, "name": "New Harmony", "state": "FL", "country": "US", "coord": {"lon": -86.279953, "lat": 30.853519}}, {"id": 4165776, "name": "New Hope", "state": "FL", "country": "US", "coord": {"lon": -85.808823, "lat": 30.577971}}, {"id": 4165869, "name": "New Port Richey", "state": "FL", "country": "US", "coord": {"lon": -82.719269, "lat": 28.244181}}, {"id": 4165913, "name": "New Smyrna Beach", "state": "FL", "country": "US", "coord": {"lon": -80.927002, "lat": 29.02582}}, {"id": 4165961, "name": "Newberry", "state": "FL", "country": "US", "coord": {"lon": -82.606499, "lat": 29.646351}}, {"id": 4165995, "name": "Niceville", "state": "FL", "country": "US", "coord": {"lon": -86.48217, "lat": 30.516859}}, {"id": 4166047, "name": "Nocatee", "state": "FL", "country": "US", "coord": {"lon": -81.882309, "lat": 27.16033}}, {"id": 4166049, "name": "Nokomis", "state": "FL", "country": "US", "coord": {"lon": -82.44426, "lat": 27.119221}}, {"id": 4166066, "name": "Norland", "state": "FL", "country": "US", "coord": {"lon": -80.212273, "lat": 25.94898}}, {"id": 4166096, "name": "North Andrews Gardens", "state": "FL", "country": "US", "coord": {"lon": -80.144211, "lat": 26.191469}}, {"id": 4166105, "name": "North Bay Village", "state": "FL", "country": "US", "coord": {"lon": -80.153938, "lat": 25.84621}}, {"id": 4166124, "name": "North Brooksville", "state": "FL", "country": "US", "coord": {"lon": -82.40815, "lat": 28.57305}}, {"id": 4166154, "name": "North DeLand", "state": "FL", "country": "US", "coord": {"lon": -81.298119, "lat": 29.049431}}, {"id": 4166195, "name": "North Fort Myers", "state": "FL", "country": "US", "coord": {"lon": -81.880089, "lat": 26.66729}}, {"id": 4166208, "name": "North Key Largo", "state": "FL", "country": "US", "coord": {"lon": -80.323387, "lat": 25.26734}}, {"id": 4166222, "name": "North Lauderdale", "state": "FL", "country": "US", "coord": {"lon": -80.225883, "lat": 26.2173}}, {"id": 4166232, "name": "North Miami", "state": "FL", "country": "US", "coord": {"lon": -80.186707, "lat": 25.890091}}, {"id": 4166233, "name": "North Miami Beach", "state": "FL", "country": "US", "coord": {"lon": -80.162552, "lat": 25.933149}}, {"id": 4166253, "name": "North Palm Beach", "state": "FL", "country": "US", "coord": {"lon": -80.081993, "lat": 26.81756}}, {"id": 4166274, "name": "North Port", "state": "FL", "country": "US", "coord": {"lon": -82.235931, "lat": 27.04422}}, {"id": 4166288, "name": "North Redington Beach", "state": "FL", "country": "US", "coord": {"lon": -82.820663, "lat": 27.816139}}, {"id": 4166293, "name": "North River Shores", "state": "FL", "country": "US", "coord": {"lon": -80.269768, "lat": 27.21755}}, {"id": 4166298, "name": "North Sarasota", "state": "FL", "country": "US", "coord": {"lon": -82.518433, "lat": 27.37393}}, {"id": 4166547, "name": "Oak Hill", "state": "FL", "country": "US", "coord": {"lon": -80.8545, "lat": 28.864429}}, {"id": 4166583, "name": "Oak Ridge", "state": "FL", "country": "US", "coord": {"lon": -81.424522, "lat": 28.471121}}, {"id": 4166628, "name": "Oakland", "state": "FL", "country": "US", "coord": {"lon": -81.633133, "lat": 28.555}}, {"id": 4166638, "name": "Oakland Park", "state": "FL", "country": "US", "coord": {"lon": -80.131989, "lat": 26.17231}}, {"id": 4166673, "name": "Ocala", "state": "FL", "country": "US", "coord": {"lon": -82.140091, "lat": 29.187201}}, {"id": 4166711, "name": "Ocala Thoroughbred Acres", "state": "FL", "country": "US", "coord": {"lon": -82.243431, "lat": 29.17248}}, {"id": 4166723, "name": "Ocean City", "state": "FL", "country": "US", "coord": {"lon": -86.613564, "lat": 30.441031}}, {"id": 4166738, "name": "Ocean Ridge", "state": "FL", "country": "US", "coord": {"lon": -80.04837, "lat": 26.52702}}, {"id": 4166754, "name": "Ocheeseulga (historical)", "state": "FL", "country": "US", "coord": {"lon": -85.066582, "lat": 30.4002}}, {"id": 4166776, "name": "Ocoee", "state": "FL", "country": "US", "coord": {"lon": -81.543961, "lat": 28.56917}}, {"id": 4166787, "name": "Odessa", "state": "FL", "country": "US", "coord": {"lon": -82.591759, "lat": 28.193899}}, {"id": 4166805, "name": "Ojus", "state": "FL", "country": "US", "coord": {"lon": -80.150597, "lat": 25.948429}}, {"id": 4166818, "name": "Okaloosa County", "state": "FL", "country": "US", "coord": {"lon": -86.562447, "lat": 30.68741}}, {"id": 4166822, "name": "Okeechobee", "state": "FL", "country": "US", "coord": {"lon": -80.829781, "lat": 27.243931}}, {"id": 4166825, "name": "Okeechobee County", "state": "FL", "country": "US", "coord": {"lon": -80.916451, "lat": 27.41699}}, {"id": 4166936, "name": "Oldsmar", "state": "FL", "country": "US", "coord": {"lon": -82.6651, "lat": 28.03418}}, {"id": 4166943, "name": "Olga", "state": "FL", "country": "US", "coord": {"lon": -81.712303, "lat": 26.71896}}, {"id": 4166979, "name": "Olympia Heights", "state": "FL", "country": "US", "coord": {"lon": -80.355331, "lat": 25.72677}}, {"id": 4167003, "name": "Opa-locka", "state": "FL", "country": "US", "coord": {"lon": -80.250328, "lat": 25.902321}}, {"id": 4167055, "name": "Orange City", "state": "FL", "country": "US", "coord": {"lon": -81.298668, "lat": 28.948879}}, {"id": 4167060, "name": "Orange County", "state": "FL", "country": "US", "coord": {"lon": -81.291458, "lat": 28.45862}}, {"id": 4167102, "name": "Orange Park", "state": "FL", "country": "US", "coord": {"lon": -81.706482, "lat": 30.166071}}, {"id": 4167127, "name": "Orangetree", "state": "FL", "country": "US", "coord": {"lon": -81.588417, "lat": 26.29286}}, {"id": 4167142, "name": "Oriole Beach", "state": "FL", "country": "US", "coord": {"lon": -87.091362, "lat": 30.37381}}, {"id": 4167147, "name": "Orlando", "state": "FL", "country": "US", "coord": {"lon": -81.379242, "lat": 28.53834}}, {"id": 4167176, "name": "Orlovista", "state": "FL", "country": "US", "coord": {"lon": -81.46035, "lat": 28.53834}}, {"id": 4167178, "name": "Ormond Beach", "state": "FL", "country": "US", "coord": {"lon": -81.055893, "lat": 29.28581}}, {"id": 4167190, "name": "Ormond-by-the-Sea", "state": "FL", "country": "US", "coord": {"lon": -81.066452, "lat": 29.34914}}, {"id": 4167218, "name": "Osceola County", "state": "FL", "country": "US", "coord": {"lon": -81.124229, "lat": 28.04196}}, {"id": 4167245, "name": "Osprey", "state": "FL", "country": "US", "coord": {"lon": -82.490372, "lat": 27.196159}}, {"id": 4167348, "name": "Oviedo", "state": "FL", "country": "US", "coord": {"lon": -81.208122, "lat": 28.67}}, {"id": 4167424, "name": "Pace", "state": "FL", "country": "US", "coord": {"lon": -87.161079, "lat": 30.59936}}, {"id": 4167465, "name": "Page Park", "state": "FL", "country": "US", "coord": {"lon": -81.86203, "lat": 26.579241}}, {"id": 4167473, "name": "Pahokee", "state": "FL", "country": "US", "coord": {"lon": -80.665337, "lat": 26.820061}}, {"id": 4167482, "name": "Palatka", "state": "FL", "country": "US", "coord": {"lon": -81.637581, "lat": 29.648581}}, {"id": 4167495, "name": "Palm Aire", "state": "FL", "country": "US", "coord": {"lon": -80.191711, "lat": 26.20619}}, {"id": 4167499, "name": "Palm Bay", "state": "FL", "country": "US", "coord": {"lon": -80.588661, "lat": 28.03446}}, {"id": 4167505, "name": "Palm Beach", "state": "FL", "country": "US", "coord": {"lon": -80.03643, "lat": 26.70562}}, {"id": 4167510, "name": "Palm Beach County", "state": "FL", "country": "US", "coord": {"lon": -80.449768, "lat": 26.650339}}, {"id": 4167519, "name": "Palm Beach Gardens", "state": "FL", "country": "US", "coord": {"lon": -80.138649, "lat": 26.823389}}, {"id": 4167533, "name": "Palm Beach Shores", "state": "FL", "country": "US", "coord": {"lon": -80.035599, "lat": 26.77812}}, {"id": 4167536, "name": "Palm City", "state": "FL", "country": "US", "coord": {"lon": -80.266159, "lat": 27.16783}}, {"id": 4167538, "name": "Palm Coast", "state": "FL", "country": "US", "coord": {"lon": -81.20784, "lat": 29.58497}}, {"id": 4167545, "name": "Palm Harbor", "state": "FL", "country": "US", "coord": {"lon": -82.76371, "lat": 28.07807}}, {"id": 4167583, "name": "Palm Springs", "state": "FL", "country": "US", "coord": {"lon": -80.096153, "lat": 26.6359}}, {"id": 4167594, "name": "Palm Springs North", "state": "FL", "country": "US", "coord": {"lon": -80.333832, "lat": 25.935101}}, {"id": 4167601, "name": "Palm Valley", "state": "FL", "country": "US", "coord": {"lon": -81.387581, "lat": 30.17746}}, {"id": 4167632, "name": "Palmetto", "state": "FL", "country": "US", "coord": {"lon": -82.572319, "lat": 27.521429}}, {"id": 4167634, "name": "Palmetto Bay", "state": "FL", "country": "US", "coord": {"lon": -80.324768, "lat": 25.621771}}, {"id": 4167647, "name": "Palmetto Estates", "state": "FL", "country": "US", "coord": {"lon": -80.362, "lat": 25.62149}}, {"id": 4167671, "name": "Palmona Park", "state": "FL", "country": "US", "coord": {"lon": -81.896477, "lat": 26.68646}}, {"id": 4167694, "name": "Panama City", "state": "FL", "country": "US", "coord": {"lon": -85.659828, "lat": 30.15946}}, {"id": 4167695, "name": "Panama City Beach", "state": "FL", "country": "US", "coord": {"lon": -85.805489, "lat": 30.17659}}, {"id": 4167738, "name": "Paradise Heights", "state": "FL", "country": "US", "coord": {"lon": -81.543961, "lat": 28.62361}}, {"id": 4167797, "name": "Parker", "state": "FL", "country": "US", "coord": {"lon": -85.603256, "lat": 30.131041}}, {"id": 4167829, "name": "Parkland", "state": "FL", "country": "US", "coord": {"lon": -80.237267, "lat": 26.31008}}, {"id": 4167895, "name": "Pasco County", "state": "FL", "country": "US", "coord": {"lon": -82.416481, "lat": 28.29195}}, {"id": 4168062, "name": "Pebble Creek", "state": "FL", "country": "US", "coord": {"lon": -82.34565, "lat": 28.14835}}, {"id": 4168095, "name": "Pelican Bay", "state": "FL", "country": "US", "coord": {"lon": -81.805641, "lat": 26.231199}}, {"id": 4168138, "name": "Pembroke Park", "state": "FL", "country": "US", "coord": {"lon": -80.174767, "lat": 25.987869}}, {"id": 4168139, "name": "Pembroke Pines", "state": "FL", "country": "US", "coord": {"lon": -80.223938, "lat": 26.003151}}, {"id": 4168228, "name": "Pensacola", "state": "FL", "country": "US", "coord": {"lon": -87.216911, "lat": 30.42131}}, {"id": 4168244, "name": "Perry", "state": "FL", "country": "US", "coord": {"lon": -83.58181, "lat": 30.117439}}, {"id": 4168371, "name": "Pierson", "state": "FL", "country": "US", "coord": {"lon": -81.46563, "lat": 29.23942}}, {"id": 4168418, "name": "Pine Castle", "state": "FL", "country": "US", "coord": {"lon": -81.367851, "lat": 28.471951}}, {"id": 4168459, "name": "Pine Hills", "state": "FL", "country": "US", "coord": {"lon": -81.4534, "lat": 28.557779}}, {"id": 4168493, "name": "Pine Island Center", "state": "FL", "country": "US", "coord": {"lon": -82.118149, "lat": 26.613689}}, {"id": 4168506, "name": "Pine Island Ridge", "state": "FL", "country": "US", "coord": {"lon": -80.273941, "lat": 26.09481}}, {"id": 4168556, "name": "Pine Manor", "state": "FL", "country": "US", "coord": {"lon": -81.878143, "lat": 26.572849}}, {"id": 4168563, "name": "Pine Ridge", "state": "FL", "country": "US", "coord": {"lon": -82.473427, "lat": 28.938311}}, {"id": 4168564, "name": "Pine Ridge", "state": "FL", "country": "US", "coord": {"lon": -81.795921, "lat": 26.23064}}, {"id": 4168590, "name": "Pinecrest", "state": "FL", "country": "US", "coord": {"lon": -80.308113, "lat": 25.667049}}, {"id": 4168618, "name": "Pinellas County", "state": "FL", "country": "US", "coord": {"lon": -82.70816, "lat": 27.89613}}, {"id": 4168630, "name": "Pinellas Park", "state": "FL", "country": "US", "coord": {"lon": -82.699539, "lat": 27.8428}}, {"id": 4168659, "name": "Pinewood", "state": "FL", "country": "US", "coord": {"lon": -80.216988, "lat": 25.86898}}, {"id": 4168761, "name": "Placid Lakes", "state": "FL", "country": "US", "coord": {"lon": -81.407021, "lat": 27.24144}}, {"id": 4168773, "name": "Plant City", "state": "FL", "country": "US", "coord": {"lon": -82.112862, "lat": 28.018629}}, {"id": 4168782, "name": "Plantation", "state": "FL", "country": "US", "coord": {"lon": -80.231842, "lat": 26.134211}}, {"id": 4168783, "name": "Plantation", "state": "FL", "country": "US", "coord": {"lon": -80.552277, "lat": 24.97624}}, {"id": 4168784, "name": "Plantation", "state": "FL", "country": "US", "coord": {"lon": -82.372871, "lat": 27.06811}}, {"id": 4168804, "name": "Plantation Mobile Home Park", "state": "FL", "country": "US", "coord": {"lon": -80.132271, "lat": 26.703119}}, {"id": 4168841, "name": "Pleasant Grove", "state": "FL", "country": "US", "coord": {"lon": -87.345253, "lat": 30.359091}}, {"id": 4168930, "name": "Poinciana", "state": "FL", "country": "US", "coord": {"lon": -81.458412, "lat": 28.140289}}, {"id": 4168947, "name": "Point Baker", "state": "FL", "country": "US", "coord": {"lon": -87.053581, "lat": 30.690189}}, {"id": 4168985, "name": "Polk City", "state": "FL", "country": "US", "coord": {"lon": -81.823967, "lat": 28.18251}}, {"id": 4168988, "name": "Polk County", "state": "FL", "country": "US", "coord": {"lon": -81.70813, "lat": 27.95863}}, {"id": 4169014, "name": "Pompano Beach", "state": "FL", "country": "US", "coord": {"lon": -80.124771, "lat": 26.23786}}, {"id": 4169018, "name": "Pompano Beach Highlands", "state": "FL", "country": "US", "coord": {"lon": -80.106987, "lat": 26.28286}}, {"id": 4169033, "name": "Ponce Inlet", "state": "FL", "country": "US", "coord": {"lon": -80.936996, "lat": 29.096371}}, {"id": 4169060, "name": "Ponte Vedra Beach", "state": "FL", "country": "US", "coord": {"lon": -81.385643, "lat": 30.239691}}, {"id": 4169130, "name": "Port Charlotte", "state": "FL", "country": "US", "coord": {"lon": -82.090637, "lat": 26.97617}}, {"id": 4169144, "name": "Port LaBelle", "state": "FL", "country": "US", "coord": {"lon": -81.405083, "lat": 26.756451}}, {"id": 4169156, "name": "Port Orange", "state": "FL", "country": "US", "coord": {"lon": -80.995613, "lat": 29.138321}}, {"id": 4169160, "name": "Port Richey", "state": "FL", "country": "US", "coord": {"lon": -82.719551, "lat": 28.271681}}, {"id": 4169166, "name": "Port Saint Joe", "state": "FL", "country": "US", "coord": {"lon": -85.302971, "lat": 29.81188}}, {"id": 4169170, "name": "Port Saint John", "state": "FL", "country": "US", "coord": {"lon": -80.788673, "lat": 28.47695}}, {"id": 4169171, "name": "Port Saint Lucie", "state": "FL", "country": "US", "coord": {"lon": -80.350327, "lat": 27.29393}}, {"id": 4169176, "name": "Port Salerno", "state": "FL", "country": "US", "coord": {"lon": -80.2006, "lat": 27.14422}}, {"id": 4169302, "name": "Pretty Bayou", "state": "FL", "country": "US", "coord": {"lon": -85.696602, "lat": 30.19659}}, {"id": 4169345, "name": "Princeton", "state": "FL", "country": "US", "coord": {"lon": -80.408943, "lat": 25.538441}}, {"id": 4169378, "name": "Progress Village", "state": "FL", "country": "US", "coord": {"lon": -82.36454, "lat": 27.900299}}, {"id": 4169452, "name": "Punta Gorda", "state": "FL", "country": "US", "coord": {"lon": -82.045372, "lat": 26.929779}}, {"id": 4169455, "name": "Punta Gorda Isles", "state": "FL", "country": "US", "coord": {"lon": -82.078423, "lat": 26.917561}}, {"id": 4169461, "name": "Punta Rassa", "state": "FL", "country": "US", "coord": {"lon": -82.012306, "lat": 26.48786}}, {"id": 4169510, "name": "Quincy", "state": "FL", "country": "US", "coord": {"lon": -84.583252, "lat": 30.587139}}, {"id": 4169810, "name": "Redington Beach", "state": "FL", "country": "US", "coord": {"lon": -82.811211, "lat": 27.80864}}, {"id": 4169811, "name": "Redington Shores", "state": "FL", "country": "US", "coord": {"lon": -82.828987, "lat": 27.826139}}, {"id": 4170000, "name": "Richmond Heights", "state": "FL", "country": "US", "coord": {"lon": -80.368942, "lat": 25.631491}}, {"id": 4170005, "name": "Richmond West", "state": "FL", "country": "US", "coord": {"lon": -80.42971, "lat": 25.6105}}, {"id": 4170014, "name": "Ridge Manor", "state": "FL", "country": "US", "coord": {"lon": -82.170357, "lat": 28.5075}}, {"id": 4170018, "name": "Ridge Wood Heights", "state": "FL", "country": "US", "coord": {"lon": -82.513153, "lat": 27.28727}}, {"id": 4170019, "name": "Ridgecrest", "state": "FL", "country": "US", "coord": {"lon": -82.803436, "lat": 27.89724}}, {"id": 4170092, "name": "River Park", "state": "FL", "country": "US", "coord": {"lon": -80.347267, "lat": 27.314211}}, {"id": 4170156, "name": "Riverview", "state": "FL", "country": "US", "coord": {"lon": -82.326477, "lat": 27.86614}}, {"id": 4170174, "name": "Riviera Beach", "state": "FL", "country": "US", "coord": {"lon": -80.058098, "lat": 26.775339}}, {"id": 4170301, "name": "Rock Island", "state": "FL", "country": "US", "coord": {"lon": -80.176987, "lat": 26.15509}}, {"id": 4170358, "name": "Rockledge", "state": "FL", "country": "US", "coord": {"lon": -80.725327, "lat": 28.35084}}, {"id": 4170452, "name": "Rolling Hills", "state": "FL", "country": "US", "coord": {"lon": -82.335098, "lat": 29.117201}}, {"id": 4170520, "name": "Roseland", "state": "FL", "country": "US", "coord": {"lon": -80.493111, "lat": 27.835859}}, {"id": 4170556, "name": "Rotonda West", "state": "FL", "country": "US", "coord": {"lon": -82.290092, "lat": 26.88368}}, {"id": 4170617, "name": "Royal Palm Beach", "state": "FL", "country": "US", "coord": {"lon": -80.230598, "lat": 26.708401}}, {"id": 4170625, "name": "Royal Palm Estates", "state": "FL", "country": "US", "coord": {"lon": -80.125038, "lat": 26.68173}}, {"id": 4170688, "name": "Ruskin", "state": "FL", "country": "US", "coord": {"lon": -82.433151, "lat": 27.72086}}, {"id": 4170797, "name": "Safety Harbor", "state": "FL", "country": "US", "coord": {"lon": -82.693161, "lat": 27.99085}}, {"id": 4170894, "name": "Saint Augustine", "state": "FL", "country": "US", "coord": {"lon": -81.314522, "lat": 29.89469}}, {"id": 4170896, "name": "Saint Augustine Beach", "state": "FL", "country": "US", "coord": {"lon": -81.26535, "lat": 29.850531}}, {"id": 4170908, "name": "Saint Augustine Shores", "state": "FL", "country": "US", "coord": {"lon": -81.310349, "lat": 29.810801}}, {"id": 4170965, "name": "Saint Cloud", "state": "FL", "country": "US", "coord": {"lon": -81.281181, "lat": 28.248899}}, {"id": 4171010, "name": "Saint George", "state": "FL", "country": "US", "coord": {"lon": -82.727882, "lat": 28.05641}}, {"id": 4171061, "name": "Saint James City", "state": "FL", "country": "US", "coord": {"lon": -82.07843, "lat": 26.49758}}, {"id": 4171153, "name": "Saint Johns County", "state": "FL", "country": "US", "coord": {"lon": -81.416473, "lat": 29.89608}}, {"id": 4171250, "name": "Saint Leo", "state": "FL", "country": "US", "coord": {"lon": -82.258423, "lat": 28.337231}}, {"id": 4171260, "name": "Saint Lucie County", "state": "FL", "country": "US", "coord": {"lon": -80.458107, "lat": 27.37587}}, {"id": 4171522, "name": "Saint Pete Beach", "state": "FL", "country": "US", "coord": {"lon": -82.741211, "lat": 27.725309}}, {"id": 4171563, "name": "St. Petersburg", "state": "FL", "country": "US", "coord": {"lon": -82.679268, "lat": 27.770861}}, {"id": 4171741, "name": "Samoset", "state": "FL", "country": "US", "coord": {"lon": -82.541489, "lat": 27.469481}}, {"id": 4171771, "name": "San Antonio", "state": "FL", "country": "US", "coord": {"lon": -82.274529, "lat": 28.336109}}, {"id": 4171782, "name": "San Carlos Park", "state": "FL", "country": "US", "coord": {"lon": -81.801468, "lat": 26.4673}}, {"id": 4171972, "name": "Sandalfoot Cove", "state": "", "country": "US", "coord": {"lon": -80.187553, "lat": 26.339239}}, {"id": 4172052, "name": "Sanibel", "state": "FL", "country": "US", "coord": {"lon": -82.022308, "lat": 26.448971}}, {"id": 4172086, "name": "Sanford", "state": "FL", "country": "US", "coord": {"lon": -81.273117, "lat": 28.80055}}, {"id": 4172096, "name": "Santa Rosa County", "state": "FL", "country": "US", "coord": {"lon": -87.041634, "lat": 30.708521}}, {"id": 4172131, "name": "Sarasota", "state": "FL", "country": "US", "coord": {"lon": -82.530647, "lat": 27.33643}}, {"id": 4172139, "name": "Sarasota County", "state": "FL", "country": "US", "coord": {"lon": -82.333153, "lat": 27.167}}, {"id": 4172150, "name": "Sarasota Springs", "state": "FL", "country": "US", "coord": {"lon": -82.479538, "lat": 27.308941}}, {"id": 4172173, "name": "Satellite Beach", "state": "FL", "country": "US", "coord": {"lon": -80.59005, "lat": 28.176121}}, {"id": 4172206, "name": "Sawgrass", "state": "FL", "country": "US", "coord": {"lon": -81.370644, "lat": 30.192739}}, {"id": 4172248, "name": "Schall Circle", "state": "FL", "country": "US", "coord": {"lon": -80.115044, "lat": 26.71562}}, {"id": 4172294, "name": "Scott Lake", "state": "FL", "country": "US", "coord": {"lon": -80.231987, "lat": 25.941481}}, {"id": 4172366, "name": "Seaside", "state": "FL", "country": "US", "coord": {"lon": -86.141609, "lat": 30.32103}}, {"id": 4172372, "name": "Sebastian", "state": "FL", "country": "US", "coord": {"lon": -80.470612, "lat": 27.81642}}, {"id": 4172383, "name": "Sebring", "state": "FL", "country": "US", "coord": {"lon": -81.44091, "lat": 27.49559}}, {"id": 4172413, "name": "Seffner", "state": "FL", "country": "US", "coord": {"lon": -82.27565, "lat": 27.983629}}, {"id": 4172434, "name": "Seminole", "state": "FL", "country": "US", "coord": {"lon": -82.791206, "lat": 27.83975}}, {"id": 4172445, "name": "Seminole County", "state": "FL", "country": "US", "coord": {"lon": -81.208122, "lat": 28.708611}}, {"id": 4172460, "name": "Seminole Manor", "state": "FL", "country": "US", "coord": {"lon": -80.100319, "lat": 26.583679}}, {"id": 4172557, "name": "Sewall's Point", "state": "FL", "country": "US", "coord": {"lon": -80.202271, "lat": 27.19949}}, {"id": 4172602, "name": "Shady Hills", "state": "FL", "country": "US", "coord": {"lon": -82.542877, "lat": 28.41}}, {"id": 4172658, "name": "Sharpes", "state": "FL", "country": "US", "coord": {"lon": -80.760048, "lat": 28.43223}}, {"id": 4172935, "name": "Siesta Key", "state": "FL", "country": "US", "coord": {"lon": -82.551491, "lat": 27.301991}}, {"id": 4172971, "name": "Silver Lake", "state": "FL", "country": "US", "coord": {"lon": -81.798409, "lat": 28.84193}}, {"id": 4173007, "name": "Silver Springs Shores", "state": "FL", "country": "US", "coord": {"lon": -82.020638, "lat": 29.10442}}, {"id": 4173051, "name": "Simsville", "state": "FL", "country": "US", "coord": {"lon": -85.174088, "lat": 30.68075}}, {"id": 4173124, "name": "Sky Lake", "state": "FL", "country": "US", "coord": {"lon": -81.391457, "lat": 28.45723}}, {"id": 4173293, "name": "Sneads", "state": "FL", "country": "US", "coord": {"lon": -84.92437, "lat": 30.707689}}, {"id": 4173376, "name": "South Bay", "state": "FL", "country": "US", "coord": {"lon": -80.716171, "lat": 26.66396}}, {"id": 4173380, "name": "South Beach", "state": "FL", "country": "US", "coord": {"lon": -80.344223, "lat": 27.591141}}, {"id": 4173392, "name": "South Bradenton", "state": "FL", "country": "US", "coord": {"lon": -82.581757, "lat": 27.4631}}, {"id": 4173394, "name": "South Apopka", "state": "FL", "country": "US", "coord": {"lon": -81.509521, "lat": 28.66194}}, {"id": 4173396, "name": "South Brooksville", "state": "FL", "country": "US", "coord": {"lon": -82.402321, "lat": 28.53138}}, {"id": 4173431, "name": "South Daytona", "state": "FL", "country": "US", "coord": {"lon": -81.004501, "lat": 29.165819}}, {"id": 4173460, "name": "South Gate Ridge", "state": "FL", "country": "US", "coord": {"lon": -82.496758, "lat": 27.28644}}, {"id": 4173467, "name": "South Highpoint", "state": "FL", "country": "US", "coord": {"lon": -82.712883, "lat": 27.916969}}, {"id": 4173495, "name": "South Miami", "state": "FL", "country": "US", "coord": {"lon": -80.293381, "lat": 25.7076}}, {"id": 4173497, "name": "South Miami Heights", "state": "FL", "country": "US", "coord": {"lon": -80.380608, "lat": 25.59761}}, {"id": 4173522, "name": "South Palm Beach", "state": "FL", "country": "US", "coord": {"lon": -80.038651, "lat": 26.588961}}, {"id": 4173524, "name": "South Pasadena", "state": "FL", "country": "US", "coord": {"lon": -82.737602, "lat": 27.75503}}, {"id": 4173528, "name": "South Patrick Shores", "state": "FL", "country": "US", "coord": {"lon": -80.609497, "lat": 28.20223}}, {"id": 4173558, "name": "South Sarasota", "state": "FL", "country": "US", "coord": {"lon": -82.532883, "lat": 27.28616}}, {"id": 4173593, "name": "South Venice", "state": "FL", "country": "US", "coord": {"lon": -82.424263, "lat": 27.05311}}, {"id": 4173600, "name": "Southchase", "state": "FL", "country": "US", "coord": {"lon": -81.3834, "lat": 28.393061}}, {"id": 4173634, "name": "Southgate", "state": "FL", "country": "US", "coord": {"lon": -82.509819, "lat": 27.3081}}, {"id": 4173717, "name": "Southwest Ranches", "state": "FL", "country": "US", "coord": {"lon": -80.337273, "lat": 26.058701}}, {"id": 4173838, "name": "Spring Hill", "state": "FL", "country": "US", "coord": {"lon": -82.525459, "lat": 28.476879}}, {"id": 4173892, "name": "Springfield", "state": "FL", "country": "US", "coord": {"lon": -85.61132, "lat": 30.153259}}, {"id": 4173999, "name": "Starke", "state": "FL", "country": "US", "coord": {"lon": -82.109833, "lat": 29.94413}}, {"id": 4174059, "name": "Steinhatchee", "state": "FL", "country": "US", "coord": {"lon": -83.387642, "lat": 29.671061}}, {"id": 4174131, "name": "Stock Island", "state": "FL", "country": "US", "coord": {"lon": -81.738419, "lat": 24.567089}}, {"id": 4174201, "name": "Stuart", "state": "FL", "country": "US", "coord": {"lon": -80.252831, "lat": 27.19755}}, {"id": 4174252, "name": "Sugarmill Woods", "state": "FL", "country": "US", "coord": {"lon": -82.50621, "lat": 28.73221}}, {"id": 4174280, "name": "Summerfield", "state": "FL", "country": "US", "coord": {"lon": -82.034813, "lat": 29.008591}}, {"id": 4174301, "name": "Sumter County", "state": "FL", "country": "US", "coord": {"lon": -82.083138, "lat": 28.708599}}, {"id": 4174317, "name": "Sun City Center", "state": "FL", "country": "US", "coord": {"lon": -82.351761, "lat": 27.71809}}, {"id": 4174343, "name": "Suncoast Estates", "state": "FL", "country": "US", "coord": {"lon": -81.868973, "lat": 26.71174}}, {"id": 4174383, "name": "Sunny Isles Beach", "state": "FL", "country": "US", "coord": {"lon": -80.122818, "lat": 25.950649}}, {"id": 4174402, "name": "Sunrise", "state": "FL", "country": "US", "coord": {"lon": -80.28611, "lat": 26.157669}}, {"id": 4174425, "name": "Sunset", "state": "FL", "country": "US", "coord": {"lon": -80.35228, "lat": 25.70594}}, {"id": 4174503, "name": "Sunshine Ranches", "state": "FL", "country": "US", "coord": {"lon": -80.328941, "lat": 26.045919}}, {"id": 4174518, "name": "Surfside", "state": "FL", "country": "US", "coord": {"lon": -80.125603, "lat": 25.878429}}, {"id": 4174600, "name": "Sweetwater", "state": "FL", "country": "US", "coord": {"lon": -80.373108, "lat": 25.76343}}, {"id": 4174700, "name": "Taft", "state": "FL", "country": "US", "coord": {"lon": -81.365067, "lat": 28.429729}}, {"id": 4174715, "name": "Tallahassee", "state": "FL", "country": "US", "coord": {"lon": -84.280731, "lat": 30.438259}}, {"id": 4174738, "name": "Tamarac", "state": "FL", "country": "US", "coord": {"lon": -80.249771, "lat": 26.21286}}, {"id": 4174744, "name": "Tamiami", "state": "FL", "country": "US", "coord": {"lon": -80.398392, "lat": 25.758711}}, {"id": 4174757, "name": "Tampa", "state": "FL", "country": "US", "coord": {"lon": -82.458427, "lat": 27.947519}}, {"id": 4174791, "name": "Tangelo Park", "state": "FL", "country": "US", "coord": {"lon": -81.4459, "lat": 28.455839}}, {"id": 4174793, "name": "Tangerine", "state": "FL", "country": "US", "coord": {"lon": -81.63063, "lat": 28.76499}}, {"id": 4174855, "name": "Tarpon Springs", "state": "FL", "country": "US", "coord": {"lon": -82.756767, "lat": 28.14612}}, {"id": 4174861, "name": "Tavares", "state": "FL", "country": "US", "coord": {"lon": -81.725632, "lat": 28.804159}}, {"id": 4174870, "name": "Tavernier", "state": "FL", "country": "US", "coord": {"lon": -80.51506, "lat": 25.01152}}, {"id": 4174888, "name": "Taylor Creek", "state": "FL", "country": "US", "coord": {"lon": -80.789497, "lat": 27.216709}}, {"id": 4174921, "name": "Tedder", "state": "FL", "country": "US", "coord": {"lon": -80.122269, "lat": 26.28425}}, {"id": 4174969, "name": "Temple Terrace", "state": "FL", "country": "US", "coord": {"lon": -82.389259, "lat": 28.035299}}, {"id": 4175011, "name": "Tequesta", "state": "FL", "country": "US", "coord": {"lon": -80.128647, "lat": 26.968109}}, {"id": 4175022, "name": "Terra Mar", "state": "FL", "country": "US", "coord": {"lon": -80.095322, "lat": 26.21619}}, {"id": 4175046, "name": "Thames", "state": "FL", "country": "US", "coord": {"lon": -82.692062, "lat": 29.680519}}, {"id": 4175091, "name": "The Crossings", "state": "FL", "country": "US", "coord": {"lon": -80.401169, "lat": 25.67066}}, {"id": 4175117, "name": "The Hammocks", "state": "FL", "country": "US", "coord": {"lon": -80.444504, "lat": 25.67149}}, {"id": 4175136, "name": "The Meadows", "state": "FL", "country": "US", "coord": {"lon": -82.468979, "lat": 27.36171}}, {"id": 4175179, "name": "The Villages", "state": "FL", "country": "US", "coord": {"lon": -81.959938, "lat": 28.93408}}, {"id": 4175269, "name": "Thonotosassa", "state": "FL", "country": "US", "coord": {"lon": -82.302307, "lat": 28.061411}}, {"id": 4175296, "name": "Three Lakes", "state": "FL", "country": "US", "coord": {"lon": -80.398392, "lat": 25.64205}}, {"id": 4175298, "name": "Three Oaks", "state": "FL", "country": "US", "coord": {"lon": -81.793968, "lat": 26.470079}}, {"id": 4175319, "name": "Tice", "state": "FL", "country": "US", "coord": {"lon": -81.815079, "lat": 26.674789}}, {"id": 4175331, "name": "Tierra Verde", "state": "FL", "country": "US", "coord": {"lon": -82.723427, "lat": 27.691971}}, {"id": 4175363, "name": "Tiger Point", "state": "FL", "country": "US", "coord": {"lon": -87.055519, "lat": 30.378531}}, {"id": 4175391, "name": "Timber Pines", "state": "FL", "country": "US", "coord": {"lon": -82.603157, "lat": 28.47028}}, {"id": 4175437, "name": "Titusville", "state": "FL", "country": "US", "coord": {"lon": -80.807549, "lat": 28.612221}}, {"id": 4175538, "name": "Town 'n' Country", "state": "FL", "country": "US", "coord": {"lon": -82.577316, "lat": 28.010571}}, {"id": 4175568, "name": "Townsend", "state": "FL", "country": "US", "coord": {"lon": -83.33931, "lat": 30.12911}}, {"id": 4175626, "name": "Treasure Island", "state": "FL", "country": "US", "coord": {"lon": -82.76899, "lat": 27.76919}}, {"id": 4175637, "name": "Trenton", "state": "FL", "country": "US", "coord": {"lon": -82.817619, "lat": 29.613291}}, {"id": 4175993, "name": "Twin Lakes", "state": "FL", "country": "US", "coord": {"lon": -80.160049, "lat": 26.18092}}, {"id": 4176059, "name": "Umatilla", "state": "FL", "country": "US", "coord": {"lon": -81.665627, "lat": 28.92943}}, {"id": 4176109, "name": "Union Park", "state": "FL", "country": "US", "coord": {"lon": -81.286179, "lat": 28.56806}}, {"id": 4176217, "name": "University Park", "state": "FL", "country": "US", "coord": {"lon": -80.367554, "lat": 25.74649}}, {"id": 4176277, "name": "Upper Grand Lagoon", "state": "FL", "country": "US", "coord": {"lon": -85.740761, "lat": 30.16326}}, {"id": 4176316, "name": "Valparaiso", "state": "FL", "country": "US", "coord": {"lon": -86.502731, "lat": 30.50853}}, {"id": 4176318, "name": "Valrico", "state": "FL", "country": "US", "coord": {"lon": -82.236443, "lat": 27.937889}}, {"id": 4176324, "name": "Vamo", "state": "FL", "country": "US", "coord": {"lon": -82.497871, "lat": 27.222}}, {"id": 4176380, "name": "Venice", "state": "FL", "country": "US", "coord": {"lon": -82.454262, "lat": 27.099779}}, {"id": 4176387, "name": "Venice Gardens", "state": "FL", "country": "US", "coord": {"lon": -82.4076, "lat": 27.073111}}, {"id": 4176409, "name": "Vero Beach", "state": "FL", "country": "US", "coord": {"lon": -80.39727, "lat": 27.638639}}, {"id": 4176508, "name": "Villages of Oriole", "state": "FL", "country": "US", "coord": {"lon": -80.152817, "lat": 26.462299}}, {"id": 4176509, "name": "Villano Beach", "state": "FL", "country": "US", "coord": {"lon": -81.302017, "lat": 29.93858}}, {"id": 4176527, "name": "Vineyards", "state": "FL", "country": "US", "coord": {"lon": -81.709251, "lat": 26.227871}}, {"id": 4176550, "name": "Virginia Gardens", "state": "FL", "country": "US", "coord": {"lon": -80.302269, "lat": 25.810381}}, {"id": 4176559, "name": "Volusia County", "state": "FL", "country": "US", "coord": {"lon": -81.208122, "lat": 29.08359}}, {"id": 4177270, "name": "Wabasso Beach", "state": "FL", "country": "US", "coord": {"lon": -80.398941, "lat": 27.76475}}, {"id": 4177308, "name": "Wahneta", "state": "FL", "country": "US", "coord": {"lon": -81.72702, "lat": 27.952801}}, {"id": 4177321, "name": "Wakulla County", "state": "FL", "country": "US", "coord": {"lon": -84.333229, "lat": 30.16687}}, {"id": 4177334, "name": "Waldo", "state": "FL", "country": "US", "coord": {"lon": -82.16732, "lat": 29.78969}}, {"id": 4177380, "name": "Wallace", "state": "FL", "country": "US", "coord": {"lon": -87.17997, "lat": 30.67741}}, {"id": 4177409, "name": "Walton County", "state": "FL", "country": "US", "coord": {"lon": -86.166611, "lat": 30.62575}}, {"id": 4177450, "name": "Warm Mineral Springs", "state": "FL", "country": "US", "coord": {"lon": -82.260094, "lat": 27.05978}}, {"id": 4177465, "name": "Warrington", "state": "FL", "country": "US", "coord": {"lon": -87.274971, "lat": 30.38409}}, {"id": 4177485, "name": "Washington County", "state": "FL", "country": "US", "coord": {"lon": -85.666603, "lat": 30.600189}}, {"id": 4177492, "name": "Washington Park", "state": "FL", "country": "US", "coord": {"lon": -80.18116, "lat": 26.132589}}, {"id": 4177542, "name": "Watertown", "state": "FL", "country": "US", "coord": {"lon": -82.614571, "lat": 30.19245}}, {"id": 4177569, "name": "Wauchula", "state": "FL", "country": "US", "coord": {"lon": -81.81147, "lat": 27.54726}}, {"id": 4177617, "name": "Wedgefield", "state": "FL", "country": "US", "coord": {"lon": -81.077293, "lat": 28.48778}}, {"id": 4177635, "name": "Weeki Wachee Gardens", "state": "FL", "country": "US", "coord": {"lon": -82.629539, "lat": 28.533609}}, {"id": 4177671, "name": "Wekiwa Springs", "state": "FL", "country": "US", "coord": {"lon": -81.425629, "lat": 28.69861}}, {"id": 4177679, "name": "Wekiva Springs", "state": "", "country": "US", "coord": {"lon": -81.425629, "lat": 28.69861}}, {"id": 4177696, "name": "Welika (historical)", "state": "FL", "country": "US", "coord": {"lon": -84.533241, "lat": 30.283529}}, {"id": 4177703, "name": "Wellington", "state": "FL", "country": "US", "coord": {"lon": -80.24144, "lat": 26.65868}}, {"id": 4177727, "name": "Wesley Chapel", "state": "FL", "country": "US", "coord": {"lon": -82.327873, "lat": 28.239731}}, {"id": 4177759, "name": "West Bradenton", "state": "FL", "country": "US", "coord": {"lon": -82.613991, "lat": 27.502541}}, {"id": 4177779, "name": "Westchase", "state": "FL", "country": "US", "coord": {"lon": -82.609818, "lat": 28.055019}}, {"id": 4177787, "name": "West DeLand", "state": "FL", "country": "US", "coord": {"lon": -81.333122, "lat": 29.01582}}, {"id": 4177865, "name": "West Little River", "state": "FL", "country": "US", "coord": {"lon": -80.236992, "lat": 25.85704}}, {"id": 4177872, "name": "West Melbourne", "state": "FL", "country": "US", "coord": {"lon": -80.653389, "lat": 28.07168}}, {"id": 4177874, "name": "West Miami", "state": "FL", "country": "US", "coord": {"lon": -80.296158, "lat": 25.76343}}, {"id": 4177887, "name": "West Palm Beach", "state": "FL", "country": "US", "coord": {"lon": -80.053368, "lat": 26.71534}}, {"id": 4177897, "name": "West Park", "state": "FL", "country": "US", "coord": {"lon": -80.198936, "lat": 25.984541}}, {"id": 4177908, "name": "West Pensacola", "state": "FL", "country": "US", "coord": {"lon": -87.279694, "lat": 30.42659}}, {"id": 4177917, "name": "West Perrine", "state": "FL", "country": "US", "coord": {"lon": -80.362831, "lat": 25.60594}}, {"id": 4177930, "name": "West Samoset", "state": "FL", "country": "US", "coord": {"lon": -82.556763, "lat": 27.469481}}, {"id": 4177950, "name": "West Vero Corridor", "state": "FL", "country": "US", "coord": {"lon": -80.485764, "lat": 27.637751}}, {"id": 4177960, "name": "West and East Lealman", "state": "FL", "country": "US", "coord": {"lon": -82.689438, "lat": 27.819929}}, {"id": 4177965, "name": "Westchester", "state": "FL", "country": "US", "coord": {"lon": -80.327271, "lat": 25.75482}}, {"id": 4178003, "name": "Weston", "state": "FL", "country": "US", "coord": {"lon": -80.399773, "lat": 26.10037}}, {"id": 4178032, "name": "Westview", "state": "FL", "country": "US", "coord": {"lon": -80.241989, "lat": 25.88204}}, {"id": 4178053, "name": "Westwood Lake", "state": "FL", "country": "US", "coord": {"lon": -80.372833, "lat": 25.729271}}, {"id": 4178074, "name": "Wewahitchka", "state": "FL", "country": "US", "coord": {"lon": -85.20047, "lat": 30.1127}}, {"id": 4178111, "name": "Whiskey Creek", "state": "FL", "country": "US", "coord": {"lon": -81.890091, "lat": 26.57258}}, {"id": 4178116, "name": "Whisper Walk", "state": "", "country": "US", "coord": {"lon": -80.188103, "lat": 26.396191}}, {"id": 4178137, "name": "White City", "state": "FL", "country": "US", "coord": {"lon": -80.333939, "lat": 27.37393}}, {"id": 4178215, "name": "Whitfield", "state": "FL", "country": "US", "coord": {"lon": -82.565933, "lat": 27.411711}}, {"id": 4178270, "name": "Wild Island", "state": "FL", "country": "US", "coord": {"lon": -81.203682, "lat": 27.37282}}, {"id": 4178292, "name": "Wildwood", "state": "FL", "country": "US", "coord": {"lon": -82.038971, "lat": 28.865259}}, {"id": 4178397, "name": "Williamsburg", "state": "FL", "country": "US", "coord": {"lon": -81.442848, "lat": 28.41445}}, {"id": 4178414, "name": "Williston", "state": "FL", "country": "US", "coord": {"lon": -82.44677, "lat": 29.38747}}, {"id": 4178419, "name": "Williston Highlands", "state": "FL", "country": "US", "coord": {"lon": -82.541496, "lat": 29.340521}}, {"id": 4178449, "name": "Willow Oak", "state": "FL", "country": "US", "coord": {"lon": -82.01786, "lat": 27.91614}}, {"id": 4178485, "name": "Wilton Manors", "state": "FL", "country": "US", "coord": {"lon": -80.138931, "lat": 26.16036}}, {"id": 4178488, "name": "Wimauma", "state": "FL", "country": "US", "coord": {"lon": -82.298981, "lat": 27.71253}}, {"id": 4178501, "name": "Windermere", "state": "FL", "country": "US", "coord": {"lon": -81.534798, "lat": 28.49556}}, {"id": 4178540, "name": "Winston", "state": "FL", "country": "US", "coord": {"lon": -82.014809, "lat": 28.031691}}, {"id": 4178548, "name": "Winter Beach", "state": "FL", "country": "US", "coord": {"lon": -80.420609, "lat": 27.7192}}, {"id": 4178550, "name": "Winter Garden", "state": "FL", "country": "US", "coord": {"lon": -81.586182, "lat": 28.565281}}, {"id": 4178552, "name": "Winter Haven", "state": "FL", "country": "US", "coord": {"lon": -81.732857, "lat": 28.02224}}, {"id": 4178560, "name": "Winter Park", "state": "FL", "country": "US", "coord": {"lon": -81.339241, "lat": 28.6}}, {"id": 4178573, "name": "Winter Springs", "state": "FL", "country": "US", "coord": {"lon": -81.308121, "lat": 28.698891}}, {"id": 4178694, "name": "Woodlawn Beach", "state": "FL", "country": "US", "coord": {"lon": -86.990799, "lat": 30.38825}}, {"id": 4178741, "name": "Woodville", "state": "FL", "country": "US", "coord": {"lon": -84.247398, "lat": 30.314091}}, {"id": 4178775, "name": "Wright", "state": "FL", "country": "US", "coord": {"lon": -86.63829, "lat": 30.45575}}, {"id": 4178817, "name": "Yalaha", "state": "FL", "country": "US", "coord": {"lon": -81.808693, "lat": 28.7386}}, {"id": 4178919, "name": "Yulee", "state": "FL", "country": "US", "coord": {"lon": -81.606491, "lat": 30.631901}}, {"id": 4178933, "name": "Zellwood", "state": "FL", "country": "US", "coord": {"lon": -81.601181, "lat": 28.73111}}, {"id": 4178941, "name": "Zephyrhills", "state": "FL", "country": "US", "coord": {"lon": -82.18119, "lat": 28.23362}}, {"id": 4178972, "name": "Zolfo Springs", "state": "FL", "country": "US", "coord": {"lon": -81.795921, "lat": 27.49337}}, {"id": 4178992, "name": "Abbeville", "state": "GA", "country": "US", "coord": {"lon": -83.306824, "lat": 31.992121}}, {"id": 4179074, "name": "Acworth", "state": "GA", "country": "US", "coord": {"lon": -84.67688, "lat": 34.065929}}, {"id": 4179094, "name": "Adairsville", "state": "GA", "country": "US", "coord": {"lon": -84.934113, "lat": 34.368698}}, {"id": 4179193, "name": "Adel", "state": "GA", "country": "US", "coord": {"lon": -83.423492, "lat": 31.13714}}, {"id": 4179273, "name": "Airport Subdivision", "state": "GA", "country": "US", "coord": {"lon": -84.204071, "lat": 31.519621}}, {"id": 4179313, "name": "Alamo", "state": "GA", "country": "US", "coord": {"lon": -82.777924, "lat": 32.147121}}, {"id": 4179320, "name": "Albany", "state": "GA", "country": "US", "coord": {"lon": -84.155739, "lat": 31.57851}}, {"id": 4179557, "name": "Alma", "state": "GA", "country": "US", "coord": {"lon": -82.462357, "lat": 31.53937}}, {"id": 4179574, "name": "Alpharetta", "state": "GA", "country": "US", "coord": {"lon": -84.29409, "lat": 34.075378}}, {"id": 4179624, "name": "Alto", "state": "GA", "country": "US", "coord": {"lon": -83.573776, "lat": 34.467319}}, {"id": 4179667, "name": "Americus", "state": "GA", "country": "US", "coord": {"lon": -84.232689, "lat": 32.072392}}, {"id": 4180067, "name": "Apollo (historical)", "state": "GA", "country": "US", "coord": {"lon": -83.527672, "lat": 33.36541}}, {"id": 4180085, "name": "Appling", "state": "GA", "country": "US", "coord": {"lon": -82.315964, "lat": 33.545971}}, {"id": 4180114, "name": "Aragon", "state": "GA", "country": "US", "coord": {"lon": -85.056061, "lat": 34.045658}}, {"id": 4180134, "name": "Arcade", "state": "GA", "country": "US", "coord": {"lon": -83.561546, "lat": 34.077888}}, {"id": 4180180, "name": "Arles", "state": "GA", "country": "US", "coord": {"lon": -84.197411, "lat": 32.118221}}, {"id": 4180183, "name": "Arlington", "state": "GA", "country": "US", "coord": {"lon": -84.724922, "lat": 31.439899}}, {"id": 4180316, "name": "Ashburn", "state": "GA", "country": "US", "coord": {"lon": -83.653221, "lat": 31.706011}}, {"id": 4180386, "name": "Athens", "state": "GA", "country": "US", "coord": {"lon": -83.377937, "lat": 33.960949}}, {"id": 4180439, "name": "Atlanta", "state": "GA", "country": "US", "coord": {"lon": -84.387978, "lat": 33.749001}}, {"id": 4180512, "name": "Auburn", "state": "GA", "country": "US", "coord": {"lon": -83.827682, "lat": 34.013721}}, {"id": 4180531, "name": "Augusta", "state": "GA", "country": "US", "coord": {"lon": -81.974838, "lat": 33.47097}}, {"id": 4180564, "name": "Austell", "state": "GA", "country": "US", "coord": {"lon": -84.634377, "lat": 33.812611}}, {"id": 4180628, "name": "Avondale", "state": "GA", "country": "US", "coord": {"lon": -83.637413, "lat": 32.691811}}, {"id": 4180638, "name": "Avondale Estates", "state": "GA", "country": "US", "coord": {"lon": -84.267143, "lat": 33.771488}}, {"id": 4180775, "name": "Bainbridge", "state": "GA", "country": "US", "coord": {"lon": -84.57547, "lat": 30.903799}}, {"id": 4180868, "name": "Baldwin", "state": "GA", "country": "US", "coord": {"lon": -83.537392, "lat": 34.491772}}, {"id": 4180872, "name": "Baldwin County", "state": "GA", "country": "US", "coord": {"lon": -83.149872, "lat": 33.066811}}, {"id": 4180913, "name": "Ball Ground", "state": "GA", "country": "US", "coord": {"lon": -84.376587, "lat": 34.33815}}, {"id": 4181110, "name": "Barnesville", "state": "GA", "country": "US", "coord": {"lon": -84.155746, "lat": 33.054569}}, {"id": 4181182, "name": "Barrow County", "state": "GA", "country": "US", "coord": {"lon": -83.71656, "lat": 33.98344}}, {"id": 4181218, "name": "Bartow County", "state": "GA", "country": "US", "coord": {"lon": -84.849937, "lat": 34.25037}}, {"id": 4181333, "name": "Baxley", "state": "GA", "country": "US", "coord": {"lon": -82.348457, "lat": 31.77825}}, {"id": 4181936, "name": "Belvedere Park", "state": "GA", "country": "US", "coord": {"lon": -84.267418, "lat": 33.754829}}, {"id": 4182083, "name": "Berkeley Lake", "state": "GA", "country": "US", "coord": {"lon": -84.186577, "lat": 33.983711}}, {"id": 4182259, "name": "Bethel", "state": "GA", "country": "US", "coord": {"lon": -82.881531, "lat": 31.466311}}, {"id": 4182260, "name": "Bethel", "state": "GA", "country": "US", "coord": {"lon": -81.354828, "lat": 32.413799}}, {"id": 4182755, "name": "Bibb County", "state": "GA", "country": "US", "coord": {"lon": -83.666573, "lat": 32.80014}}, {"id": 4183305, "name": "Blackshear", "state": "GA", "country": "US", "coord": {"lon": -82.242073, "lat": 31.306049}}, {"id": 4183354, "name": "Blairsville", "state": "GA", "country": "US", "coord": {"lon": -83.958237, "lat": 34.876202}}, {"id": 4183363, "name": "Blakely", "state": "GA", "country": "US", "coord": {"lon": -84.93409, "lat": 31.37768}}, {"id": 4183463, "name": "Bloomingdale", "state": "GA", "country": "US", "coord": {"lon": -81.299004, "lat": 32.13242}}, {"id": 4183521, "name": "Blue Ridge", "state": "GA", "country": "US", "coord": {"lon": -84.324089, "lat": 34.863972}}, {"id": 4183682, "name": "Bogart", "state": "GA", "country": "US", "coord": {"lon": -83.534607, "lat": 33.94928}}, {"id": 4183772, "name": "Bonanza", "state": "GA", "country": "US", "coord": {"lon": -84.336594, "lat": 33.465672}}, {"id": 4183849, "name": "Boston", "state": "GA", "country": "US", "coord": {"lon": -83.789886, "lat": 30.791861}}, {"id": 4183899, "name": "Bowdon", "state": "GA", "country": "US", "coord": {"lon": -85.253281, "lat": 33.537891}}, {"id": 4184165, "name": "Braselton", "state": "GA", "country": "US", "coord": {"lon": -83.762672, "lat": 34.109268}}, {"id": 4184222, "name": "Bremen", "state": "GA", "country": "US", "coord": {"lon": -85.1455, "lat": 33.721218}}, {"id": 4184540, "name": "Brooklet", "state": "GA", "country": "US", "coord": {"lon": -81.66317, "lat": 32.379631}}, {"id": 4184813, "name": "Broxton", "state": "GA", "country": "US", "coord": {"lon": -82.88681, "lat": 31.625191}}, {"id": 4184845, "name": "Brunswick", "state": "GA", "country": "US", "coord": {"lon": -81.491493, "lat": 31.14995}}, {"id": 4184922, "name": "Bryan Village", "state": "GA", "country": "US", "coord": {"lon": -81.592888, "lat": 31.89188}}, {"id": 4184962, "name": "Buchanan", "state": "GA", "country": "US", "coord": {"lon": -85.18856, "lat": 33.802601}}, {"id": 4185076, "name": "Buena Vista", "state": "GA", "country": "US", "coord": {"lon": -84.517143, "lat": 32.319038}}, {"id": 4185110, "name": "Buford", "state": "GA", "country": "US", "coord": {"lon": -84.004349, "lat": 34.120659}}, {"id": 4185202, "name": "Bulloch County", "state": "GA", "country": "US", "coord": {"lon": -81.750389, "lat": 32.416851}}, {"id": 4185437, "name": "Butler", "state": "GA", "country": "US", "coord": {"lon": -84.238251, "lat": 32.557091}}, {"id": 4185553, "name": "Byron", "state": "GA", "country": "US", "coord": {"lon": -83.759628, "lat": 32.653759}}, {"id": 4185632, "name": "Cairo", "state": "GA", "country": "US", "coord": {"lon": -84.201286, "lat": 30.877411}}, {"id": 4185657, "name": "Calhoun", "state": "GA", "country": "US", "coord": {"lon": -84.95105, "lat": 34.50259}}, {"id": 4185838, "name": "Camden County", "state": "GA", "country": "US", "coord": {"lon": -81.666489, "lat": 30.95023}}, {"id": 4185863, "name": "Camilla", "state": "GA", "country": "US", "coord": {"lon": -84.210457, "lat": 31.231291}}, {"id": 4186213, "name": "Canton", "state": "GA", "country": "US", "coord": {"lon": -84.490761, "lat": 34.236759}}, {"id": 4186352, "name": "Carnesville", "state": "GA", "country": "US", "coord": {"lon": -83.235161, "lat": 34.369831}}, {"id": 4186396, "name": "Carroll County", "state": "GA", "country": "US", "coord": {"lon": -85.049942, "lat": 33.583439}}, {"id": 4186416, "name": "Carrollton", "state": "GA", "country": "US", "coord": {"lon": -85.076607, "lat": 33.580109}}, {"id": 4186531, "name": "Cartersville", "state": "GA", "country": "US", "coord": {"lon": -84.799942, "lat": 34.1651}}, {"id": 4186741, "name": "Cave Spring", "state": "GA", "country": "US", "coord": {"lon": -85.336342, "lat": 34.107601}}, {"id": 4186876, "name": "Cedar Hill", "state": "GA", "country": "US", "coord": {"lon": -83.76545, "lat": 34.022331}}, {"id": 4186955, "name": "Cedartown", "state": "GA", "country": "US", "coord": {"lon": -85.254951, "lat": 34.053711}}, {"id": 4186974, "name": "Centennial", "state": "GA", "country": "US", "coord": {"lon": -83.612389, "lat": 33.58596}}, {"id": 4187055, "name": "Centerville", "state": "GA", "country": "US", "coord": {"lon": -83.689629, "lat": 32.630138}}, {"id": 4187204, "name": "Chamblee", "state": "GA", "country": "US", "coord": {"lon": -84.298813, "lat": 33.892052}}, {"id": 4187390, "name": "Chatham County", "state": "GA", "country": "US", "coord": {"lon": -81.083168, "lat": 32.001598}}, {"id": 4187435, "name": "Chatsworth", "state": "GA", "country": "US", "coord": {"lon": -84.769943, "lat": 34.765911}}, {"id": 4187446, "name": "Chattanooga Valley", "state": "GA", "country": "US", "coord": {"lon": -85.355507, "lat": 34.93285}}, {"id": 4187459, "name": "Chattooga County", "state": "GA", "country": "US", "coord": {"lon": -85.33329, "lat": 34.466751}}, {"id": 4187473, "name": "Chauncey", "state": "GA", "country": "US", "coord": {"lon": -83.06459, "lat": 32.104622}}, {"id": 4187535, "name": "Cherokee County", "state": "GA", "country": "US", "coord": {"lon": -84.449928, "lat": 34.266762}}, {"id": 4187637, "name": "Chester", "state": "GA", "country": "US", "coord": {"lon": -83.152931, "lat": 32.39378}}, {"id": 4187696, "name": "Chickamauga", "state": "GA", "country": "US", "coord": {"lon": -85.290787, "lat": 34.871189}}, {"id": 4188191, "name": "Clarke County", "state": "GA", "country": "US", "coord": {"lon": -83.383209, "lat": 33.950119}}, {"id": 4188197, "name": "Clarkesville", "state": "GA", "country": "US", "coord": {"lon": -83.524887, "lat": 34.612598}}, {"id": 4188233, "name": "Clarkston", "state": "GA", "country": "US", "coord": {"lon": -84.239639, "lat": 33.809551}}, {"id": 4188239, "name": "Claxton", "state": "GA", "country": "US", "coord": {"lon": -81.903999, "lat": 32.161579}}, {"id": 4188287, "name": "Clayton", "state": "GA", "country": "US", "coord": {"lon": -83.400993, "lat": 34.878151}}, {"id": 4188291, "name": "Clayton County", "state": "GA", "country": "US", "coord": {"lon": -84.366592, "lat": 33.533451}}, {"id": 4188377, "name": "Cleveland", "state": "GA", "country": "US", "coord": {"lon": -83.763237, "lat": 34.597038}}, {"id": 4188547, "name": "Cobb County", "state": "GA", "country": "US", "coord": {"lon": -84.566597, "lat": 33.933441}}, {"id": 4188590, "name": "Cochran", "state": "GA", "country": "US", "coord": {"lon": -83.354607, "lat": 32.386829}}, {"id": 4188653, "name": "Coffee County", "state": "GA", "country": "US", "coord": {"lon": -82.849869, "lat": 31.55019}}, {"id": 4188815, "name": "College Park", "state": "GA", "country": "US", "coord": {"lon": -84.449371, "lat": 33.653439}}, {"id": 4188934, "name": "Colquitt", "state": "GA", "country": "US", "coord": {"lon": -84.733253, "lat": 31.171289}}, {"id": 4188937, "name": "Colquitt County", "state": "GA", "country": "US", "coord": {"lon": -83.766563, "lat": 31.183519}}, {"id": 4188957, "name": "Columbia County", "state": "GA", "country": "US", "coord": {"lon": -82.250397, "lat": 33.55014}}, {"id": 4188985, "name": "Columbus", "state": "GA", "country": "US", "coord": {"lon": -84.987709, "lat": 32.460979}}, {"id": 4189003, "name": "Comer", "state": "GA", "country": "US", "coord": {"lon": -83.125427, "lat": 34.063721}}, {"id": 4189014, "name": "Commerce", "state": "GA", "country": "US", "coord": {"lon": -83.457108, "lat": 34.203999}}, {"id": 4189157, "name": "Conley", "state": "GA", "country": "US", "coord": {"lon": -84.32576, "lat": 33.644829}}, {"id": 4189213, "name": "Conyers", "state": "GA", "country": "US", "coord": {"lon": -84.017693, "lat": 33.66761}}, {"id": 4189423, "name": "Cordele", "state": "GA", "country": "US", "coord": {"lon": -83.782387, "lat": 31.963511}}, {"id": 4189529, "name": "Cornelia", "state": "GA", "country": "US", "coord": {"lon": -83.527122, "lat": 34.51149}}, {"id": 4189612, "name": "Country Club Estates", "state": "GA", "country": "US", "coord": {"lon": -83.409599, "lat": 33.989281}}, {"id": 4189613, "name": "Country Club Estates", "state": "GA", "country": "US", "coord": {"lon": -81.464272, "lat": 31.21273}}, {"id": 4189785, "name": "Covington", "state": "GA", "country": "US", "coord": {"lon": -83.860184, "lat": 33.596779}}, {"id": 4189828, "name": "Coweta County", "state": "GA", "country": "US", "coord": {"lon": -84.766602, "lat": 33.38345}}, {"id": 4189960, "name": "Crawfordville", "state": "GA", "country": "US", "coord": {"lon": -82.895981, "lat": 33.55402}}, {"id": 4190396, "name": "Cumming", "state": "GA", "country": "US", "coord": {"lon": -84.14019, "lat": 34.207321}}, {"id": 4190434, "name": "Cusseta", "state": "GA", "country": "US", "coord": {"lon": -84.772697, "lat": 32.305431}}, {"id": 4190451, "name": "Cuthbert", "state": "GA", "country": "US", "coord": {"lon": -84.789368, "lat": 31.771271}}, {"id": 4190523, "name": "Dacula", "state": "GA", "country": "US", "coord": {"lon": -83.897957, "lat": 33.98872}}, {"id": 4190542, "name": "Dahlonega", "state": "GA", "country": "US", "coord": {"lon": -83.984909, "lat": 34.532589}}, {"id": 4190581, "name": "Dalton", "state": "GA", "country": "US", "coord": {"lon": -84.970222, "lat": 34.769798}}, {"id": 4190598, "name": "Dallas", "state": "GA", "country": "US", "coord": {"lon": -84.840767, "lat": 33.92371}}, {"id": 4190721, "name": "Danielsville", "state": "GA", "country": "US", "coord": {"lon": -83.22126, "lat": 34.124279}}, {"id": 4190744, "name": "Darien", "state": "GA", "country": "US", "coord": {"lon": -81.43399, "lat": 31.37023}}, {"id": 4190940, "name": "Davisboro", "state": "GA", "country": "US", "coord": {"lon": -82.60791, "lat": 32.979038}}, {"id": 4190953, "name": "Dawson", "state": "GA", "country": "US", "coord": {"lon": -84.446579, "lat": 31.7735}}, {"id": 4190979, "name": "Dawsonville", "state": "GA", "country": "US", "coord": {"lon": -84.11908, "lat": 34.421211}}, {"id": 4191014, "name": "DeKalb County", "state": "GA", "country": "US", "coord": {"lon": -84.233253, "lat": 33.750381}}, {"id": 4191124, "name": "Decatur", "state": "GA", "country": "US", "coord": {"lon": -84.29631, "lat": 33.77483}}, {"id": 4191127, "name": "Decatur County", "state": "GA", "country": "US", "coord": {"lon": -84.583252, "lat": 30.850189}}, {"id": 4191144, "name": "Deenwood", "state": "GA", "country": "US", "coord": {"lon": -82.385406, "lat": 31.22188}}, {"id": 4191294, "name": "Demorest", "state": "GA", "country": "US", "coord": {"lon": -83.545174, "lat": 34.565102}}, {"id": 4191447, "name": "Dickerson Mill", "state": "GA", "country": "US", "coord": {"lon": -83.442657, "lat": 34.93787}}, {"id": 4191628, "name": "Dock Junction", "state": "GA", "country": "US", "coord": {"lon": -81.516769, "lat": 31.20245}}, {"id": 4191654, "name": "Dodge County", "state": "GA", "country": "US", "coord": {"lon": -83.166542, "lat": 32.18351}}, {"id": 4191735, "name": "Donalsonville", "state": "GA", "country": "US", "coord": {"lon": -84.879089, "lat": 31.040461}}, {"id": 4191768, "name": "Doraville", "state": "GA", "country": "US", "coord": {"lon": -84.283257, "lat": 33.898159}}, {"id": 4191903, "name": "Dougherty County", "state": "GA", "country": "US", "coord": {"lon": -84.199913, "lat": 31.53351}}, {"id": 4191916, "name": "Douglas", "state": "GA", "country": "US", "coord": {"lon": -82.849869, "lat": 31.50881}}, {"id": 4191928, "name": "Douglas County", "state": "GA", "country": "US", "coord": {"lon": -84.749939, "lat": 33.700111}}, {"id": 4191955, "name": "Douglasville", "state": "GA", "country": "US", "coord": {"lon": -84.747711, "lat": 33.751499}}, {"id": 4192088, "name": "Druid Hills", "state": "GA", "country": "US", "coord": {"lon": -84.336037, "lat": 33.78038}}, {"id": 4192205, "name": "Dublin", "state": "GA", "country": "US", "coord": {"lon": -82.903748, "lat": 32.54044}}, {"id": 4192289, "name": "Duluth", "state": "GA", "country": "US", "coord": {"lon": -84.144638, "lat": 34.00288}}, {"id": 4192349, "name": "Dunlap", "state": "GA", "country": "US", "coord": {"lon": -83.253487, "lat": 33.953449}}, {"id": 4192375, "name": "Dunwoody", "state": "GA", "country": "US", "coord": {"lon": -84.334648, "lat": 33.946209}}, {"id": 4192606, "name": "East Dublin", "state": "GA", "country": "US", "coord": {"lon": -82.871811, "lat": 32.548222}}, {"id": 4192627, "name": "East Griffin", "state": "GA", "country": "US", "coord": {"lon": -84.228813, "lat": 33.243729}}, {"id": 4192674, "name": "East Point", "state": "GA", "country": "US", "coord": {"lon": -84.439369, "lat": 33.67955}}, {"id": 4192686, "name": "East Newnan", "state": "GA", "country": "US", "coord": {"lon": -84.776604, "lat": 33.35067}}, {"id": 4192754, "name": "Eastman", "state": "GA", "country": "US", "coord": {"lon": -83.17765, "lat": 32.19767}}, {"id": 4192800, "name": "Eatonton", "state": "GA", "country": "US", "coord": {"lon": -83.388496, "lat": 33.326801}}, {"id": 4192813, "name": "Ebenezer", "state": "GA", "country": "US", "coord": {"lon": -83.936852, "lat": 34.940922}}, {"id": 4192985, "name": "Edison", "state": "GA", "country": "US", "coord": {"lon": -84.738251, "lat": 31.558229}}, {"id": 4193042, "name": "Effingham County", "state": "GA", "country": "US", "coord": {"lon": -81.333168, "lat": 32.366859}}, {"id": 4193099, "name": "Elberton", "state": "GA", "country": "US", "coord": {"lon": -82.867081, "lat": 34.111221}}, {"id": 4193210, "name": "Ellaville", "state": "GA", "country": "US", "coord": {"lon": -84.309082, "lat": 32.238209}}, {"id": 4193229, "name": "Ellijay", "state": "GA", "country": "US", "coord": {"lon": -84.482147, "lat": 34.694809}}, {"id": 4193354, "name": "Emerson", "state": "GA", "country": "US", "coord": {"lon": -84.755493, "lat": 34.127041}}, {"id": 4193464, "name": "Enigma", "state": "GA", "country": "US", "coord": {"lon": -83.329048, "lat": 31.41297}}, {"id": 4193661, "name": "Euharlee", "state": "GA", "country": "US", "coord": {"lon": -84.932999, "lat": 34.144821}}, {"id": 4193699, "name": "Evans", "state": "GA", "country": "US", "coord": {"lon": -82.130669, "lat": 33.533749}}, {"id": 4193753, "name": "Evergreen", "state": "GA", "country": "US", "coord": {"lon": -84.192688, "lat": 31.54434}}, {"id": 4194072, "name": "Experiment", "state": "GA", "country": "US", "coord": {"lon": -84.281593, "lat": 33.265388}}, {"id": 4194111, "name": "Fair Oaks", "state": "GA", "country": "US", "coord": {"lon": -84.544647, "lat": 33.916489}}, {"id": 4194121, "name": "Fairburn", "state": "GA", "country": "US", "coord": {"lon": -84.581039, "lat": 33.567059}}, {"id": 4194202, "name": "Fairview", "state": "GA", "country": "US", "coord": {"lon": -85.284401, "lat": 34.945629}}, {"id": 4194465, "name": "Fayette County", "state": "GA", "country": "US", "coord": {"lon": -84.483261, "lat": 33.40012}}, {"id": 4194474, "name": "Fayetteville", "state": "GA", "country": "US", "coord": {"lon": -84.454933, "lat": 33.44873}}, {"id": 4194672, "name": "Fillmore (historical)", "state": "GA", "country": "US", "coord": {"lon": -84.915222, "lat": 34.812859}}, {"id": 4195168, "name": "Fitzgerald", "state": "GA", "country": "US", "coord": {"lon": -83.252647, "lat": 31.714911}}, {"id": 4195536, "name": "Floyd County", "state": "GA", "country": "US", "coord": {"lon": -85.149948, "lat": 34.266762}}, {"id": 4195544, "name": "Flowery Branch", "state": "GA", "country": "US", "coord": {"lon": -83.925179, "lat": 34.185101}}, {"id": 4195600, "name": "Folkston", "state": "GA", "country": "US", "coord": {"lon": -82.009842, "lat": 30.830509}}, {"id": 4195701, "name": "Forest Park", "state": "GA", "country": "US", "coord": {"lon": -84.369087, "lat": 33.622051}}, {"id": 4195771, "name": "Forsyth", "state": "GA", "country": "US", "coord": {"lon": -83.93824, "lat": 33.034302}}, {"id": 4195809, "name": "Fort Gaines", "state": "GA", "country": "US", "coord": {"lon": -85.04715, "lat": 31.60906}}, {"id": 4195850, "name": "Fort Oglethorpe", "state": "GA", "country": "US", "coord": {"lon": -85.256897, "lat": 34.948959}}, {"id": 4195869, "name": "Fort Valley", "state": "GA", "country": "US", "coord": {"lon": -83.887413, "lat": 32.553761}}, {"id": 4196083, "name": "Franklin", "state": "GA", "country": "US", "coord": {"lon": -85.098, "lat": 33.277618}}, {"id": 4196508, "name": "Fulton County", "state": "GA", "country": "US", "coord": {"lon": -84.449928, "lat": 33.766769}}, {"id": 4196586, "name": "Gainesville", "state": "GA", "country": "US", "coord": {"lon": -83.824074, "lat": 34.297878}}, {"id": 4196688, "name": "Garden City", "state": "GA", "country": "US", "coord": {"lon": -81.153999, "lat": 32.114368}}, {"id": 4196917, "name": "Georgetown", "state": "GA", "country": "US", "coord": {"lon": -81.227333, "lat": 31.983259}}, {"id": 4196919, "name": "Georgetown", "state": "GA", "country": "US", "coord": {"lon": -85.10743, "lat": 31.8846}}, {"id": 4197000, "name": "Georgia", "state": "GA", "country": "US", "coord": {"lon": -83.500183, "lat": 32.75042}}, {"id": 4197055, "name": "Gibson", "state": "GA", "country": "US", "coord": {"lon": -82.595413, "lat": 33.233479}}, {"id": 4197146, "name": "Gilmer County", "state": "GA", "country": "US", "coord": {"lon": -84.449928, "lat": 34.683418}}, {"id": 4197325, "name": "Glennville", "state": "GA", "country": "US", "coord": {"lon": -81.928452, "lat": 31.93659}}, {"id": 4197388, "name": "Glynn County", "state": "GA", "country": "US", "coord": {"lon": -81.533157, "lat": 31.233561}}, {"id": 4197593, "name": "Gordon", "state": "GA", "country": "US", "coord": {"lon": -83.332382, "lat": 32.882092}}, {"id": 4197608, "name": "Gordon County", "state": "GA", "country": "US", "coord": {"lon": -84.866608, "lat": 34.50037}}, {"id": 4197884, "name": "Grantville", "state": "GA", "country": "US", "coord": {"lon": -84.83577, "lat": 33.23484}}, {"id": 4197938, "name": "Gray", "state": "GA", "country": "US", "coord": {"lon": -83.533783, "lat": 33.009579}}, {"id": 4197968, "name": "Grayson", "state": "GA", "country": "US", "coord": {"lon": -83.955742, "lat": 33.894272}}, {"id": 4198021, "name": "Green Acre", "state": "GA", "country": "US", "coord": {"lon": -85.148842, "lat": 34.338421}}, {"id": 4198204, "name": "Greensboro", "state": "GA", "country": "US", "coord": {"lon": -83.182381, "lat": 33.57568}}, {"id": 4198218, "name": "Greenville", "state": "GA", "country": "US", "coord": {"lon": -84.712982, "lat": 33.02874}}, {"id": 4198298, "name": "Gresham Park", "state": "GA", "country": "US", "coord": {"lon": -84.314369, "lat": 33.703442}}, {"id": 4198322, "name": "Griffin", "state": "GA", "country": "US", "coord": {"lon": -84.264091, "lat": 33.24678}}, {"id": 4198514, "name": "Grovetown", "state": "GA", "country": "US", "coord": {"lon": -82.198181, "lat": 33.45042}}, {"id": 4198592, "name": "Gumlog", "state": "GA", "country": "US", "coord": {"lon": -83.096542, "lat": 34.491772}}, {"id": 4198633, "name": "Guyton", "state": "GA", "country": "US", "coord": {"lon": -81.391502, "lat": 32.3363}}, {"id": 4198645, "name": "Gwinnett County", "state": "GA", "country": "US", "coord": {"lon": -84.049911, "lat": 33.9501}}, {"id": 4198680, "name": "Habersham", "state": "GA", "country": "US", "coord": {"lon": -83.560448, "lat": 34.589821}}, {"id": 4198688, "name": "Habersham County", "state": "GA", "country": "US", "coord": {"lon": -83.499893, "lat": 34.61676}}, {"id": 4198750, "name": "Hahira", "state": "GA", "country": "US", "coord": {"lon": -83.372658, "lat": 30.99131}}, {"id": 4198821, "name": "Hall County", "state": "GA", "country": "US", "coord": {"lon": -83.783234, "lat": 34.316769}}, {"id": 4198912, "name": "Hamilton", "state": "GA", "country": "US", "coord": {"lon": -84.874931, "lat": 32.757912}}, {"id": 4198972, "name": "Hampton", "state": "GA", "country": "US", "coord": {"lon": -84.282982, "lat": 33.387058}}, {"id": 4199055, "name": "Hannahs Mill", "state": "GA", "country": "US", "coord": {"lon": -84.349358, "lat": 32.932911}}, {"id": 4199075, "name": "Hapeville", "state": "GA", "country": "US", "coord": {"lon": -84.410202, "lat": 33.66011}}, {"id": 4199185, "name": "Hardwick", "state": "GA", "country": "US", "coord": {"lon": -83.223488, "lat": 33.068199}}, {"id": 4199219, "name": "Harlem", "state": "GA", "country": "US", "coord": {"lon": -82.312622, "lat": 33.414581}}, {"id": 4199572, "name": "Hartwell", "state": "GA", "country": "US", "coord": {"lon": -82.932091, "lat": 34.352879}}, {"id": 4199694, "name": "Hawkinsville", "state": "GA", "country": "US", "coord": {"lon": -83.472122, "lat": 32.283772}}, {"id": 4199778, "name": "Hazlehurst", "state": "GA", "country": "US", "coord": {"lon": -82.594299, "lat": 31.869631}}, {"id": 4199928, "name": "Helena", "state": "GA", "country": "US", "coord": {"lon": -82.914589, "lat": 32.073792}}, {"id": 4200051, "name": "Henry County", "state": "GA", "country": "US", "coord": {"lon": -84.149918, "lat": 33.450111}}, {"id": 4200088, "name": "Hephzibah", "state": "GA", "country": "US", "coord": {"lon": -82.096786, "lat": 33.31403}}, {"id": 4200148, "name": "Heritage", "state": "GA", "country": "US", "coord": {"lon": -84.477432, "lat": 33.889271}}, {"id": 4200188, "name": "Hiawassee", "state": "GA", "country": "US", "coord": {"lon": -83.757393, "lat": 34.949261}}, {"id": 4200311, "name": "Hidden Forest", "state": "GA", "country": "US", "coord": {"lon": -83.774353, "lat": 32.665138}}, {"id": 4200671, "name": "Hinesville", "state": "GA", "country": "US", "coord": {"lon": -81.595947, "lat": 31.84688}}, {"id": 4200707, "name": "Hiram", "state": "GA", "country": "US", "coord": {"lon": -84.762161, "lat": 33.87566}}, {"id": 4200849, "name": "Hogansville", "state": "GA", "country": "US", "coord": {"lon": -84.91494, "lat": 33.17318}}, {"id": 4201047, "name": "Holly Springs", "state": "GA", "country": "US", "coord": {"lon": -84.50132, "lat": 34.173988}}, {"id": 4201141, "name": "Homer", "state": "GA", "country": "US", "coord": {"lon": -83.499062, "lat": 34.333721}}, {"id": 4201144, "name": "Homerville", "state": "GA", "country": "US", "coord": {"lon": -82.747078, "lat": 31.0366}}, {"id": 4201465, "name": "Hoschton", "state": "GA", "country": "US", "coord": {"lon": -83.761276, "lat": 34.0965}}, {"id": 4201512, "name": "Houston County", "state": "GA", "country": "US", "coord": {"lon": -83.649902, "lat": 32.433491}}, {"id": 4202021, "name": "Indian Springs", "state": "GA", "country": "US", "coord": {"lon": -83.920738, "lat": 33.242619}}, {"id": 4202022, "name": "Indian Springs", "state": "GA", "country": "US", "coord": {"lon": -85.164398, "lat": 34.957851}}, {"id": 4202260, "name": "Irondale", "state": "GA", "country": "US", "coord": {"lon": -84.35881, "lat": 33.480671}}, {"id": 4202277, "name": "Irwinton", "state": "GA", "country": "US", "coord": {"lon": -83.172653, "lat": 32.81126}}, {"id": 4202308, "name": "Isle of Hope", "state": "GA", "country": "US", "coord": {"lon": -81.060944, "lat": 31.98188}}, {"id": 4202426, "name": "Jackson", "state": "GA", "country": "US", "coord": {"lon": -83.966019, "lat": 33.294571}}, {"id": 4202634, "name": "Jasper", "state": "GA", "country": "US", "coord": {"lon": -84.429092, "lat": 34.467869}}, {"id": 4202638, "name": "Jasper County", "state": "GA", "country": "US", "coord": {"lon": -83.683228, "lat": 33.333462}}, {"id": 4202672, "name": "Jefferson", "state": "GA", "country": "US", "coord": {"lon": -83.572388, "lat": 34.11705}}, {"id": 4202673, "name": "Jefferson", "state": "GA", "country": "US", "coord": {"lon": -83.311546, "lat": 33.449299}}, {"id": 4202699, "name": "Jeffersonville", "state": "GA", "country": "US", "coord": {"lon": -83.346558, "lat": 32.687649}}, {"id": 4202810, "name": "Jesup", "state": "GA", "country": "US", "coord": {"lon": -81.885391, "lat": 31.607441}}, {"id": 4203316, "name": "Jonesboro", "state": "GA", "country": "US", "coord": {"lon": -84.353813, "lat": 33.5215}}, {"id": 4203696, "name": "Kennesaw", "state": "GA", "country": "US", "coord": {"lon": -84.615494, "lat": 34.02343}}, {"id": 4204007, "name": "Kingsland", "state": "GA", "country": "US", "coord": {"lon": -81.689827, "lat": 30.799959}}, {"id": 4204196, "name": "Knoxville", "state": "GA", "country": "US", "coord": {"lon": -83.997688, "lat": 32.724312}}, {"id": 4204230, "name": "LaGrange", "state": "GA", "country": "US", "coord": {"lon": -85.031326, "lat": 33.039291}}, {"id": 4204241, "name": "LaFayette", "state": "GA", "country": "US", "coord": {"lon": -85.281898, "lat": 34.7048}}, {"id": 4204349, "name": "Lake Cindy Estates", "state": "GA", "country": "US", "coord": {"lon": -84.297699, "lat": 33.414001}}, {"id": 4204350, "name": "Lake City", "state": "GA", "country": "US", "coord": {"lon": -84.335197, "lat": 33.606499}}, {"id": 4204775, "name": "Lakeland", "state": "GA", "country": "US", "coord": {"lon": -83.07515, "lat": 31.04104}}, {"id": 4204818, "name": "Lakeview", "state": "GA", "country": "US", "coord": {"lon": -85.258842, "lat": 34.97924}}, {"id": 4204838, "name": "Lakeview Estates", "state": "GA", "country": "US", "coord": {"lon": -84.031578, "lat": 33.706779}}, {"id": 4205152, "name": "Laurens County", "state": "GA", "country": "US", "coord": {"lon": -82.916527, "lat": 32.450169}}, {"id": 4205164, "name": "Lavonia", "state": "GA", "country": "US", "coord": {"lon": -83.106819, "lat": 34.43594}}, {"id": 4205196, "name": "Lawrenceville", "state": "GA", "country": "US", "coord": {"lon": -83.987961, "lat": 33.956211}}, {"id": 4205392, "name": "Leesburg", "state": "GA", "country": "US", "coord": {"lon": -84.170738, "lat": 31.732121}}, {"id": 4205541, "name": "Lexington", "state": "GA", "country": "US", "coord": {"lon": -83.111816, "lat": 33.869839}}, {"id": 4205615, "name": "Liberty County", "state": "GA", "country": "US", "coord": {"lon": -81.500389, "lat": 31.83354}}, {"id": 4205724, "name": "Lilburn", "state": "GA", "country": "US", "coord": {"lon": -84.142967, "lat": 33.890099}}, {"id": 4205797, "name": "Lincolnton", "state": "GA", "country": "US", "coord": {"lon": -82.479019, "lat": 33.792351}}, {"id": 4205805, "name": "Lindale", "state": "GA", "country": "US", "coord": {"lon": -85.174667, "lat": 34.18676}}, {"id": 4205885, "name": "Lithia Springs", "state": "GA", "country": "US", "coord": {"lon": -84.660492, "lat": 33.793999}}, {"id": 4205889, "name": "Lithonia", "state": "GA", "country": "US", "coord": {"lon": -84.105186, "lat": 33.71233}}, {"id": 4206502, "name": "Locust Grove", "state": "GA", "country": "US", "coord": {"lon": -84.109077, "lat": 33.345951}}, {"id": 4206520, "name": "Loftin", "state": "GA", "country": "US", "coord": {"lon": -84.597977, "lat": 32.885132}}, {"id": 4206547, "name": "Loganville", "state": "GA", "country": "US", "coord": {"lon": -83.900742, "lat": 33.839001}}, {"id": 4206783, "name": "Lookout Mountain", "state": "GA", "country": "US", "coord": {"lon": -85.357742, "lat": 34.977581}}, {"id": 4206882, "name": "Louisville", "state": "GA", "country": "US", "coord": {"lon": -82.41124, "lat": 33.001541}}, {"id": 4206905, "name": "Lovejoy", "state": "GA", "country": "US", "coord": {"lon": -84.314369, "lat": 33.436218}}, {"id": 4207045, "name": "Lowndes County", "state": "GA", "country": "US", "coord": {"lon": -83.24987, "lat": 30.83354}}, {"id": 4207083, "name": "Ludowici", "state": "GA", "country": "US", "coord": {"lon": -81.74234, "lat": 31.707991}}, {"id": 4207098, "name": "Lula", "state": "GA", "country": "US", "coord": {"lon": -83.66629, "lat": 34.3876}}, {"id": 4207114, "name": "Lumber City", "state": "GA", "country": "US", "coord": {"lon": -82.679581, "lat": 31.92935}}, {"id": 4207128, "name": "Lumpkin", "state": "GA", "country": "US", "coord": {"lon": -84.799088, "lat": 32.050991}}, {"id": 4207132, "name": "Lumpkin County", "state": "GA", "country": "US", "coord": {"lon": -84.016579, "lat": 34.566761}}, {"id": 4207192, "name": "Lynn", "state": "GA", "country": "US", "coord": {"lon": -84.614922, "lat": 30.980459}}, {"id": 4207205, "name": "Lyons", "state": "GA", "country": "US", "coord": {"lon": -82.321793, "lat": 32.20435}}, {"id": 4207226, "name": "Mableton", "state": "GA", "country": "US", "coord": {"lon": -84.561943, "lat": 33.815739}}, {"id": 4207400, "name": "Macon", "state": "GA", "country": "US", "coord": {"lon": -83.632401, "lat": 32.840691}}, {"id": 4207424, "name": "Macville (historical)", "state": "GA", "country": "US", "coord": {"lon": -83.28376, "lat": 30.79159}}, {"id": 4207447, "name": "Madison", "state": "GA", "country": "US", "coord": {"lon": -83.467941, "lat": 33.59568}}, {"id": 4207625, "name": "Manchester", "state": "GA", "country": "US", "coord": {"lon": -84.619926, "lat": 32.859852}}, {"id": 4207783, "name": "Marietta", "state": "GA", "country": "US", "coord": {"lon": -84.549927, "lat": 33.952599}}, {"id": 4207892, "name": "Marshallville", "state": "GA", "country": "US", "coord": {"lon": -83.940193, "lat": 32.456261}}, {"id": 4207981, "name": "Martinez", "state": "GA", "country": "US", "coord": {"lon": -82.075668, "lat": 33.517361}}, {"id": 4208182, "name": "Maxwell", "state": "GA", "country": "US", "coord": {"lon": -83.661011, "lat": 33.41679}}, {"id": 4208245, "name": "Maysville", "state": "GA", "country": "US", "coord": {"lon": -83.561546, "lat": 34.25288}}, {"id": 4208302, "name": "McCaysville", "state": "GA", "country": "US", "coord": {"lon": -84.371307, "lat": 34.986191}}, {"id": 4208442, "name": "McDonough", "state": "GA", "country": "US", "coord": {"lon": -84.146858, "lat": 33.447338}}, {"id": 4208683, "name": "McRae", "state": "GA", "country": "US", "coord": {"lon": -82.900703, "lat": 32.067951}}, {"id": 4208828, "name": "Meigs", "state": "GA", "country": "US", "coord": {"lon": -84.089073, "lat": 31.072411}}, {"id": 4208945, "name": "Meriwether County", "state": "GA", "country": "US", "coord": {"lon": -84.699928, "lat": 33.050129}}, {"id": 4209013, "name": "Metter", "state": "GA", "country": "US", "coord": {"lon": -82.06012, "lat": 32.397121}}, {"id": 4209132, "name": "Midway", "state": "GA", "country": "US", "coord": {"lon": -81.430656, "lat": 31.805771}}, {"id": 4209448, "name": "Milledgeville", "state": "GA", "country": "US", "coord": {"lon": -83.232101, "lat": 33.080139}}, {"id": 4209454, "name": "Millen", "state": "GA", "country": "US", "coord": {"lon": -81.94928, "lat": 32.80405}}, {"id": 4209884, "name": "Monroe", "state": "GA", "country": "US", "coord": {"lon": -83.713226, "lat": 33.794842}}, {"id": 4209927, "name": "Montezuma", "state": "GA", "country": "US", "coord": {"lon": -84.027412, "lat": 32.305161}}, {"id": 4209934, "name": "Montgomery", "state": "GA", "country": "US", "coord": {"lon": -81.122047, "lat": 31.940491}}, {"id": 4209951, "name": "Monticello", "state": "GA", "country": "US", "coord": {"lon": -83.683228, "lat": 33.304852}}, {"id": 4210099, "name": "Morgan", "state": "GA", "country": "US", "coord": {"lon": -84.599358, "lat": 31.53767}}, {"id": 4210114, "name": "Morgan County", "state": "GA", "country": "US", "coord": {"lon": -83.383217, "lat": 33.583462}}, {"id": 4210254, "name": "Morrow", "state": "GA", "country": "US", "coord": {"lon": -84.339371, "lat": 33.583172}}, {"id": 4210382, "name": "Mount Airy", "state": "GA", "country": "US", "coord": {"lon": -83.500732, "lat": 34.518711}}, {"id": 4210397, "name": "Moultrie", "state": "GA", "country": "US", "coord": {"lon": -83.789062, "lat": 31.179911}}, {"id": 4211083, "name": "Mount Vernon", "state": "GA", "country": "US", "coord": {"lon": -82.594582, "lat": 32.178509}}, {"id": 4211143, "name": "Mount Zion", "state": "GA", "country": "US", "coord": {"lon": -85.187172, "lat": 33.634281}}, {"id": 4211144, "name": "Mount Zion", "state": "GA", "country": "US", "coord": {"lon": -83.007652, "lat": 33.361252}}, {"id": 4211386, "name": "Mountain City", "state": "GA", "country": "US", "coord": {"lon": -83.385437, "lat": 34.918152}}, {"id": 4211428, "name": "Mountain Park", "state": "GA", "country": "US", "coord": {"lon": -84.129356, "lat": 33.844269}}, {"id": 4211716, "name": "Muscogee County", "state": "GA", "country": "US", "coord": {"lon": -84.8666, "lat": 32.500702}}, {"id": 4211775, "name": "Nahunta", "state": "GA", "country": "US", "coord": {"lon": -81.981232, "lat": 31.20439}}, {"id": 4211839, "name": "Nashville", "state": "GA", "country": "US", "coord": {"lon": -83.250153, "lat": 31.20742}}, {"id": 4211941, "name": "Nelson", "state": "GA", "country": "US", "coord": {"lon": -84.371033, "lat": 34.382038}}, {"id": 4212684, "name": "Newnan", "state": "GA", "country": "US", "coord": {"lon": -84.79966, "lat": 33.380669}}, {"id": 4212728, "name": "Newton", "state": "GA", "country": "US", "coord": {"lon": -84.335739, "lat": 31.31296}}, {"id": 4212770, "name": "Nicholls", "state": "GA", "country": "US", "coord": {"lon": -82.634857, "lat": 31.51742}}, {"id": 4212779, "name": "Nicholson", "state": "GA", "country": "US", "coord": {"lon": -83.431549, "lat": 34.113998}}, {"id": 4212888, "name": "Norcross", "state": "GA", "country": "US", "coord": {"lon": -84.213531, "lat": 33.941212}}, {"id": 4212937, "name": "North Atlanta", "state": "GA", "country": "US", "coord": {"lon": -84.336594, "lat": 33.865101}}, {"id": 4212992, "name": "North Decatur", "state": "GA", "country": "US", "coord": {"lon": -84.30603, "lat": 33.790379}}, {"id": 4212995, "name": "North Druid Hills", "state": "GA", "country": "US", "coord": {"lon": -84.313263, "lat": 33.816769}}, {"id": 4213284, "name": "Northwest Park", "state": "GA", "country": "US", "coord": {"lon": -84.495209, "lat": 33.900379}}, {"id": 4213771, "name": "Oakwood", "state": "GA", "country": "US", "coord": {"lon": -83.884354, "lat": 34.2276}}, {"id": 4213772, "name": "Oakwood", "state": "GA", "country": "US", "coord": {"lon": -83.97435, "lat": 33.548168}}, {"id": 4213812, "name": "Ocilla", "state": "GA", "country": "US", "coord": {"lon": -83.250427, "lat": 31.59436}}, {"id": 4213919, "name": "Oglethorpe", "state": "GA", "country": "US", "coord": {"lon": -84.06102, "lat": 32.29377}}, {"id": 4213930, "name": "Oglethorpe County", "state": "GA", "country": "US", "coord": {"lon": -83.083214, "lat": 33.866791}}, {"id": 4214235, "name": "Olde Federal Pointe", "state": "GA", "country": "US", "coord": {"lon": -83.94574, "lat": 34.22121}}, {"id": 4214294, "name": "Omega", "state": "GA", "country": "US", "coord": {"lon": -83.593498, "lat": 31.341021}}, {"id": 4214399, "name": "Osborn", "state": "GA", "country": "US", "coord": {"lon": -83.69989, "lat": 34.92231}}, {"id": 4214538, "name": "Oxford", "state": "GA", "country": "US", "coord": {"lon": -83.867409, "lat": 33.618999}}, {"id": 4214627, "name": "Palmetto", "state": "GA", "country": "US", "coord": {"lon": -84.669647, "lat": 33.517891}}, {"id": 4214668, "name": "Pannell", "state": "GA", "country": "US", "coord": {"lon": -83.674889, "lat": 33.768452}}, {"id": 4214693, "name": "Panthersville", "state": "GA", "country": "US", "coord": {"lon": -84.271873, "lat": 33.707329}}, {"id": 4214702, "name": "Paradise Acres", "state": "GA", "country": "US", "coord": {"lon": -84.879921, "lat": 30.81908}}, {"id": 4215089, "name": "Peach County", "state": "GA", "country": "US", "coord": {"lon": -83.833237, "lat": 32.566811}}, {"id": 4215110, "name": "Peachtree City", "state": "GA", "country": "US", "coord": {"lon": -84.595757, "lat": 33.396778}}, {"id": 4215163, "name": "Pearson", "state": "GA", "country": "US", "coord": {"lon": -82.852371, "lat": 31.297701}}, {"id": 4215243, "name": "Pelham", "state": "GA", "country": "US", "coord": {"lon": -84.151848, "lat": 31.12768}}, {"id": 4215251, "name": "Pembroke", "state": "GA", "country": "US", "coord": {"lon": -81.622063, "lat": 32.136028}}, {"id": 4215290, "name": "Pennington", "state": "GA", "country": "US", "coord": {"lon": -84.087128, "lat": 32.16016}}, {"id": 4215307, "name": "Pennick", "state": "GA", "country": "US", "coord": {"lon": -81.55899, "lat": 31.313}}, {"id": 4215391, "name": "Perry", "state": "GA", "country": "US", "coord": {"lon": -83.731567, "lat": 32.45821}}, {"id": 4216043, "name": "Pine Mountain", "state": "GA", "country": "US", "coord": {"lon": -84.114922, "lat": 33.675941}}, {"id": 4216049, "name": "Pine Mountain", "state": "GA", "country": "US", "coord": {"lon": -84.854103, "lat": 32.864849}}, {"id": 4216948, "name": "Pooler", "state": "GA", "country": "US", "coord": {"lon": -81.247063, "lat": 32.115479}}, {"id": 4217075, "name": "Port Wentworth", "state": "GA", "country": "US", "coord": {"lon": -81.16317, "lat": 32.14909}}, {"id": 4217078, "name": "Port Wentworth Junction", "state": "GA", "country": "US", "coord": {"lon": -81.192062, "lat": 32.14381}}, {"id": 4217100, "name": "Porterdale", "state": "GA", "country": "US", "coord": {"lon": -83.893799, "lat": 33.575111}}, {"id": 4217214, "name": "Powder Springs", "state": "GA", "country": "US", "coord": {"lon": -84.683823, "lat": 33.85955}}, {"id": 4217343, "name": "Preston", "state": "GA", "country": "US", "coord": {"lon": -84.537422, "lat": 32.06599}}, {"id": 4217625, "name": "Putnam County", "state": "GA", "country": "US", "coord": {"lon": -83.349876, "lat": 33.333469}}, {"id": 4217634, "name": "Putney", "state": "GA", "country": "US", "coord": {"lon": -84.117683, "lat": 31.470181}}, {"id": 4217712, "name": "Quitman", "state": "GA", "country": "US", "coord": {"lon": -83.559883, "lat": 30.78492}}, {"id": 4217747, "name": "Rabun County", "state": "GA", "country": "US", "coord": {"lon": -83.399879, "lat": 34.88343}}, {"id": 4217931, "name": "Raoul", "state": "GA", "country": "US", "coord": {"lon": -83.594337, "lat": 34.449539}}, {"id": 4217984, "name": "Ray City", "state": "GA", "country": "US", "coord": {"lon": -83.199318, "lat": 31.07464}}, {"id": 4218165, "name": "Redan", "state": "GA", "country": "US", "coord": {"lon": -84.131577, "lat": 33.74538}}, {"id": 4218244, "name": "Reed Creek", "state": "GA", "country": "US", "coord": {"lon": -82.924873, "lat": 34.445938}}, {"id": 4218414, "name": "Reidsville", "state": "GA", "country": "US", "coord": {"lon": -82.117897, "lat": 32.086861}}, {"id": 4218427, "name": "Remerton", "state": "GA", "country": "US", "coord": {"lon": -83.310432, "lat": 30.84409}}, {"id": 4218581, "name": "Reynolds", "state": "GA", "country": "US", "coord": {"lon": -84.096298, "lat": 32.559872}}, {"id": 4218732, "name": "Richland", "state": "GA", "country": "US", "coord": {"lon": -84.667419, "lat": 32.087929}}, {"id": 4218744, "name": "Richmond County", "state": "GA", "country": "US", "coord": {"lon": -82.099838, "lat": 33.36681}}, {"id": 4218752, "name": "Richmond Hill", "state": "GA", "country": "US", "coord": {"lon": -81.303436, "lat": 31.938271}}, {"id": 4218882, "name": "Rincon", "state": "GA", "country": "US", "coord": {"lon": -81.23539, "lat": 32.296028}}, {"id": 4218896, "name": "Ringgold", "state": "GA", "country": "US", "coord": {"lon": -85.109123, "lat": 34.915909}}, {"id": 4219001, "name": "Riverdale", "state": "GA", "country": "US", "coord": {"lon": -84.413261, "lat": 33.572609}}, {"id": 4219161, "name": "Roberta", "state": "GA", "country": "US", "coord": {"lon": -84.013237, "lat": 32.721809}}, {"id": 4219255, "name": "Rochelle", "state": "GA", "country": "US", "coord": {"lon": -83.456268, "lat": 31.95101}}, {"id": 4219431, "name": "Rockdale County", "state": "GA", "country": "US", "coord": {"lon": -84.016579, "lat": 33.650108}}, {"id": 4219459, "name": "Rockmart", "state": "GA", "country": "US", "coord": {"lon": -85.041611, "lat": 34.002602}}, {"id": 4219480, "name": "Rockwell Estates", "state": "GA", "country": "US", "coord": {"lon": -85.07605, "lat": 33.02874}}, {"id": 4219762, "name": "Rome", "state": "GA", "country": "US", "coord": {"lon": -85.164673, "lat": 34.257038}}, {"id": 4219934, "name": "Roswell", "state": "GA", "country": "US", "coord": {"lon": -84.361588, "lat": 34.023159}}, {"id": 4219964, "name": "Rossville", "state": "GA", "country": "US", "coord": {"lon": -85.286072, "lat": 34.983131}}, {"id": 4220073, "name": "Royston", "state": "GA", "country": "US", "coord": {"lon": -83.110153, "lat": 34.287048}}, {"id": 4220151, "name": "Russell", "state": "GA", "country": "US", "coord": {"lon": -83.700172, "lat": 33.978722}}, {"id": 4220629, "name": "St. Marys", "state": "GA", "country": "US", "coord": {"lon": -81.546494, "lat": 30.730511}}, {"id": 4220861, "name": "Saint Simon Mills", "state": "GA", "country": "US", "coord": {"lon": -81.407318, "lat": 31.17079}}, {"id": 4220862, "name": "Saint Simons", "state": "GA", "country": "US", "coord": {"lon": -81.390099, "lat": 31.135229}}, {"id": 4221206, "name": "Sandersville", "state": "GA", "country": "US", "coord": {"lon": -82.810143, "lat": 32.981541}}, {"id": 4221333, "name": "Sandy Springs", "state": "GA", "country": "US", "coord": {"lon": -84.37854, "lat": 33.924271}}, {"id": 4221352, "name": "Santa Claus", "state": "GA", "country": "US", "coord": {"lon": -82.331512, "lat": 32.171581}}, {"id": 4221395, "name": "Sardis", "state": "GA", "country": "US", "coord": {"lon": -84.638809, "lat": 32.79652}}, {"id": 4221552, "name": "Savannah", "state": "GA", "country": "US", "coord": {"lon": -81.099831, "lat": 32.083542}}, {"id": 4221732, "name": "Scottdale", "state": "GA", "country": "US", "coord": {"lon": -84.264091, "lat": 33.789829}}, {"id": 4221942, "name": "Seminole County", "state": "GA", "country": "US", "coord": {"lon": -84.866592, "lat": 30.933519}}, {"id": 4221953, "name": "Senoia", "state": "GA", "country": "US", "coord": {"lon": -84.553818, "lat": 33.302341}}, {"id": 4222182, "name": "Shannon", "state": "GA", "country": "US", "coord": {"lon": -85.071342, "lat": 34.336761}}, {"id": 4222192, "name": "Shannon", "state": "GA", "country": "US", "coord": {"lon": -84.468262, "lat": 33.40456}}, {"id": 4222333, "name": "Shellman", "state": "GA", "country": "US", "coord": {"lon": -84.615196, "lat": 31.756281}}, {"id": 4223004, "name": "Skidaway Island", "state": "GA", "country": "US", "coord": {"lon": -81.04705, "lat": 31.93494}}, {"id": 4223379, "name": "Smyrna", "state": "GA", "country": "US", "coord": {"lon": -84.514381, "lat": 33.883991}}, {"id": 4223413, "name": "Snellville", "state": "GA", "country": "US", "coord": {"lon": -84.019913, "lat": 33.85733}}, {"id": 4223469, "name": "Social Circle", "state": "GA", "country": "US", "coord": {"lon": -83.718231, "lat": 33.656231}}, {"id": 4223516, "name": "Soperton", "state": "GA", "country": "US", "coord": {"lon": -82.592361, "lat": 32.377121}}, {"id": 4223848, "name": "Spalding County", "state": "GA", "country": "US", "coord": {"lon": -84.283257, "lat": 33.266781}}, {"id": 4223871, "name": "Sparks", "state": "GA", "country": "US", "coord": {"lon": -83.437378, "lat": 31.166861}}, {"id": 4223874, "name": "Sparks", "state": "GA", "country": "US", "coord": {"lon": -82.73764, "lat": 33.087929}}, {"id": 4223880, "name": "Sparta", "state": "GA", "country": "US", "coord": {"lon": -82.976257, "lat": 33.2757}}, {"id": 4224162, "name": "Springfield", "state": "GA", "country": "US", "coord": {"lon": -81.311501, "lat": 32.37241}}, {"id": 4224239, "name": "Sprite", "state": "GA", "country": "US", "coord": {"lon": -85.39579, "lat": 34.288429}}, {"id": 4224412, "name": "Statenville", "state": "GA", "country": "US", "coord": {"lon": -83.027641, "lat": 30.70327}}, {"id": 4224413, "name": "Statesboro", "state": "GA", "country": "US", "coord": {"lon": -81.783173, "lat": 32.448792}}, {"id": 4224427, "name": "Statham", "state": "GA", "country": "US", "coord": {"lon": -83.596558, "lat": 33.965111}}, {"id": 4224681, "name": "Stockbridge", "state": "GA", "country": "US", "coord": {"lon": -84.23381, "lat": 33.544281}}, {"id": 4224745, "name": "Stone Mountain", "state": "GA", "country": "US", "coord": {"lon": -84.170197, "lat": 33.808159}}, {"id": 4225039, "name": "Sugar Hill", "state": "GA", "country": "US", "coord": {"lon": -84.033524, "lat": 34.106491}}, {"id": 4225122, "name": "Summerville", "state": "GA", "country": "US", "coord": {"lon": -85.347733, "lat": 34.48064}}, {"id": 4225168, "name": "Sumter County", "state": "GA", "country": "US", "coord": {"lon": -84.183243, "lat": 32.050171}}, {"id": 4225215, "name": "Sunnyside", "state": "GA", "country": "US", "coord": {"lon": -82.342072, "lat": 31.23938}}, {"id": 4225240, "name": "Sunset", "state": "GA", "country": "US", "coord": {"lon": -83.794342, "lat": 31.1038}}, {"id": 4225309, "name": "Suwanee", "state": "GA", "country": "US", "coord": {"lon": -84.071297, "lat": 34.051491}}, {"id": 4225346, "name": "Swainsboro", "state": "GA", "country": "US", "coord": {"lon": -82.33374, "lat": 32.597389}}, {"id": 4225515, "name": "Sylvania", "state": "GA", "country": "US", "coord": {"lon": -81.63678, "lat": 32.750439}}, {"id": 4225522, "name": "Sylvester", "state": "GA", "country": "US", "coord": {"lon": -83.835449, "lat": 31.530729}}, {"id": 4225613, "name": "Talbotton", "state": "GA", "country": "US", "coord": {"lon": -84.539368, "lat": 32.677639}}, {"id": 4225658, "name": "Tallapoosa", "state": "GA", "country": "US", "coord": {"lon": -85.28801, "lat": 33.744549}}, {"id": 4225973, "name": "Temple", "state": "GA", "country": "US", "coord": {"lon": -85.03244, "lat": 33.737049}}, {"id": 4226031, "name": "Tennille", "state": "GA", "country": "US", "coord": {"lon": -82.811531, "lat": 32.935989}}, {"id": 4226286, "name": "Thomas County", "state": "GA", "country": "US", "coord": {"lon": -83.866562, "lat": 30.95019}}, {"id": 4226348, "name": "Thomasville", "state": "GA", "country": "US", "coord": {"lon": -83.978783, "lat": 30.83658}}, {"id": 4226364, "name": "Thomaston", "state": "GA", "country": "US", "coord": {"lon": -84.326591, "lat": 32.888191}}, {"id": 4226435, "name": "Thomson", "state": "GA", "country": "US", "coord": {"lon": -82.50457, "lat": 33.470692}}, {"id": 4226499, "name": "Thunderbolt", "state": "GA", "country": "US", "coord": {"lon": -81.049828, "lat": 32.033539}}, {"id": 4226538, "name": "Tift County", "state": "GA", "country": "US", "coord": {"lon": -83.50016, "lat": 31.45019}}, {"id": 4226552, "name": "Tifton", "state": "GA", "country": "US", "coord": {"lon": -83.508499, "lat": 31.45046}}, {"id": 4226722, "name": "Toccoa", "state": "GA", "country": "US", "coord": {"lon": -83.33239, "lat": 34.57732}}, {"id": 4226802, "name": "Toombs County", "state": "GA", "country": "US", "coord": {"lon": -82.333183, "lat": 32.133518}}, {"id": 4226924, "name": "Towns County", "state": "GA", "country": "US", "coord": {"lon": -83.71656, "lat": 34.900089}}, {"id": 4227012, "name": "Trenton", "state": "GA", "country": "US", "coord": {"lon": -85.509132, "lat": 34.872021}}, {"id": 4227128, "name": "Trion", "state": "GA", "country": "US", "coord": {"lon": -85.310509, "lat": 34.543968}}, {"id": 4227166, "name": "Troup County", "state": "GA", "country": "US", "coord": {"lon": -85.033272, "lat": 33.033459}}, {"id": 4227213, "name": "Tucker", "state": "GA", "country": "US", "coord": {"lon": -84.21714, "lat": 33.854549}}, {"id": 4227521, "name": "Twin City", "state": "GA", "country": "US", "coord": {"lon": -82.155121, "lat": 32.582939}}, {"id": 4227593, "name": "Tybee Island", "state": "GA", "country": "US", "coord": {"lon": -80.845673, "lat": 32.000221}}, {"id": 4227612, "name": "Tyrone", "state": "GA", "country": "US", "coord": {"lon": -84.597153, "lat": 33.47123}}, {"id": 4227639, "name": "Unadilla", "state": "GA", "country": "US", "coord": {"lon": -83.736572, "lat": 32.261551}}, {"id": 4227777, "name": "Union City", "state": "GA", "country": "US", "coord": {"lon": -84.542427, "lat": 33.587059}}, {"id": 4227781, "name": "Union County", "state": "GA", "country": "US", "coord": {"lon": -83.966583, "lat": 34.83342}}, {"id": 4227871, "name": "Union Point", "state": "GA", "country": "US", "coord": {"lon": -83.0746, "lat": 33.615681}}, {"id": 4227917, "name": "Unionville", "state": "GA", "country": "US", "coord": {"lon": -83.509613, "lat": 31.43491}}, {"id": 4228147, "name": "Valdosta", "state": "GA", "country": "US", "coord": {"lon": -83.278488, "lat": 30.832701}}, {"id": 4228221, "name": "Vanceville", "state": "GA", "country": "US", "coord": {"lon": -83.44072, "lat": 31.43297}}, {"id": 4228262, "name": "Varnell", "state": "GA", "country": "US", "coord": {"lon": -84.973831, "lat": 34.901192}}, {"id": 4228425, "name": "Vidalia", "state": "GA", "country": "US", "coord": {"lon": -82.41346, "lat": 32.21769}}, {"id": 4228440, "name": "Vienna", "state": "GA", "country": "US", "coord": {"lon": -83.795448, "lat": 32.09156}}, {"id": 4228452, "name": "Villa Rica", "state": "GA", "country": "US", "coord": {"lon": -84.919113, "lat": 33.732052}}, {"id": 4228518, "name": "Vinings", "state": "GA", "country": "US", "coord": {"lon": -84.464371, "lat": 33.86483}}, {"id": 4229079, "name": "Wadley", "state": "GA", "country": "US", "coord": {"lon": -82.404022, "lat": 32.866821}}, {"id": 4229317, "name": "Walnut Grove", "state": "GA", "country": "US", "coord": {"lon": -83.852402, "lat": 33.742611}}, {"id": 4229357, "name": "Walthourville", "state": "GA", "country": "US", "coord": {"lon": -81.632607, "lat": 31.774099}}, {"id": 4229371, "name": "Walton County", "state": "GA", "country": "US", "coord": {"lon": -83.733231, "lat": 33.766781}}, {"id": 4229476, "name": "Warner Robins", "state": "GA", "country": "US", "coord": {"lon": -83.599899, "lat": 32.620979}}, {"id": 4229517, "name": "Warrenton", "state": "GA", "country": "US", "coord": {"lon": -82.662079, "lat": 33.407082}}, {"id": 4229546, "name": "Washington", "state": "GA", "country": "US", "coord": {"lon": -82.739311, "lat": 33.73679}}, {"id": 4229691, "name": "Watkinsville", "state": "GA", "country": "US", "coord": {"lon": -83.408768, "lat": 33.8629}}, {"id": 4229763, "name": "Waycross", "state": "GA", "country": "US", "coord": {"lon": -82.354019, "lat": 31.213551}}, {"id": 4229791, "name": "Waynesboro", "state": "GA", "country": "US", "coord": {"lon": -82.015671, "lat": 33.08987}}, {"id": 4230259, "name": "West Point", "state": "GA", "country": "US", "coord": {"lon": -85.183273, "lat": 32.877911}}, {"id": 4230280, "name": "West Point", "state": "GA", "country": "US", "coord": {"lon": -83.807411, "lat": 32.793468}}, {"id": 4230595, "name": "White County", "state": "GA", "country": "US", "coord": {"lon": -83.749901, "lat": 34.650101}}, {"id": 4230760, "name": "Whitemarsh Island", "state": "GA", "country": "US", "coord": {"lon": -81.016777, "lat": 32.02882}}, {"id": 4230805, "name": "Whitestone", "state": "GA", "country": "US", "coord": {"lon": -84.511597, "lat": 34.560371}}, {"id": 4230822, "name": "Whitfield County", "state": "GA", "country": "US", "coord": {"lon": -84.966614, "lat": 34.833408}}, {"id": 4231065, "name": "Willacoochee", "state": "GA", "country": "US", "coord": {"lon": -83.045982, "lat": 31.340759}}, {"id": 4231354, "name": "Wilmington Island", "state": "GA", "country": "US", "coord": {"lon": -80.973717, "lat": 32.003551}}, {"id": 4231523, "name": "Winder", "state": "GA", "country": "US", "coord": {"lon": -83.720169, "lat": 33.992611}}, {"id": 4231567, "name": "Winterville", "state": "GA", "country": "US", "coord": {"lon": -83.278214, "lat": 33.96706}}, {"id": 4231725, "name": "Woodbine", "state": "GA", "country": "US", "coord": {"lon": -81.72261, "lat": 30.96384}}, {"id": 4231786, "name": "Woodland Hills Mobile Home Park", "state": "GA", "country": "US", "coord": {"lon": -84.421593, "lat": 33.616779}}, {"id": 4231874, "name": "Woodstock", "state": "GA", "country": "US", "coord": {"lon": -84.519379, "lat": 34.10149}}, {"id": 4231997, "name": "Wrens", "state": "GA", "country": "US", "coord": {"lon": -82.391792, "lat": 33.207649}}, {"id": 4232049, "name": "Wrightsville", "state": "GA", "country": "US", "coord": {"lon": -82.719856, "lat": 32.729328}}, {"id": 4232308, "name": "Zebulon", "state": "GA", "country": "US", "coord": {"lon": -84.342697, "lat": 33.102348}}, {"id": 4232512, "name": "Adams County", "state": "IL", "country": "US", "coord": {"lon": -91.183472, "lat": 39.966709}}, {"id": 4232564, "name": "Albers", "state": "IL", "country": "US", "coord": {"lon": -89.612312, "lat": 38.543381}}, {"id": 4232568, "name": "Albion", "state": "IL", "country": "US", "coord": {"lon": -88.056152, "lat": 38.377548}}, {"id": 4232592, "name": "Alexander County", "state": "IL", "country": "US", "coord": {"lon": -89.183411, "lat": 37.18338}}, {"id": 4232652, "name": "Alorton", "state": "IL", "country": "US", "coord": {"lon": -90.12011, "lat": 38.589771}}, {"id": 4232662, "name": "Altamont", "state": "IL", "country": "US", "coord": {"lon": -88.748108, "lat": 39.061989}}, {"id": 4232679, "name": "Alton", "state": "IL", "country": "US", "coord": {"lon": -90.18428, "lat": 38.890598}}, {"id": 4232776, "name": "Anna", "state": "IL", "country": "US", "coord": {"lon": -89.247032, "lat": 37.460331}}, {"id": 4232862, "name": "Arcola", "state": "IL", "country": "US", "coord": {"lon": -88.306442, "lat": 39.684761}}, {"id": 4232911, "name": "Arthur", "state": "IL", "country": "US", "coord": {"lon": -88.472282, "lat": 39.71476}}, {"id": 4232953, "name": "Ashland", "state": "IL", "country": "US", "coord": {"lon": -90.007889, "lat": 39.887829}}, {"id": 4232987, "name": "Assumption", "state": "IL", "country": "US", "coord": {"lon": -89.048973, "lat": 39.520321}}, {"id": 4232997, "name": "Athens", "state": "IL", "country": "US", "coord": {"lon": -89.723991, "lat": 39.96088}}, {"id": 4233022, "name": "Atwood", "state": "IL", "country": "US", "coord": {"lon": -88.46228, "lat": 39.79948}}, {"id": 4233029, "name": "Auburn", "state": "IL", "country": "US", "coord": {"lon": -89.74649, "lat": 39.591721}}, {"id": 4233090, "name": "Aviston", "state": "IL", "country": "US", "coord": {"lon": -89.60759, "lat": 38.60672}}, {"id": 4233255, "name": "Barry", "state": "IL", "country": "US", "coord": {"lon": -91.039017, "lat": 39.69421}}, {"id": 4233430, "name": "Beckemeyer", "state": "IL", "country": "US", "coord": {"lon": -89.435921, "lat": 38.605598}}, {"id": 4233552, "name": "Bement", "state": "IL", "country": "US", "coord": {"lon": -88.572006, "lat": 39.921982}}, {"id": 4233572, "name": "Benld", "state": "IL", "country": "US", "coord": {"lon": -89.803978, "lat": 39.092819}}, {"id": 4233586, "name": "Benton", "state": "IL", "country": "US", "coord": {"lon": -88.920067, "lat": 37.996719}}, {"id": 4233662, "name": "Bethalto", "state": "IL", "country": "US", "coord": {"lon": -90.040657, "lat": 38.90921}}, {"id": 4233670, "name": "Bethany", "state": "IL", "country": "US", "coord": {"lon": -88.738129, "lat": 39.645592}}, {"id": 4233813, "name": "Belleville", "state": "IL", "country": "US", "coord": {"lon": -89.983994, "lat": 38.52005}}, {"id": 4234081, "name": "Blue Mound", "state": "IL", "country": "US", "coord": {"lon": -89.123138, "lat": 39.701149}}, {"id": 4234184, "name": "Bond County", "state": "IL", "country": "US", "coord": {"lon": -89.433411, "lat": 38.883381}}, {"id": 4234362, "name": "Breese", "state": "IL", "country": "US", "coord": {"lon": -89.527031, "lat": 38.6106}}, {"id": 4234416, "name": "Bridgeport", "state": "IL", "country": "US", "coord": {"lon": -87.760033, "lat": 38.705879}}, {"id": 4234436, "name": "Brighton", "state": "IL", "country": "US", "coord": {"lon": -90.140663, "lat": 39.039768}}, {"id": 4234576, "name": "Brownsport (historical)", "state": "IL", "country": "US", "coord": {"lon": -88.042526, "lat": 38.05616}}, {"id": 4234810, "name": "Bunker Hill", "state": "IL", "country": "US", "coord": {"lon": -89.951767, "lat": 39.04282}}, {"id": 4234892, "name": "Burton", "state": "IL", "country": "US", "coord": {"lon": -91.249031, "lat": 39.90477}}, {"id": 4234969, "name": "Cahokia", "state": "IL", "country": "US", "coord": {"lon": -90.190109, "lat": 38.570881}}, {"id": 4234985, "name": "Cairo", "state": "IL", "country": "US", "coord": {"lon": -89.17646, "lat": 37.005329}}, {"id": 4235075, "name": "Cambria", "state": "IL", "country": "US", "coord": {"lon": -89.119247, "lat": 37.781441}}, {"id": 4235193, "name": "Carbondale", "state": "IL", "country": "US", "coord": {"lon": -89.216751, "lat": 37.727268}}, {"id": 4235211, "name": "Carlinville", "state": "IL", "country": "US", "coord": {"lon": -89.881767, "lat": 39.27977}}, {"id": 4235229, "name": "Carlyle", "state": "IL", "country": "US", "coord": {"lon": -89.372581, "lat": 38.610329}}, {"id": 4235246, "name": "Carmi", "state": "IL", "country": "US", "coord": {"lon": -88.158653, "lat": 38.090881}}, {"id": 4235274, "name": "Carrier Mills", "state": "IL", "country": "US", "coord": {"lon": -88.632828, "lat": 37.684219}}, {"id": 4235288, "name": "Carrollton", "state": "IL", "country": "US", "coord": {"lon": -90.407059, "lat": 39.302269}}, {"id": 4235311, "name": "Carterville", "state": "IL", "country": "US", "coord": {"lon": -89.077301, "lat": 37.760052}}, {"id": 4235334, "name": "Casey", "state": "IL", "country": "US", "coord": {"lon": -87.992531, "lat": 39.299198}}, {"id": 4235355, "name": "Caseyville", "state": "IL", "country": "US", "coord": {"lon": -90.025658, "lat": 38.636719}}, {"id": 4235535, "name": "Central City", "state": "IL", "country": "US", "coord": {"lon": -89.127007, "lat": 38.548939}}, {"id": 4235587, "name": "Centralia", "state": "IL", "country": "US", "coord": {"lon": -89.1334, "lat": 38.525051}}, {"id": 4235600, "name": "Centreville", "state": "IL", "country": "US", "coord": {"lon": -90.125107, "lat": 38.583382}}, {"id": 4235607, "name": "Cerro Gordo", "state": "IL", "country": "US", "coord": {"lon": -88.728127, "lat": 39.890591}}, {"id": 4235668, "name": "Charleston", "state": "IL", "country": "US", "coord": {"lon": -88.176147, "lat": 39.496151}}, {"id": 4235683, "name": "Chatham", "state": "IL", "country": "US", "coord": {"lon": -89.704536, "lat": 39.676159}}, {"id": 4235724, "name": "Chester", "state": "IL", "country": "US", "coord": {"lon": -89.822052, "lat": 37.913658}}, {"id": 4235766, "name": "Chrisman", "state": "IL", "country": "US", "coord": {"lon": -87.673637, "lat": 39.80365}}, {"id": 4235804, "name": "Christopher", "state": "IL", "country": "US", "coord": {"lon": -89.053413, "lat": 37.972549}}, {"id": 4236063, "name": "Clinton County", "state": "IL", "country": "US", "coord": {"lon": -89.400078, "lat": 38.600052}}, {"id": 4236102, "name": "Cobden", "state": "IL", "country": "US", "coord": {"lon": -89.253418, "lat": 37.531441}}, {"id": 4236157, "name": "Coles County", "state": "IL", "country": "US", "coord": {"lon": -88.233383, "lat": 39.55003}}, {"id": 4236191, "name": "Collinsville", "state": "IL", "country": "US", "coord": {"lon": -89.98455, "lat": 38.67033}}, {"id": 4236206, "name": "Columbia", "state": "IL", "country": "US", "coord": {"lon": -90.201218, "lat": 38.443661}}, {"id": 4236555, "name": "Crainville", "state": "IL", "country": "US", "coord": {"lon": -89.067848, "lat": 37.751991}}, {"id": 4236738, "name": "Cumberland County", "state": "IL", "country": "US", "coord": {"lon": -88.250603, "lat": 39.266701}}, {"id": 4236879, "name": "De Soto", "state": "IL", "country": "US", "coord": {"lon": -89.227859, "lat": 37.817551}}, {"id": 4236895, "name": "Decatur", "state": "IL", "country": "US", "coord": {"lon": -88.954803, "lat": 39.840309}}, {"id": 4237076, "name": "Divernon", "state": "IL", "country": "US", "coord": {"lon": -89.657318, "lat": 39.565609}}, {"id": 4237204, "name": "Douglas County", "state": "IL", "country": "US", "coord": {"lon": -88.216713, "lat": 39.766701}}, {"id": 4237312, "name": "Du Quoin", "state": "IL", "country": "US", "coord": {"lon": -89.236191, "lat": 38.01144}}, {"id": 4237383, "name": "Dupo", "state": "IL", "country": "US", "coord": {"lon": -90.210388, "lat": 38.516159}}, {"id": 4237473, "name": "East Alton", "state": "IL", "country": "US", "coord": {"lon": -90.111221, "lat": 38.880329}}, {"id": 4237579, "name": "East Saint Louis", "state": "IL", "country": "US", "coord": {"lon": -90.15094, "lat": 38.6245}}, {"id": 4237669, "name": "Eden Park", "state": "IL", "country": "US", "coord": {"lon": -89.023956, "lat": 37.755051}}, {"id": 4237687, "name": "Edinburg", "state": "IL", "country": "US", "coord": {"lon": -89.389526, "lat": 39.657269}}, {"id": 4237717, "name": "Edwardsville", "state": "IL", "country": "US", "coord": {"lon": -89.953163, "lat": 38.81144}}, {"id": 4237727, "name": "Effingham", "state": "IL", "country": "US", "coord": {"lon": -88.543381, "lat": 39.120041}}, {"id": 4237767, "name": "Eldorado", "state": "IL", "country": "US", "coord": {"lon": -88.438103, "lat": 37.81366}}, {"id": 4237790, "name": "Elizabethtown", "state": "IL", "country": "US", "coord": {"lon": -88.305038, "lat": 37.445881}}, {"id": 4237953, "name": "Energy", "state": "IL", "country": "US", "coord": {"lon": -89.026459, "lat": 37.773941}}, {"id": 4238081, "name": "Fairfield", "state": "IL", "country": "US", "coord": {"lon": -88.359772, "lat": 38.378941}}, {"id": 4238104, "name": "Fairmont City", "state": "IL", "country": "US", "coord": {"lon": -90.093163, "lat": 38.649769}}, {"id": 4238132, "name": "Fairview Heights", "state": "IL", "country": "US", "coord": {"lon": -89.990379, "lat": 38.58894}}, {"id": 4238193, "name": "Falling Spring", "state": "IL", "country": "US", "coord": {"lon": -90.186783, "lat": 38.532551}}, {"id": 4238245, "name": "Fayette County", "state": "IL", "country": "US", "coord": {"lon": -89.033401, "lat": 39.016708}}, {"id": 4238777, "name": "Flora", "state": "IL", "country": "US", "coord": {"lon": -88.485603, "lat": 38.668941}}, {"id": 4238858, "name": "Forsyth", "state": "IL", "country": "US", "coord": {"lon": -88.951187, "lat": 39.932541}}, {"id": 4239058, "name": "Freeburg", "state": "IL", "country": "US", "coord": {"lon": -89.913712, "lat": 38.427551}}, {"id": 4239247, "name": "Gard", "state": "IL", "country": "US", "coord": {"lon": -89.960098, "lat": 38.86227}}, {"id": 4239337, "name": "Georgetown", "state": "IL", "country": "US", "coord": {"lon": -87.635849, "lat": 39.975311}}, {"id": 4239368, "name": "Germantown", "state": "IL", "country": "US", "coord": {"lon": -89.538422, "lat": 38.553661}}]