[{"id": 953987, "name": "Republic of South Africa", "state": "", "country": "ZA", "coord": {"lon": 26, "lat": -30}}, {"id": 954161, "name": "Somerset East", "state": "", "country": "ZA", "coord": {"lon": 25.588039, "lat": -32.721729}}, {"id": 954486, "name": "Smithfield", "state": "", "country": "ZA", "coord": {"lon": 26.530701, "lat": -30.213659}}, {"id": 955313, "name": "Siyabuswa", "state": "", "country": "ZA", "coord": {"lon": 29.04454, "lat": -25.11319}}, {"id": 955407, "name": "Sishen", "state": "", "country": "ZA", "coord": {"lon": 22.98333, "lat": -27.783331}}, {"id": 955487, "name": "Sinoville", "state": "", "country": "ZA", "coord": {"lon": 28.21987, "lat": -25.676291}}, {"id": 956098, "name": "Shelly Beach", "state": "", "country": "ZA", "coord": {"lon": 30.41427, "lat": -30.80064}}, {"id": 956375, "name": "Seshego", "state": "", "country": "ZA", "coord": {"lon": 29.38802, "lat": -23.84664}}, {"id": 956507, "name": "Senekal", "state": "", "country": "ZA", "coord": {"lon": 27.620819, "lat": -28.31971}}, {"id": 956754, "name": "Sedgefield", "state": "", "country": "ZA", "coord": {"lon": 22.8055, "lat": -34.021099}}, {"id": 956767, "name": "Secunda", "state": "", "country": "ZA", "coord": {"lon": 29.16667, "lat": -26.549999}}, {"id": 956839, "name": "Sea Park", "state": "", "country": "ZA", "coord": {"lon": 30.491871, "lat": -30.69611}}, {"id": 956878, "name": "Scottburgh", "state": "", "country": "ZA", "coord": {"lon": 30.75316, "lat": -30.286659}}, {"id": 956907, "name": "Schweizer-Reneke", "state": "", "country": "ZA", "coord": {"lon": 25.329309, "lat": -27.188709}}, {"id": 957339, "name": "Schapenrust", "state": "", "country": "ZA", "coord": {"lon": 28.366421, "lat": -26.267509}}, {"id": 957487, "name": "Sasolburg", "state": "", "country": "ZA", "coord": {"lon": 27.81695, "lat": -26.81358}}, {"id": 957517, "name": "Sardinia Bay", "state": "", "country": "ZA", "coord": {"lon": 24.5, "lat": -34.01667}}, {"id": 957655, "name": "Sandton", "state": "", "country": "ZA", "coord": {"lon": 28.05891, "lat": -26.05447}}, {"id": 958435, "name": "Sabierivier", "state": "", "country": "ZA", "coord": {"lon": 31.113899, "lat": -25.03586}}, {"id": 958441, "name": "Sabie", "state": "", "country": "ZA", "coord": {"lon": 30.78001, "lat": -25.099899}}, {"id": 958724, "name": "Rustenburg", "state": "", "country": "ZA", "coord": {"lon": 27.242081, "lat": -25.667561}}, {"id": 959103, "name": "Rosslyn", "state": "", "country": "ZA", "coord": {"lon": 28.09417, "lat": -25.62417}}, {"id": 959931, "name": "Rooihuiskraal", "state": "", "country": "ZA", "coord": {"lon": 28.150761, "lat": -25.894279}}, {"id": 960812, "name": "Ronald\u2019s Vlei", "state": "", "country": "ZA", "coord": {"lon": 24.75688, "lat": -28.78916}}, {"id": 961152, "name": "Riversdale", "state": "", "country": "ZA", "coord": {"lon": 21.25725, "lat": -34.093449}}, {"id": 961226, "name": "Ritchie", "state": "", "country": "ZA", "coord": {"lon": 24.602779, "lat": -29.03801}}, {"id": 961331, "name": "Rietvlei", "state": "", "country": "ZA", "coord": {"lon": 29.87392, "lat": -23.078739}}, {"id": 961935, "name": "Rietfontein", "state": "", "country": "ZA", "coord": {"lon": 29.200001, "lat": -25.5}}, {"id": 962330, "name": "Richmond", "state": "", "country": "ZA", "coord": {"lon": 30.27235, "lat": -29.87196}}, {"id": 962367, "name": "Richards Bay", "state": "", "country": "ZA", "coord": {"lon": 32.037682, "lat": -28.78301}}, {"id": 962597, "name": "Reunion", "state": "", "country": "ZA", "coord": {"lon": 30.942921, "lat": -29.96455}}, {"id": 962649, "name": "Reservoir Hills", "state": "", "country": "ZA", "coord": {"lon": 30.942699, "lat": -29.802441}}, {"id": 962847, "name": "Reitz", "state": "", "country": "ZA", "coord": {"lon": 28.427259, "lat": -27.80138}}, {"id": 963049, "name": "Rayton", "state": "", "country": "ZA", "coord": {"lon": 28.533381, "lat": -25.73917}}, {"id": 963230, "name": "Randfontein", "state": "", "country": "ZA", "coord": {"lon": 27.70203, "lat": -26.184401}}, {"id": 963516, "name": "Queenstown", "state": "", "country": "ZA", "coord": {"lon": 26.87533, "lat": -31.89756}}, {"id": 963525, "name": "Queensdale", "state": "", "country": "ZA", "coord": {"lon": 26.978621, "lat": -31.87101}}, {"id": 963528, "name": "Queensburgh", "state": "", "country": "ZA", "coord": {"lon": 30.906429, "lat": -29.877689}}, {"id": 963941, "name": "Protem", "state": "", "country": "ZA", "coord": {"lon": 20.07873, "lat": -34.268242}}, {"id": 963944, "name": "Protea Ridge", "state": "", "country": "ZA", "coord": {"lon": 27.75, "lat": -26.033331}}, {"id": 963961, "name": "Prospect", "state": "", "country": "ZA", "coord": {"lon": 31.02973, "lat": -29.80006}}, {"id": 964078, "name": "Prince Albert", "state": "", "country": "ZA", "coord": {"lon": 22.02993, "lat": -33.22263}}, {"id": 964090, "name": "Prieska", "state": "", "country": "ZA", "coord": {"lon": 22.747419, "lat": -29.664089}}, {"id": 964132, "name": "Pretoria-Wes", "state": "", "country": "ZA", "coord": {"lon": 28.161249, "lat": -25.754419}}, {"id": 964137, "name": "Pretoria", "state": "", "country": "ZA", "coord": {"lon": 28.18783, "lat": -25.74486}}, {"id": 964315, "name": "Mokopane", "state": "", "country": "ZA", "coord": {"lon": 29.009741, "lat": -24.194361}}, {"id": 964334, "name": "Potfontein", "state": "", "country": "ZA", "coord": {"lon": 24.108879, "lat": -30.204109}}, {"id": 964349, "name": "Potchefstroom", "state": "", "country": "ZA", "coord": {"lon": 27.1, "lat": -26.716669}}, {"id": 964406, "name": "Port Shepstone", "state": "", "country": "ZA", "coord": {"lon": 30.45499, "lat": -30.741369}}, {"id": 964408, "name": "Port Saint Johns", "state": "", "country": "ZA", "coord": {"lon": 29.544769, "lat": -31.62291}}, {"id": 964420, "name": "Port Elizabeth", "state": "", "country": "ZA", "coord": {"lon": 25.57007, "lat": -33.917992}}, {"id": 964424, "name": "Port Edward", "state": "", "country": "ZA", "coord": {"lon": 30.227989, "lat": -31.050671}}, {"id": 964432, "name": "Port Alfred", "state": "", "country": "ZA", "coord": {"lon": 26.891041, "lat": -33.590569}}, {"id": 964649, "name": "Point", "state": "", "country": "ZA", "coord": {"lon": 31.04126, "lat": -29.86471}}, {"id": 964712, "name": "Plettenberg Bay", "state": "", "country": "ZA", "coord": {"lon": 23.371599, "lat": -34.052738}}, {"id": 965241, "name": "Piet Retief", "state": "", "country": "ZA", "coord": {"lon": 30.813231, "lat": -27.007059}}, {"id": 965289, "name": "Polokwane", "state": "", "country": "ZA", "coord": {"lon": 29.468849, "lat": -23.90448}}, {"id": 965301, "name": "Pietermaritzburg", "state": "", "country": "ZA", "coord": {"lon": 30.39278, "lat": -29.616779}}, {"id": 965401, "name": "Phuthaditjhaba", "state": "", "country": "ZA", "coord": {"lon": 28.815821, "lat": -28.524229}}, {"id": 965528, "name": "Phalaborwa", "state": "", "country": "ZA", "coord": {"lon": 31.141069, "lat": -23.942989}}, {"id": 965960, "name": "Pelham", "state": "", "country": "ZA", "coord": {"lon": 30.3895, "lat": -29.630739}}, {"id": 966166, "name": "Parys", "state": "", "country": "ZA", "coord": {"lon": 27.45727, "lat": -26.903299}}, {"id": 966189, "name": "Parkview", "state": "", "country": "ZA", "coord": {"lon": 28.027321, "lat": -26.161909}}, {"id": 966196, "name": "Parkhurst", "state": "", "country": "ZA", "coord": {"lon": 28.01737, "lat": -26.138639}}, {"id": 966305, "name": "Panorama", "state": "", "country": "ZA", "coord": {"lon": 31.89113, "lat": -28.75383}}, {"id": 966380, "name": "Pampierstad", "state": "", "country": "ZA", "coord": {"lon": 24.687679, "lat": -27.783239}}, {"id": 966466, "name": "Palmietfontein", "state": "", "country": "ZA", "coord": {"lon": 29.25572, "lat": -23.53479}}, {"id": 966737, "name": "Paardekraal", "state": "", "country": "ZA", "coord": {"lon": 27.883329, "lat": -26.183331}}, {"id": 967106, "name": "Oudtshoorn", "state": "", "country": "ZA", "coord": {"lon": 22.201401, "lat": -33.590672}}, {"id": 967476, "name": "Orkney", "state": "", "country": "ZA", "coord": {"lon": 26.67272, "lat": -26.98023}}, {"id": 967542, "name": "Orania", "state": "", "country": "ZA", "coord": {"lon": 24.41205, "lat": -29.81381}}, {"id": 967573, "name": "Free State", "state": "", "country": "ZA", "coord": {"lon": 26, "lat": -29}}, {"id": 967580, "name": "Orange Farm", "state": "", "country": "ZA", "coord": {"lon": 27.866671, "lat": -26.48333}}, {"id": 967827, "name": "Onverwacht", "state": "", "country": "ZA", "coord": {"lon": 27.68828, "lat": -23.69117}}, {"id": 968453, "name": "Ofcolaco", "state": "", "country": "ZA", "coord": {"lon": 30.3957, "lat": -24.081579}}, {"id": 968665, "name": "Modimolle", "state": "", "country": "ZA", "coord": {"lon": 28.4, "lat": -24.700001}}, {"id": 969582, "name": "Noupoort", "state": "", "country": "ZA", "coord": {"lon": 24.949909, "lat": -31.187361}}, {"id": 969619, "name": "Nottingham Road", "state": "", "country": "ZA", "coord": {"lon": 29.98333, "lat": -29.35}}, {"id": 970341, "name": "Nkowakowa", "state": "", "country": "ZA", "coord": {"lon": 30.287081, "lat": -23.887819}}, {"id": 970566, "name": "Nigel", "state": "", "country": "ZA", "coord": {"lon": 28.477131, "lat": -26.431379}}, {"id": 971352, "name": "New Kingsmead", "state": "", "country": "ZA", "coord": {"lon": 31.01667, "lat": -29.816669}}, {"id": 971377, "name": "New Hanover", "state": "", "country": "ZA", "coord": {"lon": 30.528021, "lat": -29.35519}}, {"id": 971417, "name": "Newclare", "state": "", "country": "ZA", "coord": {"lon": 28.08333, "lat": -26.200001}}, {"id": 971421, "name": "Newcastle", "state": "", "country": "ZA", "coord": {"lon": 29.931801, "lat": -27.757959}}, {"id": 971534, "name": "Nelspruit", "state": "", "country": "ZA", "coord": {"lon": 30.970329, "lat": -25.47448}}, {"id": 972062, "name": "Province of KwaZulu-Natal", "state": "", "country": "ZA", "coord": {"lon": 30, "lat": -29}}, {"id": 972138, "name": "Nancefield", "state": "", "country": "ZA", "coord": {"lon": 27.917879, "lat": -26.303949}}, {"id": 972206, "name": "Naboomspruit", "state": "", "country": "ZA", "coord": {"lon": 28.716669, "lat": -24.51667}}, {"id": 972535, "name": "Musgrave", "state": "", "country": "ZA", "coord": {"lon": 30.994049, "lat": -29.84989}}, {"id": 972673, "name": "Muldersdriseloop", "state": "", "country": "ZA", "coord": {"lon": 27.83798, "lat": -26.03673}}, {"id": 972674, "name": "Muldersdrift", "state": "", "country": "ZA", "coord": {"lon": 27.8512, "lat": -26.037041}}, {"id": 972755, "name": "Muden", "state": "", "country": "ZA", "coord": {"lon": 30.37146, "lat": -28.984961}}, {"id": 972803, "name": "Mtubatuba", "state": "", "country": "ZA", "coord": {"lon": 32.18483, "lat": -28.417891}}, {"id": 973111, "name": "Mpumalanga", "state": "", "country": "ZA", "coord": {"lon": 30.636459, "lat": -29.81292}}, {"id": 973139, "name": "Mpophomeni", "state": "", "country": "ZA", "coord": {"lon": 30.18618, "lat": -29.56822}}, {"id": 973537, "name": "Mount Edgecombe", "state": "", "country": "ZA", "coord": {"lon": 31.025101, "lat": -29.706671}}, {"id": 973709, "name": "Mossel Bay", "state": "", "country": "ZA", "coord": {"lon": 22.146049, "lat": -34.183071}}, {"id": 973786, "name": "Mortimer", "state": "", "country": "ZA", "coord": {"lon": 25.683331, "lat": -32.366669}}, {"id": 973971, "name": "Morgan\u2019s Bay", "state": "", "country": "ZA", "coord": {"lon": 28.34112, "lat": -32.704601}}, {"id": 974222, "name": "Mooirivier", "state": "", "country": "ZA", "coord": {"lon": 29.9946, "lat": -29.208241}}, {"id": 974532, "name": "Monument Park", "state": "", "country": "ZA", "coord": {"lon": 28.22691, "lat": -25.806881}}, {"id": 974670, "name": "Mondlo", "state": "", "country": "ZA", "coord": {"lon": 30.71769, "lat": -27.98299}}, {"id": 974719, "name": "Molteno", "state": "", "country": "ZA", "coord": {"lon": 26.362459, "lat": -31.396761}}, {"id": 974933, "name": "Mogwase", "state": "", "country": "ZA", "coord": {"lon": 27.266541, "lat": -25.185049}}, {"id": 975144, "name": "Modderfontein", "state": "", "country": "ZA", "coord": {"lon": 28.16534, "lat": -26.08909}}, {"id": 975436, "name": "Mmabatho", "state": "", "country": "ZA", "coord": {"lon": 25.633329, "lat": -25.85}}, {"id": 975511, "name": "Mkuze", "state": "", "country": "ZA", "coord": {"lon": 32.038609, "lat": -27.616409}}, {"id": 976358, "name": "Middelburg", "state": "", "country": "ZA", "coord": {"lon": 25.00633, "lat": -31.492849}}, {"id": 976361, "name": "Middelburg", "state": "", "country": "ZA", "coord": {"lon": 29.464821, "lat": -25.77507}}, {"id": 976539, "name": "Mhlahlane", "state": "", "country": "ZA", "coord": {"lon": 28.690571, "lat": -31.55892}}, {"id": 976764, "name": "Meyerton", "state": "", "country": "ZA", "coord": {"lon": 28.019501, "lat": -26.55987}}, {"id": 976885, "name": "Messina", "state": "", "country": "ZA", "coord": {"lon": 30.0396, "lat": -22.351311}}, {"id": 976897, "name": "Mesa", "state": "", "country": "ZA", "coord": {"lon": 26.98333, "lat": -26.48333}}, {"id": 977363, "name": "Meadowlands", "state": "", "country": "ZA", "coord": {"lon": 27.883329, "lat": -26.200001}}, {"id": 977734, "name": "Mbango", "state": "", "country": "ZA", "coord": {"lon": 30.446119, "lat": -30.756359}}, {"id": 978352, "name": "Mataffin", "state": "", "country": "ZA", "coord": {"lon": 30.92782, "lat": -25.47629}}, {"id": 978660, "name": "Marseilles", "state": "", "country": "ZA", "coord": {"lon": 27.287901, "lat": -29.1838}}, {"id": 978677, "name": "Marquard", "state": "", "country": "ZA", "coord": {"lon": 27.430479, "lat": -28.66449}}, {"id": 978678, "name": "Marowe", "state": "", "country": "ZA", "coord": {"lon": 29.26236, "lat": -23.50816}}, {"id": 978895, "name": "Margate", "state": "", "country": "ZA", "coord": {"lon": 30.37052, "lat": -30.8636}}, {"id": 978944, "name": "Marble Hall", "state": "", "country": "ZA", "coord": {"lon": 29.29068, "lat": -24.96627}}, {"id": 979031, "name": "Mara", "state": "", "country": "ZA", "coord": {"lon": 29.399731, "lat": -23.09086}}, {"id": 979330, "name": "Manor Gardens", "state": "", "country": "ZA", "coord": {"lon": 30.98333, "lat": -29.866671}}, {"id": 979365, "name": "Mankoeng", "state": "", "country": "ZA", "coord": {"lon": 29.816669, "lat": -23.9}}, {"id": 979691, "name": "Malvern", "state": "", "country": "ZA", "coord": {"lon": 28.10165, "lat": -26.203039}}, {"id": 979692, "name": "Malvern", "state": "", "country": "ZA", "coord": {"lon": 30.925211, "lat": -29.88521}}, {"id": 980595, "name": "Mafikeng", "state": "", "country": "ZA", "coord": {"lon": 25.644211, "lat": -25.865219}}, {"id": 980921, "name": "Mabopane", "state": "", "country": "ZA", "coord": {"lon": 28.100651, "lat": -25.497681}}, {"id": 980984, "name": "Mabele-a-podi", "state": "", "country": "ZA", "coord": {"lon": 27.204651, "lat": -25.280531}}, {"id": 981084, "name": "Lyttelton", "state": "", "country": "ZA", "coord": {"lon": 28.2012, "lat": -25.82988}}, {"id": 981117, "name": "Lynnwood", "state": "", "country": "ZA", "coord": {"lon": 28.26506, "lat": -25.759741}}, {"id": 981139, "name": "Lyndhurst", "state": "", "country": "ZA", "coord": {"lon": 28.109051, "lat": -26.12752}}, {"id": 981158, "name": "Lydenburg", "state": "", "country": "ZA", "coord": {"lon": 30.459669, "lat": -25.097799}}, {"id": 981827, "name": "Louis Trichardt", "state": "", "country": "ZA", "coord": {"lon": 29.903191, "lat": -23.04385}}, {"id": 982103, "name": "Lorraine", "state": "", "country": "ZA", "coord": {"lon": 25.51545, "lat": -33.967232}}, {"id": 982332, "name": "Lombardy East", "state": "", "country": "ZA", "coord": {"lon": 28.124729, "lat": -26.11832}}, {"id": 982393, "name": "Lokaleng", "state": "", "country": "ZA", "coord": {"lon": 25.570009, "lat": -25.798679}}, {"id": 982587, "name": "Little Falls", "state": "", "country": "ZA", "coord": {"lon": 27.89085, "lat": -26.12092}}, {"id": 982701, "name": "Lindley", "state": "", "country": "ZA", "coord": {"lon": 27.913481, "lat": -27.879101}}, {"id": 982758, "name": "Limewell", "state": "", "country": "ZA", "coord": {"lon": 22.50614, "lat": -28.840731}}, {"id": 982771, "name": "Lime Acres", "state": "", "country": "ZA", "coord": {"lon": 23.469919, "lat": -28.361959}}, {"id": 982899, "name": "Lichtenburg", "state": "", "country": "ZA", "coord": {"lon": 26.159679, "lat": -26.152}}, {"id": 983065, "name": "Leslie", "state": "", "country": "ZA", "coord": {"lon": 28.9189, "lat": -26.367371}}, {"id": 984087, "name": "Lebowakgomo", "state": "", "country": "ZA", "coord": {"lon": 29.5, "lat": -24.200001}}, {"id": 984896, "name": "La Mercy", "state": "", "country": "ZA", "coord": {"lon": 31.13106, "lat": -29.639179}}, {"id": 984998, "name": "Ladysmith", "state": "", "country": "ZA", "coord": {"lon": 29.7827, "lat": -28.553909}}, {"id": 985004, "name": "Lady Grey", "state": "", "country": "ZA", "coord": {"lon": 27.216129, "lat": -30.71084}}, {"id": 985011, "name": "Lady Frere", "state": "", "country": "ZA", "coord": {"lon": 27.232901, "lat": -31.703119}}, {"id": 985015, "name": "Ladybrand", "state": "", "country": "ZA", "coord": {"lon": 27.45739, "lat": -29.194481}}, {"id": 986083, "name": "Kutloanong", "state": "", "country": "ZA", "coord": {"lon": 26.75, "lat": -27.83333}}, {"id": 986134, "name": "Kuruman", "state": "", "country": "ZA", "coord": {"lon": 23.432461, "lat": -27.4524}}, {"id": 986717, "name": "Kruisfontein", "state": "", "country": "ZA", "coord": {"lon": 24.731421, "lat": -34.00333}}, {"id": 986820, "name": "Krugersdorp West", "state": "", "country": "ZA", "coord": {"lon": 27.748409, "lat": -26.0979}}, {"id": 986822, "name": "Krugersdorp", "state": "", "country": "ZA", "coord": {"lon": 27.77515, "lat": -26.08577}}, {"id": 986846, "name": "Kroonstad", "state": "", "country": "ZA", "coord": {"lon": 27.23488, "lat": -27.65036}}, {"id": 986873, "name": "Kroondal", "state": "", "country": "ZA", "coord": {"lon": 27.315969, "lat": -25.719351}}, {"id": 986958, "name": "Krompan", "state": "", "country": "ZA", "coord": {"lon": 28.31756, "lat": -27.075411}}, {"id": 987015, "name": "Kromhof", "state": "", "country": "ZA", "coord": {"lon": 29.5, "lat": -27.933331}}, {"id": 987202, "name": "Kriel", "state": "", "country": "ZA", "coord": {"lon": 29.2253, "lat": -26.273911}}, {"id": 987648, "name": "Koster", "state": "", "country": "ZA", "coord": {"lon": 26.89756, "lat": -25.86301}}, {"id": 987875, "name": "Koppies", "state": "", "country": "ZA", "coord": {"lon": 27.574221, "lat": -27.241791}}, {"id": 988290, "name": "Komatipoort", "state": "", "country": "ZA", "coord": {"lon": 31.954781, "lat": -25.433201}}, {"id": 988356, "name": "Kokstad", "state": "", "country": "ZA", "coord": {"lon": 29.42412, "lat": -30.54723}}, {"id": 988429, "name": "Koffiefontein", "state": "", "country": "ZA", "coord": {"lon": 25.00309, "lat": -29.40661}}, {"id": 988698, "name": "Knysna", "state": "", "country": "ZA", "coord": {"lon": 23.047131, "lat": -34.03627}}, {"id": 988886, "name": "Kloof", "state": "", "country": "ZA", "coord": {"lon": 30.82325, "lat": -29.78529}}, {"id": 989747, "name": "Klipdrift", "state": "", "country": "ZA", "coord": {"lon": 28.33824, "lat": -25.36027}}, {"id": 989921, "name": "Klerksdorp", "state": "", "country": "ZA", "coord": {"lon": 26.666719, "lat": -26.852131}}, {"id": 990802, "name": "Kirkwood", "state": "", "country": "ZA", "coord": {"lon": 25.44278, "lat": -33.398289}}, {"id": 990825, "name": "Kinross", "state": "", "country": "ZA", "coord": {"lon": 29.086679, "lat": -26.41663}}, {"id": 990849, "name": "King William\u2019s Town", "state": "", "country": "ZA", "coord": {"lon": 27.394541, "lat": -32.88031}}, {"id": 990873, "name": "Kingsmead", "state": "", "country": "ZA", "coord": {"lon": 31.01667, "lat": -29.85}}, {"id": 990902, "name": "Kingsborough", "state": "", "country": "ZA", "coord": {"lon": 30.866671, "lat": -30.08333}}, {"id": 990930, "name": "Kimberley", "state": "", "country": "ZA", "coord": {"lon": 24.76232, "lat": -28.73226}}, {"id": 991247, "name": "Kew", "state": "", "country": "ZA", "coord": {"lon": 28.09573, "lat": -26.121321}}, {"id": 991415, "name": "Kempton Park", "state": "", "country": "ZA", "coord": {"lon": 28.2377, "lat": -26.108589}}, {"id": 991664, "name": "Kathu", "state": "", "country": "ZA", "coord": {"lon": 23.04929, "lat": -27.69569}}, {"id": 991676, "name": "Kate Hamel", "state": "", "country": "ZA", "coord": {"lon": 28.23333, "lat": -26.299999}}, {"id": 993643, "name": "Josefsdeel", "state": "", "country": "ZA", "coord": {"lon": 26.21751, "lat": -30.58157}}, {"id": 993800, "name": "Johannesburg", "state": "", "country": "ZA", "coord": {"lon": 28.043631, "lat": -26.202271}}, {"id": 993911, "name": "Jeffreys Bay", "state": "", "country": "ZA", "coord": {"lon": 24.9195, "lat": -34.05064}}, {"id": 994023, "name": "Jan Kempdorp", "state": "", "country": "ZA", "coord": {"lon": 24.830521, "lat": -27.922461}}, {"id": 994257, "name": "Jagersfontein", "state": "", "country": "ZA", "coord": {"lon": 25.427059, "lat": -29.761259}}, {"id": 994321, "name": "Jacobs", "state": "", "country": "ZA", "coord": {"lon": 30.98333, "lat": -29.91667}}, {"id": 994334, "name": "Jackson\u2019s Drift", "state": "", "country": "ZA", "coord": {"lon": 27.98901, "lat": -26.33201}}, {"id": 994418, "name": "Ixopo", "state": "", "country": "ZA", "coord": {"lon": 30.08333, "lat": -30.15}}, {"id": 994493, "name": "Isipingo", "state": "", "country": "ZA", "coord": {"lon": 30.91853, "lat": -29.986389}}, {"id": 994557, "name": "Irene", "state": "", "country": "ZA", "coord": {"lon": 28.21777, "lat": -25.87044}}, {"id": 994858, "name": "Inanda", "state": "", "country": "ZA", "coord": {"lon": 28.054529, "lat": -26.12015}}, {"id": 994939, "name": "Ilinge", "state": "", "country": "ZA", "coord": {"lon": 27.042669, "lat": -31.976761}}, {"id": 995039, "name": "Hutton Heights", "state": "", "country": "ZA", "coord": {"lon": 29.926809, "lat": -27.735229}}, {"id": 995160, "name": "Huhudi", "state": "", "country": "ZA", "coord": {"lon": 24.74107, "lat": -26.97398}}, {"id": 995202, "name": "Howick", "state": "", "country": "ZA", "coord": {"lon": 30.23057, "lat": -29.477949}}, {"id": 995409, "name": "Horton", "state": "", "country": "ZA", "coord": {"lon": 27.0158, "lat": -33.098209}}, {"id": 995573, "name": "Hoopstad", "state": "", "country": "ZA", "coord": {"lon": 25.908331, "lat": -27.832741}}, {"id": 995746, "name": "Honeyvale", "state": "", "country": "ZA", "coord": {"lon": 28.15, "lat": -25.533331}}, {"id": 995808, "name": "Home Park", "state": "", "country": "ZA", "coord": {"lon": 26.89595, "lat": -31.93598}}, {"id": 996195, "name": "Hoedspruit", "state": "", "country": "ZA", "coord": {"lon": 30.95332, "lat": -24.351219}}, {"id": 996256, "name": "Hluhluwe", "state": "", "country": "ZA", "coord": {"lon": 32.26762, "lat": -28.01895}}, {"id": 996409, "name": "Himeville", "state": "", "country": "ZA", "coord": {"lon": 29.513611, "lat": -29.74674}}, {"id": 996506, "name": "Hillcrest", "state": "", "country": "ZA", "coord": {"lon": 30.76396, "lat": -29.77475}}, {"id": 996571, "name": "Highlands", "state": "", "country": "ZA", "coord": {"lon": 26.183331, "lat": -29.066669}}, {"id": 996683, "name": "Heuningspruit", "state": "", "country": "ZA", "coord": {"lon": 27.41857, "lat": -27.44894}}, {"id": 996918, "name": "Hennenman", "state": "", "country": "ZA", "coord": {"lon": 27.024229, "lat": -27.97654}}, {"id": 996930, "name": "Hendrina", "state": "", "country": "ZA", "coord": {"lon": 29.715281, "lat": -26.15881}}, {"id": 997140, "name": "Heilbron", "state": "", "country": "ZA", "coord": {"lon": 27.9709, "lat": -27.281151}}, {"id": 997151, "name": "Heidelberg", "state": "", "country": "ZA", "coord": {"lon": 28.359209, "lat": -26.504761}}, {"id": 997324, "name": "Hattingspruit", "state": "", "country": "ZA", "coord": {"lon": 30.1252, "lat": -28.07905}}, {"id": 997751, "name": "Harrismith", "state": "", "country": "ZA", "coord": {"lon": 29.129459, "lat": -28.27276}}, {"id": 997861, "name": "Harding", "state": "", "country": "ZA", "coord": {"lon": 29.88401, "lat": -30.576429}}, {"id": 998210, "name": "Halfway House", "state": "", "country": "ZA", "coord": {"lon": 28.126369, "lat": -26.00526}}, {"id": 998606, "name": "Guinesses", "state": "", "country": "ZA", "coord": {"lon": 26.99441, "lat": -30.189079}}, {"id": 1000006, "name": "Greytown", "state": "", "country": "ZA", "coord": {"lon": 30.592791, "lat": -29.064159}}, {"id": 1000065, "name": "Greenwood Park", "state": "", "country": "ZA", "coord": {"lon": 31.01667, "lat": -29.783331}}, {"id": 1000116, "name": "Greenfields", "state": "", "country": "ZA", "coord": {"lon": 27.86216, "lat": -33.033298}}, {"id": 1000501, "name": "Grahamstown", "state": "", "country": "ZA", "coord": {"lon": 26.532761, "lat": -33.304218}}, {"id": 1000543, "name": "Graaff-Reinet", "state": "", "country": "ZA", "coord": {"lon": 24.53075, "lat": -32.252151}}, {"id": 1001632, "name": "Glenhurd", "state": "", "country": "ZA", "coord": {"lon": 25.566669, "lat": -33.950001}}, {"id": 1001642, "name": "Glenharvie", "state": "", "country": "ZA", "coord": {"lon": 27.615919, "lat": -26.389891}}, {"id": 1001719, "name": "Glendean", "state": "", "country": "ZA", "coord": {"lon": 30.216669, "lat": -29.23333}}, {"id": 1001736, "name": "Glencoe", "state": "", "country": "ZA", "coord": {"lon": 30.14702, "lat": -28.17827}}, {"id": 1001775, "name": "Glen Austin", "state": "", "country": "ZA", "coord": {"lon": 28.15, "lat": -25.966669}}, {"id": 1001783, "name": "Glen Ambrose", "state": "", "country": "ZA", "coord": {"lon": 26.383329, "lat": -33.216671}}, {"id": 1001860, "name": "Giyani", "state": "", "country": "ZA", "coord": {"lon": 30.718679, "lat": -23.30246}}, {"id": 1002108, "name": "Germiston", "state": "", "country": "ZA", "coord": {"lon": 28.176649, "lat": -26.23481}}, {"id": 1002145, "name": "George", "state": "", "country": "ZA", "coord": {"lon": 22.461729, "lat": -33.963001}}, {"id": 1002174, "name": "Generaal de Wet", "state": "", "country": "ZA", "coord": {"lon": 26.20215, "lat": -29.14242}}, {"id": 1002851, "name": "Ga-Rankuwa", "state": "", "country": "ZA", "coord": {"lon": 27.994711, "lat": -25.61692}}, {"id": 1002917, "name": "Ganyesa", "state": "", "country": "ZA", "coord": {"lon": 24.176121, "lat": -26.596121}}, {"id": 1003197, "name": "Ga-Modjadji", "state": "", "country": "ZA", "coord": {"lon": 30.439939, "lat": -23.51623}}, {"id": 1003462, "name": "GAKGAPANE", "state": "", "country": "ZA", "coord": {"lon": 30.216669, "lat": -23.633329}}, {"id": 1003764, "name": "Frankfort", "state": "", "country": "ZA", "coord": {"lon": 28.48333, "lat": -27.26667}}, {"id": 1003790, "name": "Fraaiuitzicht", "state": "", "country": "ZA", "coord": {"lon": 28.195601, "lat": -28.093201}}, {"id": 1003844, "name": "Fouriesburg", "state": "", "country": "ZA", "coord": {"lon": 28.133329, "lat": -28.58333}}, {"id": 1003953, "name": "Fort Beaufort", "state": "", "country": "ZA", "coord": {"lon": 26.63376, "lat": -32.774769}}, {"id": 1004109, "name": "Fochville", "state": "", "country": "ZA", "coord": {"lon": 27.49387, "lat": -26.488621}}, {"id": 1004303, "name": "Ficksburg", "state": "", "country": "ZA", "coord": {"lon": 27.875059, "lat": -28.872}}, {"id": 1004666, "name": "Faerie Glen", "state": "", "country": "ZA", "coord": {"lon": 30.33333, "lat": -30.85}}, {"id": 1004962, "name": "Estcourt", "state": "", "country": "ZA", "coord": {"lon": 29.86619, "lat": -29.01269}}, {"id": 1005029, "name": "eSikhawini", "state": "", "country": "ZA", "coord": {"lon": 31.899611, "lat": -28.87097}}, {"id": 1005040, "name": "Eshowe", "state": "", "country": "ZA", "coord": {"lon": 31.4699, "lat": -28.88648}}, {"id": 1005125, "name": "Ermelo", "state": "", "country": "ZA", "coord": {"lon": 29.98333, "lat": -26.533331}}, {"id": 1005265, "name": "Erand", "state": "", "country": "ZA", "coord": {"lon": 28.116671, "lat": -25.98333}}, {"id": 1005401, "name": "Enkelbosch", "state": "", "country": "ZA", "coord": {"lon": 29.46512, "lat": -23.85747}}, {"id": 1005544, "name": "Empangeni", "state": "", "country": "ZA", "coord": {"lon": 31.89329, "lat": -28.761971}}, {"id": 1005646, "name": "eMbalenhle", "state": "", "country": "ZA", "coord": {"lon": 29.066669, "lat": -26.533331}}, {"id": 1005768, "name": "Ellisras", "state": "", "country": "ZA", "coord": {"lon": 27.744261, "lat": -23.6649}}, {"id": 1005781, "name": "Elliot", "state": "", "country": "ZA", "coord": {"lon": 27.85, "lat": -31.33333}}, {"id": 1005928, "name": "Eldoradopark", "state": "", "country": "ZA", "coord": {"lon": 27.89784, "lat": -26.297119}}, {"id": 1005976, "name": "Elarduspark", "state": "", "country": "ZA", "coord": {"lon": 28.255381, "lat": -25.831881}}, {"id": 1006420, "name": "Ekuvukeni", "state": "", "country": "ZA", "coord": {"lon": 30.15513, "lat": -28.46752}}, {"id": 1006919, "name": "Ebenhaezer", "state": "", "country": "ZA", "coord": {"lon": 28.283331, "lat": -28.383329}}, {"id": 1006978, "name": "East Lynne", "state": "", "country": "ZA", "coord": {"lon": 28.277769, "lat": -25.70664}}, {"id": 1006984, "name": "East London", "state": "", "country": "ZA", "coord": {"lon": 27.911619, "lat": -33.015289}}, {"id": 1007195, "name": "Dwaleni", "state": "", "country": "ZA", "coord": {"lon": 31.100321, "lat": -25.359751}}, {"id": 1007311, "name": "Durban", "state": "", "country": "ZA", "coord": {"lon": 31.0292, "lat": -29.857901}}, {"id": 1007400, "name": "Dundee", "state": "", "country": "ZA", "coord": {"lon": 30.233709, "lat": -28.16678}}, {"id": 1007420, "name": "Duncan Village", "state": "", "country": "ZA", "coord": {"lon": 27.863319, "lat": -33.01226}}, {"id": 1007514, "name": "Duiwelskloof", "state": "", "country": "ZA", "coord": {"lon": 30.14002, "lat": -23.69339}}, {"id": 1007968, "name": "Drieweeksleegte", "state": "", "country": "ZA", "coord": {"lon": 22.1341, "lat": -30.938089}}, {"id": 1008261, "name": "Driefontein", "state": "", "country": "ZA", "coord": {"lon": 30.449789, "lat": -27.0177}}, {"id": 1008612, "name": "Douglas", "state": "", "country": "ZA", "coord": {"lon": 23.7743, "lat": -29.055309}}, {"id": 1008613, "name": "Douglas", "state": "", "country": "ZA", "coord": {"lon": 29.368179, "lat": -26.02817}}, {"id": 1008858, "name": "Dordrecht", "state": "", "country": "ZA", "coord": {"lon": 27.04878, "lat": -31.372}}, {"id": 1010245, "name": "Diepfontein", "state": "", "country": "ZA", "coord": {"lon": 29.51156, "lat": -26.32745}}, {"id": 1010511, "name": "Diasstrand", "state": "", "country": "ZA", "coord": {"lon": 22.10376, "lat": -34.1576}}, {"id": 1010728, "name": "De Rust", "state": "", "country": "ZA", "coord": {"lon": 22.535231, "lat": -33.490349}}, {"id": 1010962, "name": "Deneysville", "state": "", "country": "ZA", "coord": {"lon": 28.097071, "lat": -26.8908}}, {"id": 1010967, "name": "Dendron", "state": "", "country": "ZA", "coord": {"lon": 29.323709, "lat": -23.36669}}, {"id": 1011031, "name": "Delmas", "state": "", "country": "ZA", "coord": {"lon": 28.68322, "lat": -26.146601}}, {"id": 1011062, "name": "Delareyville", "state": "", "country": "ZA", "coord": {"lon": 25.45907, "lat": -26.68638}}, {"id": 1011632, "name": "De Aar", "state": "", "country": "ZA", "coord": {"lon": 24.0123, "lat": -30.64966}}, {"id": 1011858, "name": "Danville", "state": "", "country": "ZA", "coord": {"lon": 28.12747, "lat": -25.740471}}, {"id": 1011880, "name": "Da Nova", "state": "", "country": "ZA", "coord": {"lon": 22.13343, "lat": -34.184479}}, {"id": 1011918, "name": "Danielskuil", "state": "", "country": "ZA", "coord": {"lon": 23.539511, "lat": -28.18873}}, {"id": 1011951, "name": "Danabaai", "state": "", "country": "ZA", "coord": {"lon": 22.03891, "lat": -34.19891}}, {"id": 1012080, "name": "Dalton", "state": "", "country": "ZA", "coord": {"lon": 30.631189, "lat": -29.340931}}, {"id": 1012358, "name": "Curry\u2019s Post", "state": "", "country": "ZA", "coord": {"lon": 30.14007, "lat": -29.360001}}, {"id": 1012413, "name": "Cullinan", "state": "", "country": "ZA", "coord": {"lon": 28.52364, "lat": -25.670879}}, {"id": 1012528, "name": "Creighton", "state": "", "country": "ZA", "coord": {"lon": 29.83955, "lat": -30.027201}}, {"id": 1012600, "name": "Cradock", "state": "", "country": "ZA", "coord": {"lon": 25.619181, "lat": -32.164219}}, {"id": 1012724, "name": "Cornelia", "state": "", "country": "ZA", "coord": {"lon": 28.852261, "lat": -27.23226}}, {"id": 1013076, "name": "Colesberg", "state": "", "country": "ZA", "coord": {"lon": 25.097179, "lat": -30.71999}}, {"id": 1013081, "name": "Colenso", "state": "", "country": "ZA", "coord": {"lon": 29.825821, "lat": -28.739321}}, {"id": 1013266, "name": "Clocolan", "state": "", "country": "ZA", "coord": {"lon": 27.565559, "lat": -28.91367}}, {"id": 1013311, "name": "Clifford", "state": "", "country": "ZA", "coord": {"lon": 27.44853, "lat": -31.08148}}, {"id": 1013337, "name": "Clermont", "state": "", "country": "ZA", "coord": {"lon": 30.897881, "lat": -29.793119}}, {"id": 1013397, "name": "Clarens", "state": "", "country": "ZA", "coord": {"lon": 28.419849, "lat": -28.5154}}, {"id": 1013550, "name": "Christiana", "state": "", "country": "ZA", "coord": {"lon": 25.16111, "lat": -27.914021}}, {"id": 1013675, "name": "Chatsworth", "state": "", "country": "ZA", "coord": {"lon": 30.891701, "lat": -29.918659}}, {"id": 1013886, "name": "Cato Ridge", "state": "", "country": "ZA", "coord": {"lon": 30.58333, "lat": -29.73333}}, {"id": 1013888, "name": "Cato Manor", "state": "", "country": "ZA", "coord": {"lon": 30.945801, "lat": -29.860701}}, {"id": 1013911, "name": "Cathcart", "state": "", "country": "ZA", "coord": {"lon": 27.14362, "lat": -32.2985}}, {"id": 1014012, "name": "Carolina", "state": "", "country": "ZA", "coord": {"lon": 30.114889, "lat": -26.069269}}, {"id": 1014034, "name": "Carnarvon", "state": "", "country": "ZA", "coord": {"lon": 22.13303, "lat": -30.968269}}, {"id": 1014073, "name": "Carletonville", "state": "", "country": "ZA", "coord": {"lon": 27.397671, "lat": -26.360941}}, {"id": 1014202, "name": "Camerondale", "state": "", "country": "ZA", "coord": {"lon": 29.5261, "lat": -31.593019}}, {"id": 1014257, "name": "Calitzdorp", "state": "", "country": "ZA", "coord": {"lon": 21.68862, "lat": -33.532318}}, {"id": 1014489, "name": "Butterworth", "state": "", "country": "ZA", "coord": {"lon": 28.149811, "lat": -32.33083}}, {"id": 1014653, "name": "Burgersdorp", "state": "", "country": "ZA", "coord": {"lon": 26.328621, "lat": -30.99766}}, {"id": 1014884, "name": "Bulembu", "state": "", "country": "ZA", "coord": {"lon": 27.252859, "lat": -32.884361}}, {"id": 1015420, "name": "Brown Stones", "state": "", "country": "ZA", "coord": {"lon": 29.98381, "lat": -29.19655}}, {"id": 1015504, "name": "Bronkhorstspruit", "state": "", "country": "ZA", "coord": {"lon": 28.742479, "lat": -25.81015}}, {"id": 1015612, "name": "Britstown", "state": "", "country": "ZA", "coord": {"lon": 23.50391, "lat": -30.58746}}, {"id": 1015621, "name": "Brits", "state": "", "country": "ZA", "coord": {"lon": 27.78022, "lat": -25.634729}}, {"id": 1015633, "name": "Brink\u2019s Vlakfontein", "state": "", "country": "ZA", "coord": {"lon": 27.799999, "lat": -26.183331}}, {"id": 1015657, "name": "Brighton Beach", "state": "", "country": "ZA", "coord": {"lon": 31.0009, "lat": -29.939569}}, {"id": 1015694, "name": "Breyten", "state": "", "country": "ZA", "coord": {"lon": 29.986959, "lat": -26.30176}}, {"id": 1015714, "name": "Brentwood Park", "state": "", "country": "ZA", "coord": {"lon": 28.29258, "lat": -26.13526}}, {"id": 1015776, "name": "Bredasdorp", "state": "", "country": "ZA", "coord": {"lon": 20.04031, "lat": -34.53215}}, {"id": 1015969, "name": "Brandfort", "state": "", "country": "ZA", "coord": {"lon": 26.459681, "lat": -28.700081}}, {"id": 1016181, "name": "Brakpan", "state": "", "country": "ZA", "coord": {"lon": 28.369381, "lat": -26.236561}}, {"id": 1016666, "name": "Botswana", "state": "", "country": "ZA", "coord": {"lon": 30.533331, "lat": -24.33333}}, {"id": 1016670, "name": "Botshabelo", "state": "", "country": "ZA", "coord": {"lon": 26.7052, "lat": -29.270161}}, {"id": 1016698, "name": "Bothaville", "state": "", "country": "ZA", "coord": {"lon": 26.61701, "lat": -27.3887}}, {"id": 1017115, "name": "Boschrand", "state": "", "country": "ZA", "coord": {"lon": 30.956949, "lat": -25.41736}}, {"id": 1017354, "name": "Bosbokrand", "state": "", "country": "ZA", "coord": {"lon": 31.067181, "lat": -24.835991}}, {"id": 1017447, "name": "Bophelong", "state": "", "country": "ZA", "coord": {"lon": 27.79747, "lat": -26.69385}}, {"id": 1017780, "name": "Boksburg", "state": "", "country": "ZA", "coord": {"lon": 28.259581, "lat": -26.211969}}, {"id": 1018673, "name": "Bloemhof", "state": "", "country": "ZA", "coord": {"lon": 25.60697, "lat": -27.64686}}, {"id": 1018725, "name": "Bloemfontein", "state": "", "country": "ZA", "coord": {"lon": 26.214001, "lat": -29.121059}}, {"id": 1019031, "name": "Blanco", "state": "", "country": "ZA", "coord": {"lon": 22.41153, "lat": -33.946419}}, {"id": 1019330, "name": "Bhisho", "state": "", "country": "ZA", "coord": {"lon": 27.442181, "lat": -32.84721}}, {"id": 1019704, "name": "Bethlehem", "state": "", "country": "ZA", "coord": {"lon": 28.30707, "lat": -28.23078}}, {"id": 1019760, "name": "Bethal", "state": "", "country": "ZA", "coord": {"lon": 29.46553, "lat": -26.457939}}, {"id": 1019933, "name": "Bergville", "state": "", "country": "ZA", "coord": {"lon": 29.35187, "lat": -28.73122}}, {"id": 1020066, "name": "Berea", "state": "", "country": "ZA", "coord": {"lon": 30.99337, "lat": -29.851851}}, {"id": 1020098, "name": "Benoni", "state": "", "country": "ZA", "coord": {"lon": 28.32078, "lat": -26.18848}}, {"id": 1020310, "name": "Bellair", "state": "", "country": "ZA", "coord": {"lon": 30.950621, "lat": -29.891951}}, {"id": 1020340, "name": "Belfast", "state": "", "country": "ZA", "coord": {"lon": 30.03504, "lat": -25.689911}}, {"id": 1020604, "name": "Bedelia West", "state": "", "country": "ZA", "coord": {"lon": 26.683331, "lat": -27.966669}}, {"id": 1020605, "name": "Bedelia", "state": "", "country": "ZA", "coord": {"lon": 26.71406, "lat": -27.981199}}, {"id": 1020641, "name": "Beaufort West", "state": "", "country": "ZA", "coord": {"lon": 22.582951, "lat": -32.356709}}, {"id": 1021040, "name": "Barkly West", "state": "", "country": "ZA", "coord": {"lon": 24.521509, "lat": -28.53537}}, {"id": 1021086, "name": "Barberton", "state": "", "country": "ZA", "coord": {"lon": 31.05319, "lat": -25.78842}}, {"id": 1021360, "name": "Ballitoville", "state": "", "country": "ZA", "coord": {"lon": 31.21439, "lat": -29.538971}}, {"id": 1021396, "name": "Balfour", "state": "", "country": "ZA", "coord": {"lon": 28.59016, "lat": -26.663309}}, {"id": 1022108, "name": "Aston Bay", "state": "", "country": "ZA", "coord": {"lon": 24.905689, "lat": -34.079971}}, {"id": 1022145, "name": "Ashton", "state": "", "country": "ZA", "coord": {"lon": 20.055941, "lat": -33.83136}}, {"id": 1022391, "name": "Arbor Park", "state": "", "country": "ZA", "coord": {"lon": 29.950899, "lat": -27.777161}}, {"id": 1022393, "name": "Arboretum", "state": "", "country": "ZA", "coord": {"lon": 32.061741, "lat": -28.756849}}, {"id": 1022953, "name": "Amanzimtoti", "state": "", "country": "ZA", "coord": {"lon": 30.885269, "lat": -30.052191}}, {"id": 1023061, "name": "Alton", "state": "", "country": "ZA", "coord": {"lon": 32.00679, "lat": -28.762051}}, {"id": 1023287, "name": "Allanridge", "state": "", "country": "ZA", "coord": {"lon": 26.64382, "lat": -27.754311}}, {"id": 1023309, "name": "Aliwal North", "state": "", "country": "ZA", "coord": {"lon": 26.711411, "lat": -30.693661}}, {"id": 1023332, "name": "Alice", "state": "", "country": "ZA", "coord": {"lon": 26.8344, "lat": -32.787491}}, {"id": 1023365, "name": "Alexandria", "state": "", "country": "ZA", "coord": {"lon": 26.41268, "lat": -33.653461}}, {"id": 1023454, "name": "Albert Falls", "state": "", "country": "ZA", "coord": {"lon": 30.433439, "lat": -29.44039}}, {"id": 1023517, "name": "Agulhas", "state": "", "country": "ZA", "coord": {"lon": 20.01734, "lat": -34.8223}}, {"id": 1023656, "name": "Adelaide", "state": "", "country": "ZA", "coord": {"lon": 26.295641, "lat": -32.70747}}, {"id": 1023672, "name": "Addo", "state": "", "country": "ZA", "coord": {"lon": 25.689899, "lat": -33.548328}}, {"id": 1023698, "name": "Adams College", "state": "", "country": "ZA", "coord": {"lon": 30.81568, "lat": -30.03199}}, {"id": 1024031, "name": "Mayotte", "state": "", "country": "YT", "coord": {"lon": 45.166672, "lat": -12.83333}}, {"id": 1024312, "name": "Prov\u00edncia de Zamb\u00e9zia", "state": "", "country": "MZ", "coord": {"lon": 37, "lat": -17}}, {"id": 1024552, "name": "Xai-Xai", "state": "", "country": "MZ", "coord": {"lon": 33.644169, "lat": -25.051941}}, {"id": 1024696, "name": "Dondo", "state": "", "country": "MZ", "coord": {"lon": 34.743061, "lat": -19.60944}}, {"id": 1024701, "name": "Macia", "state": "", "country": "MZ", "coord": {"lon": 33.098888, "lat": -25.026939}}, {"id": 1026010, "name": "Tete", "state": "", "country": "MZ", "coord": {"lon": 33, "lat": -15.5}}, {"id": 1026014, "name": "Tete", "state": "", "country": "MZ", "coord": {"lon": 33.58667, "lat": -16.156389}}, {"id": 1026634, "name": "Sumane", "state": "", "country": "MZ", "coord": {"lon": 35.25972, "lat": -13.25333}}, {"id": 1026804, "name": "Sofala Province", "state": "", "country": "MZ", "coord": {"lon": 34.928612, "lat": -19.764721}}, {"id": 1027832, "name": "Rupia", "state": "", "country": "MZ", "coord": {"lon": 33.645, "lat": -16.101391}}, {"id": 1028434, "name": "Quelimane", "state": "", "country": "MZ", "coord": {"lon": 36.888329, "lat": -17.878611}}, {"id": 1028918, "name": "Pemba", "state": "", "country": "MZ", "coord": {"lon": 40.51775, "lat": -12.97395}}, {"id": 1030006, "name": "Niassa Province", "state": "", "country": "MZ", "coord": {"lon": 37, "lat": -13}}, {"id": 1033354, "name": "Nampula", "state": "", "country": "MZ", "coord": {"lon": 39, "lat": -15}}, {"id": 1033356, "name": "Nampula", "state": "", "country": "MZ", "coord": {"lon": 39.266602, "lat": -15.11646}}, {"id": 1035025, "name": "Nacala", "state": "", "country": "MZ", "coord": {"lon": 40.672779, "lat": -14.54278}}, {"id": 1036973, "name": "Republic of Mozambique", "state": "", "country": "MZ", "coord": {"lon": 35, "lat": -18.25}}, {"id": 1037125, "name": "Montepuez", "state": "", "country": "MZ", "coord": {"lon": 38.999722, "lat": -13.12556}}, {"id": 1037370, "name": "Moc\u00edmboa", "state": "", "country": "MZ", "coord": {"lon": 40.349998, "lat": -11.31667}}, {"id": 1037390, "name": "Ilha de Mo\u00e7ambique", "state": "", "country": "MZ", "coord": {"lon": 40.735828, "lat": -15.03417}}, {"id": 1037807, "name": "Miceti", "state": "", "country": "MZ", "coord": {"lon": 40.5, "lat": -12.95}}, {"id": 1039000, "name": "Meidinde", "state": "", "country": "MZ", "coord": {"lon": 34.98278, "lat": -17.227221}}, {"id": 1039536, "name": "Maxixe", "state": "", "country": "MZ", "coord": {"lon": 35.347221, "lat": -23.85972}}, {"id": 1039617, "name": "Mavalane \u201dA\u201d", "state": "", "country": "MZ", "coord": {"lon": 32.578331, "lat": -25.92444}}, {"id": 1039854, "name": "Matola", "state": "", "country": "MZ", "coord": {"lon": 32.458889, "lat": -25.962219}}, {"id": 1040039, "name": "Matararique", "state": "", "country": "MZ", "coord": {"lon": 33.461941, "lat": -19.14917}}, {"id": 1040649, "name": "Maputo Province", "state": "", "country": "MZ", "coord": {"lon": 32.333328, "lat": -25.5}}, {"id": 1040652, "name": "Maputo", "state": "", "country": "MZ", "coord": {"lon": 32.589169, "lat": -25.965281}}, {"id": 1040938, "name": "Manjacaze", "state": "", "country": "MZ", "coord": {"lon": 33.882778, "lat": -24.71167}}, {"id": 1040947, "name": "Manica Province", "state": "", "country": "MZ", "coord": {"lon": 33.5, "lat": -19}}, {"id": 1041510, "name": "Malatane", "state": "", "country": "MZ", "coord": {"lon": 39.93306, "lat": -16.19194}}, {"id": 1043298, "name": "Lu\u00edee", "state": "", "country": "MZ", "coord": {"lon": 33.176392, "lat": -15.90389}}, {"id": 1043458, "name": "Luabo", "state": "", "country": "MZ", "coord": {"lon": 36.105282, "lat": -18.39278}}, {"id": 1043893, "name": "Lichinga", "state": "", "country": "MZ", "coord": {"lon": 35.240559, "lat": -13.31278}}, {"id": 1044159, "name": "Lactic\u012bnia", "state": "", "country": "MZ", "coord": {"lon": 34.900002, "lat": -19.799999}}, {"id": 1045110, "name": "Inhambane Province", "state": "", "country": "MZ", "coord": {"lon": 34.5, "lat": -23}}, {"id": 1045114, "name": "Inhambane", "state": "", "country": "MZ", "coord": {"lon": 35.383331, "lat": -23.865}}, {"id": 1046058, "name": "Gaza Province", "state": "", "country": "MZ", "coord": {"lon": 33, "lat": -23.5}}, {"id": 1047660, "name": "Cuamba", "state": "", "country": "MZ", "coord": {"lon": 36.53722, "lat": -14.80306}}, {"id": 1047925, "name": "Comaxinda", "state": "", "country": "MZ", "coord": {"lon": 33.421108, "lat": -14.47889}}, {"id": 1048364, "name": "Chokw\u00e9", "state": "", "country": "MZ", "coord": {"lon": 32.98333, "lat": -24.533331}}, {"id": 1049261, "name": "Chimoio", "state": "", "country": "MZ", "coord": {"lon": 33.48333, "lat": -19.11639}}, {"id": 1049861, "name": "Chibuto", "state": "", "country": "MZ", "coord": {"lon": 33.53056, "lat": -24.68667}}, {"id": 1049896, "name": "Chibobar", "state": "", "country": "MZ", "coord": {"lon": 40.51667, "lat": -12.98333}}, {"id": 1051823, "name": "Cabo Delgado Province", "state": "", "country": "MZ", "coord": {"lon": 39, "lat": -12.5}}, {"id": 1052373, "name": "Beira", "state": "", "country": "MZ", "coord": {"lon": 34.83889, "lat": -19.843611}}, {"id": 1052944, "name": "Ant\u00f3nio Enes", "state": "", "country": "MZ", "coord": {"lon": 39.908611, "lat": -16.2325}}, {"id": 1053384, "name": "Toamasina", "state": "", "country": "MG", "coord": {"lon": 49.383331, "lat": -18.16667}}, {"id": 1053507, "name": "Vondrozo", "state": "", "country": "MG", "coord": {"lon": 47.283329, "lat": -22.816669}}, {"id": 1054035, "name": "Vohibinany", "state": "", "country": "MG", "coord": {"lon": 49.033329, "lat": -17.35}}, {"id": 1054116, "name": "Voalavo", "state": "", "country": "MG", "coord": {"lon": 44.466671, "lat": -16.616671}}, {"id": 1054192, "name": "Vavatenina", "state": "", "country": "MG", "coord": {"lon": 49.200001, "lat": -17.466669}}, {"id": 1054329, "name": "Vangaindrano", "state": "", "country": "MG", "coord": {"lon": 47.599998, "lat": -23.35}}, {"id": 1054463, "name": "Tsiroanomandidy", "state": "", "country": "MG", "coord": {"lon": 46.033329, "lat": -18.76667}}, {"id": 1054500, "name": "Tsiombe", "state": "", "country": "MG", "coord": {"lon": 45.48333, "lat": -25.299999}}, {"id": 1055059, "name": "Tsaratanana", "state": "", "country": "MG", "coord": {"lon": 47.650002, "lat": -16.783331}}, {"id": 1055429, "name": "Toliara", "state": "", "country": "MG", "coord": {"lon": 43.666672, "lat": -23.35}}, {"id": 1055433, "name": "T\u00f4lanaro", "state": "", "country": "MG", "coord": {"lon": 46.998741, "lat": -25.031851}}, {"id": 1056151, "name": "Soavinandriana", "state": "", "country": "MG", "coord": {"lon": 46.73333, "lat": -19.16667}}, {"id": 1056386, "name": "Soanierana Ivongo", "state": "", "country": "MG", "coord": {"lon": 49.583328, "lat": -16.91667}}, {"id": 1056899, "name": "Sambava", "state": "", "country": "MG", "coord": {"lon": 50.166672, "lat": -14.26667}}, {"id": 1056953, "name": "Salazamay", "state": "", "country": "MG", "coord": {"lon": 49.400002, "lat": -18.116671}}, {"id": 1057095, "name": "Sakaraha", "state": "", "country": "MG", "coord": {"lon": 44.533329, "lat": -22.9}}, {"id": 1058080, "name": "Nosy Varika", "state": "", "country": "MG", "coord": {"lon": 48.533329, "lat": -20.58333}}, {"id": 1058284, "name": "Namontana", "state": "", "country": "MG", "coord": {"lon": 47.51667, "lat": -18.91667}}, {"id": 1058381, "name": "Morondava", "state": "", "country": "MG", "coord": {"lon": 44.283329, "lat": -20.283331}}, {"id": 1058390, "name": "Morombe", "state": "", "country": "MG", "coord": {"lon": 43.349998, "lat": -21.73333}}, {"id": 1058532, "name": "Moramanga", "state": "", "country": "MG", "coord": {"lon": 48.200001, "lat": -18.933331}}, {"id": 1059051, "name": "Miandrivazo", "state": "", "country": "MG", "coord": {"lon": 45.466671, "lat": -19.51667}}, {"id": 1059507, "name": "Marovoay", "state": "", "country": "MG", "coord": {"lon": 46.633331, "lat": -16.1}}, {"id": 1060007, "name": "Marolambo", "state": "", "country": "MG", "coord": {"lon": 48.116669, "lat": -20.049999}}, {"id": 1060169, "name": "Marofototra", "state": "", "country": "MG", "coord": {"lon": 49.816669, "lat": -17.08333}}, {"id": 1060283, "name": "Maroantsetra", "state": "", "country": "MG", "coord": {"lon": 49.73333, "lat": -15.43333}}, {"id": 1060673, "name": "Manjakandriana", "state": "", "country": "MG", "coord": {"lon": 47.799999, "lat": -18.91667}}, {"id": 1061335, "name": "Mananjary", "state": "", "country": "MG", "coord": {"lon": 48.333328, "lat": -21.216669}}, {"id": 1061412, "name": "Mananara", "state": "", "country": "MG", "coord": {"lon": 49.76667, "lat": -16.16667}}, {"id": 1061605, "name": "Manakara", "state": "", "country": "MG", "coord": {"lon": 48.01667, "lat": -22.133329}}, {"id": 1061912, "name": "Maintirano", "state": "", "country": "MG", "coord": {"lon": 44.01667, "lat": -18.066669}}, {"id": 1062146, "name": "Mahavelona", "state": "", "country": "MG", "coord": {"lon": 49.50869, "lat": -17.68475}}, {"id": 1062347, "name": "Mahatsara", "state": "", "country": "MG", "coord": {"lon": 48.799999, "lat": -19.85}}, {"id": 1062553, "name": "Mahanoro", "state": "", "country": "MG", "coord": {"lon": 48.799999, "lat": -19.9}}, {"id": 1062663, "name": "Mahajanga", "state": "", "country": "MG", "coord": {"lon": 46.316669, "lat": -15.71667}}, {"id": 1062947, "name": "Republic of Madagascar", "state": "", "country": "MG", "coord": {"lon": 47, "lat": -20}}, {"id": 1063858, "name": "Ivato", "state": "", "country": "MG", "coord": {"lon": 47.48333, "lat": -18.799999}}, {"id": 1064234, "name": "Ikongo", "state": "", "country": "MG", "coord": {"lon": 47.433331, "lat": -21.883329}}, {"id": 1064258, "name": "Ikalamavony", "state": "", "country": "MG", "coord": {"lon": 46.583328, "lat": -21.15}}, {"id": 1064275, "name": "Ihosy", "state": "", "country": "MG", "coord": {"lon": 46.116669, "lat": -22.4}}, {"id": 1064366, "name": "Ifanadiana", "state": "", "country": "MG", "coord": {"lon": 47.633331, "lat": -21.299999}}, {"id": 1064890, "name": "Fianarantsoa", "state": "", "country": "MG", "coord": {"lon": 47.083328, "lat": -21.433331}}, {"id": 1064978, "name": "Fenoarivo Be", "state": "", "country": "MG", "coord": {"lon": 46.566669, "lat": -18.433331}}, {"id": 1064980, "name": "Fenoarivo Atsinanana", "state": "", "country": "MG", "coord": {"lon": 49.416672, "lat": -17.366671}}, {"id": 1065113, "name": "Fasenina-Ampasy", "state": "", "country": "MG", "coord": {"lon": 48.316669, "lat": -13.3}}, {"id": 1065140, "name": "Faratsiho", "state": "", "country": "MG", "coord": {"lon": 46.950001, "lat": -19.4}}, {"id": 1065158, "name": "Farafangana", "state": "", "country": "MG", "coord": {"lon": 47.833328, "lat": -22.816669}}, {"id": 1065222, "name": "Fandriana", "state": "", "country": "MG", "coord": {"lon": 47.383331, "lat": -20.23333}}, {"id": 1066310, "name": "Betioky", "state": "", "country": "MG", "coord": {"lon": 44.383331, "lat": -23.716669}}, {"id": 1066512, "name": "Betahitra", "state": "", "country": "MG", "coord": {"lon": 49.299999, "lat": -12.35}}, {"id": 1066514, "name": "Betafo", "state": "", "country": "MG", "coord": {"lon": 46.849998, "lat": -19.83333}}, {"id": 1066650, "name": "Besatra", "state": "", "country": "MG", "coord": {"lon": 45.183331, "lat": -22.283331}}, {"id": 1066702, "name": "Besalampy", "state": "", "country": "MG", "coord": {"lon": 44.48333, "lat": -16.75}}, {"id": 1066831, "name": "Beroroha", "state": "", "country": "MG", "coord": {"lon": 45.166672, "lat": -21.66667}}, {"id": 1067531, "name": "Belo sur Tsiribihina", "state": "", "country": "MG", "coord": {"lon": 44.549999, "lat": -19.700001}}, {"id": 1067565, "name": "Beloha", "state": "", "country": "MG", "coord": {"lon": 45.049999, "lat": -25.16667}}, {"id": 1068670, "name": "Bealanana", "state": "", "country": "MG", "coord": {"lon": 48.73333, "lat": -14.55}}, {"id": 1068865, "name": "Arivonimamo", "state": "", "country": "MG", "coord": {"lon": 47.183331, "lat": -19.01667}}, {"id": 1068971, "name": "Antsohihy", "state": "", "country": "MG", "coord": {"lon": 47.987511, "lat": -14.87959}}, {"id": 1069129, "name": "Antsiranana", "state": "", "country": "MG", "coord": {"lon": 49.29171, "lat": -12.2787}}, {"id": 1069166, "name": "Antsirabe", "state": "", "country": "MG", "coord": {"lon": 47.033329, "lat": -19.85}}, {"id": 1069188, "name": "Antsirabato", "state": "", "country": "MG", "coord": {"lon": 50.333328, "lat": -15}}, {"id": 1070661, "name": "Antanifotsy", "state": "", "country": "MG", "coord": {"lon": 47.316669, "lat": -19.65}}, {"id": 1070738, "name": "Antanetikely", "state": "", "country": "MG", "coord": {"lon": 47.066669, "lat": -19.816669}}, {"id": 1070940, "name": "Antananarivo", "state": "", "country": "MG", "coord": {"lon": 47.536129, "lat": -18.913679}}, {"id": 1071296, "name": "Antalaha", "state": "", "country": "MG", "coord": {"lon": 50.278759, "lat": -14.90033}}, {"id": 1071712, "name": "Ankorefo", "state": "", "country": "MG", "coord": {"lon": 49.099998, "lat": -12.43333}}, {"id": 1072849, "name": "Ankazobe", "state": "", "country": "MG", "coord": {"lon": 47.116669, "lat": -18.316669}}, {"id": 1072879, "name": "Ankazoabo", "state": "", "country": "MG", "coord": {"lon": 44.51667, "lat": -22.283331}}, {"id": 1073482, "name": "Anjozorobe", "state": "", "country": "MG", "coord": {"lon": 47.866669, "lat": -18.4}}, {"id": 1074972, "name": "Andranomena", "state": "", "country": "MG", "coord": {"lon": 43.73333, "lat": -23.383329}}, {"id": 1076105, "name": "Hell-Ville", "state": "", "country": "MG", "coord": {"lon": 48.26667, "lat": -13.4}}, {"id": 1076152, "name": "Andimaka", "state": "", "country": "MG", "coord": {"lon": 44.316669, "lat": -20.26667}}, {"id": 1076194, "name": "Andilamena", "state": "", "country": "MG", "coord": {"lon": 48.583328, "lat": -17.01667}}, {"id": 1076227, "name": "Andovoranto", "state": "", "country": "MG", "coord": {"lon": 49.099998, "lat": -18.950001}}, {"id": 1076454, "name": "Andapa", "state": "", "country": "MG", "coord": {"lon": 49.650002, "lat": -14.65}}, {"id": 1077349, "name": "Anakao", "state": "", "country": "MG", "coord": {"lon": 43.650002, "lat": -23.66667}}, {"id": 1077503, "name": "Ampopohona", "state": "", "country": "MG", "coord": {"lon": 47.116669, "lat": -21.450001}}, {"id": 1078283, "name": "Ampasibajina", "state": "", "country": "MG", "coord": {"lon": 49.98333, "lat": -13.36667}}, {"id": 1078317, "name": "Amparihy", "state": "", "country": "MG", "coord": {"lon": 46.966671, "lat": -25.01667}}, {"id": 1078446, "name": "Amparafaravola", "state": "", "country": "MG", "coord": {"lon": 48.216671, "lat": -17.58333}}, {"id": 1078553, "name": "Ampanihy", "state": "", "country": "MG", "coord": {"lon": 44.75, "lat": -24.700001}}, {"id": 1078601, "name": "Ampangalana Avaratra", "state": "", "country": "MG", "coord": {"lon": 48.366669, "lat": -21.200001}}, {"id": 1079048, "name": "Ambovombe", "state": "", "country": "MG", "coord": {"lon": 46.083328, "lat": -25.16667}}, {"id": 1079088, "name": "Ambositra", "state": "", "country": "MG", "coord": {"lon": 47.25, "lat": -20.51667}}, {"id": 1079096, "name": "Amborovy", "state": "", "country": "MG", "coord": {"lon": 46.333328, "lat": -15.66667}}, {"id": 1080968, "name": "Ambodisatirana", "state": "", "country": "MG", "coord": {"lon": 50.166672, "lat": -14.26667}}, {"id": 1081105, "name": "Ambodipont", "state": "", "country": "MG", "coord": {"lon": 49.633331, "lat": -14.63333}}, {"id": 1081522, "name": "Ambodihady", "state": "", "country": "MG", "coord": {"lon": 46.900002, "lat": -21.6}}, {"id": 1081530, "name": "Ambodifotatra", "state": "", "country": "MG", "coord": {"lon": 49.849998, "lat": -16.98333}}, {"id": 1081790, "name": "Amboasary", "state": "", "country": "MG", "coord": {"lon": 46.383331, "lat": -25.033331}}, {"id": 1082243, "name": "Ambilobe", "state": "", "country": "MG", "coord": {"lon": 49.049999, "lat": -13.2}}, {"id": 1082639, "name": "Ambatondrazaka", "state": "", "country": "MG", "coord": {"lon": 48.416672, "lat": -17.83333}}, {"id": 1082829, "name": "Ambatomanga", "state": "", "country": "MG", "coord": {"lon": 47.76667, "lat": -14.61667}}, {"id": 1082992, "name": "Ambatolampy", "state": "", "country": "MG", "coord": {"lon": 47.416672, "lat": -19.383329}}, {"id": 1083239, "name": "Ambatofinandrahana", "state": "", "country": "MG", "coord": {"lon": 46.799999, "lat": -20.549999}}, {"id": 1083257, "name": "Ambato Boeny", "state": "", "country": "MG", "coord": {"lon": 46.716671, "lat": -16.466669}}, {"id": 1083511, "name": "Ambaravarambato", "state": "", "country": "MG", "coord": {"lon": 47.51667, "lat": -18.91667}}, {"id": 1083724, "name": "Ambanja", "state": "", "country": "MG", "coord": {"lon": 48.450001, "lat": -13.68333}}, {"id": 1083968, "name": "Ambalavao", "state": "", "country": "MG", "coord": {"lon": 46.933331, "lat": -21.83333}}, {"id": 1085237, "name": "Mitamba", "state": "", "country": "MZ", "coord": {"lon": 40.36972, "lat": -11.35972}}, {"id": 1085510, "name": "Epworth", "state": "", "country": "ZW", "coord": {"lon": 31.147499, "lat": -17.889999}}, {"id": 1085511, "name": "Dunowen", "state": "", "country": "ZW", "coord": {"lon": 31.116671, "lat": -17.89139}}, {"id": 1085520, "name": "Arlington", "state": "", "country": "ZW", "coord": {"lon": 31.094721, "lat": -17.913059}}, {"id": 1085582, "name": "Aldeia Chivungo", "state": "", "country": "MZ", "coord": {"lon": 32.458061, "lat": -15.28611}}, {"id": 1085593, "name": "Province of Eastern Cape", "state": "", "country": "ZA", "coord": {"lon": 26, "lat": -32}}, {"id": 1085594, "name": "Gauteng", "state": "", "country": "ZA", "coord": {"lon": 28.25, "lat": -26.08333}}, {"id": 1085595, "name": "Mpumalanga", "state": "", "country": "ZA", "coord": {"lon": 30, "lat": -26}}, {"id": 1085596, "name": "Province of Northern Cape", "state": "", "country": "ZA", "coord": {"lon": 22, "lat": -29.5}}, {"id": 1085597, "name": "Limpopo Province", "state": "", "country": "ZA", "coord": {"lon": 29.5, "lat": -24}}, {"id": 1085598, "name": "Province of North-West", "state": "", "country": "ZA", "coord": {"lon": 26, "lat": -26.5}}, {"id": 1085599, "name": "Province of the Western Cape", "state": "", "country": "ZA", "coord": {"lon": 20, "lat": -34}}, {"id": 1086131, "name": "Aldeia Nacapa", "state": "", "country": "MZ", "coord": {"lon": 37.386669, "lat": -13.42833}}, {"id": 1088155, "name": "Mutu\u00e1li", "state": "", "country": "MZ", "coord": {"lon": 37.00444, "lat": -14.87056}}, {"id": 1089913, "name": "Benfica", "state": "", "country": "MZ", "coord": {"lon": 32.565281, "lat": -25.895281}}, {"id": 1090052, "name": "Zambezi Region", "state": "", "country": "NA", "coord": {"lon": 23.75, "lat": -17.83333}}, {"id": 1090119, "name": "Bandraboua", "state": "", "country": "YT", "coord": {"lon": 45.122311, "lat": -12.7044}}, {"id": 1090126, "name": "Mtsamboro", "state": "", "country": "YT", "coord": {"lon": 45.068939, "lat": -12.69982}}, {"id": 1090161, "name": "MTsangamouji", "state": "", "country": "YT", "coord": {"lon": 45.083611, "lat": -12.75944}}, {"id": 1090177, "name": "Tsingoni", "state": "", "country": "YT", "coord": {"lon": 45.102779, "lat": -12.78722}}, {"id": 1090225, "name": "Koungou", "state": "", "country": "YT", "coord": {"lon": 45.20417, "lat": -12.73361}}, {"id": 1090311, "name": "Ouangani", "state": "", "country": "YT", "coord": {"lon": 45.136108, "lat": -12.84639}}, {"id": 1090322, "name": "Chiconi", "state": "", "country": "YT", "coord": {"lon": 45.110561, "lat": -12.83333}}, {"id": 1090340, "name": "Sada", "state": "", "country": "YT", "coord": {"lon": 45.102051, "lat": -12.85055}}, {"id": 1090397, "name": "Bandrele", "state": "", "country": "YT", "coord": {"lon": 45.191391, "lat": -12.90667}}, {"id": 1090415, "name": "Chirongui", "state": "", "country": "YT", "coord": {"lon": 45.148331, "lat": -12.93194}}, {"id": 1090467, "name": "Boueni", "state": "", "country": "YT", "coord": {"lon": 45.076111, "lat": -12.9025}}, {"id": 1090476, "name": "Kani Keli", "state": "", "country": "YT", "coord": {"lon": 45.103329, "lat": -12.95361}}, {"id": 1090583, "name": "Mtakoudja", "state": "", "country": "KM", "coord": {"lon": 43.703609, "lat": -12.26111}}, {"id": 1090640, "name": "Ziroudani", "state": "", "country": "KM", "coord": {"lon": 43.7775, "lat": -12.3325}}, {"id": 1090919, "name": "Kavani", "state": "", "country": "KM", "coord": {"lon": 44.26944, "lat": -12.19194}}, {"id": 1090930, "name": "Bandajou", "state": "", "country": "KM", "coord": {"lon": 44.286942, "lat": -12.19167}}, {"id": 1090960, "name": "Chitrouni", "state": "", "country": "KM", "coord": {"lon": 44.33556, "lat": -12.18583}}, {"id": 1091076, "name": "Hajoho", "state": "", "country": "KM", "coord": {"lon": 44.488331, "lat": -12.1175}}, {"id": 1091088, "name": "Barakani", "state": "", "country": "KM", "coord": {"lon": 44.431671, "lat": -12.13556}}, {"id": 1091102, "name": "Harembo", "state": "", "country": "KM", "coord": {"lon": 44.498329, "lat": -12.14361}}, {"id": 1091117, "name": "Mirontsi", "state": "", "country": "KM", "coord": {"lon": 44.408058, "lat": -12.15667}}, {"id": 1091121, "name": "Paj\u00e9", "state": "", "country": "KM", "coord": {"lon": 44.388062, "lat": -12.16972}}, {"id": 1091159, "name": "Limbi", "state": "", "country": "KM", "coord": {"lon": 44.50528, "lat": -12.23944}}, {"id": 1091370, "name": "Lingoni", "state": "", "country": "KM", "coord": {"lon": 44.418331, "lat": -12.25583}}, {"id": 1091390, "name": "Magnassini-Nindri", "state": "", "country": "KM", "coord": {"lon": 44.415829, "lat": -12.27806}}, {"id": 1091436, "name": "Daji", "state": "", "country": "KM", "coord": {"lon": 44.488609, "lat": -12.32583}}, {"id": 1091674, "name": "Ouhozi", "state": "", "country": "KM", "coord": {"lon": 43.282219, "lat": -11.405}}, {"id": 1091711, "name": "Mandza", "state": "", "country": "KM", "coord": {"lon": 43.29528, "lat": -11.41806}}, {"id": 1091712, "name": "Douniani", "state": "", "country": "KM", "coord": {"lon": 43.288891, "lat": -11.42111}}, {"id": 1091713, "name": "Koua", "state": "", "country": "KM", "coord": {"lon": 43.27639, "lat": -11.42083}}, {"id": 1091828, "name": "Hantsindzi", "state": "", "country": "KM", "coord": {"lon": 43.402222, "lat": -11.42917}}, {"id": 1091868, "name": "Itsandz\u00e9ni", "state": "", "country": "KM", "coord": {"lon": 43.384441, "lat": -11.47278}}, {"id": 1091870, "name": "Bambadjani", "state": "", "country": "KM", "coord": {"lon": 43.37722, "lat": -11.47861}}, {"id": 1091996, "name": "Mnoungou", "state": "", "country": "KM", "coord": {"lon": 43.37389, "lat": -11.51778}}, {"id": 1092003, "name": "Mbal\u00e9ni", "state": "", "country": "KM", "coord": {"lon": 43.27417, "lat": -11.55}}, {"id": 1092041, "name": "Vanadjou", "state": "", "country": "KM", "coord": {"lon": 43.276112, "lat": -11.6075}}, {"id": 1092065, "name": "Bahani", "state": "", "country": "KM", "coord": {"lon": 43.284168, "lat": -11.63972}}, {"id": 1092157, "name": "Wela", "state": "", "country": "KM", "coord": {"lon": 43.28056, "lat": -11.65361}}, {"id": 1092169, "name": "Tsidj\u00e9", "state": "", "country": "KM", "coord": {"lon": 43.26194, "lat": -11.69806}}, {"id": 1092341, "name": "Mvouni", "state": "", "country": "KM", "coord": {"lon": 43.264721, "lat": -11.71611}}, {"id": 1092342, "name": "Dach\u00e9", "state": "", "country": "KM", "coord": {"lon": 43.251389, "lat": -11.7125}}, {"id": 1092343, "name": "Mavingouni", "state": "", "country": "KM", "coord": {"lon": 43.252499, "lat": -11.71639}}, {"id": 1092396, "name": "S\u00e9l\u00e9a", "state": "", "country": "KM", "coord": {"lon": 43.26083, "lat": -11.78444}}, {"id": 1092516, "name": "Madjeou\u00e9ni", "state": "", "country": "KM", "coord": {"lon": 43.278061, "lat": -11.82167}}, {"id": 1092529, "name": "Nioumamilima", "state": "", "country": "KM", "coord": {"lon": 43.437222, "lat": -11.85111}}, {"id": 1100188, "name": "Dami\u00e3o", "state": "", "country": "MZ", "coord": {"lon": 35.315281, "lat": -22.022779}}, {"id": 1103342, "name": "R\u00e9gulo Cassiano", "state": "", "country": "MZ", "coord": {"lon": 35.40472, "lat": -23.87306}}, {"id": 1105460, "name": "Lumpundu", "state": "", "country": "CD", "coord": {"lon": 25.512779, "lat": -10.74139}}, {"id": 1105726, "name": "Ekangala", "state": "", "country": "ZA", "coord": {"lon": 28.74918, "lat": -25.69619}}, {"id": 1105735, "name": "Sybrandskraal", "state": "", "country": "ZA", "coord": {"lon": 28.63913, "lat": -25.47109}}, {"id": 1105748, "name": "Soutpan", "state": "", "country": "ZA", "coord": {"lon": 28.10306, "lat": -25.407221}}, {"id": 1105773, "name": "Garsfontein", "state": "", "country": "ZA", "coord": {"lon": 28.299999, "lat": -25.793501}}, {"id": 1105774, "name": "Eersterus", "state": "", "country": "ZA", "coord": {"lon": 28.314951, "lat": -25.70546}}, {"id": 1105776, "name": "Midrand", "state": "", "country": "ZA", "coord": {"lon": 28.137779, "lat": -25.96361}}, {"id": 1105777, "name": "Centurion", "state": "", "country": "ZA", "coord": {"lon": 28.18577, "lat": -25.85891}}, {"id": 1105785, "name": "Denneboom", "state": "", "country": "ZA", "coord": {"lon": 28.334169, "lat": -25.71806}}, {"id": 1105840, "name": "Balaka District", "state": "", "country": "MW", "coord": {"lon": 35.059101, "lat": -15.04839}}, {"id": 1105843, "name": "Bulawayo Province", "state": "", "country": "ZW", "coord": {"lon": 28.58333, "lat": -20.15}}, {"id": 1105844, "name": "Harare Province", "state": "", "country": "ZW", "coord": {"lon": 31.033331, "lat": -17.816669}}, {"id": 1105845, "name": "Cidade de Maputo", "state": "", "country": "MZ", "coord": {"lon": 32.589169, "lat": -25.965281}}, {"id": 1105960, "name": "Umvutcha A", "state": "", "country": "ZW", "coord": {"lon": 28.58861, "lat": -20.051941}}, {"id": 1106203, "name": "Gaphatshwe", "state": "", "country": "BW", "coord": {"lon": 25.834169, "lat": -24.573891}}, {"id": 1106206, "name": "Metsemotlhaba", "state": "", "country": "BW", "coord": {"lon": 25.803061, "lat": -24.55139}}, {"id": 1106211, "name": "Kgaphamadi", "state": "", "country": "BW", "coord": {"lon": 25.9275, "lat": -24.537781}}, {"id": 1106213, "name": "Mmopone", "state": "", "country": "BW", "coord": {"lon": 25.87417, "lat": -24.56694}}, {"id": 1106215, "name": "Nkoyaphiri", "state": "", "country": "BW", "coord": {"lon": 25.83139, "lat": -24.632219}}, {"id": 1106249, "name": "Madibeng", "state": "", "country": "BW", "coord": {"lon": 25.916109, "lat": -24.646111}}, {"id": 1106398, "name": "Mbare", "state": "", "country": "ZW", "coord": {"lon": 31.03722, "lat": -17.858061}}, {"id": 1106407, "name": "Avenues", "state": "", "country": "ZW", "coord": {"lon": 31.03944, "lat": -17.81889}}, {"id": 1106542, "name": "Chitungwiza", "state": "", "country": "ZW", "coord": {"lon": 31.07555, "lat": -18.012739}}, {"id": 1106584, "name": "Laventure", "state": "", "country": "MU", "coord": {"lon": 57.67667, "lat": -20.14583}}, {"id": 1106585, "name": "Baie du Cap", "state": "", "country": "MU", "coord": {"lon": 57.37056, "lat": -20.488331}}, {"id": 1106589, "name": "Cluny", "state": "", "country": "MU", "coord": {"lon": 57.603889, "lat": -20.36694}}, {"id": 1106596, "name": "Cottage", "state": "", "country": "MU", "coord": {"lon": 57.629169, "lat": -20.059719}}, {"id": 1106614, "name": "Pointe aux Piments", "state": "", "country": "MU", "coord": {"lon": 57.513062, "lat": -20.06278}}, {"id": 1106621, "name": "Congomah", "state": "", "country": "MU", "coord": {"lon": 57.590832, "lat": -20.14889}}, {"id": 1106625, "name": "D\u2019Epinay", "state": "", "country": "MU", "coord": {"lon": 57.589169, "lat": -20.12694}}, {"id": 1106630, "name": "Amaury", "state": "", "country": "MU", "coord": {"lon": 57.659168, "lat": -20.130831}}, {"id": 1106631, "name": "Plaines des Roches", "state": "", "country": "MU", "coord": {"lon": 57.69083, "lat": -20.11167}}, {"id": 1106638, "name": "Mare La Chaux", "state": "", "country": "MU", "coord": {"lon": 57.749439, "lat": -20.198059}}, {"id": 1106642, "name": "Belle Mare", "state": "", "country": "MU", "coord": {"lon": 57.76833, "lat": -20.195}}, {"id": 1106643, "name": "Quatre Cocos", "state": "", "country": "MU", "coord": {"lon": 57.762501, "lat": -20.207781}}, {"id": 1106645, "name": "Camp Ithier", "state": "", "country": "MU", "coord": {"lon": 57.74556, "lat": -20.21583}}, {"id": 1106660, "name": "Ecroignard", "state": "", "country": "MU", "coord": {"lon": 57.736111, "lat": -20.22611}}, {"id": 1106677, "name": "Bambous Virieux", "state": "", "country": "MU", "coord": {"lon": 57.7575, "lat": -20.342779}}, {"id": 1106693, "name": "Union Park", "state": "", "country": "MU", "coord": {"lon": 57.573608, "lat": -20.386391}}, {"id": 1106721, "name": "La Flora", "state": "", "country": "MU", "coord": {"lon": 57.553612, "lat": -20.41028}}, {"id": 1106748, "name": "Ebene", "state": "", "country": "MU", "coord": {"lon": 57.491631, "lat": -20.24494}}, {"id": 1106763, "name": "Gros Cailloux", "state": "", "country": "MU", "coord": {"lon": 57.43, "lat": -20.20722}}, {"id": 1106771, "name": "Mapou", "state": "", "country": "MU", "coord": {"lon": 57.601391, "lat": -20.07583}}, {"id": 1106782, "name": "Esp\u00e9rance", "state": "", "country": "MU", "coord": {"lon": 57.587219, "lat": -20.225}}, {"id": 1106788, "name": "Dubreuil", "state": "", "country": "MU", "coord": {"lon": 57.595001, "lat": -20.297501}}, {"id": 1106803, "name": "Bain des Dames", "state": "", "country": "MU", "coord": {"lon": 57.475559, "lat": -20.15917}}, {"id": 1106806, "name": "Vall\u00e9e Pitot", "state": "", "country": "MU", "coord": {"lon": 57.513062, "lat": -20.164721}}, {"id": 1106807, "name": "Plaine Verte", "state": "", "country": "MU", "coord": {"lon": 57.507778, "lat": -20.15361}}, {"id": 1106809, "name": "Le Hochet", "state": "", "country": "MU", "coord": {"lon": 57.521111, "lat": -20.135}}, {"id": 1106811, "name": "Calebasses", "state": "", "country": "MU", "coord": {"lon": 57.55389, "lat": -20.11167}}, {"id": 1106813, "name": "Arsenal", "state": "", "country": "MU", "coord": {"lon": 57.535278, "lat": -20.10556}}, {"id": 1106815, "name": "Vall\u00e9e des Pr\u00eatres", "state": "", "country": "MU", "coord": {"lon": 57.53056, "lat": -20.166941}}, {"id": 1106819, "name": "Carreau Lalo", "state": "", "country": "MU", "coord": {"lon": 57.520279, "lat": -20.15361}}, {"id": 1106835, "name": "Thaba-Tseka", "state": "", "country": "LS", "coord": {"lon": 28.6084, "lat": -29.522039}}, {"id": 1107346, "name": "Abbas Kili", "state": "", "country": "PK", "coord": {"lon": 70.522217, "lat": 32.963329}}, {"id": 1108161, "name": "Chuhar Jamali", "state": "", "country": "PK", "coord": {"lon": 67.99234, "lat": 24.38953}}, {"id": 1109143, "name": "Kamal Halq", "state": "", "country": "PK", "coord": {"lon": 63.709721, "lat": 25.970833}}, {"id": 1109671, "name": "Karez", "state": "", "country": "PK", "coord": {"lon": 63.488888, "lat": 25.872223}}, {"id": 1110054, "name": "Balgattar", "state": "", "country": "PK", "coord": {"lon": 64.041664, "lat": 26.174999}}, {"id": 1111188, "name": "Timargara", "state": "", "country": "PK", "coord": {"lon": 71.841492, "lat": 34.826359}}, {"id": 1113217, "name": "Z\u0101bol", "state": "", "country": "IR", "coord": {"lon": 61.501202, "lat": 31.0287}}, {"id": 1114776, "name": "Tomp-e R\u012bg\u0101n", "state": "", "country": "IR", "coord": {"lon": 60.72287, "lat": 27.253941}}, {"id": 1114926, "name": "Surxondaryo Viloyati", "state": "", "country": "UZ", "coord": {"lon": 67.5, "lat": 38}}, {"id": 1114927, "name": "Samarqand Viloyati", "state": "", "country": "UZ", "coord": {"lon": 66.583328, "lat": 39.583328}}, {"id": 1114928, "name": "Qashqadaryo Province", "state": "", "country": "UZ", "coord": {"lon": 66, "lat": 38.583328}}, {"id": 1114929, "name": "Bukhara Province", "state": "", "country": "UZ", "coord": {"lon": 64, "lat": 40}}, {"id": 1116760, "name": "Don Sak", "state": "", "country": "TH", "coord": {"lon": 99.691841, "lat": 9.31676}}, {"id": 1117328, "name": "Ban Thung That", "state": "", "country": "TH", "coord": {"lon": 99.583328, "lat": 8.26667}}, {"id": 1117344, "name": "Thung Sai", "state": "", "country": "TH", "coord": {"lon": 99.832672, "lat": 16.31489}}, {"id": 1117557, "name": "Tham Phannara", "state": "", "country": "TH", "coord": {"lon": 99.395172, "lat": 8.42044}}, {"id": 1117652, "name": "Ban Talat Yai", "state": "", "country": "TH", "coord": {"lon": 98.400078, "lat": 7.88481}}, {"id": 1117656, "name": "Ban Talat Nua", "state": "", "country": "TH", "coord": {"lon": 98.385567, "lat": 7.88489}}, {"id": 1117823, "name": "Sam Roi Yot", "state": "", "country": "TH", "coord": {"lon": 99.872032, "lat": 12.27081}}, {"id": 1117971, "name": "Ban Rai Chek", "state": "", "country": "TH", "coord": {"lon": 99.895561, "lat": 14.10528}}, {"id": 1118429, "name": "Nopphitam", "state": "", "country": "TH", "coord": {"lon": 99.748779, "lat": 8.72206}}, {"id": 1118576, "name": "Ban Nong Kok", "state": "", "country": "TH", "coord": {"lon": 98.98333, "lat": 8.1}}, {"id": 1119013, "name": "Ban Mae Wan", "state": "", "country": "TH", "coord": {"lon": 99.233673, "lat": 18.962561}}, {"id": 1119287, "name": "Lam Thap", "state": "", "country": "TH", "coord": {"lon": 99.292252, "lat": 8.07228}}, {"id": 1119754, "name": "Ban Hua Suan", "state": "", "country": "TH", "coord": {"lon": 99.116669, "lat": 9.15}}, {"id": 1119767, "name": "Ban Laem So", "state": "", "country": "TH", "coord": {"lon": 99.966667, "lat": 9.416667}}, {"id": 1119933, "name": "Ban Huai I Huak", "state": "", "country": "TH", "coord": {"lon": 98.035004, "lat": 18.078609}}, {"id": 1120350, "name": "Ban Bang Pho", "state": "", "country": "TH", "coord": {"lon": 99.25, "lat": 9.16667}}, {"id": 1120440, "name": "Si Sawat", "state": "", "country": "TH", "coord": {"lon": 99.114059, "lat": 14.59922}}, {"id": 1120443, "name": "Phrao", "state": "", "country": "TH", "coord": {"lon": 99.201874, "lat": 19.36586}}, {"id": 1120449, "name": "Mae Taeng", "state": "", "country": "TH", "coord": {"lon": 98.941757, "lat": 19.117121}}, {"id": 1120453, "name": "Mae Ai", "state": "", "country": "TH", "coord": {"lon": 99.298332, "lat": 20.02883}}, {"id": 1120471, "name": "Zorkot", "state": "", "country": "AF", "coord": {"lon": 69.734169, "lat": 33.542221}}, {"id": 1120473, "name": "Wul\u00easw\u0101l\u012b Bihs\u016bd", "state": "", "country": "AF", "coord": {"lon": 67.906387, "lat": 34.34528}}, {"id": 1120483, "name": "Kuhs\u0101n", "state": "", "country": "AF", "coord": {"lon": 61.197781, "lat": 34.653889}}, {"id": 1120484, "name": "L\u0101sh", "state": "", "country": "AF", "coord": {"lon": 64.774567, "lat": 35.378201}}, {"id": 1120487, "name": "Tukz\u0101r", "state": "", "country": "AF", "coord": {"lon": 66.421318, "lat": 35.948311}}, {"id": 1120500, "name": "M\u012bray", "state": "", "country": "AF", "coord": {"lon": 68.439438, "lat": 33.323608}}, {"id": 1120501, "name": "\u0100q Kupruk", "state": "", "country": "AF", "coord": {"lon": 66.840286, "lat": 36.083519}}, {"id": 1120543, "name": "Zurmat", "state": "", "country": "AF", "coord": {"lon": 69.02774, "lat": 33.437778}}, {"id": 1120616, "name": "Zayb\u0101k", "state": "", "country": "AF", "coord": {"lon": 71.348328, "lat": 36.529442}}, {"id": 1120627, "name": "Z\u012b\u0101rat-e Sh\u0101h Maq\u015f\u016bd", "state": "", "country": "AF", "coord": {"lon": 65.473602, "lat": 31.9848}}, {"id": 1120711, "name": "Zindah J\u0101n", "state": "", "country": "AF", "coord": {"lon": 61.74675, "lat": 34.34264}}, {"id": 1120713, "name": "Zindah T\u012bz\u0332h\u0332ah", "state": "", "country": "AF", "coord": {"lon": 69.553886, "lat": 33.233059}}, {"id": 1120863, "name": "Zargh\u016bn Shahr", "state": "", "country": "AF", "coord": {"lon": 68.445732, "lat": 32.84734}}, {"id": 1120879, "name": "Za\u1e5fah Sharan", "state": "", "country": "AF", "coord": {"lon": 68.791672, "lat": 33.146671}}, {"id": 1120985, "name": "Zaranj", "state": "", "country": "AF", "coord": {"lon": 61.883331, "lat": 30.966669}}, {"id": 1121045, "name": "Zamt\u014d K\u00ealay", "state": "", "country": "AF", "coord": {"lon": 66.177078, "lat": 32.372601}}, {"id": 1121143, "name": "Wil\u0101yat-e Z\u0101bul", "state": "", "country": "AF", "coord": {"lon": 67.25, "lat": 32.25}}, {"id": 1121271, "name": "Yang\u012b Qal\u2018ah", "state": "", "country": "AF", "coord": {"lon": 69.611313, "lat": 37.465721}}, {"id": 1121418, "name": "Ya\u1e29y\u00e1 Kh\u0113l", "state": "", "country": "AF", "coord": {"lon": 68.646217, "lat": 32.93742}}, {"id": 1121789, "name": "Wak\u012bl Rustam K\u00ealay", "state": "", "country": "AF", "coord": {"lon": 65.293861, "lat": 31.448641}}, {"id": 1121855, "name": "W\u0101sh\u0113r", "state": "", "country": "AF", "coord": {"lon": 63.85553, "lat": 32.251221}}, {"id": 1121863, "name": "Wardak", "state": "", "country": "AF", "coord": {"lon": 68, "lat": 34.25}}, {"id": 1121941, "name": "\u016ar\u0101yin-e \u2018Uly\u0101", "state": "", "country": "AF", "coord": {"lon": 62.182041, "lat": 33.24662}}, {"id": 1122068, "name": "T\u014drmay", "state": "", "country": "AF", "coord": {"lon": 68.401672, "lat": 33.687222}}, {"id": 1122162, "name": "T\u014dngar", "state": "", "country": "AF", "coord": {"lon": 66.452667, "lat": 32.383301}}, {"id": 1122189, "name": "T\u016blak", "state": "", "country": "AF", "coord": {"lon": 63.72868, "lat": 33.97509}}, {"id": 1122402, "name": "T\u012bt\u0101n", "state": "", "country": "AF", "coord": {"lon": 63.863609, "lat": 33.690319}}, {"id": 1122408, "name": "T\u012br Pul", "state": "", "country": "AF", "coord": {"lon": 61.268951, "lat": 34.594311}}, {"id": 1122464, "name": "Taywarah", "state": "", "country": "AF", "coord": {"lon": 64.416672, "lat": 33.349998}}, {"id": 1122705, "name": "B\u0101z\u0101r-e Tashk\u0101n", "state": "", "country": "AF", "coord": {"lon": 70.276741, "lat": 36.88168}}, {"id": 1122747, "name": "Tarinkot", "state": "", "country": "AF", "coord": {"lon": 65.873306, "lat": 32.626751}}, {"id": 1122943, "name": "Tand\u014drak", "state": "", "country": "AF", "coord": {"lon": 67.100883, "lat": 36.432789}}, {"id": 1123004, "name": "Taloqan", "state": "", "country": "AF", "coord": {"lon": 69.534508, "lat": 36.73605}}, {"id": 1123230, "name": "Wil\u0101yat-e Takh\u0101r", "state": "", "country": "AF", "coord": {"lon": 69.75, "lat": 36.666672}}, {"id": 1123343, "name": "Tag\u0101w-B\u0101y", "state": "", "country": "AF", "coord": {"lon": 66.061638, "lat": 35.699409}}, {"id": 1123410, "name": "Tag\u0101b-e M\u0101\u2019\u012bch", "state": "", "country": "AF", "coord": {"lon": 63.271191, "lat": 34.479198}}, {"id": 1123424, "name": "Tag\u0101b", "state": "", "country": "AF", "coord": {"lon": 69.64917, "lat": 34.855011}}, {"id": 1123537, "name": "S\u016brk\u012b", "state": "", "country": "AF", "coord": {"lon": 69.140411, "lat": 33.357159}}, {"id": 1123666, "name": "Markaz-e \u1e28uk\u016bmat-e Sul\u0163\u0101n-e Bakw\u0101h", "state": "", "country": "AF", "coord": {"lon": 62.94936, "lat": 32.24139}}, {"id": 1123906, "name": "Sp\u012bn B\u014dldak", "state": "", "country": "AF", "coord": {"lon": 66.400009, "lat": 31.005751}}, {"id": 1123935, "name": "Sp\u0113rah", "state": "", "country": "AF", "coord": {"lon": 69.515282, "lat": 33.202221}}, {"id": 1123963, "name": "S\u014dzmah Qal\u2018ah", "state": "", "country": "AF", "coord": {"lon": 66.208229, "lat": 36.099159}}, {"id": 1124621, "name": "Siy\u0101hgird", "state": "", "country": "AF", "coord": {"lon": 68.855782, "lat": 35.005531}}, {"id": 1124973, "name": "Sheywah", "state": "", "country": "AF", "coord": {"lon": 70.588593, "lat": 34.57169}}, {"id": 1125155, "name": "Sh\u012bn\u1e0fan\u1e0f", "state": "", "country": "AF", "coord": {"lon": 62.1474, "lat": 33.30294}}, {"id": 1125267, "name": "Shaykh Am\u012br K\u00ealay", "state": "", "country": "AF", "coord": {"lon": 69.912827, "lat": 33.287441}}, {"id": 1125362, "name": "Q\u0101shq\u0101l", "state": "", "country": "AF", "coord": {"lon": 69.006851, "lat": 35.039749}}, {"id": 1125444, "name": "Shibirgh\u0101n", "state": "", "country": "AF", "coord": {"lon": 65.752899, "lat": 36.667568}}, {"id": 1125497, "name": "Shw\u0101k", "state": "", "country": "AF", "coord": {"lon": 69.376839, "lat": 33.423859}}, {"id": 1125543, "name": "Shar\u014dnik\u00eay", "state": "", "country": "AF", "coord": {"lon": 69.143333, "lat": 32.292782}}, {"id": 1125866, "name": "Shahr-e \u015eaf\u0101", "state": "", "country": "AF", "coord": {"lon": 66.323761, "lat": 31.803471}}, {"id": 1125890, "name": "Shahr\u0101n", "state": "", "country": "AF", "coord": {"lon": 70.739281, "lat": 36.979839}}, {"id": 1125896, "name": "Shahrak", "state": "", "country": "AF", "coord": {"lon": 64.305199, "lat": 34.10738}}, {"id": 1125962, "name": "\u2018Al\u0101qahd\u0101r\u012b Sh\u0101h J\u014dy", "state": "", "country": "AF", "coord": {"lon": 67.413147, "lat": 32.521542}}, {"id": 1126216, "name": "Wul\u00easw\u0101l\u012b Sayyid Karam", "state": "", "country": "AF", "coord": {"lon": 69.368813, "lat": 33.690559}}, {"id": 1126263, "name": "Markaz-e Sayyid\u0101b\u0101d", "state": "", "country": "AF", "coord": {"lon": 68.715279, "lat": 34.000832}}, {"id": 1126266, "name": "\u015eay\u0101d", "state": "", "country": "AF", "coord": {"lon": 65.829697, "lat": 36.135288}}, {"id": 1126710, "name": "S\u0101yagaz", "state": "", "country": "AF", "coord": {"lon": 67.033241, "lat": 32.565208}}, {"id": 1126796, "name": "Sar-e Taygh\u0101n", "state": "", "country": "AF", "coord": {"lon": 65.676323, "lat": 33.509979}}, {"id": 1126884, "name": "Sar\u014db\u012b", "state": "", "country": "AF", "coord": {"lon": 69.760048, "lat": 34.589619}}, {"id": 1126935, "name": "Sar K\u0101\u1e49\u012b", "state": "", "country": "AF", "coord": {"lon": 71.109619, "lat": 34.79023}}, {"id": 1127001, "name": "Sarfir\u0101z Kal\u0101", "state": "", "country": "AF", "coord": {"lon": 67.965172, "lat": 32.98333}}, {"id": 1127106, "name": "Sar-e Pul", "state": "", "country": "AF", "coord": {"lon": 66.166672, "lat": 35.833328}}, {"id": 1127110, "name": "Sar-e Pul", "state": "", "country": "AF", "coord": {"lon": 65.932487, "lat": 36.215439}}, {"id": 1127451, "name": "Sar Chak\u0101n", "state": "", "country": "AF", "coord": {"lon": 65.230553, "lat": 35.701778}}, {"id": 1127478, "name": "Sanowgh\u0101n", "state": "", "country": "AF", "coord": {"lon": 62.177681, "lat": 33.220242}}, {"id": 1127547, "name": "Sang\u012bn", "state": "", "country": "AF", "coord": {"lon": 64.835899, "lat": 32.07275}}, {"id": 1127604, "name": "Sang-e M\u0101shah", "state": "", "country": "AF", "coord": {"lon": 67.44046, "lat": 33.139599}}, {"id": 1127628, "name": "Sang-e Ch\u0101rak", "state": "", "country": "AF", "coord": {"lon": 66.436943, "lat": 35.84972}}, {"id": 1127664, "name": "Sang Atesh", "state": "", "country": "AF", "coord": {"lon": 63.004398, "lat": 35.248001}}, {"id": 1127667, "name": "Sangar Sar\u0101y", "state": "", "country": "AF", "coord": {"lon": 70.639374, "lat": 34.40744}}, {"id": 1127766, "name": "Samang\u0101n", "state": "", "country": "AF", "coord": {"lon": 67.666672, "lat": 36}}, {"id": 1127768, "name": "A\u012bbak", "state": "", "country": "AF", "coord": {"lon": 68.015511, "lat": 36.264679}}, {"id": 1128186, "name": "R\u016b-ye Sang", "state": "", "country": "AF", "coord": {"lon": 67.633873, "lat": 35.319988}}, {"id": 1128239, "name": "R\u016bdb\u0101r", "state": "", "country": "AF", "coord": {"lon": 62.599998, "lat": 30.15}}, {"id": 1128265, "name": "Rust\u0101q", "state": "", "country": "AF", "coord": {"lon": 69.830452, "lat": 37.126041}}, {"id": 1128310, "name": "Rab\u0101\u0163-e Sang\u012b-ye P\u0101\u2019\u012bn", "state": "", "country": "AF", "coord": {"lon": 62.139172, "lat": 34.799511}}, {"id": 1128565, "name": "R\u0101mak", "state": "", "country": "AF", "coord": {"lon": 68.626404, "lat": 33.522339}}, {"id": 1128954, "name": "Qurgh\u0101n", "state": "", "country": "AF", "coord": {"lon": 65.064903, "lat": 36.919392}}, {"id": 1129013, "name": "Quchangh\u012b", "state": "", "country": "AF", "coord": {"lon": 66.275833, "lat": 34.061668}}, {"id": 1129070, "name": "Qizil\u0101b\u0101d", "state": "", "country": "AF", "coord": {"lon": 67.19574, "lat": 36.7201}}, {"id": 1129077, "name": "Sangalak-i-Kaisar", "state": "", "country": "AF", "coord": {"lon": 64.293182, "lat": 35.687469}}, {"id": 1129154, "name": "Kaze Karez", "state": "", "country": "AF", "coord": {"lon": 65.845009, "lat": 31.537979}}, {"id": 1129516, "name": "Qarq\u012bn", "state": "", "country": "AF", "coord": {"lon": 66.043579, "lat": 37.41853}}, {"id": 1129555, "name": "Qarghah\u2019\u012b", "state": "", "country": "AF", "coord": {"lon": 70.24292, "lat": 34.55402}}, {"id": 1129636, "name": "Qarch\u012b Gak", "state": "", "country": "AF", "coord": {"lon": 66.78891, "lat": 37.039989}}, {"id": 1129648, "name": "Qar\u0101wul", "state": "", "country": "AF", "coord": {"lon": 68.780411, "lat": 37.220188}}, {"id": 1129676, "name": "Qarah B\u0101t\u016br Qishl\u0101q", "state": "", "country": "AF", "coord": {"lon": 68.65226, "lat": 36.509819}}, {"id": 1129678, "name": "Qarah B\u0101gh", "state": "", "country": "AF", "coord": {"lon": 61.77589, "lat": 34.940231}}, {"id": 1129680, "name": "Qarah B\u0101gh", "state": "", "country": "AF", "coord": {"lon": 68.104721, "lat": 33.191669}}, {"id": 1129733, "name": "Qamishl\u012b", "state": "", "country": "AF", "coord": {"lon": 66.574287, "lat": 36.428902}}, {"id": 1129844, "name": "Qal\u0101t-e Q\u0101\u1e95\u012b", "state": "", "country": "AF", "coord": {"lon": 61.41721, "lat": 34.440552}}, {"id": 1129867, "name": "Qala i Naw", "state": "", "country": "AF", "coord": {"lon": 63.12891, "lat": 34.98735}}, {"id": 1129928, "name": "Qal\u2018ah-ye K\u016bf", "state": "", "country": "AF", "coord": {"lon": 70.474716, "lat": 38.040089}}, {"id": 1129932, "name": "Qal\u2018ah-ye Kuhnah", "state": "", "country": "AF", "coord": {"lon": 63.666809, "lat": 32.61591}}, {"id": 1129953, "name": "K\u0101ns\u012b Sufl\u00e1", "state": "", "country": "AF", "coord": {"lon": 65.254913, "lat": 34.528061}}, {"id": 1130065, "name": "Qal\u2018ah-ye Shahr", "state": "", "country": "AF", "coord": {"lon": 65.567596, "lat": 35.547291}}, {"id": 1130131, "name": "Qal\u0101t", "state": "", "country": "AF", "coord": {"lon": 66.908333, "lat": 32.105751}}, {"id": 1130132, "name": "Qal\u2018ah-ye Sh\u0101h\u012b", "state": "", "country": "AF", "coord": {"lon": 70.5914, "lat": 34.649212}}, {"id": 1130233, "name": "Q\u0101dis", "state": "", "country": "AF", "coord": {"lon": 63.430031, "lat": 34.808498}}, {"id": 1130413, "name": "P\u014d\u1e6fa\u012b K\u00ealay", "state": "", "country": "AF", "coord": {"lon": 66.515694, "lat": 32.13702}}, {"id": 1130419, "name": "Pusht K\u014dh", "state": "", "country": "AF", "coord": {"lon": 62.13467, "lat": 34.10582}}, {"id": 1130469, "name": "P\u0101r\u016bn", "state": "", "country": "AF", "coord": {"lon": 70.922142, "lat": 35.4207}}, {"id": 1130490, "name": "Pul-e Khumr\u012b", "state": "", "country": "AF", "coord": {"lon": 68.715118, "lat": 35.94458}}, {"id": 1130497, "name": "Pul-e \u2018Alam", "state": "", "country": "AF", "coord": {"lon": 69.022743, "lat": 33.995289}}, {"id": 1130704, "name": "Paywand", "state": "", "country": "AF", "coord": {"lon": 68.503326, "lat": 34.227219}}, {"id": 1130981, "name": "Pasnay", "state": "", "country": "AF", "coord": {"lon": 65.764862, "lat": 35.76664}}, {"id": 1130997, "name": "P\u0101shm\u016bl", "state": "", "country": "AF", "coord": {"lon": 65.434303, "lat": 31.557199}}, {"id": 1131045, "name": "Pas\u0101band", "state": "", "country": "AF", "coord": {"lon": 64.853104, "lat": 33.68956}}, {"id": 1131054, "name": "Parw\u0101n", "state": "", "country": "AF", "coord": {"lon": 68.916672, "lat": 35}}, {"id": 1131059, "name": "Par\u016bkh", "state": "", "country": "AF", "coord": {"lon": 71.309097, "lat": 36.436069}}, {"id": 1131162, "name": "Panj\u0101b", "state": "", "country": "AF", "coord": {"lon": 67.02327, "lat": 34.387951}}, {"id": 1131173, "name": "Pan\u0101may", "state": "", "country": "AF", "coord": {"lon": 69.010277, "lat": 34.29583}}, {"id": 1131256, "name": "Wil\u0101yat-e Pakt\u012bk\u0101", "state": "", "country": "AF", "coord": {"lon": 68.75, "lat": 32.416672}}, {"id": 1131257, "name": "Wil\u0101yat-e Paktiy\u0101", "state": "", "country": "AF", "coord": {"lon": 69.333328, "lat": 33.666672}}, {"id": 1131316, "name": "Paghm\u0101n", "state": "", "country": "AF", "coord": {"lon": 68.953331, "lat": 34.587502}}, {"id": 1131389, "name": "\u014cmnah", "state": "", "country": "AF", "coord": {"lon": 68.796257, "lat": 32.900291}}, {"id": 1131406, "name": "Qaryeh-ye Owbeh", "state": "", "country": "AF", "coord": {"lon": 63.176392, "lat": 34.36972}}, {"id": 1131461, "name": "Uruzg\u0101n", "state": "", "country": "AF", "coord": {"lon": 66, "lat": 32.833328}}, {"id": 1131462, "name": "Uruzg\u0101n", "state": "", "country": "AF", "coord": {"lon": 66.63253, "lat": 32.92775}}, {"id": 1131479, "name": "Urgun", "state": "", "country": "AF", "coord": {"lon": 69.18, "lat": 32.941109}}, {"id": 1131591, "name": "N\u016bsay", "state": "", "country": "AF", "coord": {"lon": 70.805412, "lat": 38.44294}}, {"id": 1131625, "name": "N\u016brgal", "state": "", "country": "AF", "coord": {"lon": 70.764977, "lat": 34.613411}}, {"id": 1131649, "name": "Now Z\u0101d", "state": "", "country": "AF", "coord": {"lon": 64.469589, "lat": 32.403141}}, {"id": 1131821, "name": "Wil\u0101yat-e N\u012bmr\u014dz", "state": "", "country": "AF", "coord": {"lon": 62.5, "lat": 31}}, {"id": 1131833, "name": "N\u012bl\u012b", "state": "", "country": "AF", "coord": {"lon": 66.130234, "lat": 33.721779}}, {"id": 1131965, "name": "N\u0101z\u0327ir Kal\u0101", "state": "", "country": "AF", "coord": {"lon": 69.098892, "lat": 34.30444}}, {"id": 1132034, "name": "Nayak", "state": "", "country": "AF", "coord": {"lon": 66.952919, "lat": 34.734138}}, {"id": 1132046, "name": "N\u0101yak", "state": "", "country": "AF", "coord": {"lon": 66.774033, "lat": 32.5723}}, {"id": 1132127, "name": "Now Dah\u0101nak", "state": "", "country": "AF", "coord": {"lon": 70.005112, "lat": 35.623981}}, {"id": 1132172, "name": "\u014ckak", "state": "", "country": "AF", "coord": {"lon": 67.95652, "lat": 33.897942}}, {"id": 1132336, "name": "N\u0101\u1e5fay", "state": "", "country": "AF", "coord": {"lon": 71.522499, "lat": 35.221001}}, {"id": 1132344, "name": "Narang", "state": "", "country": "AF", "coord": {"lon": 71.047379, "lat": 34.76009}}, {"id": 1132366, "name": "Nangarh\u0101r", "state": "", "country": "AF", "coord": {"lon": 70.416672, "lat": 34.333328}}, {"id": 1132465, "name": "N\u012bk\u00eah", "state": "", "country": "AF", "coord": {"lon": 69.27179, "lat": 33.189339}}, {"id": 1132495, "name": "Nahr\u012bn", "state": "", "country": "AF", "coord": {"lon": 69.13343, "lat": 36.064899}}, {"id": 1132550, "name": "\u1e28uk\u016bmat-e N\u0101d \u2018Al\u012b", "state": "", "country": "AF", "coord": {"lon": 64.239822, "lat": 31.64286}}, {"id": 1132604, "name": "M\u016bs\u00e1 Qal\u2018ah", "state": "", "country": "AF", "coord": {"lon": 64.744858, "lat": 32.445648}}, {"id": 1132770, "name": "Bala Murghab", "state": "", "country": "AF", "coord": {"lon": 63.328861, "lat": 35.58408}}, {"id": 1132807, "name": "Muq\u00ear", "state": "", "country": "AF", "coord": {"lon": 67.769341, "lat": 32.820091}}, {"id": 1133105, "name": "Mu\u1e29ammad \u0100ghah Wulusw\u0101l\u012b", "state": "", "country": "AF", "coord": {"lon": 69.099998, "lat": 34.214722}}, {"id": 1133154, "name": "M\u012bz\u0101n \u2018Al\u0101qahd\u0101r\u012b", "state": "", "country": "AF", "coord": {"lon": 66.512711, "lat": 32.17635}}, {"id": 1133270, "name": "M\u012br Bachah K\u014d\u1e6f", "state": "", "country": "AF", "coord": {"lon": 69.118988, "lat": 34.749989}}, {"id": 1133279, "name": "M\u012br\u0101n", "state": "", "country": "AF", "coord": {"lon": 68.312523, "lat": 34.220299}}, {"id": 1133310, "name": "M\u012br\u0101b\u0101d", "state": "", "country": "AF", "coord": {"lon": 61.838299, "lat": 30.436239}}, {"id": 1133453, "name": "Maymana", "state": "", "country": "AF", "coord": {"lon": 64.783607, "lat": 35.921391}}, {"id": 1133456, "name": "Ma\u012bd\u0101n Kh\u016blah", "state": "", "country": "AF", "coord": {"lon": 69.781197, "lat": 33.649158}}, {"id": 1133544, "name": "Mingajik", "state": "", "country": "AF", "coord": {"lon": 66.128166, "lat": 37.027901}}, {"id": 1133574, "name": "Mehtar L\u0101m", "state": "", "country": "AF", "coord": {"lon": 70.209442, "lat": 34.671391}}, {"id": 1133616, "name": "Maz\u0101r-e Shar\u012bf", "state": "", "country": "AF", "coord": {"lon": 67.11087, "lat": 36.709042}}, {"id": 1133635, "name": "Maz\u0101r", "state": "", "country": "AF", "coord": {"lon": 66.803459, "lat": 35.818642}}, {"id": 1133657, "name": "M\u0101ymay", "state": "", "country": "AF", "coord": {"lon": 71.038383, "lat": 38.408562}}, {"id": 1133689, "name": "Mut\u0101 Kh\u0101n", "state": "", "country": "AF", "coord": {"lon": 68.866386, "lat": 33.241669}}, {"id": 1133749, "name": "Mashhad", "state": "", "country": "AF", "coord": {"lon": 70.096199, "lat": 36.811069}}, {"id": 1133809, "name": "Marjah", "state": "", "country": "AF", "coord": {"lon": 64.117599, "lat": 31.52112}}, {"id": 1133815, "name": "Mar\u012bd", "state": "", "country": "AF", "coord": {"lon": 71.300423, "lat": 35.157501}}, {"id": 1133835, "name": "Marghakay", "state": "", "country": "AF", "coord": {"lon": 68.178207, "lat": 32.144299}}, {"id": 1133856, "name": "Mard\u012b\u0101n", "state": "", "country": "AF", "coord": {"lon": 66.296852, "lat": 36.992859}}, {"id": 1133965, "name": "Mang\u0101n", "state": "", "country": "AF", "coord": {"lon": 63.15416, "lat": 35.482868}}, {"id": 1133987, "name": "Mand\u014dl", "state": "", "country": "AF", "coord": {"lon": 70.170174, "lat": 35.284031}}, {"id": 1134074, "name": "M\u0101m\u0101 Kh\u0113l", "state": "", "country": "AF", "coord": {"lon": 69.996803, "lat": 34.244942}}, {"id": 1134561, "name": "Wil\u0101yat-e L\u014dgar", "state": "", "country": "AF", "coord": {"lon": 69.25, "lat": 34}}, {"id": 1134720, "name": "Lashkar G\u0101h", "state": "", "country": "AF", "coord": {"lon": 64.371613, "lat": 31.593821}}, {"id": 1134724, "name": "L\u0101sh-e Juwayn", "state": "", "country": "AF", "coord": {"lon": 61.622719, "lat": 31.71382}}, {"id": 1134762, "name": "Larkird", "state": "", "country": "AF", "coord": {"lon": 66.664093, "lat": 35.489361}}, {"id": 1134887, "name": "La\u2018l", "state": "", "country": "AF", "coord": {"lon": 66.279961, "lat": 34.501411}}, {"id": 1135022, "name": "Wil\u0101yat-e Laghm\u0101n", "state": "", "country": "AF", "coord": {"lon": 70.183327, "lat": 34.783329}}, {"id": 1135158, "name": "Kushk", "state": "", "country": "AF", "coord": {"lon": 61.952209, "lat": 33.29565}}, {"id": 1135514, "name": "K\u014d\u1e6fow\u0101l", "state": "", "country": "AF", "coord": {"lon": 70.460602, "lat": 34.105061}}, {"id": 1135625, "name": "Kushk-e Kuhnah", "state": "", "country": "AF", "coord": {"lon": 62.547619, "lat": 34.871101}}, {"id": 1135656, "name": "Kuran wa Munjan", "state": "", "country": "AF", "coord": {"lon": 70.772583, "lat": 36.02866}}, {"id": 1135689, "name": "Kunduz", "state": "", "country": "AF", "coord": {"lon": 68.857002, "lat": 36.728958}}, {"id": 1135690, "name": "Kunduz", "state": "", "country": "AF", "coord": {"lon": 68.75, "lat": 36.75}}, {"id": 1135702, "name": "Wil\u0101yat-e Kuna\u1e5f", "state": "", "country": "AF", "coord": {"lon": 71.133331, "lat": 34.950001}}, {"id": 1135960, "name": "Kh\u014dsh\u012b", "state": "", "country": "AF", "coord": {"lon": 69.211937, "lat": 33.99889}}, {"id": 1135980, "name": "Kh\u014dsh\u0101mand", "state": "", "country": "AF", "coord": {"lon": 68.238007, "lat": 32.685669}}, {"id": 1136235, "name": "Khw\u0101jah Gh\u0101r", "state": "", "country": "AF", "coord": {"lon": 69.421257, "lat": 37.06588}}, {"id": 1136250, "name": "Khw\u0101jah D\u016b K\u014dh", "state": "", "country": "AF", "coord": {"lon": 65.624321, "lat": 36.828812}}, {"id": 1136354, "name": "Deh Khw\u0101h\u0101n", "state": "", "country": "AF", "coord": {"lon": 70.21875, "lat": 37.889648}}, {"id": 1136414, "name": "Khulbis\u0101t", "state": "", "country": "AF", "coord": {"lon": 70.00605, "lat": 33.494801}}, {"id": 1136442, "name": "Kh\u016bgy\u0101\u1e49\u012b", "state": "", "country": "AF", "coord": {"lon": 66.581398, "lat": 31.56267}}, {"id": 1136468, "name": "Kh\u014dst", "state": "", "country": "AF", "coord": {"lon": 70.845322, "lat": 35.208542}}, {"id": 1136469, "name": "Kh\u014dst", "state": "", "country": "AF", "coord": {"lon": 69.92041, "lat": 33.339512}}, {"id": 1136560, "name": "Khurm\u0101b", "state": "", "country": "AF", "coord": {"lon": 69.995079, "lat": 36.580929}}, {"id": 1136575, "name": "Khulm", "state": "", "country": "AF", "coord": {"lon": 67.698257, "lat": 36.697361}}, {"id": 1136604, "name": "Khud\u0101yd\u0101d Kh\u0113l", "state": "", "country": "AF", "coord": {"lon": 67.687576, "lat": 35.178349}}, {"id": 1136723, "name": "Khinj\u0101n", "state": "", "country": "AF", "coord": {"lon": 68.900932, "lat": 35.589081}}, {"id": 1136737, "name": "Khinj", "state": "", "country": "AF", "coord": {"lon": 69.734818, "lat": 35.428982}}, {"id": 1136863, "name": "Kh\u0101sh", "state": "", "country": "AF", "coord": {"lon": 62.79055, "lat": 31.52919}}, {"id": 1136938, "name": "Kharoti", "state": "", "country": "AF", "coord": {"lon": 69.032967, "lat": 33.54871}}, {"id": 1137047, "name": "Kh\u0101r\u0101 K\u014dh", "state": "", "country": "AF", "coord": {"lon": 64.116669, "lat": 31.066669}}, {"id": 1137079, "name": "Kh\u0101n Nesh\u012bn", "state": "", "country": "AF", "coord": {"lon": 63.788799, "lat": 30.5488}}, {"id": 1137121, "name": "Kh\u0101naq\u0101h", "state": "", "country": "AF", "coord": {"lon": 69.536949, "lat": 36.62587}}, {"id": 1137147, "name": "Chah\u0101r B\u0101gh", "state": "", "country": "AF", "coord": {"lon": 65.223923, "lat": 37.00108}}, {"id": 1137148, "name": "Khand\u016bd", "state": "", "country": "AF", "coord": {"lon": 72.318001, "lat": 36.951271}}, {"id": 1137160, "name": "Kh\u0101naq\u0101h", "state": "", "country": "AF", "coord": {"lon": 66.167549, "lat": 36.858898}}, {"id": 1137168, "name": "Khanabad", "state": "", "country": "AF", "coord": {"lon": 69.115562, "lat": 36.682499}}, {"id": 1137247, "name": "Khamy\u0101b", "state": "", "country": "AF", "coord": {"lon": 65.758331, "lat": 37.5275}}, {"id": 1137359, "name": "Kh\u0101kir\u0101n", "state": "", "country": "AF", "coord": {"lon": 67.073769, "lat": 32.838501}}, {"id": 1137548, "name": "Kaz\u0332h\u0332ah", "state": "", "country": "AF", "coord": {"lon": 70.182739, "lat": 34.240879}}, {"id": 1137745, "name": "Kishk-e Nakh\u016bd", "state": "", "country": "AF", "coord": {"lon": 65.055107, "lat": 31.625191}}, {"id": 1137807, "name": "Karukh", "state": "", "country": "AF", "coord": {"lon": 62.5863, "lat": 34.481079}}, {"id": 1138255, "name": "Wil\u0101yat-e K\u0101p\u012bs\u0101", "state": "", "country": "AF", "coord": {"lon": 69.583328, "lat": 35}}, {"id": 1138321, "name": "Kan\u1e0fay", "state": "", "country": "AF", "coord": {"lon": 70.778969, "lat": 34.953602}}, {"id": 1138335, "name": "Kandah\u0101r", "state": "", "country": "AF", "coord": {"lon": 65.75, "lat": 31}}, {"id": 1138336, "name": "Kandah\u0101r", "state": "", "country": "AF", "coord": {"lon": 65.710129, "lat": 31.613319}}, {"id": 1138464, "name": "Kamah Jarkanah", "state": "", "country": "AF", "coord": {"lon": 68.506393, "lat": 33.065559}}, {"id": 1138565, "name": "Kal\u0101t", "state": "", "country": "AF", "coord": {"lon": 63.3778, "lat": 34.389931}}, {"id": 1138590, "name": "Kal\u0101n Deh", "state": "", "country": "AF", "coord": {"lon": 68.402328, "lat": 33.836761}}, {"id": 1138636, "name": "Kalak\u0101n", "state": "", "country": "AF", "coord": {"lon": 69.150009, "lat": 34.78371}},