[{"id": 7286432, "name": "Maracon", "state": "", "country": "CH", "coord": {"lon": 6.87899, "lat": 46.558521}}, {"id": 7286433, "name": "Marbach (LU)", "state": "", "country": "CH", "coord": {"lon": 7.90853, "lat": 46.855461}}, {"id": 7286435, "name": "Marchissy", "state": "", "country": "CH", "coord": {"lon": 6.22609, "lat": 46.498081}}, {"id": 7286441, "name": "M\u00e4rstetten", "state": "", "country": "CH", "coord": {"lon": 9.07739, "lat": 47.588799}}, {"id": 7286442, "name": "Marthalen", "state": "", "country": "CH", "coord": {"lon": 8.63816, "lat": 47.61821}}, {"id": 7286444, "name": "Martigny", "state": "", "country": "CH", "coord": {"lon": 7.08096, "lat": 46.107231}}, {"id": 7286445, "name": "Martigny-Combe", "state": "", "country": "CH", "coord": {"lon": 7.03376, "lat": 46.07016}}, {"id": 7286447, "name": "Maschwanden", "state": "", "country": "CH", "coord": {"lon": 8.42916, "lat": 47.234791}}, {"id": 7286453, "name": "Mastrils", "state": "", "country": "CH", "coord": {"lon": 9.52912, "lat": 46.958939}}, {"id": 7286457, "name": "Matt", "state": "", "country": "CH", "coord": {"lon": 9.19766, "lat": 46.971249}}, {"id": 7286460, "name": "Matzendorf", "state": "", "country": "CH", "coord": {"lon": 7.62698, "lat": 47.30484}}, {"id": 7286461, "name": "Matzingen", "state": "", "country": "CH", "coord": {"lon": 8.92942, "lat": 47.526661}}, {"id": 7286462, "name": "Mauborget", "state": "", "country": "CH", "coord": {"lon": 6.6082, "lat": 46.866779}}, {"id": 7286463, "name": "Mauensee", "state": "", "country": "CH", "coord": {"lon": 8.06251, "lat": 47.174599}}, {"id": 7286464, "name": "Maur", "state": "", "country": "CH", "coord": {"lon": 8.65996, "lat": 47.33609}}, {"id": 7286468, "name": "Meggen", "state": "", "country": "CH", "coord": {"lon": 8.37221, "lat": 47.05143}}, {"id": 7286470, "name": "Meierskappel", "state": "", "country": "CH", "coord": {"lon": 8.44185, "lat": 47.115559}}, {"id": 7286472, "name": "Meilen", "state": "", "country": "CH", "coord": {"lon": 8.65245, "lat": 47.280449}}, {"id": 7286473, "name": "Meinier", "state": "", "country": "CH", "coord": {"lon": 6.23511, "lat": 46.243}}, {"id": 7286474, "name": "Meinisberg", "state": "", "country": "CH", "coord": {"lon": 7.35266, "lat": 47.161419}}, {"id": 7286475, "name": "Meiringen", "state": "", "country": "CH", "coord": {"lon": 8.13438, "lat": 46.718521}}, {"id": 7286476, "name": "Meisterschwanden", "state": "", "country": "CH", "coord": {"lon": 8.22751, "lat": 47.296951}}, {"id": 7286477, "name": "Melchnau", "state": "", "country": "CH", "coord": {"lon": 7.85616, "lat": 47.17712}}, {"id": 7286478, "name": "Melide", "state": "", "country": "CH", "coord": {"lon": 8.94421, "lat": 45.95676}}, {"id": 7286480, "name": "Mellingen", "state": "", "country": "CH", "coord": {"lon": 8.27415, "lat": 47.421108}}, {"id": 7286481, "name": "Mels", "state": "", "country": "CH", "coord": {"lon": 9.33743, "lat": 47.000759}}, {"id": 7286483, "name": "Mendrisio", "state": "", "country": "CH", "coord": {"lon": 8.99291, "lat": 45.886219}}, {"id": 7286486, "name": "Menzingen", "state": "", "country": "CH", "coord": {"lon": 8.60317, "lat": 47.169899}}, {"id": 7286487, "name": "Menznau", "state": "", "country": "CH", "coord": {"lon": 8.03043, "lat": 47.067379}}, {"id": 7286491, "name": "Merishausen", "state": "", "country": "CH", "coord": {"lon": 8.59973, "lat": 47.762959}}, {"id": 7286494, "name": "Messen", "state": "", "country": "CH", "coord": {"lon": 7.45031, "lat": 47.0905}}, {"id": 7286497, "name": "Mettmenstetten", "state": "", "country": "CH", "coord": {"lon": 8.46399, "lat": 47.247791}}, {"id": 7286502, "name": "Meyrin", "state": "", "country": "CH", "coord": {"lon": 6.07911, "lat": 46.23222}}, {"id": 7286503, "name": "M\u00e9zi\u00e8res (FR)", "state": "", "country": "CH", "coord": {"lon": 6.9353, "lat": 46.684441}}, {"id": 7286506, "name": "Mi\u00e8ge", "state": "", "country": "CH", "coord": {"lon": 7.54843, "lat": 46.31443}}, {"id": 7286509, "name": "Minusio", "state": "", "country": "CH", "coord": {"lon": 8.81409, "lat": 46.186691}}, {"id": 7286511, "name": "Misery-Courtion", "state": "", "country": "CH", "coord": {"lon": 7.08494, "lat": 46.8582}}, {"id": 7286514, "name": "M\u00f6hlin", "state": "", "country": "CH", "coord": {"lon": 7.85401, "lat": 47.56329}}, {"id": 7286518, "name": "Mollens (VD)", "state": "", "country": "CH", "coord": {"lon": 6.35537, "lat": 46.578701}}, {"id": 7286520, "name": "Mollis", "state": "", "country": "CH", "coord": {"lon": 9.09221, "lat": 47.095211}}, {"id": 7286523, "name": "M\u00f6nchaltorf", "state": "", "country": "CH", "coord": {"lon": 8.72325, "lat": 47.31279}}, {"id": 7286526, "name": "Montagny (FR)", "state": "", "country": "CH", "coord": {"lon": 6.98557, "lat": 46.80595}}, {"id": 7286527, "name": "Montagny-pr\u00e8s-Yverdon", "state": "", "country": "CH", "coord": {"lon": 6.60979, "lat": 46.790428}}, {"id": 7286529, "name": "Montana", "state": "", "country": "CH", "coord": {"lon": 7.48816, "lat": 46.298351}}, {"id": 7286531, "name": "Montcherand", "state": "", "country": "CH", "coord": {"lon": 6.51077, "lat": 46.734009}}, {"id": 7286534, "name": "Montfaucon", "state": "", "country": "CH", "coord": {"lon": 7.07417, "lat": 47.278851}}, {"id": 7286537, "name": "Monthey", "state": "", "country": "CH", "coord": {"lon": 6.91528, "lat": 46.240398}}, {"id": 7286542, "name": "Montreux", "state": "", "country": "CH", "coord": {"lon": 6.94084, "lat": 46.45179}}, {"id": 7286543, "name": "Montricher", "state": "", "country": "CH", "coord": {"lon": 6.35889, "lat": 46.603321}}, {"id": 7286545, "name": "Mont-sur-Rolle", "state": "", "country": "CH", "coord": {"lon": 6.33642, "lat": 46.475342}}, {"id": 7286547, "name": "Moosleerau", "state": "", "country": "CH", "coord": {"lon": 8.06613, "lat": 47.26445}}, {"id": 7286553, "name": "Morens (FR)", "state": "", "country": "CH", "coord": {"lon": 6.90416, "lat": 46.845749}}, {"id": 7286554, "name": "Morges", "state": "", "country": "CH", "coord": {"lon": 6.49321, "lat": 46.513988}}, {"id": 7286555, "name": "M\u00f6rigen", "state": "", "country": "CH", "coord": {"lon": 7.21186, "lat": 47.084229}}, {"id": 7286557, "name": "Morissen", "state": "", "country": "CH", "coord": {"lon": 9.17367, "lat": 46.73484}}, {"id": 7286560, "name": "Morschach", "state": "", "country": "CH", "coord": {"lon": 8.64802, "lat": 46.971489}}, {"id": 7286561, "name": "M\u00f6rschwil", "state": "", "country": "CH", "coord": {"lon": 9.42615, "lat": 47.467579}}, {"id": 7286562, "name": "Mosnang", "state": "", "country": "CH", "coord": {"lon": 9.00901, "lat": 47.350079}}, {"id": 7286565, "name": "Moudon", "state": "", "country": "CH", "coord": {"lon": 6.79101, "lat": 46.6721}}, {"id": 7286566, "name": "Moutier", "state": "", "country": "CH", "coord": {"lon": 7.36165, "lat": 47.27737}}, {"id": 7286569, "name": "Muhen", "state": "", "country": "CH", "coord": {"lon": 8.0627, "lat": 47.332951}}, {"id": 7286570, "name": "M\u00fchlau", "state": "", "country": "CH", "coord": {"lon": 8.38887, "lat": 47.234711}}, {"id": 7286571, "name": "M\u00fchleberg", "state": "", "country": "CH", "coord": {"lon": 7.27194, "lat": 46.946621}}, {"id": 7286575, "name": "M\u00fchlethurnen", "state": "", "country": "CH", "coord": {"lon": 7.5103, "lat": 46.81601}}, {"id": 7286578, "name": "M\u00fcllheim", "state": "", "country": "CH", "coord": {"lon": 9.00367, "lat": 47.602791}}, {"id": 7286580, "name": "M\u00fcmliswil-Ramiswil", "state": "", "country": "CH", "coord": {"lon": 7.67688, "lat": 47.349289}}, {"id": 7286581, "name": "Mumpf", "state": "", "country": "CH", "coord": {"lon": 7.91342, "lat": 47.545059}}, {"id": 7286582, "name": "M\u00fcnchenbuchsee", "state": "", "country": "CH", "coord": {"lon": 7.44859, "lat": 47.018139}}, {"id": 7286583, "name": "M\u00fcnchenstein", "state": "", "country": "CH", "coord": {"lon": 7.61739, "lat": 47.51857}}, {"id": 7286587, "name": "M\u00fcnchwilen (TG)", "state": "", "country": "CH", "coord": {"lon": 8.99239, "lat": 47.481461}}, {"id": 7286588, "name": "Mund", "state": "", "country": "CH", "coord": {"lon": 7.92291, "lat": 46.350811}}, {"id": 7286589, "name": "Mundaun", "state": "", "country": "CH", "coord": {"lon": 9.15517, "lat": 46.754822}}, {"id": 7286590, "name": "M\u00fcnsingen", "state": "", "country": "CH", "coord": {"lon": 7.56089, "lat": 46.87608}}, {"id": 7286591, "name": "M\u00fcnster-Geschinen", "state": "", "country": "CH", "coord": {"lon": 8.27504, "lat": 46.492001}}, {"id": 7286592, "name": "M\u00fcnsterlingen", "state": "", "country": "CH", "coord": {"lon": 9.23546, "lat": 47.625431}}, {"id": 7286595, "name": "Muolen", "state": "", "country": "CH", "coord": {"lon": 9.31643, "lat": 47.5168}}, {"id": 7286596, "name": "Muotathal", "state": "", "country": "CH", "coord": {"lon": 8.83849, "lat": 46.960499}}, {"id": 7286598, "name": "Murgenthal", "state": "", "country": "CH", "coord": {"lon": 7.85513, "lat": 47.257992}}, {"id": 7286599, "name": "Muri", "state": "", "country": "CH", "coord": {"lon": 8.33954, "lat": 47.271278}}, {"id": 7286601, "name": "Muri bei Bern", "state": "", "country": "CH", "coord": {"lon": 7.5001, "lat": 46.932381}}, {"id": 7286603, "name": "Murten/Morat", "state": "", "country": "CH", "coord": {"lon": 7.14296, "lat": 46.935909}}, {"id": 7286607, "name": "Muttenz", "state": "", "country": "CH", "coord": {"lon": 7.64905, "lat": 47.524811}}, {"id": 7286609, "name": "N\u00e4fels", "state": "", "country": "CH", "coord": {"lon": 9.00631, "lat": 47.082279}}, {"id": 7286610, "name": "Naters", "state": "", "country": "CH", "coord": {"lon": 7.98295, "lat": 46.407631}}, {"id": 7286614, "name": "Neckertal", "state": "", "country": "CH", "coord": {"lon": 9.16402, "lat": 47.346142}}, {"id": 7286615, "name": "Neerach", "state": "", "country": "CH", "coord": {"lon": 8.4754, "lat": 47.50988}}, {"id": 7286616, "name": "Neftenbach", "state": "", "country": "CH", "coord": {"lon": 8.66653, "lat": 47.53754}}, {"id": 7286620, "name": "Nesslau-Krummenau", "state": "", "country": "CH", "coord": {"lon": 9.2151, "lat": 47.232262}}, {"id": 7286622, "name": "Neuch\u00e2tel", "state": "", "country": "CH", "coord": {"lon": 6.9381, "lat": 47.009418}}, {"id": 7286623, "name": "Neudorf", "state": "", "country": "CH", "coord": {"lon": 8.21028, "lat": 47.175629}}, {"id": 7286625, "name": "Neuenhof", "state": "", "country": "CH", "coord": {"lon": 8.32512, "lat": 47.444092}}, {"id": 7286626, "name": "Neuenkirch", "state": "", "country": "CH", "coord": {"lon": 8.20288, "lat": 47.103439}}, {"id": 7286627, "name": "Neuhausen am Rheinfall", "state": "", "country": "CH", "coord": {"lon": 8.59938, "lat": 47.679241}}, {"id": 7286629, "name": "Neunforn", "state": "", "country": "CH", "coord": {"lon": 8.77196, "lat": 47.602322}}, {"id": 7286630, "name": "Neunkirch", "state": "", "country": "CH", "coord": {"lon": 8.51187, "lat": 47.68203}}, {"id": 7286633, "name": "Nidau", "state": "", "country": "CH", "coord": {"lon": 7.24086, "lat": 47.124352}}, {"id": 7286634, "name": "Niederbipp", "state": "", "country": "CH", "coord": {"lon": 7.7038, "lat": 47.266201}}, {"id": 7286636, "name": "Niederb\u00fcren", "state": "", "country": "CH", "coord": {"lon": 9.21506, "lat": 47.461788}}, {"id": 7286638, "name": "Niedergesteln", "state": "", "country": "CH", "coord": {"lon": 7.79232, "lat": 46.336658}}, {"id": 7286639, "name": "Niederglatt", "state": "", "country": "CH", "coord": {"lon": 8.49879, "lat": 47.493099}}, {"id": 7286641, "name": "Niederhasli", "state": "", "country": "CH", "coord": {"lon": 8.49032, "lat": 47.468819}}, {"id": 7286642, "name": "Niederhelfenschwil", "state": "", "country": "CH", "coord": {"lon": 9.16564, "lat": 47.478378}}, {"id": 7286644, "name": "Niederlenz", "state": "", "country": "CH", "coord": {"lon": 8.17028, "lat": 47.403599}}, {"id": 7286645, "name": "Niedermuhlern", "state": "", "country": "CH", "coord": {"lon": 7.46178, "lat": 46.857651}}, {"id": 7286647, "name": "Nieder\u00f6sch", "state": "", "country": "CH", "coord": {"lon": 7.61587, "lat": 47.115761}}, {"id": 7286650, "name": "Niederrohrdorf", "state": "", "country": "CH", "coord": {"lon": 8.30133, "lat": 47.420109}}, {"id": 7286652, "name": "Niederurnen", "state": "", "country": "CH", "coord": {"lon": 9.0232, "lat": 47.126869}}, {"id": 7286655, "name": "Niederwil", "state": "", "country": "CH", "coord": {"lon": 8.2923, "lat": 47.38039}}, {"id": 7286657, "name": "Nods", "state": "", "country": "CH", "coord": {"lon": 7.0833, "lat": 47.123219}}, {"id": 7286659, "name": "Nor\u00e9az", "state": "", "country": "CH", "coord": {"lon": 7.03655, "lat": 46.802212}}, {"id": 7286660, "name": "Nottwil", "state": "", "country": "CH", "coord": {"lon": 8.13549, "lat": 47.127892}}, {"id": 7286662, "name": "Novalles", "state": "", "country": "CH", "coord": {"lon": 6.59245, "lat": 46.831902}}, {"id": 7286663, "name": "Novazzano", "state": "", "country": "CH", "coord": {"lon": 8.97852, "lat": 45.842812}}, {"id": 7286667, "name": "Nunningen", "state": "", "country": "CH", "coord": {"lon": 7.61636, "lat": 47.397881}}, {"id": 7286668, "name": "N\u00fcrensdorf", "state": "", "country": "CH", "coord": {"lon": 8.64917, "lat": 47.457489}}, {"id": 7286671, "name": "Nyon", "state": "", "country": "CH", "coord": {"lon": 6.22639, "lat": 46.386341}}, {"id": 7286673, "name": "Oberbalm", "state": "", "country": "CH", "coord": {"lon": 7.40916, "lat": 46.865459}}, {"id": 7286674, "name": "Oberbipp", "state": "", "country": "CH", "coord": {"lon": 7.67754, "lat": 47.254051}}, {"id": 7286676, "name": "Oberbuchsiten", "state": "", "country": "CH", "coord": {"lon": 7.75985, "lat": 47.312191}}, {"id": 7286677, "name": "Oberb\u00fcren", "state": "", "country": "CH", "coord": {"lon": 9.1812, "lat": 47.442089}}, {"id": 7286678, "name": "Oberburg", "state": "", "country": "CH", "coord": {"lon": 7.60657, "lat": 47.02306}}, {"id": 7286680, "name": "Oberdorf (BL)", "state": "", "country": "CH", "coord": {"lon": 7.75172, "lat": 47.393291}}, {"id": 7286682, "name": "Oberdorf (SO)", "state": "", "country": "CH", "coord": {"lon": 7.49316, "lat": 47.24015}}, {"id": 7286683, "name": "Oberegg", "state": "", "country": "CH", "coord": {"lon": 9.55753, "lat": 47.416939}}, {"id": 7286684, "name": "Oberembrach", "state": "", "country": "CH", "coord": {"lon": 8.63393, "lat": 47.488289}}, {"id": 7286686, "name": "Oberengstringen", "state": "", "country": "CH", "coord": {"lon": 8.46598, "lat": 47.410229}}, {"id": 7286687, "name": "Oberentfelden", "state": "", "country": "CH", "coord": {"lon": 8.04123, "lat": 47.354221}}, {"id": 7286690, "name": "Oberglatt", "state": "", "country": "CH", "coord": {"lon": 8.52403, "lat": 47.478451}}, {"id": 7286691, "name": "Obergoms", "state": "", "country": "CH", "coord": {"lon": 8.3707, "lat": 46.533081}}, {"id": 7286692, "name": "Oberg\u00f6sgen", "state": "", "country": "CH", "coord": {"lon": 7.95412, "lat": 47.364151}}, {"id": 7286693, "name": "Oberhallau", "state": "", "country": "CH", "coord": {"lon": 8.47335, "lat": 47.713921}}, {"id": 7286694, "name": "Oberhelfenschwil", "state": "", "country": "CH", "coord": {"lon": 9.11158, "lat": 47.345249}}, {"id": 7286696, "name": "Oberhofen (AG)", "state": "", "country": "CH", "coord": {"lon": 8.12536, "lat": 47.556149}}, {"id": 7286697, "name": "Oberhofen am Thunersee", "state": "", "country": "CH", "coord": {"lon": 7.67761, "lat": 46.733742}}, {"id": 7286699, "name": "Oberiberg", "state": "", "country": "CH", "coord": {"lon": 8.78205, "lat": 47.030251}}, {"id": 7286700, "name": "Oberkirch", "state": "", "country": "CH", "coord": {"lon": 8.1022, "lat": 47.154579}}, {"id": 7286708, "name": "Oberrieden", "state": "", "country": "CH", "coord": {"lon": 8.57158, "lat": 47.272549}}, {"id": 7286709, "name": "Oberriet (SG)", "state": "", "country": "CH", "coord": {"lon": 9.5635, "lat": 47.334888}}, {"id": 7286711, "name": "Oberr\u00fcti", "state": "", "country": "CH", "coord": {"lon": 8.39862, "lat": 47.16692}}, {"id": 7286712, "name": "Obersaxen", "state": "", "country": "CH", "coord": {"lon": 9.07308, "lat": 46.719898}}, {"id": 7286713, "name": "Oberschrot", "state": "", "country": "CH", "coord": {"lon": 7.26976, "lat": 46.737}}, {"id": 7286715, "name": "Oberstocken", "state": "", "country": "CH", "coord": {"lon": 7.55025, "lat": 46.70676}}, {"id": 7286717, "name": "Oberurnen", "state": "", "country": "CH", "coord": {"lon": 9.01755, "lat": 47.111259}}, {"id": 7286718, "name": "Oberuzwil", "state": "", "country": "CH", "coord": {"lon": 9.1408, "lat": 47.421551}}, {"id": 7286719, "name": "Oberweningen", "state": "", "country": "CH", "coord": {"lon": 8.40591, "lat": 47.50885}}, {"id": 7286721, "name": "Oberwil (BL)", "state": "", "country": "CH", "coord": {"lon": 7.55075, "lat": 47.51685}}, {"id": 7286722, "name": "Oberwil im Simmental", "state": "", "country": "CH", "coord": {"lon": 7.43171, "lat": 46.65593}}, {"id": 7286724, "name": "Obfelden", "state": "", "country": "CH", "coord": {"lon": 8.42205, "lat": 47.261532}}, {"id": 7286725, "name": "Obstalden", "state": "", "country": "CH", "coord": {"lon": 9.15372, "lat": 47.07832}}, {"id": 7286726, "name": "Ochlenberg", "state": "", "country": "CH", "coord": {"lon": 7.73158, "lat": 47.145901}}, {"id": 7286727, "name": "Oekingen", "state": "", "country": "CH", "coord": {"lon": 7.61204, "lat": 47.178699}}, {"id": 7286728, "name": "Oensingen", "state": "", "country": "CH", "coord": {"lon": 7.72265, "lat": 47.287949}}, {"id": 7286731, "name": "Oetwil am See", "state": "", "country": "CH", "coord": {"lon": 8.72353, "lat": 47.273972}}, {"id": 7286732, "name": "Oetwil an der Limmat", "state": "", "country": "CH", "coord": {"lon": 8.39786, "lat": 47.430988}}, {"id": 7286733, "name": "Oftringen", "state": "", "country": "CH", "coord": {"lon": 7.93896, "lat": 47.313358}}, {"id": 7286735, "name": "Ohmstal", "state": "", "country": "CH", "coord": {"lon": 7.95418, "lat": 47.159321}}, {"id": 7286738, "name": "Olten", "state": "", "country": "CH", "coord": {"lon": 7.90012, "lat": 47.344841}}, {"id": 7286740, "name": "Onex", "state": "", "country": "CH", "coord": {"lon": 6.10053, "lat": 46.184849}}, {"id": 7286743, "name": "Opfikon", "state": "", "country": "CH", "coord": {"lon": 8.5719, "lat": 47.430161}}, {"id": 7286744, "name": "Oppens", "state": "", "country": "CH", "coord": {"lon": 6.69505, "lat": 46.71534}}, {"id": 7286746, "name": "Orbe", "state": "", "country": "CH", "coord": {"lon": 6.54309, "lat": 46.727001}}, {"id": 7286753, "name": "Orpund", "state": "", "country": "CH", "coord": {"lon": 7.30311, "lat": 47.141811}}, {"id": 7286755, "name": "Orsi\u00e8res", "state": "", "country": "CH", "coord": {"lon": 7.10159, "lat": 45.972252}}, {"id": 7286756, "name": "Orvin", "state": "", "country": "CH", "coord": {"lon": 7.19312, "lat": 47.156239}}, {"id": 7286760, "name": "Ossingen", "state": "", "country": "CH", "coord": {"lon": 8.72112, "lat": 47.612831}}, {"id": 7286761, "name": "Ostermundigen", "state": "", "country": "CH", "coord": {"lon": 7.4956, "lat": 46.955891}}, {"id": 7286762, "name": "Otelfingen", "state": "", "country": "CH", "coord": {"lon": 8.39001, "lat": 47.464401}}, {"id": 7286763, "name": "Othmarsingen", "state": "", "country": "CH", "coord": {"lon": 8.21465, "lat": 47.401569}}, {"id": 7286764, "name": "Ottenbach", "state": "", "country": "CH", "coord": {"lon": 8.40942, "lat": 47.281471}}, {"id": 7286767, "name": "Pailly", "state": "", "country": "CH", "coord": {"lon": 6.67349, "lat": 46.699741}}, {"id": 7286769, "name": "Pal\u00e9zieux", "state": "", "country": "CH", "coord": {"lon": 6.8366, "lat": 46.551979}}, {"id": 7286770, "name": "Pampigny", "state": "", "country": "CH", "coord": {"lon": 6.42206, "lat": 46.586231}}, {"id": 7286772, "name": "Parpan", "state": "", "country": "CH", "coord": {"lon": 9.57074, "lat": 46.77087}}, {"id": 7286773, "name": "Paspels", "state": "", "country": "CH", "coord": {"lon": 9.45088, "lat": 46.75127}}, {"id": 7286775, "name": "Payerne", "state": "", "country": "CH", "coord": {"lon": 6.93476, "lat": 46.819141}}, {"id": 7286776, "name": "Peist", "state": "", "country": "CH", "coord": {"lon": 9.68696, "lat": 46.834511}}, {"id": 7286778, "name": "Penthalaz", "state": "", "country": "CH", "coord": {"lon": 6.52912, "lat": 46.61277}}, {"id": 7286781, "name": "Perrefitte", "state": "", "country": "CH", "coord": {"lon": 7.31903, "lat": 47.278061}}, {"id": 7286782, "name": "Perroy", "state": "", "country": "CH", "coord": {"lon": 6.35913, "lat": 46.470181}}, {"id": 7286784, "name": "P\u00e9ry", "state": "", "country": "CH", "coord": {"lon": 7.26329, "lat": 47.198689}}, {"id": 7286785, "name": "Peseux", "state": "", "country": "CH", "coord": {"lon": 6.88949, "lat": 46.995541}}, {"id": 7286787, "name": "Pf\u00e4fers", "state": "", "country": "CH", "coord": {"lon": 9.40687, "lat": 46.933022}}, {"id": 7286788, "name": "Pf\u00e4ffikon", "state": "", "country": "CH", "coord": {"lon": 8.79372, "lat": 47.366379}}, {"id": 7286789, "name": "Pfaffnau", "state": "", "country": "CH", "coord": {"lon": 7.8851, "lat": 47.224689}}, {"id": 7286791, "name": "Pfeffingen", "state": "", "country": "CH", "coord": {"lon": 7.58029, "lat": 47.457241}}, {"id": 7286792, "name": "Pfungen", "state": "", "country": "CH", "coord": {"lon": 8.64247, "lat": 47.511181}}, {"id": 7286793, "name": "Pfyn", "state": "", "country": "CH", "coord": {"lon": 8.95268, "lat": 47.602219}}, {"id": 7286796, "name": "Pierrafortscha", "state": "", "country": "CH", "coord": {"lon": 7.1807, "lat": 46.7812}}, {"id": 7286797, "name": "Pieterlen", "state": "", "country": "CH", "coord": {"lon": 7.328, "lat": 47.173859}}, {"id": 7286798, "name": "Pigniu", "state": "", "country": "CH", "coord": {"lon": 9.10914, "lat": 46.842331}}, {"id": 7286801, "name": "Plaffeien", "state": "", "country": "CH", "coord": {"lon": 7.3156, "lat": 46.687099}}, {"id": 7286802, "name": "Plagne", "state": "", "country": "CH", "coord": {"lon": 7.27915, "lat": 47.188629}}, {"id": 7286803, "name": "Plan-les-Ouates", "state": "", "country": "CH", "coord": {"lon": 6.11908, "lat": 46.163929}}, {"id": 7286804, "name": "Plasselb", "state": "", "country": "CH", "coord": {"lon": 7.24367, "lat": 46.711151}}, {"id": 7286805, "name": "Pleigne", "state": "", "country": "CH", "coord": {"lon": 7.2845, "lat": 47.417469}}, {"id": 7286814, "name": "Pont-en-Ogoz", "state": "", "country": "CH", "coord": {"lon": 7.07683, "lat": 46.68829}}, {"id": 7286816, "name": "Ponthaux", "state": "", "country": "CH", "coord": {"lon": 7.04727, "lat": 46.816971}}, {"id": 7286818, "name": "Pontresina", "state": "", "country": "CH", "coord": {"lon": 9.95759, "lat": 46.441132}}, {"id": 7286819, "name": "Porrentruy", "state": "", "country": "CH", "coord": {"lon": 7.07098, "lat": 47.421291}}, {"id": 7286822, "name": "Port-Valais", "state": "", "country": "CH", "coord": {"lon": 6.85829, "lat": 46.36763}}, {"id": 7286824, "name": "Poschiavo", "state": "", "country": "CH", "coord": {"lon": 10.06077, "lat": 46.352558}}, {"id": 7286826, "name": "Prangins", "state": "", "country": "CH", "coord": {"lon": 6.25525, "lat": 46.400688}}, {"id": 7286828, "name": "Pratteln", "state": "", "country": "CH", "coord": {"lon": 7.69275, "lat": 47.518501}}, {"id": 7286830, "name": "Pr\u00e4z", "state": "", "country": "CH", "coord": {"lon": 9.39717, "lat": 46.747551}}, {"id": 7286835, "name": "Pr\u00e9verenges", "state": "", "country": "CH", "coord": {"lon": 6.52907, "lat": 46.516048}}, {"id": 7286840, "name": "Provence", "state": "", "country": "CH", "coord": {"lon": 6.68415, "lat": 46.901241}}, {"id": 7286841, "name": "Puidoux", "state": "", "country": "CH", "coord": {"lon": 6.78708, "lat": 46.509232}}, {"id": 7286842, "name": "Pully", "state": "", "country": "CH", "coord": {"lon": 6.66955, "lat": 46.521519}}, {"id": 7286843, "name": "Puplinge", "state": "", "country": "CH", "coord": {"lon": 6.23218, "lat": 46.210812}}, {"id": 7286844, "name": "Pura", "state": "", "country": "CH", "coord": {"lon": 8.86551, "lat": 45.983158}}, {"id": 7286845, "name": "Quarten", "state": "", "country": "CH", "coord": {"lon": 9.22094, "lat": 47.084332}}, {"id": 7286847, "name": "Radelfingen", "state": "", "country": "CH", "coord": {"lon": 7.26894, "lat": 47.001888}}, {"id": 7286848, "name": "Rafz", "state": "", "country": "CH", "coord": {"lon": 8.5435, "lat": 47.613129}}, {"id": 7286852, "name": "Ramsen", "state": "", "country": "CH", "coord": {"lon": 8.81468, "lat": 47.70483}}, {"id": 7286854, "name": "Rances", "state": "", "country": "CH", "coord": {"lon": 6.50753, "lat": 46.765869}}, {"id": 7286855, "name": "Randa", "state": "", "country": "CH", "coord": {"lon": 7.77926, "lat": 46.097069}}, {"id": 7286856, "name": "Randogne", "state": "", "country": "CH", "coord": {"lon": 7.49849, "lat": 46.328442}}, {"id": 7286859, "name": "Rapperswil-Jona", "state": "", "country": "CH", "coord": {"lon": 8.85646, "lat": 47.232712}}, {"id": 7286860, "name": "Raron", "state": "", "country": "CH", "coord": {"lon": 7.82725, "lat": 46.34304}}, {"id": 7286864, "name": "Rebstein", "state": "", "country": "CH", "coord": {"lon": 9.58973, "lat": 47.393581}}, {"id": 7286866, "name": "Rechthalten", "state": "", "country": "CH", "coord": {"lon": 7.24597, "lat": 46.763359}}, {"id": 7286868, "name": "Reconvilier", "state": "", "country": "CH", "coord": {"lon": 7.22297, "lat": 47.226662}}, {"id": 7286869, "name": "Regensberg", "state": "", "country": "CH", "coord": {"lon": 8.42878, "lat": 47.478119}}, {"id": 7286870, "name": "Regensdorf", "state": "", "country": "CH", "coord": {"lon": 8.47133, "lat": 47.439869}}, {"id": 7286871, "name": "Rehetobel", "state": "", "country": "CH", "coord": {"lon": 9.4816, "lat": 47.427841}}, {"id": 7286872, "name": "Reichenbach im Kandertal", "state": "", "country": "CH", "coord": {"lon": 7.73708, "lat": 46.575321}}, {"id": 7286873, "name": "Reichenburg", "state": "", "country": "CH", "coord": {"lon": 8.9733, "lat": 47.16098}}, {"id": 7286874, "name": "Reiden", "state": "", "country": "CH", "coord": {"lon": 7.96253, "lat": 47.232609}}, {"id": 7286875, "name": "Reigoldswil", "state": "", "country": "CH", "coord": {"lon": 7.69004, "lat": 47.395729}}, {"id": 7286876, "name": "Reinach", "state": "", "country": "CH", "coord": {"lon": 8.17929, "lat": 47.261162}}, {"id": 7286880, "name": "Rekingen", "state": "", "country": "CH", "coord": {"lon": 8.32163, "lat": 47.567032}}, {"id": 7286884, "name": "Renan (BE)", "state": "", "country": "CH", "coord": {"lon": 6.90331, "lat": 47.110641}}, {"id": 7286885, "name": "Renens (VD)", "state": "", "country": "CH", "coord": {"lon": 6.58971, "lat": 46.535278}}, {"id": 7286890, "name": "Rh\u00e4z\u00fcns", "state": "", "country": "CH", "coord": {"lon": 9.39221, "lat": 46.786179}}, {"id": 7286891, "name": "Rheineck", "state": "", "country": "CH", "coord": {"lon": 9.5834, "lat": 47.470051}}, {"id": 7286892, "name": "Rheinfelden", "state": "", "country": "CH", "coord": {"lon": 7.8045, "lat": 47.555882}}, {"id": 7286894, "name": "Richterswil", "state": "", "country": "CH", "coord": {"lon": 8.68668, "lat": 47.200771}}, {"id": 7286899, "name": "Rickenbach (ZH)", "state": "", "country": "CH", "coord": {"lon": 8.79338, "lat": 47.55122}}, {"id": 7286900, "name": "Riddes", "state": "", "country": "CH", "coord": {"lon": 7.23809, "lat": 46.143009}}, {"id": 7286901, "name": "Ried bei Kerzers", "state": "", "country": "CH", "coord": {"lon": 7.18105, "lat": 46.963348}}, {"id": 7286904, "name": "Riederalp", "state": "", "country": "CH", "coord": {"lon": 8.03052, "lat": 46.377899}}, {"id": 7286905, "name": "Riedern", "state": "", "country": "CH", "coord": {"lon": 9.03958, "lat": 47.049599}}, {"id": 7286906, "name": "Riedholz", "state": "", "country": "CH", "coord": {"lon": 7.57002, "lat": 47.231918}}, {"id": 7286907, "name": "Riehen", "state": "", "country": "CH", "coord": {"lon": 7.65117, "lat": 47.579418}}, {"id": 7286910, "name": "Rietheim", "state": "", "country": "CH", "coord": {"lon": 8.27388, "lat": 47.602859}}, {"id": 7286913, "name": "Riggisberg", "state": "", "country": "CH", "coord": {"lon": 7.46024, "lat": 46.782372}}, {"id": 7286914, "name": "Ringgenberg (BE)", "state": "", "country": "CH", "coord": {"lon": 7.89028, "lat": 46.708542}}, {"id": 7286917, "name": "Risch", "state": "", "country": "CH", "coord": {"lon": 8.441, "lat": 47.140541}}, {"id": 7286918, "name": "Riva San Vitale", "state": "", "country": "CH", "coord": {"lon": 8.96376, "lat": 45.910118}}, {"id": 7286922, "name": "Roches (BE)", "state": "", "country": "CH", "coord": {"lon": 7.38126, "lat": 47.30378}}, {"id": 7286926, "name": "Rodersdorf", "state": "", "country": "CH", "coord": {"lon": 7.44625, "lat": 47.484558}}, {"id": 7286929, "name": "Roggwil (BE)", "state": "", "country": "CH", "coord": {"lon": 7.81823, "lat": 47.2365}}, {"id": 7286930, "name": "Roggwil (TG)", "state": "", "country": "CH", "coord": {"lon": 9.3922, "lat": 47.501919}}, {"id": 7286932, "name": "Rohrbach", "state": "", "country": "CH", "coord": {"lon": 7.81074, "lat": 47.131901}}, {"id": 7286935, "name": "Rolle", "state": "", "country": "CH", "coord": {"lon": 6.33167, "lat": 46.45755}}, {"id": 7286936, "name": "Romainm\u00f4tier-Envy", "state": "", "country": "CH", "coord": {"lon": 6.46158, "lat": 46.687439}}, {"id": 7286938, "name": "Romanel-sur-Lausanne", "state": "", "country": "CH", "coord": {"lon": 6.6086, "lat": 46.560322}}, {"id": 7286939, "name": "Romanel-sur-Morges", "state": "", "country": "CH", "coord": {"lon": 6.51059, "lat": 46.556568}}, {"id": 7286940, "name": "Romanshorn", "state": "", "country": "CH", "coord": {"lon": 9.35639, "lat": 47.563541}}, {"id": 7286941, "name": "R\u00f6merswil", "state": "", "country": "CH", "coord": {"lon": 8.25393, "lat": 47.171429}}, {"id": 7286942, "name": "Romont (BE)", "state": "", "country": "CH", "coord": {"lon": 7.33076, "lat": 47.19762}}, {"id": 7286943, "name": "Romont (FR)", "state": "", "country": "CH", "coord": {"lon": 6.91814, "lat": 46.70013}}, {"id": 7286947, "name": "Root", "state": "", "country": "CH", "coord": {"lon": 8.38851, "lat": 47.111301}}, {"id": 7286948, "name": "Ropraz", "state": "", "country": "CH", "coord": {"lon": 6.75373, "lat": 46.610989}}, {"id": 7286949, "name": "Rorbas", "state": "", "country": "CH", "coord": {"lon": 8.56841, "lat": 47.534142}}, {"id": 7286950, "name": "Rorschach", "state": "", "country": "CH", "coord": {"lon": 9.49489, "lat": 47.475651}}, {"id": 7286951, "name": "R\u00f6schenz", "state": "", "country": "CH", "coord": {"lon": 7.46491, "lat": 47.432899}}, {"id": 7286952, "name": "Rossa", "state": "", "country": "CH", "coord": {"lon": 9.12668, "lat": 46.3881}}, {"id": 7286955, "name": "Rossens (FR)", "state": "", "country": "CH", "coord": {"lon": 7.09983, "lat": 46.723499}}, {"id": 7286956, "name": "Rossini\u00e8re", "state": "", "country": "CH", "coord": {"lon": 7.06189, "lat": 46.465031}}, {"id": 7286961, "name": "Rothenthurm", "state": "", "country": "CH", "coord": {"lon": 8.68277, "lat": 47.098549}}, {"id": 7286962, "name": "Rothrist", "state": "", "country": "CH", "coord": {"lon": 7.88535, "lat": 47.298351}}, {"id": 7286964, "name": "Rougemont", "state": "", "country": "CH", "coord": {"lon": 7.20939, "lat": 46.500401}}, {"id": 7286965, "name": "Roveredo (GR)", "state": "", "country": "CH", "coord": {"lon": 9.15097, "lat": 46.208069}}, {"id": 7286966, "name": "Rovio", "state": "", "country": "CH", "coord": {"lon": 9.00028, "lat": 45.93568}}, {"id": 7286967, "name": "Rovray", "state": "", "country": "CH", "coord": {"lon": 6.76668, "lat": 46.788872}}, {"id": 7286968, "name": "Rubigen", "state": "", "country": "CH", "coord": {"lon": 7.54492, "lat": 46.8997}}, {"id": 7286969, "name": "R\u00fcderswil", "state": "", "country": "CH", "coord": {"lon": 7.72268, "lat": 46.980068}}, {"id": 7286970, "name": "R\u00fcdlingen", "state": "", "country": "CH", "coord": {"lon": 8.56815, "lat": 47.586288}}, {"id": 7286971, "name": "Rudolfstetten-Friedlisberg", "state": "", "country": "CH", "coord": {"lon": 8.38472, "lat": 47.368359}}, {"id": 7286972, "name": "R\u00fcdtligen-Alchenfl\u00fch", "state": "", "country": "CH", "coord": {"lon": 7.56866, "lat": 47.084862}}, {"id": 7286973, "name": "Rue", "state": "", "country": "CH", "coord": {"lon": 6.82751, "lat": 46.607712}}, {"id": 7286974, "name": "R\u00fceggisberg", "state": "", "country": "CH", "coord": {"lon": 7.43189, "lat": 46.815418}}, {"id": 7286976, "name": "Rueun", "state": "", "country": "CH", "coord": {"lon": 9.14055, "lat": 46.795021}}, {"id": 7286981, "name": "R\u00fcmikon", "state": "", "country": "CH", "coord": {"lon": 8.38046, "lat": 47.564281}}, {"id": 7286983, "name": "R\u00fcmlang", "state": "", "country": "CH", "coord": {"lon": 8.52938, "lat": 47.447128}}, {"id": 7286986, "name": "R\u00fcnenberg", "state": "", "country": "CH", "coord": {"lon": 7.88038, "lat": 47.43195}}, {"id": 7286989, "name": "R\u00fcschegg", "state": "", "country": "CH", "coord": {"lon": 7.40597, "lat": 46.745621}}, {"id": 7286990, "name": "Ruschein", "state": "", "country": "CH", "coord": {"lon": 9.1686, "lat": 46.829048}}, {"id": 7286991, "name": "R\u00fcschlikon", "state": "", "country": "CH", "coord": {"lon": 8.54691, "lat": 47.304321}}, {"id": 7286992, "name": "Russikon", "state": "", "country": "CH", "coord": {"lon": 8.78774, "lat": 47.40115}}, {"id": 7286993, "name": "Russin", "state": "", "country": "CH", "coord": {"lon": 6.01397, "lat": 46.193871}}, {"id": 7286995, "name": "Ruswil", "state": "", "country": "CH", "coord": {"lon": 8.13588, "lat": 47.07748}}, {"id": 7286996, "name": "R\u00fcte", "state": "", "country": "CH", "coord": {"lon": 9.45589, "lat": 47.303501}}, {"id": 7286997, "name": "R\u00fcthi (SG)", "state": "", "country": "CH", "coord": {"lon": 9.53365, "lat": 47.294971}}, {"id": 7286998, "name": "R\u00fcti bei B\u00fcren", "state": "", "country": "CH", "coord": {"lon": 7.41124, "lat": 47.151321}}, {"id": 7287001, "name": "R\u00fcti (ZH)", "state": "", "country": "CH", "coord": {"lon": 8.8655, "lat": 47.258282}}, {"id": 7287004, "name": "Saanen", "state": "", "country": "CH", "coord": {"lon": 7.28843, "lat": 46.481548}}, {"id": 7287005, "name": "Saas", "state": "", "country": "CH", "coord": {"lon": 9.85234, "lat": 46.915138}}, {"id": 7287008, "name": "Saas-Fee", "state": "", "country": "CH", "coord": {"lon": 7.89946, "lat": 46.089199}}, {"id": 7287009, "name": "Saas-Grund", "state": "", "country": "CH", "coord": {"lon": 7.97257, "lat": 46.13512}}, {"id": 7287010, "name": "Sachseln", "state": "", "country": "CH", "coord": {"lon": 8.24626, "lat": 46.83408}}, {"id": 7287011, "name": "Safenwil", "state": "", "country": "CH", "coord": {"lon": 7.9869, "lat": 47.31966}}, {"id": 7287012, "name": "Safien", "state": "", "country": "CH", "coord": {"lon": 9.29434, "lat": 46.6576}}, {"id": 7287016, "name": "Saicourt", "state": "", "country": "CH", "coord": {"lon": 7.17473, "lat": 47.252258}}, {"id": 7287017, "name": "Saignel\u00e9gier", "state": "", "country": "CH", "coord": {"lon": 6.99153, "lat": 47.26302}}, {"id": 7287018, "name": "Saillon", "state": "", "country": "CH", "coord": {"lon": 7.15877, "lat": 46.177502}}, {"id": 7287020, "name": "Saint-Aubin-Sauges", "state": "", "country": "CH", "coord": {"lon": 6.75444, "lat": 46.907089}}, {"id": 7287022, "name": "Saint-Blaise", "state": "", "country": "CH", "coord": {"lon": 6.98902, "lat": 47.028839}}, {"id": 7287023, "name": "Saint-Brais", "state": "", "country": "CH", "coord": {"lon": 7.1187, "lat": 47.308769}}, {"id": 7287024, "name": "Saint-Cergue", "state": "", "country": "CH", "coord": {"lon": 6.12732, "lat": 46.451481}}, {"id": 7287026, "name": "Sainte-Croix", "state": "", "country": "CH", "coord": {"lon": 6.48894, "lat": 46.823689}}, {"id": 7287029, "name": "Saint-Imier", "state": "", "country": "CH", "coord": {"lon": 6.9894, "lat": 47.151669}}, {"id": 7287030, "name": "Saint-L\u00e9gier-La Chi\u00e9saz", "state": "", "country": "CH", "coord": {"lon": 6.89818, "lat": 46.489948}}, {"id": 7287032, "name": "Saint-Livres", "state": "", "country": "CH", "coord": {"lon": 6.38014, "lat": 46.518059}}, {"id": 7287034, "name": "Saint-Maurice", "state": "", "country": "CH", "coord": {"lon": 7.01069, "lat": 46.198421}}, {"id": 7287036, "name": "Saint-Prex", "state": "", "country": "CH", "coord": {"lon": 6.44926, "lat": 46.485439}}, {"id": 7287039, "name": "Saint-Sulpice (VD)", "state": "", "country": "CH", "coord": {"lon": 6.55994, "lat": 46.513}}, {"id": 7287041, "name": "S\u00e2les", "state": "", "country": "CH", "coord": {"lon": 6.97373, "lat": 46.638641}}, {"id": 7287042, "name": "Salgesch", "state": "", "country": "CH", "coord": {"lon": 7.57481, "lat": 46.313309}}, {"id": 7287044, "name": "Salmsach", "state": "", "country": "CH", "coord": {"lon": 9.35447, "lat": 47.549789}}, {"id": 7287045, "name": "Salouf", "state": "", "country": "CH", "coord": {"lon": 9.53296, "lat": 46.612381}}, {"id": 7287046, "name": "Salvan", "state": "", "country": "CH", "coord": {"lon": 6.95991, "lat": 46.110271}}, {"id": 7287047, "name": "Salvenach", "state": "", "country": "CH", "coord": {"lon": 7.15229, "lat": 46.91412}}, {"id": 7287048, "name": "Samedan", "state": "", "country": "CH", "coord": {"lon": 9.85747, "lat": 46.465851}}, {"id": 7287049, "name": "Samnaun", "state": "", "country": "CH", "coord": {"lon": 10.36647, "lat": 46.952221}}, {"id": 7287053, "name": "Sargans", "state": "", "country": "CH", "coord": {"lon": 9.44881, "lat": 47.055618}}, {"id": 7287054, "name": "Sarmenstorf", "state": "", "country": "CH", "coord": {"lon": 8.2527, "lat": 47.311329}}, {"id": 7287056, "name": "Sarnen", "state": "", "country": "CH", "coord": {"lon": 8.17646, "lat": 46.898449}}, {"id": 7287059, "name": "Satigny", "state": "", "country": "CH", "coord": {"lon": 6.03683, "lat": 46.214062}}, {"id": 7287060, "name": "Sattel", "state": "", "country": "CH", "coord": {"lon": 8.63183, "lat": 47.079971}}, {"id": 7287062, "name": "Saulcy", "state": "", "country": "CH", "coord": {"lon": 7.16072, "lat": 47.302582}}, {"id": 7287064, "name": "Savi\u00e8se", "state": "", "country": "CH", "coord": {"lon": 7.31146, "lat": 46.309341}}, {"id": 7287065, "name": "Savigny", "state": "", "country": "CH", "coord": {"lon": 6.72704, "lat": 46.548882}}, {"id": 7287066, "name": "Savognin", "state": "", "country": "CH", "coord": {"lon": 9.60233, "lat": 46.581409}}, {"id": 7287068, "name": "Saxeten", "state": "", "country": "CH", "coord": {"lon": 7.82745, "lat": 46.625099}}, {"id": 7287069, "name": "Saxon", "state": "", "country": "CH", "coord": {"lon": 7.18439, "lat": 46.136261}}, {"id": 7287070, "name": "Schaffhausen", "state": "", "country": "CH", "coord": {"lon": 8.62473, "lat": 47.72139}}, {"id": 7287073, "name": "S-chanf", "state": "", "country": "CH", "coord": {"lon": 9.991, "lat": 46.624939}}, {"id": 7287074, "name": "Schangnau", "state": "", "country": "CH", "coord": {"lon": 7.88341, "lat": 46.811169}}, {"id": 7287075, "name": "Sch\u00e4nis", "state": "", "country": "CH", "coord": {"lon": 9.06672, "lat": 47.172668}}, {"id": 7287076, "name": "Scharans", "state": "", "country": "CH", "coord": {"lon": 9.4825, "lat": 46.718319}}, {"id": 7287077, "name": "Schattdorf", "state": "", "country": "CH", "coord": {"lon": 8.67129, "lat": 46.849361}}, {"id": 7287079, "name": "Schelten", "state": "", "country": "CH", "coord": {"lon": 7.55071, "lat": 47.330719}}, {"id": 7287080, "name": "Schenkon", "state": "", "country": "CH", "coord": {"lon": 8.13373, "lat": 47.180988}}, {"id": 7287084, "name": "Schiers", "state": "", "country": "CH", "coord": {"lon": 9.74605, "lat": 46.992329}}, {"id": 7287085, "name": "Schinznach-Bad", "state": "", "country": "CH", "coord": {"lon": 8.16869, "lat": 47.453819}}, {"id": 7287086, "name": "Schinznach-Dorf", "state": "", "country": "CH", "coord": {"lon": 8.13894, "lat": 47.454311}}, {"id": 7287088, "name": "Schlatt-Haslen", "state": "", "country": "CH", "coord": {"lon": 9.38324, "lat": 47.362751}}, {"id": 7287090, "name": "Schlatt (ZH)", "state": "", "country": "CH", "coord": {"lon": 8.82705, "lat": 47.470669}}, {"id": 7287092, "name": "Schleitheim", "state": "", "country": "CH", "coord": {"lon": 8.49451, "lat": 47.748669}}, {"id": 7287094, "name": "Schlieren", "state": "", "country": "CH", "coord": {"lon": 8.44884, "lat": 47.394989}}, {"id": 7287097, "name": "Schluein", "state": "", "country": "CH", "coord": {"lon": 9.2224, "lat": 46.788849}}, {"id": 7287098, "name": "Schmerikon", "state": "", "country": "CH", "coord": {"lon": 8.94714, "lat": 47.225922}}, {"id": 7287103, "name": "Schneisingen", "state": "", "country": "CH", "coord": {"lon": 8.36168, "lat": 47.52494}}, {"id": 7287106, "name": "Sch\u00f6ftland", "state": "", "country": "CH", "coord": {"lon": 8.0557, "lat": 47.305351}}, {"id": 7287107, "name": "Sch\u00f6nenberg (ZH)", "state": "", "country": "CH", "coord": {"lon": 8.64004, "lat": 47.193958}}, {"id": 7287108, "name": "Sch\u00f6nenbuch", "state": "", "country": "CH", "coord": {"lon": 7.50611, "lat": 47.535191}}, {"id": 7287109, "name": "Sch\u00f6nengrund", "state": "", "country": "CH", "coord": {"lon": 9.23175, "lat": 47.320709}}, {"id": 7287110, "name": "Sch\u00f6nenwerd", "state": "", "country": "CH", "coord": {"lon": 8.00951, "lat": 47.37315}}, {"id": 7287112, "name": "Sch\u00f6nholzerswilen", "state": "", "country": "CH", "coord": {"lon": 9.13313, "lat": 47.515099}}, {"id": 7287113, "name": "Sch\u00f6tz", "state": "", "country": "CH", "coord": {"lon": 7.98725, "lat": 47.168221}}, {"id": 7287114, "name": "Sch\u00fcbelbach", "state": "", "country": "CH", "coord": {"lon": 8.93328, "lat": 47.154888}}, {"id": 7287116, "name": "Sch\u00fcpfen", "state": "", "country": "CH", "coord": {"lon": 7.37466, "lat": 47.03577}}, {"id": 7287117, "name": "Sch\u00fcpfheim", "state": "", "country": "CH", "coord": {"lon": 8.01149, "lat": 46.947071}}, {"id": 7287118, "name": "Schwaderloch", "state": "", "country": "CH", "coord": {"lon": 8.14577, "lat": 47.585838}}, {"id": 7287123, "name": "Schwarzenberg", "state": "", "country": "CH", "coord": {"lon": 8.18436, "lat": 46.995998}}, {"id": 7287125, "name": "Schwellbrunn", "state": "", "country": "CH", "coord": {"lon": 9.23472, "lat": 47.351791}}, {"id": 7287126, "name": "Schwende", "state": "", "country": "CH", "coord": {"lon": 9.39302, "lat": 47.280708}}, {"id": 7287128, "name": "Schwerzenbach", "state": "", "country": "CH", "coord": {"lon": 8.65589, "lat": 47.381821}}, {"id": 7287129, "name": "Schwyz", "state": "", "country": "CH", "coord": {"lon": 8.67464, "lat": 47.023449}}, {"id": 7287130, "name": "Scuol", "state": "", "country": "CH", "coord": {"lon": 10.32633, "lat": 46.734631}}, {"id": 7287131, "name": "Seeberg", "state": "", "country": "CH", "coord": {"lon": 7.68299, "lat": 47.142181}}, {"id": 7287132, "name": "Seedorf (BE)", "state": "", "country": "CH", "coord": {"lon": 7.31328, "lat": 47.027149}}, {"id": 7287133, "name": "Seedorf (UR)", "state": "", "country": "CH", "coord": {"lon": 8.58587, "lat": 46.879189}}, {"id": 7287134, "name": "Seegr\u00e4ben", "state": "", "country": "CH", "coord": {"lon": 8.76767, "lat": 47.341782}}, {"id": 7287136, "name": "Seelisberg", "state": "", "country": "CH", "coord": {"lon": 8.57257, "lat": 46.958}}, {"id": 7287137, "name": "Seengen", "state": "", "country": "CH", "coord": {"lon": 8.2088, "lat": 47.329262}}, {"id": 7287139, "name": "Seewis im Pr\u00e4ttigau", "state": "", "country": "CH", "coord": {"lon": 9.65988, "lat": 47.022251}}, {"id": 7287140, "name": "Seftigen", "state": "", "country": "CH", "coord": {"lon": 7.53917, "lat": 46.790371}}, {"id": 7287144, "name": "Selzach", "state": "", "country": "CH", "coord": {"lon": 7.44838, "lat": 47.217232}}, {"id": 7287145, "name": "Sembrancher", "state": "", "country": "CH", "coord": {"lon": 7.14579, "lat": 46.06937}}, {"id": 7287146, "name": "Sementina", "state": "", "country": "CH", "coord": {"lon": 8.96997, "lat": 46.189789}}, {"id": 7287148, "name": "Sempach", "state": "", "country": "CH", "coord": {"lon": 8.19905, "lat": 47.139481}}, {"id": 7287149, "name": "Semsales", "state": "", "country": "CH", "coord": {"lon": 6.95574, "lat": 46.569851}}, {"id": 7287152, "name": "Sennwald", "state": "", "country": "CH", "coord": {"lon": 9.47681, "lat": 47.243912}}, {"id": 7287153, "name": "Sent", "state": "", "country": "CH", "coord": {"lon": 10.34049, "lat": 46.825161}}, {"id": 7287154, "name": "Seon", "state": "", "country": "CH", "coord": {"lon": 8.15755, "lat": 47.34819}}, {"id": 7287158, "name": "Seuzach", "state": "", "country": "CH", "coord": {"lon": 8.72608, "lat": 47.534248}}, {"id": 7287160, "name": "Sevelen", "state": "", "country": "CH", "coord": {"lon": 9.47742, "lat": 47.121071}}, {"id": 7287162, "name": "Sevgein", "state": "", "country": "CH", "coord": {"lon": 9.2226, "lat": 46.757561}}, {"id": 7287164, "name": "Siblingen", "state": "", "country": "CH", "coord": {"lon": 8.52524, "lat": 47.721901}}, {"id": 7287165, "name": "Sierre", "state": "", "country": "CH", "coord": {"lon": 7.51572, "lat": 46.278301}}, {"id": 7287168, "name": "Signau", "state": "", "country": "CH", "coord": {"lon": 7.73881, "lat": 46.915482}}, {"id": 7287170, "name": "Sigriswil", "state": "", "country": "CH", "coord": {"lon": 7.74775, "lat": 46.735291}}, {"id": 7287171, "name": "Silenen", "state": "", "country": "CH", "coord": {"lon": 8.75168, "lat": 46.776932}}, {"id": 7287172, "name": "Sils im Domleschg", "state": "", "country": "CH", "coord": {"lon": 9.46489, "lat": 46.690769}}, {"id": 7287173, "name": "Silvaplana", "state": "", "country": "CH", "coord": {"lon": 9.78604, "lat": 46.462589}}, {"id": 7287174, "name": "Simplon", "state": "", "country": "CH", "coord": {"lon": 8.03625, "lat": 46.2029}}, {"id": 7287175, "name": "Sins", "state": "", "country": "CH", "coord": {"lon": 8.39561, "lat": 47.190651}}, {"id": 7287176, "name": "Sion", "state": "", "country": "CH", "coord": {"lon": 7.36606, "lat": 46.23045}}, {"id": 7287177, "name": "Sirnach", "state": "", "country": "CH", "coord": {"lon": 9.0021, "lat": 47.454529}}, {"id": 7287178, "name": "Siselen", "state": "", "country": "CH", "coord": {"lon": 7.19602, "lat": 47.032581}}, {"id": 7287180, "name": "Sissach", "state": "", "country": "CH", "coord": {"lon": 7.80769, "lat": 47.472198}}, {"id": 7287183, "name": "Soazza", "state": "", "country": "CH", "coord": {"lon": 9.22587, "lat": 46.35146}}, {"id": 7287186, "name": "Solothurn", "state": "", "country": "CH", "coord": {"lon": 7.53009, "lat": 47.208382}}, {"id": 7287187, "name": "Sommeri", "state": "", "country": "CH", "coord": {"lon": 9.28383, "lat": 47.571251}}, {"id": 7287188, "name": "Sonceboz-Sombeval", "state": "", "country": "CH", "coord": {"lon": 7.17846, "lat": 47.19154}}, {"id": 7287191, "name": "Sonvilier", "state": "", "country": "CH", "coord": {"lon": 6.95225, "lat": 47.142181}}, {"id": 7287194, "name": "Sorengo", "state": "", "country": "CH", "coord": {"lon": 8.9355, "lat": 45.99987}}, {"id": 7287196, "name": "Sornetan", "state": "", "country": "CH", "coord": {"lon": 7.21755, "lat": 47.27264}}, {"id": 7287202, "name": "Soyhi\u00e8res", "state": "", "country": "CH", "coord": {"lon": 7.37795, "lat": 47.400162}}, {"id": 7287203, "name": "Speicher", "state": "", "country": "CH", "coord": {"lon": 9.44366, "lat": 47.41291}}, {"id": 7287204, "name": "Spiez", "state": "", "country": "CH", "coord": {"lon": 7.67062, "lat": 46.686569}}, {"id": 7287205, "name": "Spiringen", "state": "", "country": "CH", "coord": {"lon": 8.84351, "lat": 46.878391}}, {"id": 7287206, "name": "Spl\u00fcgen", "state": "", "country": "CH", "coord": {"lon": 9.31336, "lat": 46.542519}}, {"id": 7287207, "name": "Spreitenbach", "state": "", "country": "CH", "coord": {"lon": 8.36738, "lat": 47.4179}}, {"id": 7287209, "name": "Stabio", "state": "", "country": "CH", "coord": {"lon": 8.93294, "lat": 45.84766}}, {"id": 7287210, "name": "Stadel", "state": "", "country": "CH", "coord": {"lon": 8.47014, "lat": 47.537971}}, {"id": 7287211, "name": "St\u00e4fa", "state": "", "country": "CH", "coord": {"lon": 8.73372, "lat": 47.24649}}, {"id": 7287212, "name": "Staffelbach", "state": "", "country": "CH", "coord": {"lon": 8.0387, "lat": 47.283058}}, {"id": 7287213, "name": "Staldenried", "state": "", "country": "CH", "coord": {"lon": 7.91015, "lat": 46.217609}}, {"id": 7287214, "name": "Stalden (VS)", "state": "", "country": "CH", "coord": {"lon": 7.87708, "lat": 46.233528}}, {"id": 7287215, "name": "Stallikon", "state": "", "country": "CH", "coord": {"lon": 8.49208, "lat": 47.318642}}, {"id": 7287216, "name": "Stampa", "state": "", "country": "CH", "coord": {"lon": 9.69277, "lat": 46.36557}}, {"id": 7287217, "name": "Stans", "state": "", "country": "CH", "coord": {"lon": 8.36333, "lat": 46.958858}}, {"id": 7287218, "name": "Stansstad", "state": "", "country": "CH", "coord": {"lon": 8.35645, "lat": 46.983379}}, {"id": 7287219, "name": "St. Antoni", "state": "", "country": "CH", "coord": {"lon": 7.28246, "lat": 46.818588}}, {"id": 7287220, "name": "St. Ant\u00f6nien", "state": "", "country": "CH", "coord": {"lon": 9.84184, "lat": 46.9743}}, {"id": 7287221, "name": "Starrkirch-Wil", "state": "", "country": "CH", "coord": {"lon": 7.92708, "lat": 47.343021}}, {"id": 7287222, "name": "Staufen", "state": "", "country": "CH", "coord": {"lon": 8.15998, "lat": 47.378731}}, {"id": 7287223, "name": "Steckborn", "state": "", "country": "CH", "coord": {"lon": 8.99054, "lat": 47.658241}}, {"id": 7287224, "name": "Steffisburg", "state": "", "country": "CH", "coord": {"lon": 7.6327, "lat": 46.781448}}, {"id": 7287227, "name": "Stein", "state": "", "country": "CH", "coord": {"lon": 7.95275, "lat": 47.54517}}, {"id": 7287228, "name": "Stein am Rhein", "state": "", "country": "CH", "coord": {"lon": 8.85779, "lat": 47.666592}}, {"id": 7287230, "name": "Steinen", "state": "", "country": "CH", "coord": {"lon": 8.6095, "lat": 47.051739}}, {"id": 7287231, "name": "Steinerberg", "state": "", "country": "CH", "coord": {"lon": 8.58119, "lat": 47.067471}}, {"id": 7287233, "name": "Steinhof", "state": "", "country": "CH", "coord": {"lon": 7.68659, "lat": 47.159161}}, {"id": 7287234, "name": "Steinmaur", "state": "", "country": "CH", "coord": {"lon": 8.44334, "lat": 47.497711}}, {"id": 7287238, "name": "Stettfurt", "state": "", "country": "CH", "coord": {"lon": 8.95692, "lat": 47.525169}}, {"id": 7287239, "name": "Stettlen", "state": "", "country": "CH", "coord": {"lon": 7.52212, "lat": 46.956631}}, {"id": 7287240, "name": "St. Gallen", "state": "", "country": "CH", "coord": {"lon": 9.37554, "lat": 47.422138}}, {"id": 7287241, "name": "St. Gallenkappel", "state": "", "country": "CH", "coord": {"lon": 9.00014, "lat": 47.268532}}, {"id": 7287243, "name": "St. Margrethen", "state": "", "country": "CH", "coord": {"lon": 9.62598, "lat": 47.4533}}, {"id": 7287245, "name": "St. Moritz", "state": "", "country": "CH", "coord": {"lon": 9.81688, "lat": 46.490341}}, {"id": 7287246, "name": "St. Niklaus", "state": "", "country": "CH", "coord": {"lon": 7.80044, "lat": 46.157318}}, {"id": 7287247, "name": "St. Peter-Pagig", "state": "", "country": "CH", "coord": {"lon": 9.64956, "lat": 46.848888}}, {"id": 7287248, "name": "Strengelbach", "state": "", "country": "CH", "coord": {"lon": 7.92268, "lat": 47.281799}}, {"id": 7287250, "name": "St. Stephan", "state": "", "country": "CH", "coord": {"lon": 7.42622, "lat": 46.503269}}, {"id": 7287252, "name": "St. Ursen", "state": "", "country": "CH", "coord": {"lon": 7.22433, "lat": 46.786869}}, {"id": 7287254, "name": "Subingen", "state": "", "country": "CH", "coord": {"lon": 7.62389, "lat": 47.200062}}, {"id": 7287255, "name": "Suchy", "state": "", "country": "CH", "coord": {"lon": 6.60508, "lat": 46.721321}}, {"id": 7287258, "name": "Suhr", "state": "", "country": "CH", "coord": {"lon": 8.0838, "lat": 47.374989}}, {"id": 7287259, "name": "Sulgen", "state": "", "country": "CH", "coord": {"lon": 9.19313, "lat": 47.542351}}, {"id": 7287261, "name": "Sulz (AG)", "state": "", "country": "CH", "coord": {"lon": 8.0952, "lat": 47.538849}}, {"id": 7287262, "name": "Sumiswald", "state": "", "country": "CH", "coord": {"lon": 7.81465, "lat": 47.031872}}, {"id": 7287263, "name": "Sumvitg", "state": "", "country": "CH", "coord": {"lon": 8.94418, "lat": 46.709782}}, {"id": 7287276, "name": "T\u00e4gerwilen", "state": "", "country": "CH", "coord": {"lon": 9.13212, "lat": 47.647869}}, {"id": 7287277, "name": "Tamins", "state": "", "country": "CH", "coord": {"lon": 9.3995, "lat": 46.864422}}, {"id": 7287282, "name": "T\u00e4sch", "state": "", "country": "CH", "coord": {"lon": 7.81117, "lat": 46.05405}}, {"id": 7287283, "name": "T\u00e4uffelen", "state": "", "country": "CH", "coord": {"lon": 7.19781, "lat": 47.065269}}, {"id": 7287284, "name": "Tavannes", "state": "", "country": "CH", "coord": {"lon": 7.18376, "lat": 47.221359}}, {"id": 7287285, "name": "Tecknau", "state": "", "country": "CH", "coord": {"lon": 7.88971, "lat": 47.4454}}, {"id": 7287286, "name": "Tegerfelden", "state": "", "country": "CH", "coord": {"lon": 8.28483, "lat": 47.561901}}, {"id": 7287290, "name": "Tenniken", "state": "", "country": "CH", "coord": {"lon": 7.81486, "lat": 47.432571}}, {"id": 7287291, "name": "Tentlingen", "state": "", "country": "CH", "coord": {"lon": 7.20001, "lat": 46.76767}}, {"id": 7287292, "name": "Termen", "state": "", "country": "CH", "coord": {"lon": 8.05866, "lat": 46.321499}}, {"id": 7287293, "name": "Teufen (AR)", "state": "", "country": "CH", "coord": {"lon": 9.38861, "lat": 47.393589}}, {"id": 7287294, "name": "Teufenthal", "state": "", "country": "CH", "coord": {"lon": 8.12978, "lat": 47.32745}}, {"id": 7287295, "name": "Teuffenthal (BE)", "state": "", "country": "CH", "coord": {"lon": 7.7126, "lat": 46.765839}}, {"id": 7287296, "name": "Thal", "state": "", "country": "CH", "coord": {"lon": 9.55678, "lat": 47.478352}}, {"id": 7287299, "name": "Thalwil", "state": "", "country": "CH", "coord": {"lon": 8.55909, "lat": 47.287491}}, {"id": 7287300, "name": "Thayngen", "state": "", "country": "CH", "coord": {"lon": 8.69055, "lat": 47.758629}}, {"id": 7287301, "name": "Therwil", "state": "", "country": "CH", "coord": {"lon": 7.55914, "lat": 47.497509}}, {"id": 7287302, "name": "Thierachern", "state": "", "country": "CH", "coord": {"lon": 7.57218, "lat": 46.751122}}, {"id": 7287303, "name": "Thierrens", "state": "", "country": "CH", "coord": {"lon": 6.75896, "lat": 46.70385}}, {"id": 7287304, "name": "Th\u00f4nex", "state": "", "country": "CH", "coord": {"lon": 6.20463, "lat": 46.196049}}, {"id": 7287306, "name": "Thun", "state": "", "country": "CH", "coord": {"lon": 7.62217, "lat": 46.746578}}, {"id": 7287308, "name": "Thunstetten", "state": "", "country": "CH", "coord": {"lon": 7.74645, "lat": 47.205471}}, {"id": 7287310, "name": "Thusis", "state": "", "country": "CH", "coord": {"lon": 9.43282, "lat": 46.688541}}, {"id": 7287311, "name": "Tiefencastel", "state": "", "country": "CH", "coord": {"lon": 9.61312, "lat": 46.644981}}, {"id": 7287313, "name": "Titterten", "state": "", "country": "CH", "coord": {"lon": 7.71483, "lat": 47.401981}}, {"id": 7287314, "name": "Tobel-T\u00e4gerschen", "state": "", "country": "CH", "coord": {"lon": 9.03847, "lat": 47.51215}}, {"id": 7287315, "name": "Toffen", "state": "", "country": "CH", "coord": {"lon": 7.49239, "lat": 46.858841}}, {"id": 7287317, "name": "Tomils", "state": "", "country": "CH", "coord": {"lon": 9.46181, "lat": 46.779572}}, {"id": 7287321, "name": "Trachselwald", "state": "", "country": "CH", "coord": {"lon": 7.78138, "lat": 47.009441}}, {"id": 7287322, "name": "Tramelan", "state": "", "country": "CH", "coord": {"lon": 7.09679, "lat": 47.22723}}, {"id": 7287323, "name": "Trasadingen", "state": "", "country": "CH", "coord": {"lon": 8.4262, "lat": 47.669788}}, {"id": 7287325, "name": "Tr\u00e9lex", "state": "", "country": "CH", "coord": {"lon": 6.19669, "lat": 46.41888}}, {"id": 7287327, "name": "Trey", "state": "", "country": "CH", "coord": {"lon": 6.92321, "lat": 46.774872}}, {"id": 7287330, "name": "Treyvaux", "state": "", "country": "CH", "coord": {"lon": 7.14385, "lat": 46.724209}}, {"id": 7287331, "name": "Triengen", "state": "", "country": "CH", "coord": {"lon": 8.06753, "lat": 47.23661}}, {"id": 7287332, "name": "Trient", "state": "", "country": "CH", "coord": {"lon": 6.99909, "lat": 46.030762}}, {"id": 7287333, "name": "Trimbach", "state": "", "country": "CH", "coord": {"lon": 7.88951, "lat": 47.369732}}, {"id": 7287334, "name": "Trimmis", "state": "", "country": "CH", "coord": {"lon": 9.59757, "lat": 46.89526}}, {"id": 7287335, "name": "Trimstein", "state": "", "country": "CH", "coord": {"lon": 7.5769, "lat": 46.90292}}, {"id": 7287336, "name": "Trin", "state": "", "country": "CH", "coord": {"lon": 9.32992, "lat": 46.862431}}, {"id": 7287337, "name": "Trogen", "state": "", "country": "CH", "coord": {"lon": 9.47714, "lat": 47.4006}}, {"id": 7287338, "name": "Troinex", "state": "", "country": "CH", "coord": {"lon": 6.15109, "lat": 46.15881}}, {"id": 7287339, "name": "Troistorrents", "state": "", "country": "CH", "coord": {"lon": 6.88533, "lat": 46.232819}}, {"id": 7287340, "name": "Trub", "state": "", "country": "CH", "coord": {"lon": 7.89147, "lat": 46.962849}}, {"id": 7287341, "name": "Trubschachen", "state": "", "country": "CH", "coord": {"lon": 7.83688, "lat": 46.90844}}, {"id": 7287342, "name": "Tr\u00fcllikon", "state": "", "country": "CH", "coord": {"lon": 8.68449, "lat": 47.641869}}, {"id": 7287344, "name": "Tschappina", "state": "", "country": "CH", "coord": {"lon": 9.36069, "lat": 46.676659}}, {"id": 7287346, "name": "Tschiertschen-Praden", "state": "", "country": "CH", "coord": {"lon": 9.60105, "lat": 46.799431}}, {"id": 7287350, "name": "Tuggen", "state": "", "country": "CH", "coord": {"lon": 8.93984, "lat": 47.199821}}, {"id": 7287351, "name": "Tujetsch", "state": "", "country": "CH", "coord": {"lon": 8.7323, "lat": 46.650459}}, {"id": 7287352, "name": "Turbenthal", "state": "", "country": "CH", "coord": {"lon": 8.87965, "lat": 47.432331}}, {"id": 7287353, "name": "Turgi", "state": "", "country": "CH", "coord": {"lon": 8.25898, "lat": 47.487801}}, {"id": 7287354, "name": "Turtmann", "state": "", "country": "CH", "coord": {"lon": 7.7148, "lat": 46.186131}}, {"id": 7287356, "name": "Twann", "state": "", "country": "CH", "coord": {"lon": 7.1602, "lat": 47.103119}}, {"id": 7287357, "name": "Udligenswil", "state": "", "country": "CH", "coord": {"lon": 8.39964, "lat": 47.091019}}, {"id": 7287358, "name": "Ueberstorf", "state": "", "country": "CH", "coord": {"lon": 7.3264, "lat": 46.869469}}, {"id": 7287359, "name": "Uebeschi", "state": "", "country": "CH", "coord": {"lon": 7.54728, "lat": 46.739479}}, {"id": 7287361, "name": "Uerkheim", "state": "", "country": "CH", "coord": {"lon": 8.00904, "lat": 47.303619}}, {"id": 7287362, "name": "Uesslingen-Buch", "state": "", "country": "CH", "coord": {"lon": 8.83064, "lat": 47.589439}}, {"id": 7287363, "name": "Uetendorf", "state": "", "country": "CH", "coord": {"lon": 7.57457, "lat": 46.774979}}, {"id": 7287364, "name": "Uetikon am See", "state": "", "country": "CH", "coord": {"lon": 8.68171, "lat": 47.270302}}, {"id": 7287366, "name": "Ufhusen", "state": "", "country": "CH", "coord": {"lon": 7.89289, "lat": 47.107922}}, {"id": 7287367, "name": "Uitikon", "state": "", "country": "CH", "coord": {"lon": 8.45903, "lat": 47.36702}}, {"id": 7287370, "name": "Undervelier", "state": "", "country": "CH", "coord": {"lon": 7.22246, "lat": 47.300758}}, {"id": 7287371, "name": "Unter\u00e4geri", "state": "", "country": "CH", "coord": {"lon": 8.57774, "lat": 47.120449}}, {"id": 7287375, "name": "Unterems", "state": "", "country": "CH", "coord": {"lon": 7.69366, "lat": 46.289028}}, {"id": 7287377, "name": "Unterengstringen", "state": "", "country": "CH", "coord": {"lon": 8.43707, "lat": 47.409729}}, {"id": 7287379, "name": "Unteriberg", "state": "", "country": "CH", "coord": {"lon": 8.83151, "lat": 47.048038}}, {"id": 7287380, "name": "Unterkulm", "state": "", "country": "CH", "coord": {"lon": 8.1035, "lat": 47.318878}}, {"id": 7287381, "name": "Unterlangenegg", "state": "", "country": "CH", "coord": {"lon": 7.70125, "lat": 46.799259}}, {"id": 7287382, "name": "Unterlunkhofen", "state": "", "country": "CH", "coord": {"lon": 8.38317, "lat": 47.324791}}, {"id": 7287384, "name": "Untersch\u00e4chen", "state": "", "country": "CH", "coord": {"lon": 8.79357, "lat": 46.858292}}, {"id": 7287385, "name": "Unterseen", "state": "", "country": "CH", "coord": {"lon": 7.84125, "lat": 46.695221}}, {"id": 7287386, "name": "Untersiggenthal", "state": "", "country": "CH", "coord": {"lon": 8.25647, "lat": 47.506729}}, {"id": 7287387, "name": "Unterstammheim", "state": "", "country": "CH", "coord": {"lon": 8.78965, "lat": 47.647072}}, {"id": 7287389, "name": "Untervaz", "state": "", "country": "CH", "coord": {"lon": 9.51584, "lat": 46.920582}}, {"id": 7287390, "name": "Urdorf", "state": "", "country": "CH", "coord": {"lon": 8.42242, "lat": 47.379841}}, {"id": 7287392, "name": "Urn\u00e4sch", "state": "", "country": "CH", "coord": {"lon": 9.26745, "lat": 47.296551}}, {"id": 7287393, "name": "Ursenbach", "state": "", "country": "CH", "coord": {"lon": 7.76413, "lat": 47.129349}}, {"id": 7287395, "name": "Ursy", "state": "", "country": "CH", "coord": {"lon": 6.85158, "lat": 46.623959}}, {"id": 7287396, "name": "Urtenen-Sch\u00f6nb\u00fchl", "state": "", "country": "CH", "coord": {"lon": 7.49969, "lat": 47.022259}}, {"id": 7287397, "name": "Uster", "state": "", "country": "CH", "coord": {"lon": 8.72156, "lat": 47.353161}}, {"id": 7287399, "name": "Uttwil", "state": "", "country": "CH", "coord": {"lon": 9.33792, "lat": 47.577}}, {"id": 7287400, "name": "Utzenstorf", "state": "", "country": "CH", "coord": {"lon": 7.5635, "lat": 47.123932}}, {"id": 7287401, "name": "Uznach", "state": "", "country": "CH", "coord": {"lon": 8.98131, "lat": 47.226551}}, {"id": 7287402, "name": "Uzwil", "state": "", "country": "CH", "coord": {"lon": 9.11722, "lat": 47.446789}}, {"id": 7287403, "name": "Vacallo", "state": "", "country": "CH", "coord": {"lon": 9.03651, "lat": 45.847038}}, {"id": 7287405, "name": "Valcolla", "state": "", "country": "CH", "coord": {"lon": 9.04829, "lat": 46.099522}}, {"id": 7287406, "name": "Val-de-Travers", "state": "", "country": "CH", "coord": {"lon": 6.5974, "lat": 46.924351}}, {"id": 7287407, "name": "Valendas", "state": "", "country": "CH", "coord": {"lon": 9.29471, "lat": 46.773022}}, {"id": 7287412, "name": "Vallorbe", "state": "", "country": "CH", "coord": {"lon": 6.37148, "lat": 46.70784}}, {"id": 7287413, "name": "Val M\u00fcstair", "state": "", "country": "CH", "coord": {"lon": 10.36262, "lat": 46.602509}}, {"id": 7287414, "name": "Vals", "state": "", "country": "CH", "coord": {"lon": 9.13071, "lat": 46.573662}}, {"id": 7287415, "name": "Valzeina", "state": "", "country": "CH", "coord": {"lon": 9.61364, "lat": 46.943039}}, {"id": 7287416, "name": "Vandoeuvres", "state": "", "country": "CH", "coord": {"lon": 6.20369, "lat": 46.218948}}, {"id": 7287417, "name": "Varen", "state": "", "country": "CH", "coord": {"lon": 7.59282, "lat": 46.337559}}, {"id": 7287418, "name": "Vauffelin", "state": "", "country": "CH", "coord": {"lon": 7.29844, "lat": 47.185452}}, {"id": 7287420, "name": "Vaulion", "state": "", "country": "CH", "coord": {"lon": 6.38413, "lat": 46.686081}}, {"id": 7287424, "name": "Vaz/Obervaz", "state": "", "country": "CH", "coord": {"lon": 9.54147, "lat": 46.725731}}, {"id": 7287425, "name": "Vechigen", "state": "", "country": "CH", "coord": {"lon": 7.56867, "lat": 46.96302}}, {"id": 7287428, "name": "Veltheim", "state": "", "country": "CH", "coord": {"lon": 8.14842, "lat": 47.431751}}, {"id": 7287429, "name": "Vendlincourt", "state": "", "country": "CH", "coord": {"lon": 7.14848, "lat": 47.451931}}, {"id": 7287433, "name": "Vermes", "state": "", "country": "CH", "coord": {"lon": 7.48485, "lat": 47.319199}}, {"id": 7287434, "name": "Vernami\u00e8ge", "state": "", "country": "CH", "coord": {"lon": 7.43574, "lat": 46.210541}}, {"id": 7287437, "name": "Vernayaz", "state": "", "country": "CH", "coord": {"lon": 7.03199, "lat": 46.138039}}, {"id": 7287438, "name": "Vernier", "state": "", "country": "CH", "coord": {"lon": 6.09467, "lat": 46.21072}}, {"id": 7287440, "name": "Versam", "state": "", "country": "CH", "coord": {"lon": 9.34449, "lat": 46.777039}}, {"id": 7287441, "name": "Verscio", "state": "", "country": "CH", "coord": {"lon": 8.72797, "lat": 46.193321}}, {"id": 7287442, "name": "Versoix", "state": "", "country": "CH", "coord": {"lon": 6.1456, "lat": 46.291439}}, {"id": 7287443, "name": "V\u00e9troz", "state": "", "country": "CH", "coord": {"lon": 7.27066, "lat": 46.225842}}, {"id": 7287444, "name": "Vevey", "state": "", "country": "CH", "coord": {"lon": 6.8481, "lat": 46.46423}}, {"id": 7287445, "name": "Vex", "state": "", "country": "CH", "coord": {"lon": 7.39114, "lat": 46.19685}}, {"id": 7287446, "name": "Veyras", "state": "", "country": "CH", "coord": {"lon": 7.54244, "lat": 46.303768}}, {"id": 7287447, "name": "Veyrier", "state": "", "country": "CH", "coord": {"lon": 6.16689, "lat": 46.171612}}, {"id": 7287448, "name": "Veysonnaz", "state": "", "country": "CH", "coord": {"lon": 7.33807, "lat": 46.19722}}, {"id": 7287449, "name": "Veytaux", "state": "", "country": "CH", "coord": {"lon": 6.96388, "lat": 46.427311}}, {"id": 7287453, "name": "Vicosoprano", "state": "", "country": "CH", "coord": {"lon": 9.65087, "lat": 46.345058}}, {"id": 7287454, "name": "Vicques", "state": "", "country": "CH", "coord": {"lon": 7.42701, "lat": 47.350899}}, {"id": 7287455, "name": "Vignogn", "state": "", "country": "CH", "coord": {"lon": 9.14134, "lat": 46.694}}, {"id": 7287456, "name": "Villarepos", "state": "", "country": "CH", "coord": {"lon": 7.08002, "lat": 46.882309}}, {"id": 7287462, "name": "Villars-le-Grand", "state": "", "country": "CH", "coord": {"lon": 6.99866, "lat": 46.90535}}, {"id": 7287464, "name": "Villars-Mendraz", "state": "", "country": "CH", "coord": {"lon": 6.72678, "lat": 46.64529}}, {"id": 7287468, "name": "Villars-sur-Gl\u00e2ne", "state": "", "country": "CH", "coord": {"lon": 7.12515, "lat": 46.794361}}, {"id": 7287470, "name": "Villarvolard", "state": "", "country": "CH", "coord": {"lon": 7.12012, "lat": 46.64349}}, {"id": 7287471, "name": "Villarzel", "state": "", "country": "CH", "coord": {"lon": 6.91803, "lat": 46.741951}}, {"id": 7287472, "name": "Villaz-Saint-Pierre", "state": "", "country": "CH", "coord": {"lon": 6.96059, "lat": 46.720509}}, {"id": 7287474, "name": "Villeneuve (VD)", "state": "", "country": "CH", "coord": {"lon": 6.97308, "lat": 46.406311}}, {"id": 7287475, "name": "Villeret", "state": "", "country": "CH", "coord": {"lon": 7.02106, "lat": 47.160519}}, {"id": 7287478, "name": "Villigen", "state": "", "country": "CH", "coord": {"lon": 8.20721, "lat": 47.529549}}, {"id": 7287479, "name": "Villmergen", "state": "", "country": "CH", "coord": {"lon": 8.24105, "lat": 47.351028}}, {"id": 7287480, "name": "Villnachern", "state": "", "country": "CH", "coord": {"lon": 8.16253, "lat": 47.472519}}, {"id": 7287481, "name": "Villorsonnens", "state": "", "country": "CH", "coord": {"lon": 7.00017, "lat": 46.70739}}, {"id": 7287482, "name": "Vilters-Wangs", "state": "", "country": "CH", "coord": {"lon": 9.4253, "lat": 47.009701}}, {"id": 7287484, "name": "Vinzel", "state": "", "country": "CH", "coord": {"lon": 6.27702, "lat": 46.45042}}, {"id": 7287485, "name": "Vionnaz", "state": "", "country": "CH", "coord": {"lon": 6.87136, "lat": 46.307758}}, {"id": 7287486, "name": "Vira (Gambarogno)", "state": "", "country": "CH", "coord": {"lon": 8.86029, "lat": 46.126999}}, {"id": 7287487, "name": "Visp", "state": "", "country": "CH", "coord": {"lon": 7.88092, "lat": 46.29137}}, {"id": 7287488, "name": "Visperterminen", "state": "", "country": "CH", "coord": {"lon": 7.94019, "lat": 46.243038}}, {"id": 7287489, "name": "Vitznau", "state": "", "country": "CH", "coord": {"lon": 8.49153, "lat": 47.016979}}, {"id": 7287492, "name": "Volketswil", "state": "", "country": "CH", "coord": {"lon": 8.68949, "lat": 47.39259}}, {"id": 7287493, "name": "Voll\u00e8ges", "state": "", "country": "CH", "coord": {"lon": 7.15355, "lat": 46.095901}}, {"id": 7287494, "name": "Vordemwald", "state": "", "country": "CH", "coord": {"lon": 7.89231, "lat": 47.270031}}, {"id": 7287495, "name": "Vorderthal", "state": "", "country": "CH", "coord": {"lon": 8.8893, "lat": 47.126259}}, {"id": 7287496, "name": "Vouvry", "state": "", "country": "CH", "coord": {"lon": 6.84925, "lat": 46.33596}}, {"id": 7287498, "name": "Vuadens", "state": "", "country": "CH", "coord": {"lon": 7.00472, "lat": 46.608391}}, {"id": 7287504, "name": "Vugelles-La Mothe", "state": "", "country": "CH", "coord": {"lon": 6.57376, "lat": 46.82497}}, {"id": 7287505, "name": "Vuibroye", "state": "", "country": "CH", "coord": {"lon": 6.80519, "lat": 46.57111}}, {"id": 7287507, "name": "Vuisternens-devant-Romont", "state": "", "country": "CH", "coord": {"lon": 6.934, "lat": 46.64613}}, {"id": 7287508, "name": "Vuisternens-en-Ogoz", "state": "", "country": "CH", "coord": {"lon": 7.0561, "lat": 46.704239}}, {"id": 7287509, "name": "Vuiteboeuf", "state": "", "country": "CH", "coord": {"lon": 6.55469, "lat": 46.804249}}, {"id": 7287512, "name": "Wachseldorn", "state": "", "country": "CH", "coord": {"lon": 7.73712, "lat": 46.820099}}, {"id": 7287513, "name": "W\u00e4denswil", "state": "", "country": "CH", "coord": {"lon": 8.65207, "lat": 47.22493}}, {"id": 7287514, "name": "Wagenhausen", "state": "", "country": "CH", "coord": {"lon": 8.82718, "lat": 47.658009}}, {"id": 7287515, "name": "Wahlen", "state": "", "country": "CH", "coord": {"lon": 7.51145, "lat": 47.397991}}, {"id": 7287516, "name": "Wahlern", "state": "", "country": "CH", "coord": {"lon": 7.35735, "lat": 46.819248}}, {"id": 7287517, "name": "Walchwil", "state": "", "country": "CH", "coord": {"lon": 8.53258, "lat": 47.108479}}, {"id": 7287519, "name": "Wald (BE)", "state": "", "country": "CH", "coord": {"lon": 7.45919, "lat": 46.8825}}, {"id": 7287520, "name": "Waldenburg", "state": "", "country": "CH", "coord": {"lon": 7.7394, "lat": 47.376659}}, {"id": 7287521, "name": "W\u00e4ldi", "state": "", "country": "CH", "coord": {"lon": 9.08246, "lat": 47.624451}}, {"id": 7287522, "name": "Waldkirch", "state": "", "country": "CH", "coord": {"lon": 9.30296, "lat": 47.464169}}, {"id": 7287523, "name": "Waldstatt", "state": "", "country": "CH", "coord": {"lon": 9.28453, "lat": 47.357079}}, {"id": 7287524, "name": "Wald (ZH)", "state": "", "country": "CH", "coord": {"lon": 8.92092, "lat": 47.28706}}, {"id": 7287525, "name": "Walenstadt", "state": "", "country": "CH", "coord": {"lon": 9.32979, "lat": 47.125931}}, {"id": 7287526, "name": "Walkringen", "state": "", "country": "CH", "coord": {"lon": 7.62737, "lat": 46.96069}}, {"id": 7287528, "name": "Wallenried", "state": "", "country": "CH", "coord": {"lon": 7.11139, "lat": 46.876362}}, {"id": 7287529, "name": "Wallisellen", "state": "", "country": "CH", "coord": {"lon": 8.59489, "lat": 47.417381}}, {"id": 7287532, "name": "Walperswil", "state": "", "country": "CH", "coord": {"lon": 7.22387, "lat": 47.052238}}, {"id": 7287534, "name": "Waltensburg/Vuorz", "state": "", "country": "CH", "coord": {"lon": 9.07771, "lat": 46.8116}}, {"id": 7287535, "name": "Waltenschwil", "state": "", "country": "CH", "coord": {"lon": 8.29893, "lat": 47.33411}}, {"id": 7287536, "name": "Walterswil (BE)", "state": "", "country": "CH", "coord": {"lon": 7.77002, "lat": 47.10424}}, {"id": 7287538, "name": "Walzenhausen", "state": "", "country": "CH", "coord": {"lon": 9.59743, "lat": 47.443531}}, {"id": 7287539, "name": "Wangen an der Aare", "state": "", "country": "CH", "coord": {"lon": 7.65018, "lat": 47.231098}}, {"id": 7287540, "name": "Wangen bei Olten", "state": "", "country": "CH", "coord": {"lon": 7.87158, "lat": 47.342072}}, {"id": 7287541, "name": "Wangen-Br\u00fcttisellen", "state": "", "country": "CH", "coord": {"lon": 8.64592, "lat": 47.413231}}, {"id": 7287543, "name": "Wangen (SZ)", "state": "", "country": "CH", "coord": {"lon": 8.88974, "lat": 47.19453}}, {"id": 7287544, "name": "W\u00e4ngi", "state": "", "country": "CH", "coord": {"lon": 8.95762, "lat": 47.49329}}, {"id": 7287546, "name": "Wassen", "state": "", "country": "CH", "coord": {"lon": 8.53343, "lat": 46.724602}}, {"id": 7287548, "name": "Wattenwil", "state": "", "country": "CH", "coord": {"lon": 7.49273, "lat": 46.759331}}, {"id": 7287549, "name": "Wattwil", "state": "", "country": "CH", "coord": {"lon": 9.08697, "lat": 47.290699}}, {"id": 7287551, "name": "Weesen", "state": "", "country": "CH", "coord": {"lon": 9.09327, "lat": 47.142681}}, {"id": 7287552, "name": "Wegenstetten", "state": "", "country": "CH", "coord": {"lon": 7.93121, "lat": 47.493889}}, {"id": 7287553, "name": "Weggis", "state": "", "country": "CH", "coord": {"lon": 8.44274, "lat": 47.037121}}, {"id": 7287555, "name": "Weinfelden", "state": "", "country": "CH", "coord": {"lon": 9.112, "lat": 47.569801}}, {"id": 7287556, "name": "Weiningen (ZH)", "state": "", "country": "CH", "coord": {"lon": 8.43033, "lat": 47.420078}}, {"id": 7287557, "name": "Weisslingen", "state": "", "country": "CH", "coord": {"lon": 8.77328, "lat": 47.430401}}, {"id": 7287558, "name": "Welschenrohr", "state": "", "country": "CH", "coord": {"lon": 7.52058, "lat": 47.276081}}, {"id": 7287559, "name": "Wengi", "state": "", "country": "CH", "coord": {"lon": 7.39534, "lat": 47.086151}}, {"id": 7287561, "name": "Werthenstein", "state": "", "country": "CH", "coord": {"lon": 8.10763, "lat": 47.036968}}, {"id": 7287562, "name": "Wettingen", "state": "", "country": "CH", "coord": {"lon": 8.34121, "lat": 47.466801}}, {"id": 7287563, "name": "Wettswil am Albis", "state": "", "country": "CH", "coord": {"lon": 8.46993, "lat": 47.337269}}, {"id": 7287564, "name": "Wetzikon (ZH)", "state": "", "country": "CH", "coord": {"lon": 8.80465, "lat": 47.324341}}, {"id": 7287565, "name": "Wichtrach", "state": "", "country": "CH", "coord": {"lon": 7.57944, "lat": 46.845299}}, {"id": 7287567, "name": "Widnau", "state": "", "country": "CH", "coord": {"lon": 9.63916, "lat": 47.404709}}, {"id": 7287568, "name": "Wiedlisbach", "state": "", "country": "CH", "coord": {"lon": 7.65167, "lat": 47.245689}}, {"id": 7287569, "name": "Wiesendangen", "state": "", "country": "CH", "coord": {"lon": 8.79806, "lat": 47.52726}}, {"id": 7287571, "name": "Wigoltingen", "state": "", "country": "CH", "coord": {"lon": 9.04551, "lat": 47.600559}}, {"id": 7287572, "name": "Wikon", "state": "", "country": "CH", "coord": {"lon": 7.97902, "lat": 47.267719}}, {"id": 7287573, "name": "Wila", "state": "", "country": "CH", "coord": {"lon": 8.86074, "lat": 47.409031}}, {"id": 7287575, "name": "Wilchingen", "state": "", "country": "CH", "coord": {"lon": 8.47789, "lat": 47.663212}}, {"id": 7287576, "name": "Wildberg", "state": "", "country": "CH", "coord": {"lon": 8.8262, "lat": 47.41753}}, {"id": 7287577, "name": "Wilderswil", "state": "", "country": "CH", "coord": {"lon": 7.86584, "lat": 46.645779}}, {"id": 7287578, "name": "Wildhaus", "state": "", "country": "CH", "coord": {"lon": 9.35173, "lat": 47.203159}}, {"id": 7287582, "name": "Wileroltigen", "state": "", "country": "CH", "coord": {"lon": 7.23849, "lat": 46.972092}}, {"id": 7287583, "name": "Wiliberg", "state": "", "country": "CH", "coord": {"lon": 8.01662, "lat": 47.266949}}, {"id": 7287585, "name": "Willisau", "state": "", "country": "CH", "coord": {"lon": 7.9861, "lat": 47.101952}}, {"id": 7287586, "name": "Wil (SG)", "state": "", "country": "CH", "coord": {"lon": 9.05241, "lat": 47.462261}}, {"id": 7287588, "name": "Wimmis", "state": "", "country": "CH", "coord": {"lon": 7.64166, "lat": 46.661499}}, {"id": 7287589, "name": "Windisch", "state": "", "country": "CH", "coord": {"lon": 8.2221, "lat": 47.47588}}, {"id": 7287590, "name": "Winkel", "state": "", "country": "CH", "coord": {"lon": 8.5584, "lat": 47.486031}}, {"id": 7287592, "name": "Winterthur", "state": "", "country": "CH", "coord": {"lon": 8.73417, "lat": 47.49675}}, {"id": 7287595, "name": "Wislikofen", "state": "", "country": "CH", "coord": {"lon": 8.36666, "lat": 47.553669}}, {"id": 7287596, "name": "Wittenbach", "state": "", "country": "CH", "coord": {"lon": 9.37954, "lat": 47.466648}}, {"id": 7287599, "name": "Wittnau", "state": "", "country": "CH", "coord": {"lon": 7.96607, "lat": 47.477089}}, {"id": 7287600, "name": "Wohlen", "state": "", "country": "CH", "coord": {"lon": 8.28067, "lat": 47.35331}}, {"id": 7287601, "name": "Wohlen bei Bern", "state": "", "country": "CH", "coord": {"lon": 7.34368, "lat": 46.982681}}, {"id": 7287602, "name": "Wohlenschwil", "state": "", "country": "CH", "coord": {"lon": 8.25382, "lat": 47.416752}}, {"id": 7287603, "name": "Wolfenschiessen", "state": "", "country": "CH", "coord": {"lon": 8.3945, "lat": 46.86269}}, {"id": 7287606, "name": "W\u00f6lflinswil", "state": "", "country": "CH", "coord": {"lon": 8.0004, "lat": 47.46249}}, {"id": 7287607, "name": "Wolfwil", "state": "", "country": "CH", "coord": {"lon": 7.7982, "lat": 47.27013}}, {"id": 7287610, "name": "Worb", "state": "", "country": "CH", "coord": {"lon": 7.57076, "lat": 46.927238}}, {"id": 7287611, "name": "Worben", "state": "", "country": "CH", "coord": {"lon": 7.29652, "lat": 47.100712}}, {"id": 7287612, "name": "W\u00fcnnewil-Flamatt", "state": "", "country": "CH", "coord": {"lon": 7.28561, "lat": 46.876999}}, {"id": 7287614, "name": "W\u00fcrenlingen", "state": "", "country": "CH", "coord": {"lon": 8.24923, "lat": 47.532108}}, {"id": 7287615, "name": "W\u00fcrenlos", "state": "", "country": "CH", "coord": {"lon": 8.36373, "lat": 47.44725}}, {"id": 7287616, "name": "Wynau", "state": "", "country": "CH", "coord": {"lon": 7.80536, "lat": 47.25613}}, {"id": 7287617, "name": "Wynigen", "state": "", "country": "CH", "coord": {"lon": 7.69189, "lat": 47.103931}}, {"id": 7287618, "name": "Wyssachen", "state": "", "country": "CH", "coord": {"lon": 7.8214, "lat": 47.07402}}, {"id": 7287619, "name": "Yens", "state": "", "country": "CH", "coord": {"lon": 6.40671, "lat": 46.527}}, {"id": 7287620, "name": "Yverdon-les-Bains", "state": "", "country": "CH", "coord": {"lon": 6.63713, "lat": 46.774261}}, {"id": 7287621, "name": "Yvonand", "state": "", "country": "CH", "coord": {"lon": 6.73608, "lat": 46.790352}}, {"id": 7287622, "name": "Yvorne", "state": "", "country": "CH", "coord": {"lon": 6.94583, "lat": 46.339008}}, {"id": 7287624, "name": "Z\u00e4ziwil", "state": "", "country": "CH", "coord": {"lon": 7.66757, "lat": 46.89566}}, {"id": 7287625, "name": "Zeglingen", "state": "", "country": "CH", "coord": {"lon": 7.91227, "lat": 47.412128}}, {"id": 7287626, "name": "Zeihen", "state": "", "country": "CH", "coord": {"lon": 8.09306, "lat": 47.470539}}, {"id": 7287628, "name": "Zell (LU)", "state": "", "country": "CH", "coord": {"lon": 7.92628, "lat": 47.135731}}, {"id": 7287629, "name": "Zell (ZH)", "state": "", "country": "CH", "coord": {"lon": 8.8088, "lat": 47.450901}}, {"id": 7287630, "name": "Zeneggen", "state": "", "country": "CH", "coord": {"lon": 7.86089, "lat": 46.273762}}, {"id": 7287631, "name": "Zermatt", "state": "", "country": "CH", "coord": {"lon": 7.75264, "lat": 45.989738}}, {"id": 7287632, "name": "Zernez", "state": "", "country": "CH", "coord": {"lon": 10.12185, "lat": 46.671398}}, {"id": 7287636, "name": "Zihlschlacht-Sitterdorf", "state": "", "country": "CH", "coord": {"lon": 9.26776, "lat": 47.514011}}, {"id": 7287637, "name": "Zillis-Reischen", "state": "", "country": "CH", "coord": {"lon": 9.47006, "lat": 46.638031}}, {"id": 7287638, "name": "Zizers", "state": "", "country": "CH", "coord": {"lon": 9.57078, "lat": 46.936352}}, {"id": 7287639, "name": "Zofingen", "state": "", "country": "CH", "coord": {"lon": 7.96329, "lat": 47.288849}}, {"id": 7287640, "name": "Zollikofen", "state": "", "country": "CH", "coord": {"lon": 7.45242, "lat": 46.994228}}, {"id": 7287641, "name": "Zollikon", "state": "", "country": "CH", "coord": {"lon": 8.5947, "lat": 47.343262}}, {"id": 7287642, "name": "Zuchwil", "state": "", "country": "CH", "coord": {"lon": 7.56363, "lat": 47.20575}}, {"id": 7287644, "name": "Zug", "state": "", "country": "CH", "coord": {"lon": 8.52323, "lat": 47.150002}}, {"id": 7287645, "name": "Zullwil", "state": "", "country": "CH", "coord": {"lon": 7.6035, "lat": 47.38802}}, {"id": 7287647, "name": "Zumikon", "state": "", "country": "CH", "coord": {"lon": 8.62616, "lat": 47.33416}}, {"id": 7287649, "name": "Zuoz", "state": "", "country": "CH", "coord": {"lon": 9.98031, "lat": 46.563068}}, {"id": 7287650, "name": "Z\u00fcrich", "state": "", "country": "CH", "coord": {"lon": 8.53071, "lat": 47.382832}}, {"id": 7287651, "name": "Zuzgen", "state": "", "country": "CH", "coord": {"lon": 7.89997, "lat": 47.524342}}, {"id": 7287653, "name": "Zuzwil (SG)", "state": "", "country": "CH", "coord": {"lon": 9.10217, "lat": 47.47126}}, {"id": 7287654, "name": "Zweisimmen", "state": "", "country": "CH", "coord": {"lon": 7.37986, "lat": 46.549332}}, {"id": 7287656, "name": "Zwingen", "state": "", "country": "CH", "coord": {"lon": 7.5279, "lat": 47.43594}}, {"id": 7287657, "name": "Zwischbergen", "state": "", "country": "CH", "coord": {"lon": 8.09909, "lat": 46.162998}}, {"id": 7287673, "name": "Ch\u00e2teau-d'Oex", "state": "", "country": "CH", "coord": {"lon": 7.11252, "lat": 46.454071}}, {"id": 7287674, "name": "Val-d'Illiez", "state": "", "country": "CH", "coord": {"lon": 6.87747, "lat": 46.18705}}, {"id": 7287676, "name": "L'Abbaye", "state": "", "country": "CH", "coord": {"lon": 6.30266, "lat": 46.63562}}, {"id": 7287677, "name": "L'Isle", "state": "", "country": "CH", "coord": {"lon": 6.38433, "lat": 46.621201}}, {"id": 7287680, "name": "Collina d'Oro", "state": "", "country": "CH", "coord": {"lon": 8.91976, "lat": 45.977188}}, {"id": 7287775, "name": "Nizhnesortymskiy", "state": "", "country": "RU", "coord": {"lon": 71.760292, "lat": 62.439651}}, {"id": 7287839, "name": "Cmentarz Centralny", "state": "", "country": "PL", "coord": {"lon": 14.52242, "lat": 53.41708}}, {"id": 7287889, "name": "Palackattumala", "state": "", "country": "IN", "coord": {"lon": 76.629402, "lat": 9.74356}}, {"id": 7287910, "name": "Fetcham", "state": "", "country": "GB", "coord": {"lon": -0.35582, "lat": 51.288792}}, {"id": 7287966, "name": "Easington Colliery", "state": "", "country": "GB", "coord": {"lon": -1.32819, "lat": 54.787922}}, {"id": 7288008, "name": "Ragusa Ibla", "state": "", "country": "IT", "coord": {"lon": 14.72795, "lat": 36.92561}}, {"id": 7288011, "name": "Sarnikierz", "state": "", "country": "PL", "coord": {"lon": 15.51094, "lat": 53.478951}}, {"id": 7288205, "name": "Vega del Codorno", "state": "", "country": "ES", "coord": {"lon": -1.91312, "lat": 40.424568}}, {"id": 7288344, "name": "Vik", "state": "", "country": "NO", "coord": {"lon": 6.57806, "lat": 61.057121}}, {"id": 7288345, "name": "Sogndal", "state": "", "country": "NO", "coord": {"lon": 7.10026, "lat": 61.228291}}, {"id": 7288522, "name": "Veyras", "state": "", "country": "CH", "coord": {"lon": 7.53619, "lat": 46.30212}}, {"id": 7288565, "name": "South Dublin", "state": "", "country": "IE", "coord": {"lon": -6.37739, "lat": 53.28595}}, {"id": 7289488, "name": "Stell", "state": "", "country": "DE", "coord": {"lon": 9.6466, "lat": 53.215389}}, {"id": 7289568, "name": "Palakkad district", "state": "", "country": "IN", "coord": {"lon": 76.651001, "lat": 10.775}}, {"id": 7289569, "name": "Lecherias", "state": "", "country": "VE", "coord": {"lon": -64.694069, "lat": 10.19769}}, {"id": 7289614, "name": "Halle Neustadt", "state": "", "country": "DE", "coord": {"lon": 11.91605, "lat": 51.47924}}, {"id": 7289676, "name": "Pokachi", "state": "", "country": "RU", "coord": {"lon": 75.368271, "lat": 61.719818}}, {"id": 7289682, "name": "Llanrhaeadr-ym-Mochnant", "state": "", "country": "GB", "coord": {"lon": -3.30225, "lat": 52.825069}}, {"id": 7289706, "name": "Madhya Pashchimanchal", "state": "", "country": "NP", "coord": {"lon": 82.313347, "lat": 29.059771}}, {"id": 7289707, "name": "Madhyamanchal", "state": "", "country": "NP", "coord": {"lon": 85.223007, "lat": 27.454359}}, {"id": 7289708, "name": "Purwanchal", "state": "", "country": "NP", "coord": {"lon": 87.148018, "lat": 27.239981}}, {"id": 7289709, "name": "Pashchimanchal", "state": "", "country": "NP", "coord": {"lon": 83.938293, "lat": 28.170389}}, {"id": 7289886, "name": "Fullarton", "state": "", "country": "AU", "coord": {"lon": 138.628998, "lat": -34.951}}, {"id": 7290013, "name": "Shixing", "state": "", "country": "CN", "coord": {"lon": 114.06572, "lat": 24.94824}}, {"id": 7290015, "name": "Lower Earley", "state": "", "country": "GB", "coord": {"lon": -0.91979, "lat": 51.427078}}, {"id": 7290028, "name": "K\u00e4nerkinden", "state": "", "country": "CH", "coord": {"lon": 7.83716, "lat": 47.41188}}, {"id": 7290043, "name": "Isle Of Mull", "state": "", "country": "GB", "coord": {"lon": -5.77126, "lat": 56.446892}}, {"id": 7290045, "name": "Pointe-Verte", "state": "", "country": "CA", "coord": {"lon": -65.76622, "lat": 47.854179}}, {"id": 7290048, "name": "Juniper", "state": "", "country": "CA", "coord": {"lon": -67.221573, "lat": 46.549648}}, {"id": 7290052, "name": "Pfarrwerfen", "state": "", "country": "AT", "coord": {"lon": 13.20531, "lat": 47.457291}}, {"id": 7290085, "name": "Valgatara", "state": "", "country": "IT", "coord": {"lon": 10.91191, "lat": 45.534672}}, {"id": 7290171, "name": "Plaster Rock", "state": "", "country": "CA", "coord": {"lon": -67.389969, "lat": 46.90654}}, {"id": 7290228, "name": "Garibaldi Highlands", "state": "", "country": "CA", "coord": {"lon": -123.134079, "lat": 49.733971}}, {"id": 7290234, "name": "Saint-Ferr\u00e9ol-les-Neiges", "state": "", "country": "CA", "coord": {"lon": -70.86731, "lat": 47.115471}}, {"id": 7290243, "name": "Bergedorf", "state": "", "country": "DE", "coord": {"lon": 10.22904, "lat": 53.484619}}, {"id": 7290245, "name": "Berlin Steglitz Zehlendorf", "state": "", "country": "DE", "coord": {"lon": 13.24183, "lat": 52.434849}}, {"id": 7290250, "name": "Agrilia", "state": "", "country": "GR", "coord": {"lon": 20.864321, "lat": 37.7435}}, {"id": 7290251, "name": "Berlin Wilmersdorf", "state": "", "country": "DE", "coord": {"lon": 13.29097, "lat": 52.500969}}, {"id": 7290252, "name": "Spandau", "state": "", "country": "DE", "coord": {"lon": 13.19921, "lat": 52.551102}}, {"id": 7290253, "name": "Berlin Tempelhof", "state": "", "country": "DE", "coord": {"lon": 13.41027, "lat": 52.476929}}, {"id": 7290254, "name": "Berlin Schoeneberg", "state": "", "country": "DE", "coord": {"lon": 13.34839, "lat": 52.474571}}, {"id": 7290255, "name": "Berlin Treptow", "state": "", "country": "DE", "coord": {"lon": 13.44469, "lat": 52.493759}}, {"id": 7290266, "name": "Quathiaski Cove", "state": "", "country": "CA", "coord": {"lon": -125.217529, "lat": 50.052681}}, {"id": 7290400, "name": "Frankfurt Main Flughafen", "state": "", "country": "DE", "coord": {"lon": 8.53363, "lat": 50.028702}}, {"id": 7290401, "name": "Niederrad", "state": "", "country": "DE", "coord": {"lon": 8.62852, "lat": 50.083092}}, {"id": 7290409, "name": "Kefalonia", "state": "", "country": "GR", "coord": {"lon": 20.50246, "lat": 38.122269}}, {"id": 7290410, "name": "Les \u00c9boulements", "state": "", "country": "CA", "coord": {"lon": -70.323997, "lat": 47.480549}}, {"id": 7290411, "name": "Barreiros", "state": "", "country": "ES", "coord": {"lon": -7.23342, "lat": 43.533211}}, {"id": 7290413, "name": "Pitampura", "state": "", "country": "IN", "coord": {"lon": 77.131264, "lat": 28.68964}}, {"id": 7290471, "name": "Ellera", "state": "", "country": "IT", "coord": {"lon": 12.3216, "lat": 43.08873}}, {"id": 7290494, "name": "Greenhills", "state": "", "country": "ZA", "coord": {"lon": 27.693529, "lat": -26.1611}}, {"id": 7290516, "name": "St. George", "state": "", "country": "CA", "coord": {"lon": -80.251442, "lat": 43.244949}}, {"id": 7290534, "name": "Bedford", "state": "", "country": "GB", "coord": {"lon": -0.45316, "lat": 52.188309}}, {"id": 7290535, "name": "Central Bedfordshire", "state": "", "country": "GB", "coord": {"lon": -0.42148, "lat": 51.997551}}, {"id": 7290536, "name": "Cheshire East", "state": "", "country": "GB", "coord": {"lon": -2.36245, "lat": 53.167019}}, {"id": 7290537, "name": "Cheshire West and Chester", "state": "", "country": "GB", "coord": {"lon": -2.73595, "lat": 53.163521}}, {"id": 7290538, "name": "Chiltern District", "state": "", "country": "GB", "coord": {"lon": -0.63208, "lat": 51.67844}}, {"id": 7290540, "name": "Warwick District", "state": "", "country": "GB", "coord": {"lon": -1.59166, "lat": 52.301102}}, {"id": 7290541, "name": "Chelmsford District", "state": "", "country": "GB", "coord": {"lon": 0.49226, "lat": 51.736561}}, {"id": 7290542, "name": "Colchester District", "state": "", "country": "GB", "coord": {"lon": 0.86483, "lat": 51.870941}}, {"id": 7290543, "name": "Epping Forest District", "state": "", "country": "GB", "coord": {"lon": 0.16555, "lat": 51.712818}}, {"id": 7290544, "name": "Harlow District", "state": "", "country": "GB", "coord": {"lon": 0.11266, "lat": 51.765469}}, {"id": 7290545, "name": "Maldon District", "state": "", "country": "GB", "coord": {"lon": 0.78731, "lat": 51.723282}}, {"id": 7290546, "name": "Tendring District", "state": "", "country": "GB", "coord": {"lon": 1.11561, "lat": 51.86311}}, {"id": 7290547, "name": "Uttlesford District", "state": "", "country": "GB", "coord": {"lon": 0.29535, "lat": 51.92952}}, {"id": 7290548, "name": "Cheltenham", "state": "", "country": "GB", "coord": {"lon": -2.07522, "lat": 51.898129}}, {"id": 7290549, "name": "Cotswold District", "state": "", "country": "GB", "coord": {"lon": -1.968, "lat": 51.84462}}, {"id": 7290550, "name": "Forest of Dean District", "state": "", "country": "GB", "coord": {"lon": -2.53647, "lat": 51.80479}}, {"id": 7290551, "name": "Gloucester District", "state": "", "country": "GB", "coord": {"lon": -2.23795, "lat": 51.845982}}, {"id": 7290552, "name": "Tewkesbury District", "state": "", "country": "GB", "coord": {"lon": -2.07582, "lat": 51.934502}}, {"id": 7290553, "name": "Basingstoke and Deane District", "state": "", "country": "GB", "coord": {"lon": -1.21602, "lat": 51.258209}}, {"id": 7290554, "name": "East Hampshire District", "state": "", "country": "GB", "coord": {"lon": -0.93676, "lat": 51.039452}}, {"id": 7290555, "name": "Eastleigh District", "state": "", "country": "GB", "coord": {"lon": -1.32746, "lat": 50.92263}}, {"id": 7290556, "name": "Fareham District", "state": "", "country": "GB", "coord": {"lon": -1.21114, "lat": 50.8535}}, {"id": 7290557, "name": "Gosport District", "state": "", "country": "GB", "coord": {"lon": -1.16165, "lat": 50.806198}}, {"id": 7290558, "name": "Hart District", "state": "", "country": "GB", "coord": {"lon": -0.8811, "lat": 51.275639}}, {"id": 7290559, "name": "Havant District", "state": "", "country": "GB", "coord": {"lon": -0.9892, "lat": 50.83987}}, {"id": 7290560, "name": "Rushmoor District", "state": "", "country": "GB", "coord": {"lon": -0.76692, "lat": 51.274738}}, {"id": 7290561, "name": "Test Valley District", "state": "", "country": "GB", "coord": {"lon": -1.50004, "lat": 51.133259}}, {"id": 7290562, "name": "Winchester District", "state": "", "country": "GB", "coord": {"lon": -1.24375, "lat": 51.025509}}, {"id": 7290563, "name": "Broxbourne District", "state": "", "country": "GB", "coord": {"lon": -0.04821, "lat": 51.730259}}, {"id": 7290564, "name": "Dacorum District", "state": "", "country": "GB", "coord": {"lon": -0.57377, "lat": 51.768509}}, {"id": 7290565, "name": "East Hertfordshire District", "state": "", "country": "GB", "coord": {"lon": 0.00761, "lat": 51.865219}}, {"id": 7290566, "name": "Hertsmere District", "state": "", "country": "GB", "coord": {"lon": -0.27344, "lat": 51.68037}}, {"id": 7290567, "name": "North Hertfordshire District", "state": "", "country": "GB", "coord": {"lon": -0.1644, "lat": 51.956421}}, {"id": 7290568, "name": "Stevenage District", "state": "", "country": "GB", "coord": {"lon": -0.18897, "lat": 51.90041}}, {"id": 7290569, "name": "Watford District", "state": "", "country": "GB", "coord": {"lon": -0.40263, "lat": 51.66906}}, {"id": 7290570, "name": "Ashford District", "state": "", "country": "GB", "coord": {"lon": 0.81147, "lat": 51.129299}}, {"id": 7290571, "name": "Dartford District", "state": "", "country": "GB", "coord": {"lon": 0.24851, "lat": 51.43388}}, {"id": 7290572, "name": "Maidstone District", "state": "", "country": "GB", "coord": {"lon": 0.52837, "lat": 51.275299}}, {"id": 7290573, "name": "Swale District", "state": "", "country": "GB", "coord": {"lon": 0.81066, "lat": 51.336201}}, {"id": 7290574, "name": "Tonbridge and Malling District", "state": "", "country": "GB", "coord": {"lon": 0.36528, "lat": 51.271179}}, {"id": 7290575, "name": "Tunbridge Wells District", "state": "", "country": "GB", "coord": {"lon": 0.39999, "lat": 51.101959}}, {"id": 7290576, "name": "Burnley District", "state": "", "country": "GB", "coord": {"lon": -2.22584, "lat": 53.773918}}, {"id": 7290577, "name": "Chorley District", "state": "", "country": "GB", "coord": {"lon": -2.66639, "lat": 53.672272}}, {"id": 7290578, "name": "Fylde District", "state": "", "country": "GB", "coord": {"lon": -2.92633, "lat": 53.793079}}, {"id": 7290579, "name": "Hyndburn District", "state": "", "country": "GB", "coord": {"lon": -2.38833, "lat": 53.760429}}, {"id": 7290580, "name": "Pendle District", "state": "", "country": "GB", "coord": {"lon": -2.1879, "lat": 53.878769}}, {"id": 7290581, "name": "Preston District", "state": "", "country": "GB", "coord": {"lon": -2.70932, "lat": 53.82188}}, {"id": 7290582, "name": "Ribble Valley District", "state": "", "country": "GB", "coord": {"lon": -2.41624, "lat": 53.902439}}, {"id": 7290583, "name": "Rossendale District", "state": "", "country": "GB", "coord": {"lon": -2.27663, "lat": 53.68454}}, {"id": 7290584, "name": "Charnwood District", "state": "", "country": "GB", "coord": {"lon": -1.13962, "lat": 52.738918}}, {"id": 7290585, "name": "Harborough District", "state": "", "country": "GB", "coord": {"lon": -1.00808, "lat": 52.538181}}, {"id": 7290586, "name": "Hinckley and Bosworth District", "state": "", "country": "GB", "coord": {"lon": -1.38402, "lat": 52.60778}}, {"id": 7290587, "name": "Melton District", "state": "", "country": "GB", "coord": {"lon": -0.8538, "lat": 52.811409}}, {"id": 7290588, "name": "Boston District", "state": "", "country": "GB", "coord": {"lon": -0.00233, "lat": 52.974388}}, {"id": 7290589, "name": "East Lindsey District", "state": "", "country": "GB", "coord": {"lon": 0.02194, "lat": 53.267681}}, {"id": 7290590, "name": "Lincoln District", "state": "", "country": "GB", "coord": {"lon": -0.55664, "lat": 53.220119}}, {"id": 7290591, "name": "South Holland District", "state": "", "country": "GB", "coord": {"lon": -0.01524, "lat": 52.811588}}, {"id": 7290592, "name": "South Kesteven District", "state": "", "country": "GB", "coord": {"lon": -0.5068, "lat": 52.849739}}, {"id": 7290593, "name": "West Lindsey District", "state": "", "country": "GB", "coord": {"lon": -0.47458, "lat": 53.397301}}, {"id": 7290594, "name": "Breckland District", "state": "", "country": "GB", "coord": {"lon": 0.82116, "lat": 52.589901}}, {"id": 7290595, "name": "Great Yarmouth District", "state": "", "country": "GB", "coord": {"lon": 1.6469, "lat": 52.633961}}, {"id": 7290596, "name": "King's Lynn and West Norfolk District", "state": "", "country": "GB", "coord": {"lon": 0.48929, "lat": 52.712582}}, {"id": 7290597, "name": "North Norfolk District", "state": "", "country": "GB", "coord": {"lon": 1.1936, "lat": 52.83577}}, {"id": 7290598, "name": "Norwich District", "state": "", "country": "GB", "coord": {"lon": 1.37233, "lat": 52.620152}}, {"id": 7290599, "name": "South Norfolk District", "state": "", "country": "GB", "coord": {"lon": 1.31663, "lat": 52.51651}}, {"id": 7290600, "name": "Corby District", "state": "", "country": "GB", "coord": {"lon": -0.70059, "lat": 52.506161}}, {"id": 7290601, "name": "Daventry District", "state": "", "country": "GB", "coord": {"lon": -1.0337, "lat": 52.309879}}, {"id": 7290602, "name": "East Northamptonshire District", "state": "", "country": "GB", "coord": {"lon": -0.50664, "lat": 52.448132}}, {"id": 7290603, "name": "Kettering District", "state": "", "country": "GB", "coord": {"lon": -0.75846, "lat": 52.437302}}, {"id": 7290604, "name": "South Northamptonshire District", "state": "", "country": "GB", "coord": {"lon": -1.01717, "lat": 52.117939}}, {"id": 7290605, "name": "Wellingborough District", "state": "", "country": "GB", "coord": {"lon": -0.71269, "lat": 52.27755}}, {"id": 7290606, "name": "Craven District", "state": "", "country": "GB", "coord": {"lon": -2.18927, "lat": 54.053452}}, {"id": 7290607, "name": "Hambleton District", "state": "", "country": "GB", "coord": {"lon": -1.33708, "lat": 54.250259}}, {"id": 7290608, "name": "Harrogate District", "state": "", "country": "GB", "coord": {"lon": -1.58821, "lat": 54.076321}}, {"id": 7290609, "name": "Richmondshire District", "state": "", "country": "GB", "coord": {"lon": -1.91612, "lat": 54.357288}}, {"id": 7290610, "name": "Ryedale District", "state": "", "country": "GB", "coord": {"lon": -0.84037, "lat": 54.19825}}, {"id": 7290611, "name": "Scarborough District", "state": "", "country": "GB", "coord": {"lon": -0.63685, "lat": 54.347111}}, {"id": 7290612, "name": "Selby District", "state": "", "country": "GB", "coord": {"lon": -1.12659, "lat": 53.778111}}, {"id": 7290613, "name": "Ashfield District", "state": "", "country": "GB", "coord": {"lon": -1.25288, "lat": 53.089439}}, {"id": 7290614, "name": "Bassetlaw District", "state": "", "country": "GB", "coord": {"lon": -0.9785, "lat": 53.34914}}, {"id": 7290615, "name": "Broxtowe District", "state": "", "country": "GB", "coord": {"lon": -1.25781, "lat": 52.973049}}, {"id": 7290616, "name": "Gedling District", "state": "", "country": "GB", "coord": {"lon": -1.11764, "lat": 53.02573}}, {"id": 7290617, "name": "Mansfield District", "state": "", "country": "GB", "coord": {"lon": -1.17586, "lat": 53.1749}}, {"id": 7290618, "name": "Newark and Sherwood District", "state": "", "country": "GB", "coord": {"lon": -0.92049, "lat": 53.108681}}, {"id": 7290619, "name": "Rushcliffe District", "state": "", "country": "GB", "coord": {"lon": -1.04368, "lat": 52.912319}}, {"id": 7290620, "name": "Cherwell District", "state": "", "country": "GB", "coord": {"lon": -1.2835, "lat": 51.974251}}, {"id": 7290621, "name": "Oxford District", "state": "", "country": "GB", "coord": {"lon": -1.23854, "lat": 51.753151}}, {"id": 7290622, "name": "West Oxfordshire District", "state": "", "country": "GB", "coord": {"lon": -1.50136, "lat": 51.839882}}, {"id": 7290623, "name": "Mendip District", "state": "", "country": "GB", "coord": {"lon": -2.54222, "lat": 51.193981}}, {"id": 7290624, "name": "Sedgemoor District", "state": "", "country": "GB", "coord": {"lon": -2.9619, "lat": 51.186409}}, {"id": 7290625, "name": "South Somerset District", "state": "", "country": "GB", "coord": {"lon": -2.70785, "lat": 50.983749}}, {"id": 7290626, "name": "Taunton Deane District", "state": "", "country": "GB", "coord": {"lon": -3.14856, "lat": 51.004211}}, {"id": 7290628, "name": "Lichfield District", "state": "", "country": "GB", "coord": {"lon": -1.7733, "lat": 52.695999}}, {"id": 7290629, "name": "Newcastle-under-Lyme District", "state": "", "country": "GB", "coord": {"lon": -2.32455, "lat": 52.994598}}, {"id": 7290630, "name": "South Staffordshire District", "state": "", "country": "GB", "coord": {"lon": -2.15319, "lat": 52.604481}}, {"id": 7290631, "name": "Stafford District", "state": "", "country": "GB", "coord": {"lon": -2.17342, "lat": 52.847481}}, {"id": 7290632, "name": "Tamworth District", "state": "", "country": "GB", "coord": {"lon": -1.6829, "lat": 52.62273}}, {"id": 7290634, "name": "Ipswich District", "state": "", "country": "GB", "coord": {"lon": 1.16719, "lat": 52.056839}}, {"id": 7290635, "name": "Mid Suffolk District", "state": "", "country": "GB", "coord": {"lon": 1.1053, "lat": 52.234322}},