[{"id": 7905231, "name": "Guanshan", "state": "", "country": "CN", "coord": {"lon": 114.403389, "lat": 30.50658}}, {"id": 7905235, "name": "Wangdian", "state": "", "country": "CN", "coord": {"lon": 114.477173, "lat": 30.50856}}, {"id": 7905236, "name": "Huashan", "state": "", "country": "CN", "coord": {"lon": 114.514107, "lat": 30.54278}}, {"id": 7905237, "name": "Zuoling", "state": "", "country": "CN", "coord": {"lon": 114.600342, "lat": 30.532841}}, {"id": 7905243, "name": "Baiyushan", "state": "", "country": "CN", "coord": {"lon": 114.487534, "lat": 30.60474}}, {"id": 7905244, "name": "Wudong", "state": "", "country": "CN", "coord": {"lon": 114.454559, "lat": 30.58234}}, {"id": 7905246, "name": "Hongqi", "state": "", "country": "CN", "coord": {"lon": 114.431847, "lat": 30.605989}}, {"id": 7905248, "name": "Heping", "state": "", "country": "CN", "coord": {"lon": 114.38842, "lat": 30.62907}}, {"id": 7905249, "name": "Dujiajing", "state": "", "country": "CN", "coord": {"lon": 114.45623, "lat": 30.662121}}, {"id": 7905250, "name": "Shizishan", "state": "", "country": "CN", "coord": {"lon": 114.329201, "lat": 30.485729}}, {"id": 7905257, "name": "Minji", "state": "", "country": "CN", "coord": {"lon": 114.130249, "lat": 30.84145}}, {"id": 7905258, "name": "Zhuzhan", "state": "", "country": "CN", "coord": {"lon": 114.155197, "lat": 30.92676}}, {"id": 7905285, "name": "Sancha", "state": "", "country": "CN", "coord": {"lon": 114.059288, "lat": 30.944941}}, {"id": 7905352, "name": "Dongfenglu", "state": "", "country": "CN", "coord": {"lon": 114.963821, "lat": 30.09271}}, {"id": 7905353, "name": "Majiao", "state": "", "country": "CN", "coord": {"lon": 114.929482, "lat": 30.063589}}, {"id": 7905354, "name": "Mingshan", "state": "", "country": "CN", "coord": {"lon": 114.759377, "lat": 30.06044}}, {"id": 7905355, "name": "Laoxialu", "state": "", "country": "CN", "coord": {"lon": 114.974251, "lat": 30.186979}}, {"id": 7905356, "name": "Xinmiao", "state": "", "country": "CN", "coord": {"lon": 114.926064, "lat": 30.387859}}, {"id": 7905757, "name": "Liufang", "state": "", "country": "CN", "coord": {"lon": 114.448601, "lat": 30.44523}}, {"id": 7905767, "name": "N\u0101\u1e29iyat as Sab\u2018 Biy\u0101r", "state": "", "country": "SY", "coord": {"lon": 38.008179, "lat": 33.53228}}, {"id": 7908931, "name": "Kgome", "state": "", "country": "BW", "coord": {"lon": 24.65811, "lat": -24.589211}}, {"id": 7909030, "name": "Bairro Novo", "state": "", "country": "AO", "coord": {"lon": 17.70953, "lat": -14.6726}}, {"id": 7909705, "name": "Santa Cruz de los Taques", "state": "", "country": "VE", "coord": {"lon": -70.256371, "lat": 11.8235}}, {"id": 7909799, "name": "Nebelberg", "state": "", "country": "AT", "coord": {"lon": 13.84629, "lat": 48.62854}}, {"id": 7909807, "name": "South Sudan", "state": "", "country": "SS", "coord": {"lon": 31.59428, "lat": 4.84023}}, {"id": 7909809, "name": "Selfkant", "state": "", "country": "DE", "coord": {"lon": 5.92978, "lat": 51.022121}}, {"id": 7910024, "name": "Binalong Bay", "state": "", "country": "AU", "coord": {"lon": 148.311646, "lat": -41.251141}}, {"id": 7910033, "name": "Buller District", "state": "", "country": "NZ", "coord": {"lon": 172.008957, "lat": -41.649288}}, {"id": 7910034, "name": "Central Hawke's Bay District", "state": "", "country": "NZ", "coord": {"lon": 176.530594, "lat": -40.055679}}, {"id": 7910035, "name": "Central Otago District", "state": "", "country": "NZ", "coord": {"lon": 169.604065, "lat": -45.130878}}, {"id": 7910036, "name": "Christchurch City", "state": "", "country": "NZ", "coord": {"lon": 172.745865, "lat": -43.645779}}, {"id": 7910037, "name": "Clutha District", "state": "", "country": "NZ", "coord": {"lon": 169.606171, "lat": -46.03883}}, {"id": 7910038, "name": "Dunedin City", "state": "", "country": "NZ", "coord": {"lon": 170.243683, "lat": -45.640511}}, {"id": 7910039, "name": "Far North District", "state": "", "country": "NZ", "coord": {"lon": 173.488403, "lat": -35.033588}}, {"id": 7910040, "name": "Grey District", "state": "", "country": "NZ", "coord": {"lon": 171.662445, "lat": -42.409401}}, {"id": 7910041, "name": "Hamilton City", "state": "", "country": "NZ", "coord": {"lon": 175.25975, "lat": -37.777901}}, {"id": 7910042, "name": "Hauraki District", "state": "", "country": "NZ", "coord": {"lon": 175.580215, "lat": -37.294151}}, {"id": 7910043, "name": "Horowhenua District", "state": "", "country": "NZ", "coord": {"lon": 175.380707, "lat": -40.577332}}, {"id": 7910044, "name": "Hurunui District", "state": "", "country": "NZ", "coord": {"lon": 172.691803, "lat": -42.667419}}, {"id": 7910045, "name": "Invercargill City", "state": "", "country": "NZ", "coord": {"lon": 168.370026, "lat": -46.487862}}, {"id": 7910046, "name": "Kaikoura District", "state": "", "country": "NZ", "coord": {"lon": 173.622025, "lat": -42.236408}}, {"id": 7910047, "name": "Kaipara District", "state": "", "country": "NZ", "coord": {"lon": 174.046875, "lat": -35.995461}}, {"id": 7910048, "name": "Kapiti Coast District", "state": "", "country": "NZ", "coord": {"lon": 175.146896, "lat": -40.856819}}, {"id": 7910049, "name": "Lower Hutt City", "state": "", "country": "NZ", "coord": {"lon": 174.967468, "lat": -41.28479}}, {"id": 7910050, "name": "Mackenzie District", "state": "", "country": "NZ", "coord": {"lon": 170.519135, "lat": -43.939869}}, {"id": 7910051, "name": "Manawatu District", "state": "", "country": "NZ", "coord": {"lon": 175.674255, "lat": -40.119789}}, {"id": 7910052, "name": "Marlborough District", "state": "", "country": "NZ", "coord": {"lon": 173.588333, "lat": -41.569328}}, {"id": 7910053, "name": "Matamata-Piako District", "state": "", "country": "NZ", "coord": {"lon": 175.672546, "lat": -37.685452}}, {"id": 7910054, "name": "Napier City", "state": "", "country": "NZ", "coord": {"lon": 176.868866, "lat": -39.479328}}, {"id": 7910055, "name": "Nelson City", "state": "", "country": "NZ", "coord": {"lon": 173.387604, "lat": -41.222271}}, {"id": 7910056, "name": "Palmerston North City", "state": "", "country": "NZ", "coord": {"lon": 175.643967, "lat": -40.401901}}, {"id": 7910057, "name": "Porirua City", "state": "", "country": "NZ", "coord": {"lon": 174.883163, "lat": -41.08403}}, {"id": 7910058, "name": "Queenstown-Lakes District", "state": "", "country": "NZ", "coord": {"lon": 168.918091, "lat": -44.661491}}, {"id": 7910059, "name": "Ruapehu District", "state": "", "country": "NZ", "coord": {"lon": 175.408005, "lat": -39.088539}}, {"id": 7910060, "name": "Selwyn District", "state": "", "country": "NZ", "coord": {"lon": 171.870636, "lat": -43.322262}}, {"id": 7910061, "name": "Southland District", "state": "", "country": "NZ", "coord": {"lon": 167.852661, "lat": -45.77256}}, {"id": 7910062, "name": "South Taranaki District", "state": "", "country": "NZ", "coord": {"lon": 174.371597, "lat": -39.521561}}, {"id": 7910063, "name": "South Waikato District", "state": "", "country": "NZ", "coord": {"lon": 175.886246, "lat": -38.167969}}, {"id": 7910065, "name": "Tasman District", "state": "", "country": "NZ", "coord": {"lon": 172.695862, "lat": -41.301891}}, {"id": 7910066, "name": "Tauranga City", "state": "", "country": "NZ", "coord": {"lon": 176.244507, "lat": -37.69733}}, {"id": 7910067, "name": "Upper Hutt City", "state": "", "country": "NZ", "coord": {"lon": 175.132858, "lat": -41.087769}}, {"id": 7910068, "name": "Waikato District", "state": "", "country": "NZ", "coord": {"lon": 175.100952, "lat": -37.515781}}, {"id": 7910069, "name": "Waimakariri District", "state": "", "country": "NZ", "coord": {"lon": 172.332855, "lat": -43.2075}}, {"id": 7910070, "name": "Waipa District", "state": "", "country": "NZ", "coord": {"lon": 175.358185, "lat": -37.983849}}, {"id": 7910071, "name": "Wanganui District", "state": "", "country": "NZ", "coord": {"lon": 175.140823, "lat": -39.63554}}, {"id": 7910072, "name": "Wellington City", "state": "", "country": "NZ", "coord": {"lon": 174.754242, "lat": -41.252998}}, {"id": 7910073, "name": "Western Bay of Plenty District", "state": "", "country": "NZ", "coord": {"lon": 176.204437, "lat": -37.700031}}, {"id": 7910088, "name": "Uyen Hung", "state": "", "country": "VN", "coord": {"lon": 106.788338, "lat": 11.08416}}, {"id": 7910166, "name": "Natuashish", "state": "", "country": "CA", "coord": {"lon": -61.124149, "lat": 55.915642}}, {"id": 7910261, "name": "Woodthorpe", "state": "", "country": "GB", "coord": {"lon": -1.12867, "lat": 52.988991}}, {"id": 7910263, "name": "Indian Brook", "state": "", "country": "CA", "coord": {"lon": -60.532742, "lat": 46.384491}}, {"id": 7910366, "name": "Lansdowne", "state": "", "country": "CA", "coord": {"lon": -76.083328, "lat": 44.450001}}, {"id": 7910368, "name": "Sans Souci", "state": "", "country": "LC", "coord": {"lon": -60.989479, "lat": 14.01736}}, {"id": 7910389, "name": "Gubener Vorstadt", "state": "", "country": "DE", "coord": {"lon": 14.41917, "lat": 51.869068}}, {"id": 7910491, "name": "Jomsom", "state": "", "country": "NP", "coord": {"lon": 83.73513, "lat": 28.784361}}, {"id": 7910632, "name": "Vilufushi", "state": "", "country": "MV", "coord": {"lon": 73.308594, "lat": 2.50306}}, {"id": 7910855, "name": "Toijala", "state": "", "country": "FI", "coord": {"lon": 23.83819, "lat": 61.1678}}, {"id": 7910877, "name": "Fanari", "state": "", "country": "GR", "coord": {"lon": 26.35247, "lat": 37.674068}}, {"id": 7910918, "name": "Bakio", "state": "", "country": "ES", "coord": {"lon": -2.80881, "lat": 43.429169}}, {"id": 7910920, "name": "B\u00fcnzen", "state": "", "country": "CH", "coord": {"lon": 8.3324, "lat": 47.316769}}, {"id": 7910925, "name": "Kota Ternate", "state": "", "country": "ID", "coord": {"lon": 127.366669, "lat": 0.78333}}, {"id": 7910966, "name": "Beheira", "state": "", "country": "EG", "coord": {"lon": 30.34355, "lat": 30.51478}}, {"id": 7910975, "name": "Santa Cruz de Mompox", "state": "", "country": "CO", "coord": {"lon": -74.416672, "lat": 9.23333}}, {"id": 7911024, "name": "Madifushi", "state": "", "country": "MV", "coord": {"lon": 73.354729, "lat": 2.35582}}, {"id": 7911271, "name": "Canvey Island", "state": "", "country": "GB", "coord": {"lon": 0.5809, "lat": 51.521992}}, {"id": 7911309, "name": "Parainen", "state": "", "country": "FI", "coord": {"lon": 22.3004, "lat": 60.29972}}, {"id": 7911338, "name": "Jishi", "state": "", "country": "CN", "coord": {"lon": 102.481712, "lat": 35.84613}}, {"id": 7911405, "name": "Isingiro", "state": "", "country": "UG", "coord": {"lon": 30.830191, "lat": -0.86864}}, {"id": 7911406, "name": "Manafwa", "state": "", "country": "UG", "coord": {"lon": 34.374298, "lat": 0.97842}}, {"id": 7911407, "name": "Oyam", "state": "", "country": "UG", "coord": {"lon": 32.384949, "lat": 2.235}}, {"id": 7911643, "name": "Ciharus", "state": "", "country": "ID", "coord": {"lon": 107.819603, "lat": -7.3808}}, {"id": 7911658, "name": "Barubandung", "state": "", "country": "ID", "coord": {"lon": 107.830704, "lat": -7.3858}}, {"id": 7911665, "name": "Pawitra", "state": "", "country": "ID", "coord": {"lon": 107.870598, "lat": -7.3959}}, {"id": 7911670, "name": "Cikembar", "state": "", "country": "ID", "coord": {"lon": 107.8386, "lat": -7.3977}}, {"id": 7911684, "name": "Talagajaya", "state": "", "country": "ID", "coord": {"lon": 107.872704, "lat": -7.4158}}, {"id": 7911708, "name": "Potongan", "state": "", "country": "ID", "coord": {"lon": 107.835403, "lat": -7.4374}}, {"id": 7911765, "name": "Pasanggrahan", "state": "", "country": "ID", "coord": {"lon": 107.8601, "lat": -7.4991}}, {"id": 7911864, "name": "Amerta", "state": "", "country": "ID", "coord": {"lon": 107.774002, "lat": -7.277}}, {"id": 7911879, "name": "Simpang", "state": "", "country": "ID", "coord": {"lon": 107.775597, "lat": -7.3669}}, {"id": 7911885, "name": "Panyingkiran", "state": "", "country": "ID", "coord": {"lon": 107.780403, "lat": -7.354}}, {"id": 7911926, "name": "Ciwaru", "state": "", "country": "ID", "coord": {"lon": 107.7864, "lat": -7.2946}}, {"id": 7911929, "name": "Paledang", "state": "", "country": "ID", "coord": {"lon": 107.790901, "lat": -7.3096}}, {"id": 7911933, "name": "Cisero", "state": "", "country": "ID", "coord": {"lon": 107.7938, "lat": -7.3207}}, {"id": 7911934, "name": "Cipaku", "state": "", "country": "ID", "coord": {"lon": 107.755096, "lat": -7.3707}}, {"id": 7911937, "name": "Cidatar Kulon", "state": "", "country": "ID", "coord": {"lon": 107.7939, "lat": -7.3278}}, {"id": 7911939, "name": "Sukatani", "state": "", "country": "ID", "coord": {"lon": 107.788597, "lat": -7.3434}}, {"id": 7911957, "name": "Sirnagalih", "state": "", "country": "ID", "coord": {"lon": 107.799896, "lat": -7.3505}}, {"id": 7911972, "name": "Pasar Kidul", "state": "", "country": "ID", "coord": {"lon": 107.793602, "lat": -7.3109}}, {"id": 7911995, "name": "Sukawangsa", "state": "", "country": "ID", "coord": {"lon": 107.801102, "lat": -7.2589}}, {"id": 7912000, "name": "Rancabolang", "state": "", "country": "ID", "coord": {"lon": 107.803101, "lat": -7.2715}}, {"id": 7912002, "name": "Pangauban", "state": "", "country": "ID", "coord": {"lon": 107.803497, "lat": -7.2736}}, {"id": 7912004, "name": "Cigintung", "state": "", "country": "ID", "coord": {"lon": 107.807899, "lat": -7.2793}}, {"id": 7912006, "name": "Losari", "state": "", "country": "ID", "coord": {"lon": 107.805199, "lat": -7.2924}}, {"id": 7912010, "name": "Gudang", "state": "", "country": "ID", "coord": {"lon": 107.7967, "lat": -7.307}}, {"id": 7912013, "name": "Cigeudeug", "state": "", "country": "ID", "coord": {"lon": 107.806999, "lat": -7.3311}}, {"id": 7912022, "name": "Padasono", "state": "", "country": "ID", "coord": {"lon": 107.803398, "lat": -7.3559}}, {"id": 7912030, "name": "Cibodas", "state": "", "country": "ID", "coord": {"lon": 107.814598, "lat": -7.3626}}, {"id": 7912031, "name": "Barusuda", "state": "", "country": "ID", "coord": {"lon": 107.812698, "lat": -7.3525}}, {"id": 7912037, "name": "Kandangsapi", "state": "", "country": "ID", "coord": {"lon": 107.811401, "lat": -7.314}}, {"id": 7912043, "name": "Nagaracinta", "state": "", "country": "ID", "coord": {"lon": 107.814301, "lat": -7.2928}}, {"id": 7912070, "name": "Cipanggilingan", "state": "", "country": "ID", "coord": {"lon": 107.816399, "lat": -7.2664}}, {"id": 7912078, "name": "Cicayur", "state": "", "country": "ID", "coord": {"lon": 107.819603, "lat": -7.2864}}, {"id": 7912091, "name": "Giriawas", "state": "", "country": "ID", "coord": {"lon": 107.821297, "lat": -7.364}}, {"id": 7912108, "name": "Tegalsari", "state": "", "country": "ID", "coord": {"lon": 107.831299, "lat": -7.2955}}, {"id": 7912116, "name": "Cinisti", "state": "", "country": "ID", "coord": {"lon": 107.829803, "lat": -7.2689}}, {"id": 7912120, "name": "Urug", "state": "", "country": "ID", "coord": {"lon": 107.832397, "lat": -7.2549}}, {"id": 7912121, "name": "Dangdeur", "state": "", "country": "ID", "coord": {"lon": 107.829399, "lat": -7.2525}}, {"id": 7912132, "name": "Ciela Lebak", "state": "", "country": "ID", "coord": {"lon": 107.836899, "lat": -7.2667}}, {"id": 7912142, "name": "Nangoh Tonggoh", "state": "", "country": "ID", "coord": {"lon": 107.847801, "lat": -7.2672}}, {"id": 7912148, "name": "Gudang", "state": "", "country": "ID", "coord": {"lon": 107.854698, "lat": -7.2605}}, {"id": 7912150, "name": "Cimacan", "state": "", "country": "ID", "coord": {"lon": 107.858002, "lat": -7.2633}}, {"id": 7912160, "name": "Bangbayang", "state": "", "country": "ID", "coord": {"lon": 107.862297, "lat": -7.2641}}, {"id": 7912164, "name": "Bebedahan", "state": "", "country": "ID", "coord": {"lon": 107.874603, "lat": -7.2599}}, {"id": 7913970, "name": "Cibalieur", "state": "", "country": "ID", "coord": {"lon": 107.882599, "lat": -7.6965}}, {"id": 7914018, "name": "Ciandum", "state": "", "country": "ID", "coord": {"lon": 107.997498, "lat": -7.7358}}, {"id": 7914025, "name": "Simpang", "state": "", "country": "ID", "coord": {"lon": 107.906601, "lat": -7.6401}}, {"id": 7914051, "name": "Nagrog", "state": "", "country": "ID", "coord": {"lon": 107.983803, "lat": -7.6598}}, {"id": 7914075, "name": "Babakankiray", "state": "", "country": "ID", "coord": {"lon": 107.965103, "lat": -7.6839}}, {"id": 7914099, "name": "Cipanas", "state": "", "country": "ID", "coord": {"lon": 107.968102, "lat": -7.7198}}, {"id": 7914109, "name": "Ciheras", "state": "", "country": "ID", "coord": {"lon": 107.962196, "lat": -7.7309}}, {"id": 7914397, "name": "Cibeureum", "state": "", "country": "ID", "coord": {"lon": 107.915802, "lat": -7.5039}}, {"id": 7914414, "name": "Kebonkai", "state": "", "country": "ID", "coord": {"lon": 107.967003, "lat": -7.5025}}, {"id": 7914416, "name": "Cibuntiris", "state": "", "country": "ID", "coord": {"lon": 107.977501, "lat": -7.5064}}, {"id": 7914436, "name": "Kertanegla", "state": "", "country": "ID", "coord": {"lon": 107.957497, "lat": -7.5128}}, {"id": 7914479, "name": "Saribakti", "state": "", "country": "ID", "coord": {"lon": 107.930603, "lat": -7.5341}}, {"id": 7914507, "name": "Parabon", "state": "", "country": "ID", "coord": {"lon": 107.9207, "lat": -7.5351}}, {"id": 7914521, "name": "Awilega", "state": "", "country": "ID", "coord": {"lon": 107.9841, "lat": -7.5391}}, {"id": 7914555, "name": "Pangrumasan", "state": "", "country": "ID", "coord": {"lon": 107.897301, "lat": -7.5661}}, {"id": 7914558, "name": "Pasirirnem", "state": "", "country": "ID", "coord": {"lon": 107.924202, "lat": -7.5647}}, {"id": 7914577, "name": "Datarnangka", "state": "", "country": "ID", "coord": {"lon": 107.957497, "lat": -7.5711}}, {"id": 7914611, "name": "Cicomre", "state": "", "country": "ID", "coord": {"lon": 107.955902, "lat": -7.5953}}, {"id": 7914639, "name": "Cirangkong", "state": "", "country": "ID", "coord": {"lon": 107.9291, "lat": -7.6232}}, {"id": 7914842, "name": "Sukamanah", "state": "", "country": "ID", "coord": {"lon": 107.987602, "lat": -7.3932}}, {"id": 7914874, "name": "Cikondang", "state": "", "country": "ID", "coord": {"lon": 107.881302, "lat": -7.409}}, {"id": 7914885, "name": "Padahurip", "state": "", "country": "ID", "coord": {"lon": 107.915604, "lat": -7.4133}}, {"id": 7914901, "name": "Sawahbaru", "state": "", "country": "ID", "coord": {"lon": 107.996399, "lat": -7.4213}}, {"id": 7914908, "name": "Talagasari", "state": "", "country": "ID", "coord": {"lon": 107.923103, "lat": -7.4205}}, {"id": 7914914, "name": "Parungjawa", "state": "", "country": "ID", "coord": {"lon": 107.902496, "lat": -7.4201}}, {"id": 7914959, "name": "Cikokong", "state": "", "country": "ID", "coord": {"lon": 107.893997, "lat": -7.4469}}, {"id": 7914999, "name": "Kudang", "state": "", "country": "ID", "coord": {"lon": 107.971603, "lat": -7.4565}}, {"id": 7915023, "name": "Jayabakti", "state": "", "country": "ID", "coord": {"lon": 107.884903, "lat": -7.4528}}, {"id": 7915041, "name": "Nangkapayung", "state": "", "country": "ID", "coord": {"lon": 107.9217, "lat": -7.4599}}, {"id": 7915045, "name": "Pancasura", "state": "", "country": "ID", "coord": {"lon": 107.934196, "lat": -7.4637}}, {"id": 7915065, "name": "Ancol", "state": "", "country": "ID", "coord": {"lon": 107.985603, "lat": -7.4599}}, {"id": 7915079, "name": "Sukawangi", "state": "", "country": "ID", "coord": {"lon": 107.9366, "lat": -7.4709}}, {"id": 7915091, "name": "Cikadu", "state": "", "country": "ID", "coord": {"lon": 107.891998, "lat": -7.473}}, {"id": 7915112, "name": "Cibitung", "state": "", "country": "ID", "coord": {"lon": 107.923302, "lat": -7.4831}}, {"id": 7915163, "name": "Cigintung", "state": "", "country": "ID", "coord": {"lon": 107.915802, "lat": -7.4857}}, {"id": 7915191, "name": "Cijoho", "state": "", "country": "ID", "coord": {"lon": 107.930557, "lat": -7.49587}}, {"id": 7915400, "name": "Khurs\u0101", "state": "", "country": "PS", "coord": {"lon": 35.017422, "lat": 31.482321}}, {"id": 7915956, "name": "Guanyinge", "state": "", "country": "CN", "coord": {"lon": 124.114609, "lat": 41.313332}}, {"id": 7916068, "name": "Zhangdian", "state": "", "country": "CN", "coord": {"lon": 124.041351, "lat": 41.8172}}, {"id": 7916170, "name": "Mas\u0101kin al Akhsh\u0101b wa ash Sh\u0101y", "state": "", "country": "EG", "coord": {"lon": 31.23937, "lat": 30.125549}}, {"id": 7916197, "name": "Kondangrege", "state": "", "country": "ID", "coord": {"lon": 107.889999, "lat": -7.2721}}, {"id": 7916203, "name": "Desakolot", "state": "", "country": "ID", "coord": {"lon": 107.892998, "lat": -7.2562}}, {"id": 7916206, "name": "Cimaung Kidul", "state": "", "country": "ID", "coord": {"lon": 107.897903, "lat": -7.2609}}, {"id": 7916210, "name": "Cikuwiwi", "state": "", "country": "ID", "coord": {"lon": 107.8936, "lat": -7.2794}}, {"id": 7916233, "name": "Pasirlimus", "state": "", "country": "ID", "coord": {"lon": 107.899696, "lat": -7.2779}}, {"id": 7916245, "name": "Babakan Loak", "state": "", "country": "ID", "coord": {"lon": 107.913002, "lat": -7.2916}}, {"id": 7916262, "name": "Cinyawar", "state": "", "country": "ID", "coord": {"lon": 107.924103, "lat": -7.3325}}, {"id": 7916273, "name": "Cigarungsang", "state": "", "country": "ID", "coord": {"lon": 107.923599, "lat": -7.2973}}, {"id": 7916275, "name": "Cigadog", "state": "", "country": "ID", "coord": {"lon": 107.9216, "lat": -7.2825}}, {"id": 7916286, "name": "Babakan Baru", "state": "", "country": "ID", "coord": {"lon": 107.927101, "lat": -7.2515}}, {"id": 7916302, "name": "Pasirhuni", "state": "", "country": "ID", "coord": {"lon": 107.930199, "lat": -7.2975}}, {"id": 7916316, "name": "Sukamukti", "state": "", "country": "ID", "coord": {"lon": 107.939598, "lat": -7.3727}}, {"id": 7916326, "name": "Bojongloa", "state": "", "country": "ID", "coord": {"lon": 107.932701, "lat": -7.3199}}, {"id": 7916351, "name": "Balemoyan", "state": "", "country": "ID", "coord": {"lon": 107.945198, "lat": -7.3174}}, {"id": 7916359, "name": "Citeguh", "state": "", "country": "ID", "coord": {"lon": 107.951302, "lat": -7.3372}}, {"id": 7916393, "name": "Pangalengan", "state": "", "country": "ID", "coord": {"lon": 107.965797, "lat": -7.3473}}, {"id": 7916403, "name": "Cilated", "state": "", "country": "ID", "coord": {"lon": 107.970299, "lat": -7.3312}}, {"id": 7916411, "name": "Langkop", "state": "", "country": "ID", "coord": {"lon": 107.982903, "lat": -7.3603}}, {"id": 7916440, "name": "Pawitan", "state": "", "country": "ID", "coord": {"lon": 107.997101, "lat": -7.3653}}, {"id": 7916455, "name": "Babakan Sukasari", "state": "", "country": "ID", "coord": {"lon": 107.882896, "lat": -7.2696}}, {"id": 7916466, "name": "Sundawenang", "state": "", "country": "ID", "coord": {"lon": 107.998299, "lat": -7.3719}}, {"id": 7918493, "name": "Ban Bon", "state": "", "country": "TH", "coord": {"lon": 104.073608, "lat": 17.08703}}, {"id": 7918578, "name": "Ban Nong Bua Yai", "state": "", "country": "TH", "coord": {"lon": 104.125168, "lat": 17.186609}}, {"id": 7919994, "name": "Guanyingou", "state": "", "country": "CN", "coord": {"lon": 123.208008, "lat": 40.20808}}, {"id": 7920232, "name": "Heigou", "state": "", "country": "CN", "coord": {"lon": 123.606956, "lat": 40.081772}}, {"id": 7920233, "name": "Bahui", "state": "", "country": "CN", "coord": {"lon": 123.200363, "lat": 40.93187}}, {"id": 7920235, "name": "Chaoyang", "state": "", "country": "CN", "coord": {"lon": 123.550629, "lat": 40.45742}}, {"id": 7920259, "name": "Sikluk", "state": "", "country": "ID", "coord": {"lon": 107.960297, "lat": -7.1258}}, {"id": 7920270, "name": "Pasirjengkol", "state": "", "country": "ID", "coord": {"lon": 107.990303, "lat": -7.1267}}, {"id": 7920276, "name": "Neglasari", "state": "", "country": "ID", "coord": {"lon": 107.995102, "lat": -7.1267}}, {"id": 7920283, "name": "Jembatandua", "state": "", "country": "ID", "coord": {"lon": 107.9879, "lat": -7.1361}}, {"id": 7920293, "name": "Batukarut", "state": "", "country": "ID", "coord": {"lon": 107.971298, "lat": -7.1366}}, {"id": 7920306, "name": "Babakanloa", "state": "", "country": "ID", "coord": {"lon": 107.948097, "lat": -7.1361}}, {"id": 7920314, "name": "Pangeureunan", "state": "", "country": "ID", "coord": {"lon": 107.931801, "lat": -7.1376}}, {"id": 7920335, "name": "Karobokan", "state": "", "country": "ID", "coord": {"lon": 107.8797, "lat": -7.1831}}, {"id": 7920342, "name": "Nagara Tengah", "state": "", "country": "ID", "coord": {"lon": 107.883598, "lat": -7.1934}}, {"id": 7920372, "name": "Panunggangan", "state": "", "country": "ID", "coord": {"lon": 107.887398, "lat": -7.2274}}, {"id": 7920373, "name": "Besarmanah", "state": "", "country": "ID", "coord": {"lon": 107.8918, "lat": -7.2249}}, {"id": 7920377, "name": "Panawuan", "state": "", "country": "ID", "coord": {"lon": 107.884201, "lat": -7.2147}}, {"id": 7920378, "name": "Astana Hilir", "state": "", "country": "ID", "coord": {"lon": 107.889137, "lat": -7.21021}}, {"id": 7920391, "name": "Kalidung", "state": "", "country": "ID", "coord": {"lon": 107.890198, "lat": -7.1913}}, {"id": 7920402, "name": "Pangkalan", "state": "", "country": "ID", "coord": {"lon": 107.884399, "lat": -7.1773}}, {"id": 7920417, "name": "Warungtanjung", "state": "", "country": "ID", "coord": {"lon": 107.893501, "lat": -7.1685}}, {"id": 7920418, "name": "Perum", "state": "", "country": "ID", "coord": {"lon": 107.897499, "lat": -7.17}}, {"id": 7920440, "name": "Jayaraga Kaler", "state": "", "country": "ID", "coord": {"lon": 107.900398, "lat": -7.2043}}, {"id": 7920445, "name": "Rengganis", "state": "", "country": "ID", "coord": {"lon": 107.898598, "lat": -7.2127}}, {"id": 7920455, "name": "Cangkuang", "state": "", "country": "ID", "coord": {"lon": 107.901001, "lat": -7.228}}, {"id": 7920471, "name": "Cilongkrangpasantren", "state": "", "country": "ID", "coord": {"lon": 107.9897, "lat": -7.2044}}, {"id": 7920474, "name": "Pataruman", "state": "", "country": "ID", "coord": {"lon": 107.991096, "lat": -7.1966}}, {"id": 7920475, "name": "Tegalpanjang", "state": "", "country": "ID", "coord": {"lon": 107.983902, "lat": -7.1932}}, {"id": 7920490, "name": "Citangtu Kaler", "state": "", "country": "ID", "coord": {"lon": 107.988998, "lat": -7.1675}}, {"id": 7920492, "name": "Sukagalih", "state": "", "country": "ID", "coord": {"lon": 107.978302, "lat": -7.1462}}, {"id": 7920493, "name": "Samanggen", "state": "", "country": "ID", "coord": {"lon": 107.983803, "lat": -7.1679}}, {"id": 7920495, "name": "Cibeureum", "state": "", "country": "ID", "coord": {"lon": 107.993301, "lat": -7.1597}}, {"id": 7920501, "name": "Pangatikan", "state": "", "country": "ID", "coord": {"lon": 107.988297, "lat": -7.1549}}, {"id": 7920532, "name": "Cikole Hilir", "state": "", "country": "ID", "coord": {"lon": 107.9786, "lat": -7.1679}}, {"id": 7920543, "name": "Bebedahan", "state": "", "country": "ID", "coord": {"lon": 107.9804, "lat": -7.1783}}, {"id": 7920545, "name": "Cinunuk Girang", "state": "", "country": "ID", "coord": {"lon": 107.975098, "lat": -7.1787}}, {"id": 7920554, "name": "Sadang Kulon", "state": "", "country": "ID", "coord": {"lon": 107.973602, "lat": -7.1873}}, {"id": 7920556, "name": "Lemahsari", "state": "", "country": "ID", "coord": {"lon": 107.968399, "lat": -7.1909}}, {"id": 7920557, "name": "Situsari", "state": "", "country": "ID", "coord": {"lon": 107.971901, "lat": -7.1904}}, {"id": 7920567, "name": "Jati", "state": "", "country": "ID", "coord": {"lon": 107.966904, "lat": -7.1959}}, {"id": 7920572, "name": "Peer", "state": "", "country": "ID", "coord": {"lon": 107.976501, "lat": -7.2028}}, {"id": 7920599, "name": "Sidangpalay", "state": "", "country": "ID", "coord": {"lon": 107.955498, "lat": -7.2091}}, {"id": 7920619, "name": "Sugihmukti", "state": "", "country": "ID", "coord": {"lon": 107.959702, "lat": -7.2009}}, {"id": 7920627, "name": "Pidayeuheun", "state": "", "country": "ID", "coord": {"lon": 107.959702, "lat": -7.1948}}, {"id": 7920630, "name": "Cipatat", "state": "", "country": "ID", "coord": {"lon": 107.950401, "lat": -7.1994}}, {"id": 7920634, "name": "Bojongkalapa", "state": "", "country": "ID", "coord": {"lon": 107.955704, "lat": -7.1862}}, {"id": 7920642, "name": "Cipicung", "state": "", "country": "ID", "coord": {"lon": 107.948799, "lat": -7.1762}}, {"id": 7920658, "name": "Parigi", "state": "", "country": "ID", "coord": {"lon": 107.951401, "lat": -7.1565}}, {"id": 7920665, "name": "Balakasap", "state": "", "country": "ID", "coord": {"lon": 107.962196, "lat": -7.1499}}, {"id": 7920677, "name": "Cileungsing", "state": "", "country": "ID", "coord": {"lon": 107.942398, "lat": -7.1482}}, {"id": 7920687, "name": "Rancapare", "state": "", "country": "ID", "coord": {"lon": 107.943901, "lat": -7.1568}}, {"id": 7920711, "name": "Sindanglaya", "state": "", "country": "ID", "coord": {"lon": 107.947098, "lat": -7.1989}}, {"id": 7920719, "name": "Nagrog Wetan", "state": "", "country": "ID", "coord": {"lon": 107.946899, "lat": -7.2071}}, {"id": 7920721, "name": "Sukamanah", "state": "", "country": "ID", "coord": {"lon": 107.9422, "lat": -7.203}}, {"id": 7920738, "name": "Cogreg Wetan", "state": "", "country": "ID", "coord": {"lon": 107.936699, "lat": -7.2187}}, {"id": 7920767, "name": "Cipondok", "state": "", "country": "ID", "coord": {"lon": 107.942001, "lat": -7.2388}}, {"id": 7920785, "name": "Cimaragas", "state": "", "country": "ID", "coord": {"lon": 107.908501, "lat": -7.2447}}, {"id": 7920796, "name": "Babakan", "state": "", "country": "ID", "coord": {"lon": 107.910797, "lat": -7.1543}}, {"id": 7920823, "name": "Andir", "state": "", "country": "ID", "coord": {"lon": 107.9011, "lat": -7.1548}}, {"id": 7920829, "name": "Gunungsatria", "state": "", "country": "ID", "coord": {"lon": 107.906197, "lat": -7.2256}}, {"id": 7920839, "name": "Pakuwon", "state": "", "country": "ID", "coord": {"lon": 107.903603, "lat": -7.2155}}, {"id": 7920844, "name": "Mawar", "state": "", "country": "ID", "coord": {"lon": 107.904999, "lat": -7.2124}}, {"id": 7920853, "name": "Haurpanggung", "state": "", "country": "ID", "coord": {"lon": 107.904701, "lat": -7.2056}}, {"id": 7920877, "name": "Gugunungan", "state": "", "country": "ID", "coord": {"lon": 107.912498, "lat": -7.2349}}, {"id": 7920884, "name": "Taluncemara", "state": "", "country": "ID", "coord": {"lon": 107.907799, "lat": -7.2196}}, {"id": 7920892, "name": "Ciwalen", "state": "", "country": "ID", "coord": {"lon": 107.909599, "lat": -7.2155}}, {"id": 7920896, "name": "Bentar Girang", "state": "", "country": "ID", "coord": {"lon": 107.9114, "lat": -7.2117}}, {"id": 7920901, "name": "Jangkurang Kidul", "state": "", "country": "ID", "coord": {"lon": 107.908699, "lat": -7.2072}}, {"id": 7920908, "name": "Cilolohan", "state": "", "country": "ID", "coord": {"lon": 107.912697, "lat": -7.181}}, {"id": 7920912, "name": "Ngompot", "state": "", "country": "ID", "coord": {"lon": 107.916702, "lat": -7.1733}}, {"id": 7920929, "name": "Suci Kaler", "state": "", "country": "ID", "coord": {"lon": 107.9226, "lat": -7.2157}}, {"id": 7920931, "name": "Suci Kidul", "state": "", "country": "ID", "coord": {"lon": 107.9226, "lat": -7.2175}}, {"id": 7920937, "name": "Nangerang", "state": "", "country": "ID", "coord": {"lon": 107.920998, "lat": -7.2357}}, {"id": 7920946, "name": "Cogreg Kulon", "state": "", "country": "ID", "coord": {"lon": 107.930801, "lat": -7.2187}}, {"id": 7920947, "name": "Kudang", "state": "", "country": "ID", "coord": {"lon": 107.927902, "lat": -7.2175}}, {"id": 7920960, "name": "Karangmulya", "state": "", "country": "ID", "coord": {"lon": 107.928902, "lat": -7.2073}}, {"id": 7920966, "name": "Lengkongjaya", "state": "", "country": "ID", "coord": {"lon": 107.928596, "lat": -7.2004}}, {"id": 7920968, "name": "Tegaljati", "state": "", "country": "ID", "coord": {"lon": 107.929901, "lat": -7.1949}}, {"id": 7921043, "name": "Cireundang", "state": "", "country": "ID", "coord": {"lon": 107.878189, "lat": -7.20021}}, {"id": 7921384, "name": "Gaibandha", "state": "", "country": "BD", "coord": {"lon": 89.5438, "lat": 25.3293}}, {"id": 7921409, "name": "Peujeuh", "state": "", "country": "ID", "coord": {"lon": 107.977997, "lat": -7.0152}}, {"id": 7921425, "name": "Margabakti", "state": "", "country": "ID", "coord": {"lon": 107.877098, "lat": -7.0137}}, {"id": 7921430, "name": "Cigorowong Kidul", "state": "", "country": "ID", "coord": {"lon": 107.884499, "lat": -7.022}}, {"id": 7921440, "name": "Ikar", "state": "", "country": "ID", "coord": {"lon": 107.973503, "lat": -7.0204}}, {"id": 7921450, "name": "Bakom", "state": "", "country": "ID", "coord": {"lon": 107.997803, "lat": -7.0319}}, {"id": 7921453, "name": "Kudang", "state": "", "country": "ID", "coord": {"lon": 107.9841, "lat": -7.0331}}, {"id": 7921465, "name": "Saar Kaler", "state": "", "country": "ID", "coord": {"lon": 107.925301, "lat": -7.0274}}, {"id": 7921472, "name": "Ciburial", "state": "", "country": "ID", "coord": {"lon": 107.9077, "lat": -7.0396}}, {"id": 7921476, "name": "Tegallame", "state": "", "country": "ID", "coord": {"lon": 107.937897, "lat": -7.0381}}, {"id": 7921488, "name": "Cilolongokan", "state": "", "country": "ID", "coord": {"lon": 107.971199, "lat": -7.0378}}, {"id": 7921489, "name": "Burujul", "state": "", "country": "ID", "coord": {"lon": 107.976196, "lat": -7.0376}}, {"id": 7921501, "name": "Gempol", "state": "", "country": "ID", "coord": {"lon": 107.996597, "lat": -7.0368}}, {"id": 7921527, "name": "Talun", "state": "", "country": "ID", "coord": {"lon": 107.9347, "lat": -7.0548}}, {"id": 7921537, "name": "Cigaluh", "state": "", "country": "ID", "coord": {"lon": 107.998398, "lat": -7.0526}}, {"id": 7921543, "name": "Saradan", "state": "", "country": "ID", "coord": {"lon": 107.979301, "lat": -7.0577}}, {"id": 7921568, "name": "Karangtengah", "state": "", "country": "ID", "coord": {"lon": 107.892502, "lat": -7.0744}}, {"id": 7921571, "name": "Cihuni", "state": "", "country": "ID", "coord": {"lon": 107.899696, "lat": -7.0709}}, {"id": 7921576, "name": "Sinarbakti", "state": "", "country": "ID", "coord": {"lon": 107.910698, "lat": -7.0694}}, {"id": 7921577, "name": "Tangulun", "state": "", "country": "ID", "coord": {"lon": 107.919601, "lat": -7.0688}}, {"id": 7921580, "name": "Haruman", "state": "", "country": "ID", "coord": {"lon": 107.926498, "lat": -7.072}}, {"id": 7921585, "name": "Sukasari", "state": "", "country": "ID", "coord": {"lon": 107.963799, "lat": -7.0686}}, {"id": 7921588, "name": "Bunisari", "state": "", "country": "ID", "coord": {"lon": 107.961403, "lat": -7.0724}}, {"id": 7921592, "name": "Pasantrentengah", "state": "", "country": "ID", "coord": {"lon": 107.967499, "lat": -7.0761}}, {"id": 7921603, "name": "Cileles", "state": "", "country": "ID", "coord": {"lon": 107.981201, "lat": -7.0792}}, {"id": 7921613, "name": "Situbatu", "state": "", "country": "ID", "coord": {"lon": 107.957497, "lat": -7.0763}}, {"id": 7921621, "name": "Batugede Kulon", "state": "", "country": "ID", "coord": {"lon": 107.913101, "lat": -7.0793}}, {"id": 7921643, "name": "Maribaya", "state": "", "country": "ID", "coord": {"lon": 107.876404, "lat": -7.0861}}, {"id": 7921647, "name": "Hegarsari", "state": "", "country": "ID", "coord": {"lon": 107.886902, "lat": -7.0883}}, {"id": 7921655, "name": "Slamanyah", "state": "", "country": "ID", "coord": {"lon": 107.896301, "lat": -7.0902}}, {"id": 7921660, "name": "Halteu", "state": "", "country": "ID", "coord": {"lon": 107.899101, "lat": -7.0836}}, {"id": 7921666, "name": "Babakansingkur", "state": "", "country": "ID", "coord": {"lon": 107.916, "lat": -7.091}}, {"id": 7921687, "name": "Citambal", "state": "", "country": "ID", "coord": {"lon": 107.994698, "lat": -7.0884}}, {"id": 7921690, "name": "Ciranca", "state": "", "country": "ID", "coord": {"lon": 107.998001, "lat": -7.0832}}, {"id": 7921697, "name": "Cibodas", "state": "", "country": "ID", "coord": {"lon": 107.985802, "lat": -7.0962}}, {"id": 7921717, "name": "Cibolang", "state": "", "country": "ID", "coord": {"lon": 107.933296, "lat": -7.0927}}, {"id": 7921738, "name": "Nangkasari", "state": "", "country": "ID", "coord": {"lon": 107.882698, "lat": -7.0984}}, {"id": 7921739, "name": "Ciharus", "state": "", "country": "ID", "coord": {"lon": 107.877296, "lat": -7.0977}}, {"id": 7921745, "name": "Salamnunggal", "state": "", "country": "ID", "coord": {"lon": 107.898003, "lat": -7.1064}}, {"id": 7921755, "name": "Dungusiku", "state": "", "country": "ID", "coord": {"lon": 107.932297, "lat": -7.1077}}, {"id": 7921761, "name": "Sarkanjut", "state": "", "country": "ID", "coord": {"lon": 107.941727, "lat": -7.10896}}, {"id": 7921764, "name": "Pasirluhur", "state": "", "country": "ID", "coord": {"lon": 107.954597, "lat": -7.104}}, {"id": 7921766, "name": "Pasar", "state": "", "country": "ID", "coord": {"lon": 107.957703, "lat": -7.1008}}, {"id": 7921774, "name": "Wanakerta", "state": "", "country": "ID", "coord": {"lon": 107.987, "lat": -7.1036}}, {"id": 7921786, "name": "Sindangkerta", "state": "", "country": "ID", "coord": {"lon": 107.984001, "lat": -7.11}}, {"id": 7921803, "name": "Sindangsari", "state": "", "country": "ID", "coord": {"lon": 107.944603, "lat": -7.1169}}, {"id": 7921810, "name": "Ciperang", "state": "", "country": "ID", "coord": {"lon": 107.924599, "lat": -7.1163}}, {"id": 7921813, "name": "Jati", "state": "", "country": "ID", "coord": {"lon": 107.911797, "lat": -7.1158}}, {"id": 7921822, "name": "Pasar Kulon", "state": "", "country": "ID", "coord": {"lon": 107.896698, "lat": -7.1112}}, {"id": 7921828, "name": "Pasirsalam", "state": "", "country": "ID", "coord": {"lon": 107.895401, "lat": -7.1186}}, {"id": 7921837, "name": "Babakanloa", "state": "", "country": "ID", "coord": {"lon": 107.979599, "lat": -7.1014}}, {"id": 7921841, "name": "Gununglimbangan", "state": "", "country": "ID", "coord": {"lon": 107.9841, "lat": -7.1016}}, {"id": 7921852, "name": "Tagog", "state": "", "country": "ID", "coord": {"lon": 107.993103, "lat": -7.1206}}, {"id": 7922173, "name": "Al \u2018Atabah", "state": "", "country": "EG", "coord": {"lon": 31.251961, "lat": 30.050699}}, {"id": 7924995, "name": "Gaoguan", "state": "", "country": "CN", "coord": {"lon": 114.713448, "lat": 24.259939}}, {"id": 7924996, "name": "Sanjiao", "state": "", "country": "CN", "coord": {"lon": 114.798271, "lat": 24.210119}}, {"id": 7925472, "name": "Jinlong", "state": "", "country": "CN", "coord": {"lon": 114.533043, "lat": 24.75053}}, {"id": 7925474, "name": "Guanxi", "state": "", "country": "CN", "coord": {"lon": 114.942261, "lat": 24.84087}}, {"id": 7927370, "name": "Kolej", "state": "", "country": "TR", "coord": {"lon": 32.863369, "lat": 39.923882}}, {"id": 7927407, "name": "Bat\u0131 Sitesi", "state": "", "country": "TR", "coord": {"lon": 32.703629, "lat": 39.962212}}, {"id": 7927587, "name": "Diyag", "state": "", "country": "CN", "coord": {"lon": 78.800003, "lat": 31.700001}}, {"id": 7927869, "name": "Sindangkerta", "state": "", "country": "ID", "coord": {"lon": 108.071198, "lat": -7.7652}}, {"id": 7927878, "name": "Cikawunggading", "state": "", "country": "ID", "coord": {"lon": 108.1017, "lat": -7.7701}}, {"id": 7927940, "name": "Burujul Tengah", "state": "", "country": "ID", "coord": {"lon": 108.072998, "lat": -7.6286}}, {"id": 7927948, "name": "Pasirtujuhpuluh", "state": "", "country": "ID", "coord": {"lon": 108.102501, "lat": -7.627}}, {"id": 7927971, "name": "Cibatear", "state": "", "country": "ID", "coord": {"lon": 108.0327, "lat": -7.6378}}, {"id": 7927989, "name": "Menol", "state": "", "country": "ID", "coord": {"lon": 108.087898, "lat": -7.643}}, {"id": 7927995, "name": "Cikaret", "state": "", "country": "ID", "coord": {"lon": 108.119598, "lat": -7.6465}}, {"id": 7928012, "name": "Babakankadu", "state": "", "country": "ID", "coord": {"lon": 108.026604, "lat": -7.661}}, {"id": 7928014, "name": "Gintung", "state": "", "country": "ID", "coord": {"lon": 108.0476, "lat": -7.6593}}, {"id": 7928017, "name": "Gawul", "state": "", "country": "ID", "coord": {"lon": 108.078598, "lat": -7.66}}, {"id": 7928046, "name": "Ciceuri", "state": "", "country": "ID", "coord": {"lon": 108.0494, "lat": -7.6823}}, {"id": 7928053, "name": "Cilangla", "state": "", "country": "ID", "coord": {"lon": 108.121696, "lat": -7.6753}}, {"id": 7928063, "name": "Cikatulampa", "state": "", "country": "ID", "coord": {"lon": 108.046997, "lat": -7.6927}}, {"id": 7928383, "name": "Bir Hat", "state": "", "country": "YE", "coord": {"lon": 52.095661, "lat": 17.32197}}, {"id": 7928384, "name": "Hadadah", "state": "", "country": "YE", "coord": {"lon": 44.274609, "lat": 13.17535}}, {"id": 7928394, "name": "Mekarsari", "state": "", "country": "ID", "coord": {"lon": 108.006897, "lat": -7.5045}}, {"id": 7928422, "name": "Derah", "state": "", "country": "ID", "coord": {"lon": 108.091103, "lat": -7.5112}}, {"id": 7928442, "name": "Kubangsari", "state": "", "country": "ID", "coord": {"lon": 108.030701, "lat": -7.5174}}, {"id": 7928479, "name": "Wakap", "state": "", "country": "ID", "coord": {"lon": 108.083801, "lat": -7.5241}}, {"id": 7928522, "name": "Pugeran", "state": "", "country": "ID", "coord": {"lon": 108.093903, "lat": -7.5389}}, {"id": 7928530, "name": "Cibabakan", "state": "", "country": "ID", "coord": {"lon": 108.1064, "lat": -7.548}}, {"id": 7928547, "name": "Wangunsari", "state": "", "country": "ID", "coord": {"lon": 108.045502, "lat": -7.5412}}, {"id": 7928652, "name": "Cikadu", "state": "", "country": "ID", "coord": {"lon": 108.058296, "lat": -7.5959}}, {"id": 7928705, "name": "Simpang", "state": "", "country": "ID", "coord": {"lon": 108.1064, "lat": -7.6231}}, {"id": 7928738, "name": "Camgyai", "state": "", "country": "CN", "coord": {"lon": 86.300003, "lat": 28}}, {"id": 7930017, "name": "Corinto", "state": "", "country": "CO", "coord": {"lon": -75.566597, "lat": 1.58501}}, {"id": 7930439, "name": "Rimat", "state": "", "country": "YE", "coord": {"lon": 50.577888, "lat": 17.45532}}, {"id": 7930440, "name": "Rumah", "state": "", "country": "YE", "coord": {"lon": 50.577702, "lat": 17.455481}}, {"id": 7930855, "name": "Grabniki", "state": "", "country": "BY", "coord": {"lon": 25.801399, "lat": 53.604301}}, {"id": 7930860, "name": "Kuborka", "state": "", "country": "BY", "coord": {"lon": 25.8363, "lat": 53.587601}}, {"id": 7930993, "name": "Malaya Palonka", "state": "", "country": "BY", "coord": {"lon": 25.5515, "lat": 53.424099}}, {"id": 7931038, "name": "Al Shiruj", "state": "", "country": "YE", "coord": {"lon": 47.76926, "lat": 14.68526}}, {"id": 7931039, "name": "Jawl al Majma", "state": "", "country": "YE", "coord": {"lon": 47.02763, "lat": 14.93278}}, {"id": 7931040, "name": "Suq Sibah", "state": "", "country": "YE", "coord": {"lon": 45.3923, "lat": 13.81436}}, {"id": 7931041, "name": "Al Hazm", "state": "", "country": "YE", "coord": {"lon": 45.609619, "lat": 14.68919}}, {"id": 7931042, "name": "Al Aqta", "state": "", "country": "YE", "coord": {"lon": 45.351231, "lat": 14.66217}}, {"id": 7931962, "name": "Suffield", "state": "", "country": "CA", "coord": {"lon": -111.171341, "lat": 50.21756}}, {"id": 7931985, "name": "Alby", "state": "", "country": "SE", "coord": {"lon": 17.8538, "lat": 59.233501}}, {"id": 7932342, "name": "Barmbek-Nord", "state": "", "country": "DE", "coord": {"lon": 10.03988, "lat": 53.605202}}, {"id": 7932378, "name": "Hammerbrook", "state": "", "country": "DE", "coord": {"lon": 10.03042, "lat": 53.545269}}, {"id": 7932385, "name": "Piton Saint-Leu", "state": "", "country": "RE", "coord": {"lon": 55.315128, "lat": -21.21962}}, {"id": 7932386, "name": "Farmsen-Berne", "state": "", "country": "DE", "coord": {"lon": 10.11972, "lat": 53.606392}}, {"id": 7932486, "name": "Kleiner Grasbrook", "state": "", "country": "DE", "coord": {"lon": 9.99361, "lat": 53.531109}}, {"id": 7932535, "name": "Pueblo General Belgrano", "state": "", "country": "AR", "coord": {"lon": -58.51416, "lat": -33.010281}}, {"id": 7932573, "name": "Melton West", "state": "", "country": "AU", "coord": {"lon": 144.568832, "lat": -37.67852}}, {"id": 7932574, "name": "Brookfield", "state": "", "country": "AU", "coord": {"lon": 144.560257, "lat": -37.700802}}, {"id": 7932575, "name": "Kurunjang", "state": "", "country": "AU", "coord": {"lon": 144.596893, "lat": -37.675869}}, {"id": 7932578, "name": "Merrimu", "state": "", "country": "AU", "coord": {"lon": 144.453491, "lat": -37.657631}}, {"id": 7932579, "name": "Pentland Hills", "state": "", "country": "AU", "coord": {"lon": 144.408493, "lat": -37.663239}}, {"id": 7932610, "name": "Ashburton", "state": "", "country": "AU", "coord": {"lon": 145.079361, "lat": -37.862591}}, {"id": 7932611, "name": "Ashwood", "state": "", "country": "AU", "coord": {"lon": 145.10553, "lat": -37.866589}}, {"id": 7932612, "name": "Glen Iris", "state": "", "country": "AU", "coord": {"lon": 145.054886, "lat": -37.859951}}, {"id": 7932614, "name": "Toorak", "state": "", "country": "AU", "coord": {"lon": 145.009567, "lat": -37.840771}}, {"id": 7932615, "name": "Armadale", "state": "", "country": "AU", "coord": {"lon": 145.021759, "lat": -37.855202}}, {"id": 7932616, "name": "Windsor", "state": "", "country": "AU", "coord": {"lon": 144.992676, "lat": -37.854801}}, {"id": 7932617, "name": "Balaclava", "state": "", "country": "AU", "coord": {"lon": 144.997726, "lat": -37.86916}}, {"id": 7932618, "name": "Caulfield North", "state": "", "country": "AU", "coord": {"lon": 145.022614, "lat": -37.872551}}, {"id": 7932619, "name": "Elsternwick", "state": "", "country": "AU", "coord": {"lon": 145.004333, "lat": -37.884411}}, {"id": 7932620, "name": "Elwood", "state": "", "country": "AU", "coord": {"lon": 144.983047, "lat": -37.881699}}, {"id": 7932621, "name": "Kooyong", "state": "", "country": "AU", "coord": {"lon": 145.035233, "lat": -37.83989}}, {"id": 7932622, "name": "Burwood", "state": "", "country": "AU", "coord": {"lon": 145.119003, "lat": -37.849781}}, {"id": 7932623, "name": "Box Hill South", "state": "", "country": "AU", "coord": {"lon": 145.120987, "lat": -37.832359}}, {"id": 7932624, "name": "Blackburn", "state": "", "country": "AU", "coord": {"lon": 145.153259, "lat": -37.819012}}, {"id": 7932625, "name": "Canterbury", "state": "", "country": "AU", "coord": {"lon": 145.084763, "lat": -37.824699}}, {"id": 7932626, "name": "Surrey Hills", "state": "", "country": "AU", "coord": {"lon": 145.100388, "lat": -37.825241}}, {"id": 7932627, "name": "Hawthorn East", "state": "", "country": "AU", "coord": {"lon": 145.046402, "lat": -37.824841}}, {"id": 7932628, "name": "Kew East", "state": "", "country": "AU", "coord": {"lon": 145.053787, "lat": -37.797581}}, {"id": 7932629, "name": "Balwyn North", "state": "", "country": "AU", "coord": {"lon": 145.093857, "lat": -37.790859}}, {"id": 7932630, "name": "Mont Albert North", "state": "", "country": "AU", "coord": {"lon": 145.108276, "lat": -37.80043}}, {"id": 7932631, "name": "Box Hill North", "state": "", "country": "AU", "coord": {"lon": 145.126556, "lat": -37.802662}}, {"id": 7932632, "name": "Blackburn North", "state": "", "country": "AU", "coord": {"lon": 145.151794, "lat": -37.809311}}, {"id": 7932633, "name": "Forest Hill", "state": "", "country": "AU", "coord": {"lon": 145.165192, "lat": -37.836559}}, {"id": 7932634, "name": "Blackburn South", "state": "", "country": "AU", "coord": {"lon": 145.155487, "lat": -37.839748}}, {"id": 7932635, "name": "Chadstone", "state": "", "country": "AU", "coord": {"lon": 145.095184, "lat": -37.887661}}, {"id": 7932636, "name": "Carnegie", "state": "", "country": "AU", "coord": {"lon": 145.057129, "lat": -37.888672}}, {"id": 7932637, "name": "Glen Huntly", "state": "", "country": "AU", "coord": {"lon": 145.046051, "lat": -37.889488}}, {"id": 7932638, "name": "Malvern East", "state": "", "country": "AU", "coord": {"lon": 145.042526, "lat": -37.87397}}, {"id": 7932639, "name": "Murrumbeena", "state": "", "country": "AU", "coord": {"lon": 145.071121, "lat": -37.890228}}, {"id": 7932640, "name": "Oakleigh South", "state": "", "country": "AU", "coord": {"lon": 145.091461, "lat": -37.92416}}, {"id": 7932641, "name": "Oakleigh East", "state": "", "country": "AU", "coord": {"lon": 145.105713, "lat": -37.89904}}, {"id": 7932643, "name": "Caulfield South", "state": "", "country": "AU", "coord": {"lon": 145.027344, "lat": -37.896729}}, {"id": 7932646, "name": "Brighton East", "state": "", "country": "AU", "coord": {"lon": 145.018845, "lat": -37.901409}}, {"id": 7932648, "name": "Hampton", "state": "", "country": "AU", "coord": {"lon": 145.004593, "lat": -37.937229}}, {"id": 7932649, "name": "Hampton East", "state": "", "country": "AU", "coord": {"lon": 145.028625, "lat": -37.936951}}, {"id": 7932650, "name": "Bentleigh", "state": "", "country": "AU", "coord": {"lon": 145.035843, "lat": -37.9184}}, {"id": 7932651, "name": "Bentleigh East", "state": "", "country": "AU", "coord": {"lon": 145.059875, "lat": -37.920101}}, {"id": 7932652, "name": "Black Rock", "state": "", "country": "AU", "coord": {"lon": 145.016357, "lat": -37.973572}}, {"id": 7932653, "name": "Aspendale Gardens", "state": "", "country": "AU", "coord": {"lon": 145.117981, "lat": -38.02277}}, {"id": 7932654, "name": "Booval", "state": "", "country": "AU", "coord": {"lon": 152.789444, "lat": -27.613279}}, {"id": 7932655, "name": "North Booval", "state": "", "country": "AU", "coord": {"lon": 152.794846, "lat": -27.60392}}, {"id": 7932658, "name": "North Ipswich", "state": "", "country": "AU", "coord": {"lon": 152.761459, "lat": -27.602859}}, {"id": 7932659, "name": "Brassall", "state": "", "country": "AU", "coord": {"lon": 152.747543, "lat": -27.59753}}, {"id": 7932660, "name": "Silkstone", "state": "", "country": "AU", "coord": {"lon": 152.787674, "lat": -27.62126}}, {"id": 7932663, "name": "Eastern Heights", "state": "", "country": "AU", "coord": {"lon": 152.778275, "lat": -27.62849}}, {"id": 7932664, "name": "Raceview", "state": "", "country": "AU", "coord": {"lon": 152.775192, "lat": -27.63472}}, {"id": 7932666, "name": "Flinders View", "state": "", "country": "AU", "coord": {"lon": 152.774506, "lat": -27.650459}}, {"id": 7932667, "name": "Deebing Heights", "state": "", "country": "AU", "coord": {"lon": 152.748672, "lat": -27.667191}}, {"id": 7932668, "name": "Yamanto", "state": "", "country": "AU", "coord": {"lon": 152.738632, "lat": -27.660271}}, {"id": 7932670, "name": "Redbank Plains", "state": "", "country": "AU", "coord": {"lon": 152.85965, "lat": -27.64613}}, {"id": 7932671, "name": "Collingwood Park", "state": "", "country": "AU", "coord": {"lon": 152.860077, "lat": -27.61282}}, {"id": 7932687, "name": "Clontarf", "state": "", "country": "AU", "coord": {"lon": 153.078354, "lat": -27.25341}}, {"id": 7932688, "name": "Woody Point", "state": "", "country": "AU", "coord": {"lon": 153.104263, "lat": -27.256081}}, {"id": 7932692, "name": "Kurwongbah", "state": "", "country": "AU", "coord": {"lon": 152.976212, "lat": -27.2325}}, {"id": 7934341, "name": "Dharsin", "state": "", "country": "NP", "coord": {"lon": 84.563408, "lat": 27.764071}}, {"id": 7942140, "name": "Kattichhap", "state": "", "country": "NP", "coord": {"lon": 85.1492, "lat": 27.71784}}, {"id": 7942462, "name": "Kusunde", "state": "", "country": "NP", "coord": {"lon": 84.913887, "lat": 27.864161}}, {"id": 7943571, "name": "Basahiya", "state": "", "country": "NP", "coord": {"lon": 85.913887, "lat": 26.69743}}, {"id": 7949204, "name": "(Pokharithok Bajar)", "state": "", "country": "NP", "coord": {"lon": 84.630653, "lat": 27.996189}}, {"id": 7953967, "name": "Ramrekha", "state": "", "country": "NP", "coord": {"lon": 83.605827, "lat": 28.26368}}, {"id": 7955603, "name": "Talichaur", "state": "", "country": "NP", "coord": {"lon": 82.193932, "lat": 29.273291}}, {"id": 7960439, "name": "Kusunde", "state": "", "country": "NP", "coord": {"lon": 84.168121, "lat": 28.122789}}, {"id": 7961335, "name": "Nalamukh", "state": "", "country": "NP", "coord": {"lon": 83.98391, "lat": 28.231001}}, {"id": 7961377, "name": "Syaldule", "state": "", "country": "NP", "coord": {"lon": 83.981262, "lat": 28.19623}}, {"id": 7962239, "name": "Shankhamul Dobhan", "state": "", "country": "NP", "coord": {"lon": 85.334251, "lat": 27.680861}}, {"id": 7962279, "name": "Sinamangal", "state": "", "country": "NP", "coord": {"lon": 85.354942, "lat": 27.69632}}, {"id": 7965675, "name": "Gwarko", "state": "", "country": "NP", "coord": {"lon": 85.335037, "lat": 27.666599}}, {"id": 7966485, "name": "Khatrigaun", "state": "", "country": "NP", "coord": {"lon": 84.371452, "lat": 28.199881}}, {"id": 7967031, "name": "Paundidhik Bajar", "state": "", "country": "NP", "coord": {"lon": 84.429062, "lat": 28.114571}}, {"id": 7967083, "name": "Gairigaun", "state": "", "country": "NP", "coord": {"lon": 84.381203, "lat": 28.34211}}, {"id": 7968003, "name": "Dandakhrka", "state": "", "country": "NP", "coord": {"lon": 85.18428, "lat": 27.67441}}, {"id": 7969462, "name": "Chyongo", "state": "", "country": "NP", "coord": {"lon": 83.975517, "lat": 28.67861}}, {"id": 7969491, "name": "Nawal", "state": "", "country": "NP", "coord": {"lon": 84.102791, "lat": 28.64831}}, {"id": 7970003, "name": "Airport", "state": "", "country": "NP", "coord": {"lon": 87.27092, "lat": 26.484381}}, {"id": 7971832, "name": "Kagbenee", "state": "", "country": "NP", "coord": {"lon": 83.787109, "lat": 28.83882}}, {"id": 7972960, "name": "Madhuwaghat", "state": "", "country": "NP", "coord": {"lon": 84.400383, "lat": 27.70216}}, {"id": 7973039, "name": "Makarkot", "state": "", "country": "NP", "coord": {"lon": 84.117218, "lat": 27.622061}}, {"id": 7973056, "name": "Nandapur", "state": "", "country": "NP", "coord": {"lon": 84.037491, "lat": 27.56111}}, {"id": 7973340, "name": "Ghodpali", "state": "", "country": "NP", "coord": {"lon": 83.661621, "lat": 27.52878}}, {"id": 7974073, "name": "Lampate", "state": "", "country": "NP", "coord": {"lon": 85.424698, "lat": 27.985451}}, {"id": 7979462, "name": "Odar", "state": "", "country": "NP", "coord": {"lon": 84.654846, "lat": 27.322781}}, {"id": 7994717, "name": "Panchosa", "state": "", "country": "NP", "coord": {"lon": 85.507423, "lat": 28.0037}}, {"id": 7996530, "name": "Chaurikharka", "state": "", "country": "NP", "coord": {"lon": 86.721741, "lat": 27.697809}}, {"id": 7996816, "name": "Jaro", "state": "", "country": "NP", "coord": {"lon": 86.713219, "lat": 27.81604}}, {"id": 7996820, "name": "Thyanboche", "state": "", "country": "NP", "coord": {"lon": 86.768822, "lat": 27.837379}}, {"id": 7996828, "name": "Minbo", "state": "", "country": "NP", "coord": {"lon": 86.822388, "lat": 27.85405}}, {"id": 7996839, "name": "Dinboche", "state": "", "country": "NP", "coord": {"lon": 86.837059, "lat": 27.8964}}, {"id": 7996868, "name": "Phorche", "state": "", "country": "NP", "coord": {"lon": 86.752823, "lat": 27.849939}}, {"id": 7997059, "name": "Chhulung Marsaang", "state": "", "country": "NP", "coord": {"lon": 86.610863, "lat": 27.94282}}, {"id": 7998675, "name": "Khajura", "state": "", "country": "NP", "coord": {"lon": 81.63163, "lat": 28.58744}}, {"id": 8003027, "name": "Buchakhani", "state": "", "country": "NP", "coord": {"lon": 84.000778, "lat": 28.00042}}, {"id": 8003390, "name": "Ganapati", "state": "", "country": "NP", "coord": {"lon": 84.063431, "lat": 28.051809}}, {"id": 8004101, "name": "Baniya Dihi", "state": "", "country": "NP", "coord": {"lon": 84.25209, "lat": 28.084221}}, {"id": 8004777, "name": "Patyarthok", "state": "", "country": "NP", "coord": {"lon": 84.334068, "lat": 28.03129}}, {"id": 8009059, "name": "Auraha", "state": "", "country": "NP", "coord": {"lon": 84.987831, "lat": 27.15839}}, {"id": 8010237, "name": "Banachaur", "state": "", "country": "NP", "coord": {"lon": 85.415756, "lat": 27.666161}}, {"id": 8010413, "name": "\u00c1gueda", "state": "", "country": "PT", "coord": {"lon": -8.42542, "lat": 40.580521}}, {"id": 8010414, "name": "Albergaria-A-Velha", "state": "", "country": "PT", "coord": {"lon": -8.50399, "lat": 40.687061}}, {"id": 8010415, "name": "Anadia", "state": "", "country": "PT", "coord": {"lon": -8.46246, "lat": 40.451061}}, {"id": 8010416, "name": "Arouca", "state": "", "country": "PT", "coord": {"lon": -8.27251, "lat": 40.926579}}, {"id": 8010417, "name": "Aveiro", "state": "", "country": "PT", "coord": {"lon": -8.61628, "lat": 40.623981}}, {"id": 8010418, "name": "Castelo de Paiva", "state": "", "country": "PT", "coord": {"lon": -8.29822, "lat": 41.033531}}, {"id": 8010419, "name": "Espinho", "state": "", "country": "PT", "coord": {"lon": -8.62506, "lat": 40.999008}}, {"id": 8010420, "name": "Estarreja", "state": "", "country": "PT", "coord": {"lon": -8.57917, "lat": 40.754631}}, {"id": 8010421, "name": "Santa Maria da Feira", "state": "", "country": "PT", "coord": {"lon": -8.51545, "lat": 40.96043}}, {"id": 8010422, "name": "\u00cdlhavo", "state": "", "country": "PT", "coord": {"lon": -8.72, "lat": 40.611698}}, {"id": 8010423, "name": "Mealhada", "state": "", "country": "PT", "coord": {"lon": -8.44781, "lat": 40.362728}}, {"id": 8010424, "name": "Murtosa", "state": "", "country": "PT", "coord": {"lon": -8.65854, "lat": 40.755348}}, {"id": 8010425, "name": "Oliveira de Azem\u00e9is", "state": "", "country": "PT", "coord": {"lon": -8.46945, "lat": 40.85078}}, {"id": 8010426, "name": "Oliveira do Bairro", "state": "", "country": "PT", "coord": {"lon": -8.56374, "lat": 40.509769}}, {"id": 8010427, "name": "Ovar", "state": "", "country": "PT", "coord": {"lon": -8.61226, "lat": 40.894218}}, {"id": 8010428, "name": "S\u00e3o Jo\u00e3o da Madeira", "state": "", "country": "PT", "coord": {"lon": -8.49283, "lat": 40.89772}}, {"id": 8010429, "name": "Sever do Vouga", "state": "", "country": "PT", "coord": {"lon": -8.35493, "lat": 40.73156}}, {"id": 8010430, "name": "Vagos", "state": "", "country": "PT", "coord": {"lon": -8.6783, "lat": 40.499432}}, {"id": 8010431, "name": "Vale de Cambra", "state": "", "country": "PT", "coord": {"lon": -8.36022, "lat": 40.845001}}, {"id": 8010432, "name": "Aljustrel", "state": "", "country": "PT", "coord": {"lon": -8.19304, "lat": 37.90559}}, {"id": 8010433, "name": "Almod\u00f4var", "state": "", "country": "PT", "coord": {"lon": -8.09372, "lat": 37.495899}}, {"id": 8010434, "name": "Alvito", "state": "", "country": "PT", "coord": {"lon": -8.05038, "lat": 38.246529}}, {"id": 8010436, "name": "Beja", "state": "", "country": "PT", "coord": {"lon": -7.87773, "lat": 37.987999}}, {"id": 8010437, "name": "Castro Verde", "state": "", "country": "PT", "coord": {"lon": -8.02416, "lat": 37.711929}}, {"id": 8010438, "name": "Cuba", "state": "", "country": "PT", "coord": {"lon": -7.92114, "lat": 38.219719}}, {"id": 8010439, "name": "Ferreira do Alentejo", "state": "", "country": "PT", "coord": {"lon": -8.17137, "lat": 38.099178}}, {"id": 8010440, "name": "M\u00e9rtola", "state": "", "country": "PT", "coord": {"lon": -7.66434, "lat": 37.65918}}, {"id": 8010441, "name": "Moura", "state": "", "country": "PT", "coord": {"lon": -7.29677, "lat": 38.131481}}, {"id": 8010442, "name": "Odemira", "state": "", "country": "PT", "coord": {"lon": -8.573, "lat": 37.627239}}, {"id": 8010443, "name": "Ourique", "state": "", "country": "PT", "coord": {"lon": -8.31031, "lat": 37.691559}}, {"id": 8010445, "name": "Vidigueira", "state": "", "country": "PT", "coord": {"lon": -7.74469, "lat": 38.184479}}, {"id": 8010446, "name": "Amares", "state": "", "country": "PT", "coord": {"lon": -8.35558, "lat": 41.647179}}, {"id": 8010447, "name": "Barcelos", "state": "", "country": "PT", "coord": {"lon": -8.61233, "lat": 41.53183}}, {"id": 8010448, "name": "Braga", "state": "", "country": "PT", "coord": {"lon": -8.43231, "lat": 41.537788}}, {"id": 8010449, "name": "Cabeceiras de Basto", "state": "", "country": "PT", "coord": {"lon": -7.97198, "lat": 41.52079}}, {"id": 8010450, "name": "Celorico de Basto", "state": "", "country": "PT", "coord": {"lon": -8.03346, "lat": 41.402779}}, {"id": 8010451, "name": "Esposende", "state": "", "country": "PT", "coord": {"lon": -8.75754, "lat": 41.545158}}, {"id": 8010452, "name": "Fafe", "state": "", "country": "PT", "coord": {"lon": -8.15863, "lat": 41.468369}}, {"id": 8010453, "name": "Guimar\u00e3es", "state": "", "country": "PT", "coord": {"lon": -8.3166, "lat": 41.456821}}, {"id": 8010454, "name": "P\u00f3voa de Lanhoso", "state": "", "country": "PT", "coord": {"lon": -8.26447, "lat": 41.588249}}, {"id": 8010455, "name": "Terras de Bouro", "state": "", "country": "PT", "coord": {"lon": -8.34068, "lat": 41.72691}}, {"id": 8010456, "name": "Vieira do Minho", "state": "", "country": "PT", "coord": {"lon": -8.13244, "lat": 41.635571}}, {"id": 8010457, "name": "Vila Nova de Famalic\u00e3o", "state": "", "country": "PT", "coord": {"lon": -8.48511, "lat": 41.412231}}, {"id": 8010458, "name": "Vila Verde", "state": "", "country": "PT", "coord": {"lon": -8.44511, "lat": 41.678009}}, {"id": 8010459, "name": "Vizela", "state": "", "country": "PT", "coord": {"lon": -8.2931, "lat": 41.37529}}, {"id": 8010460, "name": "Alf\u00e2ndega da F\u00e9", "state": "", "country": "PT", "coord": {"lon": -6.95063, "lat": 41.349499}}, {"id": 8010461, "name": "Bragan\u00e7a Municipality", "state": "", "country": "PT", "coord": {"lon": -6.75535, "lat": 41.756081}}, {"id": 8010463, "name": "Freixo de Espada \u00c0 Cinta", "state": "", "country": "PT", "coord": {"lon": -6.82463, "lat": 41.12344}}, {"id": 8010464, "name": "Macedo de Cavaleiros", "state": "", "country": "PT", "coord": {"lon": -6.93355, "lat": 41.551319}}, {"id": 8010465, "name": "Miranda do Douro", "state": "", "country": "PT", "coord": {"lon": -6.35449, "lat": 41.51902}}, {"id": 8010466, "name": "Mirandela", "state": "", "country": "PT", "coord": {"lon": -7.19185, "lat": 41.50098}}, {"id": 8010467, "name": "Mogadouro", "state": "", "country": "PT", "coord": {"lon": -6.65913, "lat": 41.338161}}, {"id": 8010468, "name": "Torre de Moncorvo", "state": "", "country": "PT", "coord": {"lon": -7.0358, "lat": 41.179218}}, {"id": 8010469, "name": "Vila Flor", "state": "", "country": "PT", "coord": {"lon": -7.15071, "lat": 41.314289}}, {"id": 8010471, "name": "Vinhais", "state": "", "country": "PT", "coord": {"lon": -7.04061, "lat": 41.831039}}, {"id": 8010472, "name": "Belmonte", "state": "", "country": "PT", "coord": {"lon": -7.35157, "lat": 40.361809}}, {"id": 8010473, "name": "Castelo Branco", "state": "", "country": "PT", "coord": {"lon": -7.51313, "lat": 39.88847}}, {"id": 8010474, "name": "Covilh\u00e3", "state": "", "country": "PT", "coord": {"lon": -7.50366, "lat": 40.292271}}, {"id": 8010475, "name": "Idanha-A-Nova", "state": "", "country": "PT", "coord": {"lon": -7.2369, "lat": 39.929569}}, {"id": 8010476, "name": "Oleiros", "state": "", "country": "PT", "coord": {"lon": -7.88592, "lat": 39.949478}}, {"id": 8010477, "name": "Penamacor", "state": "", "country": "PT", "coord": {"lon": -7.17149, "lat": 40.154949}}, {"id": 8010478, "name": "Proen\u00e7a-A-Nova", "state": "", "country": "PT", "coord": {"lon": -7.92595, "lat": 39.757}}, {"id": 8010479, "name": "Sert\u00e3", "state": "", "country": "PT", "coord": {"lon": -8.09845, "lat": 39.821751}}, {"id": 8010480, "name": "Vila de Rei", "state": "", "country": "PT", "coord": {"lon": -8.12836, "lat": 39.706848}}, {"id": 8010481, "name": "Arganil", "state": "", "country": "PT", "coord": {"lon": -7.9811, "lat": 40.235298}}, {"id": 8010482, "name": "Cantanhede", "state": "", "country": "PT", "coord": {"lon": -8.60549, "lat": 40.363541}}, {"id": 8010483, "name": "Coimbra", "state": "", "country": "PT", "coord": {"lon": -8.45369, "lat": 40.218159}}, {"id": 8010484, "name": "Condeixa-A-Nova", "state": "", "country": "PT", "coord": {"lon": -8.49632, "lat": 40.106392}}, {"id": 8010485, "name": "Figueira da Foz", "state": "", "country": "PT", "coord": {"lon": -8.80609, "lat": 40.158249}}, {"id": 8010486, "name": "G\u00f3is", "state": "", "country": "PT", "coord": {"lon": -8.0834, "lat": 40.125351}}, {"id": 8010487, "name": "Lous\u00e3", "state": "", "country": "PT", "coord": {"lon": -8.2405, "lat": 40.140869}}, {"id": 8010488, "name": "Mira", "state": "", "country": "PT", "coord": {"lon": -8.73849, "lat": 40.445591}}, {"id": 8010489, "name": "Miranda do Corvo", "state": "", "country": "PT", "coord": {"lon": -8.32678, "lat": 40.1091}}, {"id": 8010490, "name": "Montemor-O-Velho", "state": "", "country": "PT", "coord": {"lon": -8.66696, "lat": 40.193851}}, {"id": 8010491, "name": "Oliveira do Hospital", "state": "", "country": "PT", "coord": {"lon": -7.86481, "lat": 40.355221}}, {"id": 8010493, "name": "Penacova", "state": "", "country": "PT", "coord": {"lon": -8.24784, "lat": 40.299992}}, {"id": 8010494, "name": "Penela", "state": "", "country": "PT", "coord": {"lon": -8.38194, "lat": 40.012241}}, {"id": 8010495, "name": "Soure", "state": "", "country": "PT", "coord": {"lon": -8.6277, "lat": 40.06879}}, {"id": 8010496, "name": "T\u00e1bua", "state": "", "country": "PT", "coord": {"lon": -8.01412, "lat": 40.332729}}, {"id": 8010497, "name": "Vila Nova de Poiares", "state": "", "country": "PT", "coord": {"lon": -8.24105, "lat": 40.221291}}, {"id": 8010498, "name": "Alandroal", "state": "", "country": "PT", "coord": {"lon": -7.36599, "lat": 38.629238}}, {"id": 8010500, "name": "Borba", "state": "", "country": "PT", "coord": {"lon": -7.46721, "lat": 38.814121}}, {"id": 8010501, "name": "Estremoz", "state": "", "country": "PT", "coord": {"lon": -7.60117, "lat": 38.84996}}, {"id": 8010502, "name": "\u00c9vora", "state": "", "country": "PT", "coord": {"lon": -7.8946, "lat": 38.566502}}, {"id": 8010503, "name": "Montemor-O-Novo", "state": "", "country": "PT", "coord": {"lon": -8.29956, "lat": 38.671028}}, {"id": 8010505, "name": "Mour\u00e3o", "state": "", "country": "PT", "coord": {"lon": -7.28384, "lat": 38.307541}}, {"id": 8010507, "name": "Redondo", "state": "", "country": "PT", "coord": {"lon": -7.59659, "lat": 38.580101}}, {"id": 8010508, "name": "Reguengos de Monsaraz", "state": "", "country": "PT", "coord": {"lon": -7.467, "lat": 38.397999}}, {"id": 8010509, "name": "Vendas Novas", "state": "", "country": "PT", "coord": {"lon": -8.54702, "lat": 38.639751}}, {"id": 8010510, "name": "Viana do Alentejo", "state": "", "country": "PT", "coord": {"lon": -8.00011, "lat": 38.336449}}, {"id": 8010511, "name": "Vila Vi\u00e7osa", "state": "", "country": "PT", "coord": {"lon": -7.41852, "lat": 38.787899}}, {"id": 8010512, "name": "Albufeira", "state": "", "country": "PT", "coord": {"lon": -8.26139, "lat": 37.083408}}, {"id": 8010513, "name": "Alcoutim", "state": "", "country": "PT", "coord": {"lon": -7.65456, "lat": 37.424}}, {"id": 8010515, "name": "Castro Marim", "state": "", "country": "PT", "coord": {"lon": -7.50732, "lat": 37.258652}}, {"id": 8010516, "name": "Faro", "state": "", "country": "PT", "coord": {"lon": -7.92774, "lat": 37.056431}}, {"id": 8010517, "name": "Lagoa", "state": "", "country": "PT", "coord": {"lon": -8.45974, "lat": 37.105049}}, {"id": 8010518, "name": "Lagos", "state": "", "country": "PT", "coord": {"lon": -8.67661, "lat": 37.095669}}, {"id": 8010519, "name": "Loul\u00e9", "state": "", "country": "PT", "coord": {"lon": -8.05432, "lat": 37.190842}}, {"id": 8010521, "name": "Olh\u00e3o", "state": "", "country": "PT", "coord": {"lon": -7.81032, "lat": 37.04509}}, {"id": 8010522, "name": "Portim\u00e3o", "state": "", "country": "PT", "coord": {"lon": -8.5842, "lat": 37.175442}}, {"id": 8010524, "name": "Silves", "state": "", "country": "PT", "coord": {"lon": -8.33472, "lat": 37.20343}}, {"id": 8010526, "name": "Vila do Bispo", "state": "", "country": "PT", "coord": {"lon": -8.94127, "lat": 37.051571}}, {"id": 8010527, "name": "Vila Real de Santo Ant\u00f3nio", "state": "", "country": "PT", "coord": {"lon": -7.39105, "lat": 37.19989}}, {"id": 8010528, "name": "Aguiar da Beira", "state": "", "country": "PT", "coord": {"lon": -7.52691, "lat": 40.783192}}, {"id": 8010529, "name": "Almeida", "state": "", "country": "PT", "coord": {"lon": -6.90594, "lat": 40.730701}}, {"id": 8010530, "name": "Celorico da Beira", "state": "", "country": "PT", "coord": {"lon": -7.38625, "lat": 40.617851}}, {"id": 8010531, "name": "Figueira de Castelo Rodrigo", "state": "", "country": "PT", "coord": {"lon": -6.96842, "lat": 40.873562}}, {"id": 8010532, "name": "Fornos de Algodres", "state": "", "country": "PT", "coord": {"lon": -7.49727, "lat": 40.649422}}, {"id": 8010533, "name": "Guarda", "state": "", "country": "PT", "coord": {"lon": -7.24123, "lat": 40.529499}}, {"id": 8010534, "name": "Manteigas", "state": "", "country": "PT", "coord": {"lon": -7.50074, "lat": 40.406311}}, {"id": 8010535, "name": "M\u00eada", "state": "", "country": "PT", "coord": {"lon": -7.26495, "lat": 40.932381}}, {"id": 8010536, "name": "Pinhel", "state": "", "country": "PT", "coord": {"lon": -7.12659, "lat": 40.74242}}, {"id": 8010537, "name": "Sabugal", "state": "", "country": "PT", "coord": {"lon": -7.09305, "lat": 40.369919}}, {"id": 8010538, "name": "Seia", "state": "", "country": "PT", "coord": {"lon": -7.73104, "lat": 40.39484}}, {"id": 8010539, "name": "Trancoso", "state": "", "country": "PT", "coord": {"lon": -7.3254, "lat": 40.791809}}, {"id": 8010540, "name": "Vila Nova de Foz C\u00f4a", "state": "", "country": "PT", "coord": {"lon": -7.20389, "lat": 41.063702}}, {"id": 8010541, "name": "Alcoba\u00e7a", "state": "", "country": "PT", "coord": {"lon": -8.98833, "lat": 39.554409}}, {"id": 8010542, "name": "Alvai\u00e1zere", "state": "", "country": "PT", "coord": {"lon": -8.38858, "lat": 39.819511}}, {"id": 8010543, "name": "Ansi\u00e3o", "state": "", "country": "PT", "coord": {"lon": -8.42045, "lat": 39.934238}}, {"id": 8010544, "name": "Batalha", "state": "", "country": "PT", "coord": {"lon": -8.78108, "lat": 39.647839}}, {"id": 8010545, "name": "Bombarral", "state": "", "country": "PT", "coord": {"lon": -9.17002, "lat": 39.281059}}, {"id": 8010546, "name": "Caldas da Rainha", "state": "", "country": "PT", "coord": {"lon": -9.10242, "lat": 39.409809}}, {"id": 8010548, "name": "Figueir\u00f3 Dos Vinhos", "state": "", "country": "PT", "coord": {"lon": -8.27753, "lat": 39.90617}}, {"id": 8010549, "name": "Leiria", "state": "", "country": "PT", "coord": {"lon": -8.79604, "lat": 39.78109}}, {"id": 8010550, "name": "Marinha Grande", "state": "", "country": "PT", "coord": {"lon": -8.95005, "lat": 39.77681}}, {"id": 8010551, "name": "Nazar\u00e9", "state": "", "country": "PT", "coord": {"lon": -9.04881, "lat": 39.585972}}, {"id": 8010552, "name": "\u00d3bidos", "state": "", "country": "PT", "coord": {"lon": -9.17603, "lat": 39.35854}}, {"id": 8010553, "name": "Pedr\u00f3g\u00e3o Grande", "state": "", "country": "PT", "coord": {"lon": -8.20093, "lat": 39.926819}}, {"id": 8010554, "name": "Peniche", "state": "", "country": "PT", "coord": {"lon": -9.36869, "lat": 39.36166}}, {"id": 8010555, "name": "Pombal", "state": "", "country": "PT", "coord": {"lon": -8.66949, "lat": 39.907349}}, {"id": 8010556, "name": "Porto de M\u00f3s", "state": "", "country": "PT", "coord": {"lon": -8.81901, "lat": 39.566448}}, {"id": 8010557, "name": "Alenquer", "state": "", "country": "PT", "coord": {"lon": -9.051, "lat": 39.086739}}, {"id": 8010558, "name": "Arruda Dos Vinhos", "state": "", "country": "PT", "coord": {"lon": -9.08807, "lat": 38.971722}}, {"id": 8010559, "name": "Azambuja", "state": "", "country": "PT", "coord": {"lon": -8.89045, "lat": 39.145592}}, {"id": 8010560, "name": "Cadaval", "state": "", "country": "PT", "coord": {"lon": -9.06738, "lat": 39.246208}}, {"id": 8010561, "name": "Cascais", "state": "", "country": "PT", "coord": {"lon": -9.46382, "lat": 38.743328}}, {"id": 8010562, "name": "Lourinh\u00e3", "state": "", "country": "PT", "coord": {"lon": -9.27694, "lat": 39.239071}}, {"id": 8010563, "name": "Mafra", "state": "", "country": "PT", "coord": {"lon": -9.29853, "lat": 38.956692}}, {"id": 8010564, "name": "Oeiras", "state": "", "country": "PT", "coord": {"lon": -9.26832, "lat": 38.713711}}, {"id": 8010565, "name": "Sintra", "state": "", "country": "PT", "coord": {"lon": -9.3837, "lat": 38.814388}}, {"id": 8010566, "name": "Sobral de Monte Agra\u00e7o", "state": "", "country": "PT", "coord": {"lon": -9.17409, "lat": 38.99585}}, {"id": 8010567, "name": "Torres Vedras", "state": "", "country": "PT", "coord": {"lon": -9.25238, "lat": 39.102219}}, {"id": 8010568, "name": "Vila Franca de Xira", "state": "", "country": "PT", "coord": {"lon": -9.0322, "lat": 38.921371}}, {"id": 8010569, "name": "Amadora", "state": "", "country": "PT", "coord": {"lon": -9.22342, "lat": 38.755711}}, {"id": 8010570, "name": "Odivelas", "state": "", "country": "PT", "coord": {"lon": -9.19108, "lat": 38.79705}}, {"id": 8010572, "name": "Avis", "state": "", "country": "PT", "coord": {"lon": -7.8956, "lat": 39.06448}}, {"id": 8010574, "name": "Elvas", "state": "", "country": "PT", "coord": {"lon": -7.22426, "lat": 38.898682}}, {"id": 8010575, "name": "Fronteira", "state": "", "country": "PT", "coord": {"lon": -7.61052, "lat": 39.071789}}, {"id": 8010576, "name": "Sousel", "state": "", "country": "PT", "coord": {"lon": -7.71788, "lat": 38.96685}}, {"id": 8010577, "name": "Amarante", "state": "", "country": "PT", "coord": {"lon": -8.06503, "lat": 41.2705}}, {"id": 8010578, "name": "Bai\u00e3o", "state": "", "country": "PT", "coord": {"lon": -8.03581, "lat": 41.163841}}, {"id": 8010579, "name": "Felgueiras", "state": "", "country": "PT", "coord": {"lon": -8.20808, "lat": 41.34774}}, {"id": 8010580, "name": "Gondomar", "state": "", "country": "PT", "coord": {"lon": -8.49595, "lat": 41.120152}}, {"id": 8010581, "name": "Lousada", "state": "", "country": "PT", "coord": {"lon": -8.27437, "lat": 41.28355}}, {"id": 8010582, "name": "Maia", "state": "", "country": "PT", "coord": {"lon": -8.60257, "lat": 41.242538}}, {"id": 8010583, "name": "Marco de Canaveses", "state": "", "country": "PT", "coord": {"lon": -8.16954, "lat": 41.155449}}, {"id": 8010584, "name": "Matosinhos", "state": "", "country": "PT", "coord": {"lon": -8.66743, "lat": 41.207661}}, {"id": 8010585, "name": "Pa\u00e7os de Ferreira", "state": "", "country": "PT", "coord": {"lon": -8.37584, "lat": 41.289639}}, {"id": 8010586, "name": "Paredes", "state": "", "country": "PT", "coord": {"lon": -8.37506, "lat": 41.205009}}, {"id": 8010587, "name": "Penafiel", "state": "", "country": "PT", "coord": {"lon": -8.28972, "lat": 41.159599}}, {"id": 8010588, "name": "P\u00f3voa de Varzim", "state": "", "country": "PT", "coord": {"lon": -8.75713, "lat": 41.391579}}, {"id": 8010589, "name": "Santo Tirso", "state": "", "country": "PT", "coord": {"lon": -8.43827, "lat": 41.330139}}, {"id": 8010590, "name": "Valongo", "state": "", "country": "PT", "coord": {"lon": -8.50086, "lat": 41.20797}}, {"id": 8010591, "name": "Vila do Conde", "state": "", "country": "PT", "coord": {"lon": -8.68288, "lat": 41.332909}}, {"id": 8010592, "name": "Vila Nova de Gaia", "state": "", "country": "PT", "coord": {"lon": -8.58795, "lat": 41.078732}}, {"id": 8010593, "name": "Trofa", "state": "", "country": "PT", "coord": {"lon": -8.5764, "lat": 41.306461}}, {"id": 8010594, "name": "Abrantes", "state": "", "country": "PT", "coord": {"lon": -8.17533, "lat": 39.471649}}, {"id": 8010595, "name": "Alcanena", "state": "", "country": "PT", "coord": {"lon": -8.68831, "lat": 39.467461}}, {"id": 8010597, "name": "Alpiar\u00e7a", "state": "", "country": "PT", "coord": {"lon": -8.56336, "lat": 39.238819}}, {"id": 8010598, "name": "Benavente", "state": "", "country": "PT", "coord": {"lon": -8.76898, "lat": 38.908001}}, {"id": 8010599, "name": "Cartaxo", "state": "", "country": "PT", "coord": {"lon": -8.81373, "lat": 39.15377}}, {"id": 8010600, "name": "Chamusca", "state": "", "country": "PT", "coord": {"lon": -8.39933, "lat": 39.299}}, {"id": 8010601, "name": "Const\u00e2ncia", "state": "", "country": "PT", "coord": {"lon": -8.30368, "lat": 39.45718}}, {"id": 8010602, "name": "Coruche", "state": "", "country": "PT", "coord": {"lon": -8.49731, "lat": 38.939869}}, {"id": 8010603, "name": "Entroncamento", "state": "", "country": "PT", "coord": {"lon": -8.47624, "lat": 39.466549}}, {"id": 8010604, "name": "Ferreira do Z\u00eazere", "state": "", "country": "PT", "coord": {"lon": -8.31661, "lat": 39.72303}}, {"id": 8010606, "name": "Ma\u00e7\u00e3o", "state": "", "country": "PT", "coord": {"lon": -7.99772, "lat": 39.593311}}, {"id": 8010607, "name": "Rio Maior", "state": "", "country": "PT", "coord": {"lon": -8.87304, "lat": 39.311989}}, {"id": 8010608, "name": "Salvaterra de Magos", "state": "", "country": "PT", "coord": {"lon": -8.68903, "lat": 39.044819}}, {"id": 8010609, "name": "Santar\u00e9m", "state": "", "country": "PT", "coord": {"lon": -8.71313, "lat": 39.321308}}, {"id": 8010610, "name": "Sardoal", "state": "", "country": "PT", "coord": {"lon": -8.14323, "lat": 39.556431}}, {"id": 8010611, "name": "Tomar", "state": "", "country": "PT", "coord": {"lon": -8.39346, "lat": 39.610401}}, {"id": 8010612, "name": "Torres Novas", "state": "", "country": "PT", "coord": {"lon": -8.54796, "lat": 39.4916}}, {"id": 8010613, "name": "Vila Nova da Barquinha", "state": "", "country": "PT", "coord": {"lon": -8.40953, "lat": 39.47559}}, {"id": 8010614, "name": "Our\u00e9m", "state": "", "country": "PT", "coord": {"lon": -8.57895, "lat": 39.661789}}, {"id": 8010615, "name": "Alc\u00e1cer do Sal", "state": "", "country": "PT", "coord": {"lon": -8.50011, "lat": 38.388199}}, {"id": 8010616, "name": "Alcochete", "state": "", "country": "PT", "coord": {"lon": -8.97936, "lat": 38.73827}}, {"id": 8010617, "name": "Almada", "state": "", "country": "PT", "coord": {"lon": -9.14955, "lat": 38.68399}}, {"id": 8010618, "name": "Barreiro", "state": "", "country": "PT", "coord": {"lon": -9.05168, "lat": 38.6376}}, {"id": 8010619, "name": "Gr\u00e2ndola", "state": "", "country": "PT", "coord": {"lon": -8.61197, "lat": 38.189991}}, {"id": 8010620, "name": "Moita", "state": "", "country": "PT", "coord": {"lon": -9.0104, "lat": 38.658539}}, {"id": 8010621, "name": "Montijo", "state": "", "country": "PT", "coord": {"lon": -8.83547, "lat": 38.69825}}, {"id": 8010622, "name": "Palmela", "state": "", "country": "PT", "coord": {"lon": -8.89996, "lat": 38.584229}}, {"id": 8010623, "name": "Santiago do Cac\u00e9m", "state": "", "country": "PT", "coord": {"lon": -8.67577, "lat": 38.025021}}, {"id": 8010624, "name": "Sesimbra", "state": "", "country": "PT", "coord": {"lon": -9.1024, "lat": 38.44075}}, {"id": 8010625, "name": "Set\u00fabal", "state": "", "country": "PT", "coord": {"lon": -8.90817, "lat": 38.517422}}, {"id": 8010627, "name": "Arcos de Valdevez", "state": "", "country": "PT", "coord": {"lon": -8.42624, "lat": 41.873482}}, {"id": 8010628, "name": "Caminha", "state": "", "country": "PT", "coord": {"lon": -8.80133, "lat": 41.84647}}, {"id": 8010629, "name": "Melga\u00e7o", "state": "", "country": "PT", "coord": {"lon": -8.24844, "lat": 42.080669}}, {"id": 8010630, "name": "Mon\u00e7\u00e3o", "state": "", "country": "PT", "coord": {"lon": -8.44199, "lat": 42.036911}}, {"id": 8010631, "name": "Paredes de Coura", "state": "", "country": "PT", "coord": {"lon": -8.57034, "lat": 41.90995}}, {"id": 8010632, "name": "Ponte da Barca", "state": "", "country": "PT", "coord": {"lon": -8.37833, "lat": 41.788872}}, {"id": 8010633, "name": "Ponte de Lima", "state": "", "country": "PT", "coord": {"lon": -8.57637, "lat": 41.746819}}, {"id": 8010634, "name": "Valen\u00e7a", "state": "", "country": "PT", "coord": {"lon": -8.63388, "lat": 42.02821}}, {"id": 8010635, "name": "Viana do Castelo", "state": "", "country": "PT", "coord": {"lon": -8.84674, "lat": 41.708981}}, {"id": 8010637, "name": "Alij\u00f3", "state": "", "country": "PT", "coord": {"lon": -7.48545, "lat": 41.28447}}, {"id": 8010638, "name": "Boticas", "state": "", "country": "PT", "coord": {"lon": -7.71604, "lat": 41.67585}}, {"id": 8010639, "name": "Chaves", "state": "", "country": "PT", "coord": {"lon": -7.4503, "lat": 41.739609}}, {"id": 8010640, "name": "Mes\u00e3o Frio", "state": "", "country": "PT", "coord": {"lon": -7.87284, "lat": 41.1619}}, {"id": 8010641, "name": "Mondim de Basto", "state": "", "country": "PT", "coord": {"lon": -7.95479, "lat": 41.413471}}, {"id": 8010642, "name": "Montalegre", "state": "", "country": "PT", "coord": {"lon": -7.83827, "lat": 41.787842}}, {"id": 8010643, "name": "Mur\u00e7a", "state": "", "country": "PT", "coord": {"lon": -7.45121, "lat": 41.418251}}, {"id": 8010644, "name": "Peso da R\u00e9gua", "state": "", "country": "PT", "coord": {"lon": -7.77753, "lat": 41.18042}}, {"id": 8010645, "name": "Ribeira de Pena", "state": "", "country": "PT", "coord": {"lon": -7.79673, "lat": 41.510208}}, {"id": 8010646, "name": "Sabrosa", "state": "", "country": "PT", "coord": {"lon": -7.5902, "lat": 41.253181}}, {"id": 8010647, "name": "Santa Marta de Penagui\u00e3o", "state": "", "country": "PT", "coord": {"lon": -7.79634, "lat": 41.221359}}, {"id": 8010648, "name": "Valpa\u00e7os", "state": "", "country": "PT", "coord": {"lon": -7.33607, "lat": 41.620819}}, {"id": 8010649, "name": "Vila Pouca de Aguiar", "state": "", "country": "PT", "coord": {"lon": -7.63671, "lat": 41.52079}}, {"id": 8010650, "name": "Vila Real", "state": "", "country": "PT", "coord": {"lon": -7.73985, "lat": 41.300209}}, {"id": 8010651, "name": "Armamar", "state": "", "country": "PT", "coord": {"lon": -7.68553, "lat": 41.097179}}, {"id": 8010652, "name": "Castro Daire", "state": "", "country": "PT", "coord": {"lon": -7.93878, "lat": 40.922791}}, {"id": 8010653, "name": "Cinf\u00e3es", "state": "", "country": "PT", "coord": {"lon": -8.11218, "lat": 41.03986}}, {"id": 8010654, "name": "Lamego", "state": "", "country": "PT", "coord": {"lon": -7.81694, "lat": 41.082539}}, {"id": 8010655, "name": "Mangualde", "state": "", "country": "PT", "coord": {"lon": -7.71727, "lat": 40.5956}}, {"id": 8010656, "name": "Moimenta da Beira", "state": "", "country": "PT", "coord": {"lon": -7.62959, "lat": 40.97134}}, {"id": 8010657, "name": "Mort\u00e1gua", "state": "", "country": "PT", "coord": {"lon": -8.25811, "lat": 40.394341}}, {"id": 8010658, "name": "Nelas", "state": "", "country": "PT", "coord": {"lon": -7.88259, "lat": 40.529461}}, {"id": 8010659, "name": "Oliveira de Frades", "state": "", "country": "PT", "coord": {"lon": -8.1752, "lat": 40.746391}}, {"id": 8010660, "name": "Penalva do Castelo", "state": "", "country": "PT", "coord": {"lon": -7.66015, "lat": 40.667912}}, {"id": 8010661, "name": "Penedono", "state": "", "country": "PT", "coord": {"lon": -7.39401, "lat": 40.993}}, {"id": 8010662, "name": "Resende", "state": "", "country": "PT", "coord": {"lon": -7.95123, "lat": 41.076881}}, {"id": 8010663, "name": "Santa Comba D\u00e3o", "state": "", "country": "PT", "coord": {"lon": -8.1138, "lat": 40.404419}}, {"id": 8010664, "name": "S\u00e3o Jo\u00e3o da Pesqueira", "state": "", "country": "PT", "coord": {"lon": -7.43382, "lat": 41.11079}}, {"id": 8010665, "name": "S\u00e3o Pedro do Sul", "state": "", "country": "PT", "coord": {"lon": -8.09023, "lat": 40.800732}}, {"id": 8010666, "name": "S\u00e1t\u00e3o", "state": "", "country": "PT", "coord": {"lon": -7.676, "lat": 40.762459}}, {"id": 8010667, "name": "Sernancelhe", "state": "", "country": "PT", "coord": {"lon": -7.51226, "lat": 40.920971}}, {"id": 8010668, "name": "Tabua\u00e7o", "state": "", "country": "PT", "coord": {"lon": -7.56735, "lat": 41.095551}}, {"id": 8010669, "name": "Tarouca", "state": "", "country": "PT", "coord": {"lon": -7.74998, "lat": 41.026508}}, {"id": 8010670, "name": "Vila Nova de Paiva", "state": "", "country": "PT", "coord": {"lon": -7.76127, "lat": 40.865898}}, {"id": 8010671, "name": "Viseu", "state": "", "country": "PT", "coord": {"lon": -7.91721, "lat": 40.6745}}, {"id": 8010672, "name": "Vouzela", "state": "", "country": "PT", "coord": {"lon": -8.1136, "lat": 40.689442}}, {"id": 8010673, "name": "Calheta", "state": "", "country": "PT", "coord": {"lon": -17.197651, "lat": 32.763672}}, {"id": 8010674, "name": "C\u00e2mara de Lobos", "state": "", "country": "PT", "coord": {"lon": -16.98567, "lat": 32.687222}}, {"id": 8010676, "name": "Machico", "state": "", "country": "PT", "coord": {"lon": -16.70772, "lat": 32.74472}}, {"id": 8010680, "name": "Santa Cruz", "state": "", "country": "PT", "coord": {"lon": -16.56035, "lat": 32.535931}}, {"id": 8010681, "name": "Santana", "state": "", "country": "PT", "coord": {"lon": -16.90444, "lat": 32.796581}}, {"id": 8010683, "name": "Porto Santo", "state": "", "country": "PT", "coord": {"lon": -16.341471, "lat": 33.071972}}, {"id": 8010684, "name": "Vila do Porto", "state": "", "country": "PT", "coord": {"lon": -25.09967, "lat": 36.974541}}, {"id": 8010687, "name": "Ponta Delgada", "state": "", "country": "PT", "coord": {"lon": -25.71563, "lat": 37.811329}}, {"id": 8010689, "name": "Ribeira Grande", "state": "", "country": "PT", "coord": {"lon": -25.468349, "lat": 37.804588}}, {"id": 8010690, "name": "Vila Franca do Campo", "state": "", "country": "PT", "coord": {"lon": -25.42914, "lat": 37.73661}}, {"id": 8010691, "name": "Angra do Hero\u00edsmo", "state": "", "country": "PT", "coord": {"lon": -27.24913, "lat": 38.695259}}, {"id": 8010692, "name": "Praia da Vit\u00f3ria", "state": "", "country": "PT", "coord": {"lon": -27.13098, "lat": 38.740639}}, {"id": 8010693, "name": "Santa Cruz da Graciosa", "state": "", "country": "PT", "coord": {"lon": -28.00432, "lat": 39.049461}}, {"id": 8010695, "name": "Velas", "state": "", "country": "PT", "coord": {"lon": -28.15155, "lat": 38.679951}}, {"id": 8010697, "name": "Madalena", "state": "", "country": "PT", "coord": {"lon": -28.52343, "lat": 38.535591}}, {"id": 8010698, "name": "S\u00e3o Roque do Pico", "state": "", "country": "PT", "coord": {"lon": -28.29261, "lat": 38.488171}}, {"id": 8010699, "name": "Horta", "state": "", "country": "PT", "coord": {"lon": -28.679199, "lat": 38.570969}}, {"id": 8010705, "name": "\u00c1gueda", "state": "", "country": "PT", "coord": {"lon": -8.41919, "lat": 40.583241}}, {"id": 8010707, "name": "Espinhel", "state": "", "country": "PT", "coord": {"lon": -8.48624, "lat": 40.561211}}, {"id": 8010708, "name": "Fermentelos", "state": "", "country": "PT", "coord": {"lon": -8.53021, "lat": 40.565338}}, {"id": 8010716, "name": "Alquerubim", "state": "", "country": "PT", "coord": {"lon": -8.5021, "lat": 40.632889}}, {"id": 8010717, "name": "Angeja", "state": "", "country": "PT", "coord": {"lon": -8.57526, "lat": 40.690289}}, {"id": 8010718, "name": "Branca", "state": "", "country": "PT", "coord": {"lon": -8.49214, "lat": 40.74691}}, {"id": 8010719, "name": "Frossos", "state": "", "country": "PT", "coord": {"lon": -8.53684, "lat": 40.659481}}, {"id": 8010722, "name": "Arcos", "state": "", "country": "PT", "coord": {"lon": -8.43815, "lat": 40.450031}}, {"id": 8010723, "name": "Mogofores", "state": "", "country": "PT", "coord": {"lon": -8.46492, "lat": 40.453339}}, {"id": 8010725, "name": "Sangalhos", "state": "", "country": "PT", "coord": {"lon": -8.47232, "lat": 40.48447}}, {"id": 8010726, "name": "Tamengos", "state": "", "country": "PT", "coord": {"lon": -8.46935, "lat": 40.41898}}, {"id": 8010727, "name": "Aguim", "state": "", "country": "PT", "coord": {"lon": -8.44387, "lat": 40.412739}}, {"id": 8010736, "name": "Fermedo", "state": "", "country": "PT", "coord": {"lon": -8.3851, "lat": 40.969349}}, {"id": 8010738, "name": "Mansores", "state": "", "country": "PT", "coord": {"lon": -8.3617, "lat": 40.936119}}, {"id": 8010741, "name": "Santa Eul\u00e1lia", "state": "", "country": "PT", "coord": {"lon": -8.27752, "lat": 40.923439}}, {"id": 8010745, "name": "Aradas", "state": "", "country": "PT", "coord": {"lon": -8.64119, "lat": 40.607109}}, {"id": 8010746, "name": "Cacia", "state": "", "country": "PT", "coord": {"lon": -8.62494, "lat": 40.690151}}, {"id": 8010748, "name": "Eixo", "state": "", "country": "PT", "coord": {"lon": -8.57332, "lat": 40.628738}}, {"id": 8010749, "name": "Esgueira", "state": "", "country": "PT", "coord": {"lon": -8.60933, "lat": 40.659752}}, {"id": 8010750, "name": "Gl\u00f3ria", "state": "", "country": "PT", "coord": {"lon": -8.65886, "lat": 40.635201}}, {"id": 8010752, "name": "Oliveirinha", "state": "", "country": "PT", "coord": {"lon": -8.5961, "lat": 40.59787}}, {"id": 8010753, "name": "Requeixo", "state": "", "country": "PT", "coord": {"lon": -8.55021, "lat": 40.584839}}, {"id": 8010756, "name": "Vera Cruz", "state": "", "country": "PT", "coord": {"lon": -8.67914, "lat": 40.678631}}, {"id": 8010759, "name": "Fornos", "state": "", "country": "PT", "coord": {"lon": -8.2553, "lat": 41.053261}}, {"id": 8010761, "name": "Pedorido", "state": "", "country": "PT", "coord": {"lon": -8.3791, "lat": 41.027561}}, {"id": 8010767, "name": "Guetim", "state": "", "country": "PT", "coord": {"lon": -8.60366, "lat": 41.017021}}, {"id": 8010768, "name": "Paramos", "state": "", "country": "PT", "coord": {"lon": -8.63191, "lat": 40.974751}}, {"id": 8010769, "name": "Silvalde", "state": "", "country": "PT", "coord": {"lon": -8.62874, "lat": 40.991539}}, {"id": 8010770, "name": "Avanca", "state": "", "country": "PT", "coord": {"lon": -8.57226, "lat": 40.806591}}, {"id": 8010771, "name": "Bedu\u00eddo", "state": "", "country": "PT", "coord": {"lon": -8.57018, "lat": 40.755989}}, {"id": 8010773, "name": "Fermel\u00e3", "state": "", "country": "PT", "coord": {"lon": -8.56495, "lat": 40.705978}}, {"id": 8010774, "name": "Pardilh\u00f3", "state": "", "country": "PT", "coord": {"lon": -8.62843, "lat": 40.796089}}, {"id": 8010775, "name": "Salreu", "state": "", "country": "PT", "coord": {"lon": -8.5666, "lat": 40.740929}}, {"id": 8010777, "name": "Argoncilhe", "state": "", "country": "PT", "coord": {"lon": -8.53899, "lat": 41.019058}}, {"id": 8010778, "name": "Arrifana", "state": "", "country": "PT", "coord": {"lon": -8.50596, "lat": 40.91114}}, {"id": 8010780, "name": "Escap\u00e3es", "state": "", "country": "PT", "coord": {"lon": -8.50617, "lat": 40.92799}}, {"id": 8010782, "name": "Feira", "state": "", "country": "PT", "coord": {"lon": -8.54819, "lat": 40.931751}}, {"id": 8010783, "name": "Fi\u00e3es", "state": "", "country": "PT", "coord": {"lon": -8.52289, "lat": 40.984348}}, {"id": 8010784, "name": "Fornos", "state": "", "country": "PT", "coord": {"lon": -8.52973, "lat": 40.913731}}, {"id": 8010785, "name": "Gi\u00e3o", "state": "", "country": "PT", "coord": {"lon": -8.46988, "lat": 40.992989}}, {"id": 8010787, "name": "Lob\u00e3o", "state": "", "country": "PT", "coord": {"lon": -8.49203, "lat": 40.982861}}, {"id": 8010789, "name": "Lourosa", "state": "", "country": "PT", "coord": {"lon": -8.54231, "lat": 40.98241}}, {"id": 8010792, "name": "Pigeiros", "state": "", "country": "PT", "coord": {"lon": -8.48994, "lat": 40.946758}}, {"id": 8010793, "name": "Rio Me\u00e3o", "state": "", "country": "PT", "coord": {"lon": -8.58379, "lat": 40.95451}}, {"id": 8010797, "name": "Souto", "state": "", "country": "PT", "coord": {"lon": -8.56044, "lat": 40.89426}}, {"id": 8010799, "name": "Vale", "state": "", "country": "PT", "coord": {"lon": -8.43945, "lat": 40.967121}}, {"id": 8010801, "name": "\u00cdlhavo (S\u00e3o Salvador)", "state": "", "country": "PT", "coord": {"lon": -8.67622, "lat": 40.596722}}, {"id": 8010802, "name": "Antes", "state": "", "country": "PT", "coord": {"lon": -8.46818, "lat": 40.389481}}, {"id": 8010803, "name": "Barcou\u00e7o", "state": "", "country": "PT", "coord": {"lon": -8.48815, "lat": 40.303459}}, {"id": 8010804, "name": "Casal Comba", "state": "", "country": "PT", "coord": {"lon": -8.46945, "lat": 40.34409}}, {"id": 8010805, "name": "Luso", "state": "", "country": "PT", "coord": {"lon": -8.39286, "lat": 40.37384}}, {"id": 8010807, "name": "Pampilhosa", "state": "", "country": "PT", "coord": {"lon": -8.42684, "lat": 40.337711}}, {"id": 8010809, "name": "Bunheiro", "state": "", "country": "PT", "coord": {"lon": -8.6419, "lat": 40.771179}}, {"id": 8010812, "name": "Torreira", "state": "", "country": "PT", "coord": {"lon": -8.70028, "lat": 40.76086}}, {"id": 8010815, "name": "Faj\u00f5es", "state": "", "country": "PT", "coord": {"lon": -8.41868, "lat": 40.916451}}, {"id": 8010817, "name": "Madail", "state": "", "country": "PT", "coord": {"lon": -8.50628, "lat": 40.836262}}, {"id": 8010818, "name": "Ossela", "state": "", "country": "PT", "coord": {"lon": -8.42468, "lat": 40.831711}}, {"id": 8010819, "name": "Palmaz", "state": "", "country": "PT", "coord": {"lon": -8.44185, "lat": 40.790531}}, {"id": 8010822, "name": "Ul", "state": "", "country": "PT", "coord": {"lon": -8.49897, "lat": 40.819199}}, {"id": 8010824, "name": "Bustos", "state": "", "country": "PT", "coord": {"lon": -8.60648, "lat": 40.496059}}, {"id": 8010825, "name": "Mamarrosa", "state": "", "country": "PT", "coord": {"lon": -8.57196, "lat": 40.482422}}, {"id": 8010826, "name": "Oi\u00e3", "state": "", "country": "PT", "coord": {"lon": -8.53868, "lat": 40.536678}}, {"id": 8010827, "name": "Palha\u00e7a", "state": "", "country": "PT", "coord": {"lon": -8.60143, "lat": 40.52943}}, {"id": 8010830, "name": "Cortega\u00e7a", "state": "", "country": "PT", "coord": {"lon": -8.63281, "lat": 40.937511}}, {"id": 8010832, "name": "Maceda", "state": "", "country": "PT", "coord": {"lon": -8.63074, "lat": 40.920681}}, {"id": 8010833, "name": "Ovar", "state": "", "country": "PT", "coord": {"lon": -8.64966, "lat": 40.845421}}, {"id": 8010834, "name": "V\u00e1lega", "state": "", "country": "PT", "coord": {"lon": -8.59028, "lat": 40.837872}}, {"id": 8010837, "name": "Paradela", "state": "", "country": "PT", "coord": {"lon": -8.35534, "lat": 40.693569}}, {"id": 8010839, "name": "Talhadas", "state": "", "country": "PT", "coord": {"lon": -8.33169, "lat": 40.665649}}, {"id": 8010841, "name": "Calv\u00e3o", "state": "", "country": "PT", "coord": {"lon": -8.70417, "lat": 40.48003}}, {"id": 8010842, "name": "Ouca", "state": "", "country": "PT", "coord": {"lon": -8.64185, "lat": 40.50708}}, {"id": 8010843, "name": "Sosa", "state": "", "country": "PT", "coord": {"lon": -8.64231, "lat": 40.550709}}, {"id": 8010856, "name": "Gomes Aires", "state": "", "country": "PT", "coord": {"lon": -8.21394, "lat": 37.489552}}, {"id": 8010865, "name": "Baleiz\u00e3o", "state": "", "country": "PT", "coord": {"lon": -7.71427, "lat": 38.052681}}, {"id": 8010866, "name": "Beringel", "state": "", "country": "PT", "coord": {"lon": -7.99778, "lat": 38.060211}}, {"id": 8010880, "name": "Trigaches", "state": "", "country": "PT", "coord": {"lon": -7.98138, "lat": 38.095482}}, {"id": 8010884, "name": "Cuba", "state": "", "country": "PT", "coord": {"lon": -7.89617, "lat": 38.173561}}, {"id": 8010885, "name": "Vila Alva", "state": "", "country": "PT", "coord": {"lon": -7.88994, "lat": 38.25206}}, {"id": 8010887, "name": "Alfund\u00e3o", "state": "", "country": "PT", "coord": {"lon": -8.04025, "lat": 38.137321}}, {"id": 8010888, "name": "Figueira Dos Cavaleiros", "state": "", "country": "PT", "coord": {"lon": -8.29016, "lat": 38.117271}}, {"id": 8010897, "name": "Amareleja", "state": "", "country": "PT", "coord": {"lon": -7.22269, "lat": 38.20993}}, {"id": 8010903, "name": "Rel\u00edquias", "state": "", "country": "PT", "coord": {"lon": -8.53337, "lat": 37.69611}}, {"id": 8010904, "name": "Saboia", "state": "", "country": "PT", "coord": {"lon": -8.53011, "lat": 37.462719}}, {"id": 8010908, "name": "Odemira (S\u00e3o Salvador)", "state": "", "country": "PT", "coord": {"lon": -8.63129, "lat": 37.637718}}, {"id": 8010916, "name": "Garv\u00e3o", "state": "", "country": "PT", "coord": {"lon": -8.34817, "lat": 37.712711}}, {"id": 8010918, "name": "Pan\u00f3ias", "state": "", "country": "PT", "coord": {"lon": -8.31963, "lat": 37.788681}}, {"id": 8010925, "name": "Selmes", "state": "", "country": "PT", "coord": {"lon": -7.76205, "lat": 38.147331}}, {"id": 8010927, "name": "Amares", "state": "", "country": "PT", "coord": {"lon": -8.3489, "lat": 41.631248}}, {"id": 8010932, "name": "Caldelas", "state": "", "country": "PT", "coord": {"lon": -8.37027, "lat": 41.668522}}, {"id": 8010934, "name": "Dornelas", "state": "", "country": "PT", "coord": {"lon": -8.32879, "lat": 41.642849}}, {"id": 8010936, "name": "Figueiredo", "state": "", "country": "PT", "coord": {"lon": -8.33233, "lat": 41.629349}}, {"id": 8010944, "name": "Rendufe", "state": "", "country": "PT", "coord": {"lon": -8.40714, "lat": 41.629719}}, {"id": 8010955, "name": "Aldreu", "state": "", "country": "PT", "coord": {"lon": -8.70364, "lat": 41.599899}}, {"id": 8010958, "name": "Arcozelo", "state": "", "country": "PT", "coord": {"lon": -8.60892, "lat": 41.545101}}, {"id": 8010961, "name": "Barcelinhos", "state": "", "country": "PT", "coord": {"lon": -8.62522, "lat": 41.521011}}, {"id": 8010964, "name": "Cambeses", "state": "", "country": "PT", "coord": {"lon": -8.52746, "lat": 41.482658}}, {"id": 8010966, "name": "Carape\u00e7os", "state": "", "country": "PT", "coord": {"lon": -8.64674, "lat": 41.590801}}, {"id": 8010970, "name": "Chav\u00e3o", "state": "", "country": "PT", "coord": {"lon": -8.59528, "lat": 41.448929}}, {"id": 8010986, "name": "G\u00f3ios", "state": "", "country": "PT", "coord": {"lon": -8.61982, "lat": 41.471748}}, {"id": 8010987, "name": "Grimancelos", "state": "", "country": "PT", "coord": {"lon": -8.58449, "lat": 41.441448}}, {"id": 8010991, "name": "Lij\u00f3", "state": "", "country": "PT", "coord": {"lon": -8.6106, "lat": 41.57029}}, {"id": 8010992, "name": "Manhente", "state": "", "country": "PT", "coord": {"lon": -8.57044, "lat": 41.54702}}, {"id": 8010997, "name": "Minhot\u00e3es", "state": "", "country": "PT", "coord": {"lon": -8.57127, "lat": 41.43375}}, {"id": 8010999, "name": "Negreiros", "state": "", "country": "PT", "coord": {"lon": -8.61645, "lat": 41.428959}}, {"id": 8011001, "name": "Palme", "state": "", "country": "PT", "coord": {"lon": -8.70652, "lat": 41.583649}}, {"id": 8011007, "name": "Pousa", "state": "", "country": "PT", "coord": {"lon": -8.51468, "lat": 41.5536}}, {"id": 8011024, "name": "Sequeade", "state": "", "country": "PT", "coord": {"lon": -8.5359, "lat": 41.499931}}, {"id": 8011026, "name": "Silveiros", "state": "", "country": "PT", "coord": {"lon": -8.57247, "lat": 41.46846}}, {"id": 8011030, "name": "Viatodos", "state": "", "country": "PT", "coord": {"lon": -8.56003, "lat": 41.452991}}, {"id": 8011034, "name": "Ada\u00fafe", "state": "", "country": "PT", "coord": {"lon": -8.39744, "lat": 41.589951}}, {"id": 8011036, "name": "Arentim", "state": "", "country": "PT", "coord": {"lon": -8.50822, "lat": 41.485649}}, {"id": 8011053, "name": "Guisande", "state": "", "country": "PT", "coord": {"lon": -8.45036, "lat": 41.480179}}, {"id": 8011057, "name": "Braga (Maximinos)", "state": "", "country": "PT", "coord": {"lon": -8.43921, "lat": 41.545368}}, {"id": 8011061, "name": "Nogueir\u00f3", "state": "", "country": "PT", "coord": {"lon": -8.38679, "lat": 41.544552}}, {"id": 8011062, "name": "Palmeira", "state": "", "country": "PT", "coord": {"lon": -8.43702, "lat": 41.589321}}, {"id": 8011084, "name": "Tebosa", "state": "", "country": "PT", "coord": {"lon": -8.48635, "lat": 41.483509}}, {"id": 8011102, "name": "Vila Nune", "state": "", "country": "PT", "coord": {"lon": -7.954, "lat": 41.459389}}, {"id": 8011103, "name": "Agilde", "state": "", "country": "PT", "coord": {"lon": -8.1235, "lat": 41.363258}}, {"id": 8011104, "name": "Arn\u00f3ia", "state": "", "country": "PT", "coord": {"lon": -8.02042, "lat": 41.366798}}, {"id": 8011106, "name": "Ca\u00e7arilhe", "state": "", "country": "PT", "coord": {"lon": -8.04456, "lat": 41.423038}}, {"id": 8011108, "name": "Code\u00e7oso", "state": "", "country": "PT", "coord": {"lon": -8.02647, "lat": 41.33849}}, {"id": 8011111, "name": "Gagos", "state": "", "country": "PT", "coord": {"lon": -8.0044, "lat": 41.429939}}, {"id": 8011115, "name": "Ourilhe", "state": "", "country": "PT", "coord": {"lon": -8.01855, "lat": 41.413559}}, {"id": 8011116, "name": "Rego", "state": "", "country": "PT", "coord": {"lon": -8.07801, "lat": 41.421471}}, {"id": 8011119, "name": "Basto (S\u00e3o Clemente)", "state": "", "country": "PT", "coord": {"lon": -8.03985, "lat": 41.465191}}, {"id": 8011125, "name": "Esposende", "state": "", "country": "PT", "coord": {"lon": -8.77917, "lat": 41.53323}},