[{"id": 1922387, "name": "Helong", "state": "", "country": "CN", "coord": {"lon": 116.653671, "lat": 26.446199}}, {"id": 1922425, "name": "Xiafang", "state": "", "country": "CN", "coord": {"lon": 116.934052, "lat": 26.57247}}, {"id": 1922428, "name": "Lishu", "state": "", "country": "CN", "coord": {"lon": 117.716232, "lat": 26.593321}}, {"id": 1922443, "name": "Long\u2019an", "state": "", "country": "CN", "coord": {"lon": 117.034889, "lat": 26.63372}}, {"id": 1922458, "name": "Dushang", "state": "", "country": "CN", "coord": {"lon": 116.754593, "lat": 26.689171}}, {"id": 1922462, "name": "Dabu", "state": "", "country": "CN", "coord": {"lon": 117.009354, "lat": 26.714069}}, {"id": 1922471, "name": "Huangbu", "state": "", "country": "CN", "coord": {"lon": 116.653259, "lat": 26.7421}}, {"id": 1922473, "name": "Kaishan", "state": "", "country": "CN", "coord": {"lon": 117.180138, "lat": 26.753281}}, {"id": 1922483, "name": "Shuinan", "state": "", "country": "CN", "coord": {"lon": 117.795403, "lat": 26.72464}}, {"id": 1922492, "name": "Hedong", "state": "", "country": "CN", "coord": {"lon": 116.8479, "lat": 26.835369}}, {"id": 1922523, "name": "Hongdun", "state": "", "country": "CN", "coord": {"lon": 117.666313, "lat": 26.97827}}, {"id": 1923045, "name": "Banten", "state": "", "country": "ID", "coord": {"lon": 106.25, "lat": -6.5}}, {"id": 1923046, "name": "Provinsi Gorontalo", "state": "", "country": "ID", "coord": {"lon": 122.470398, "lat": 0.693}}, {"id": 1923047, "name": "Kepulauan Bangka Belitung", "state": "", "country": "ID", "coord": {"lon": 106.666672, "lat": -2.66667}}, {"id": 1923060, "name": "Wudang", "state": "", "country": "CN", "coord": {"lon": 114.752159, "lat": 24.639931}}, {"id": 1923099, "name": "Lintang", "state": "", "country": "CN", "coord": {"lon": 114.796867, "lat": 24.790939}}, {"id": 1923144, "name": "Taojiang", "state": "", "country": "CN", "coord": {"lon": 114.779732, "lat": 24.91684}}, {"id": 1923210, "name": "Luoshan", "state": "", "country": "CN", "coord": {"lon": 115.816452, "lat": 25.144751}}, {"id": 1923231, "name": "Changling", "state": "", "country": "CN", "coord": {"lon": 115.800926, "lat": 25.246349}}, {"id": 1923249, "name": "Dongtou", "state": "", "country": "CN", "coord": {"lon": 115.910294, "lat": 25.307329}}, {"id": 1923250, "name": "Caifang", "state": "", "country": "CN", "coord": {"lon": 115.445633, "lat": 25.30039}}, {"id": 1923311, "name": "Shuangyuan", "state": "", "country": "CN", "coord": {"lon": 115.300323, "lat": 25.49304}}, {"id": 1923383, "name": "Baying", "state": "", "country": "CN", "coord": {"lon": 115.969429, "lat": 25.647209}}, {"id": 1923403, "name": "Zhuangbu", "state": "", "country": "CN", "coord": {"lon": 115.593979, "lat": 25.69845}}, {"id": 1923404, "name": "Qilushan", "state": "", "country": "CN", "coord": {"lon": 115.298447, "lat": 25.695801}}, {"id": 1923418, "name": "Fenghuangdong", "state": "", "country": "CN", "coord": {"lon": 115.741386, "lat": 25.727501}}, {"id": 1923445, "name": "Hefeng", "state": "", "country": "CN", "coord": {"lon": 115.488632, "lat": 25.80085}}, {"id": 1923470, "name": "Xinbei", "state": "", "country": "CN", "coord": {"lon": 115.347572, "lat": 25.873831}}, {"id": 1923473, "name": "Xiaomi", "state": "", "country": "CN", "coord": {"lon": 115.706398, "lat": 25.876591}}, {"id": 1923474, "name": "Luojiang", "state": "", "country": "CN", "coord": {"lon": 115.252548, "lat": 25.880011}}, {"id": 1923526, "name": "Shaxin", "state": "", "country": "CN", "coord": {"lon": 115.766296, "lat": 25.99334}}, {"id": 1923630, "name": "Zhukeng", "state": "", "country": "CN", "coord": {"lon": 116.361191, "lat": 26.215599}}, {"id": 1923636, "name": "Jiecun", "state": "", "country": "CN", "coord": {"lon": 115.436394, "lat": 26.218889}}, {"id": 1923671, "name": "Butou", "state": "", "country": "CN", "coord": {"lon": 115.337502, "lat": 26.290831}}, {"id": 1923699, "name": "Longping", "state": "", "country": "CN", "coord": {"lon": 115.235222, "lat": 26.355551}}, {"id": 1923733, "name": "Dinglong", "state": "", "country": "CN", "coord": {"lon": 115.454514, "lat": 26.415449}}, {"id": 1923786, "name": "Shuicha", "state": "", "country": "CN", "coord": {"lon": 115.066368, "lat": 26.52306}}, {"id": 1923838, "name": "Tangfang", "state": "", "country": "CN", "coord": {"lon": 116.482887, "lat": 26.62166}}, {"id": 1923922, "name": "Guanxi", "state": "", "country": "CN", "coord": {"lon": 115.121841, "lat": 26.752871}}, {"id": 1924002, "name": "Sanfang", "state": "", "country": "CN", "coord": {"lon": 115.414558, "lat": 26.86924}}, {"id": 1924023, "name": "Wanhe", "state": "", "country": "CN", "coord": {"lon": 115.027313, "lat": 26.89612}}, {"id": 1924048, "name": "Qianshan", "state": "", "country": "CN", "coord": {"lon": 116.469833, "lat": 26.931179}}, {"id": 1924056, "name": "Wenbei", "state": "", "country": "CN", "coord": {"lon": 115.114342, "lat": 26.942869}}, {"id": 1924131, "name": "Zhangping", "state": "", "country": "CN", "coord": {"lon": 117.420822, "lat": 27.99683}}, {"id": 1924132, "name": "Taiyuan", "state": "", "country": "CN", "coord": {"lon": 117.507782, "lat": 28.009171}}, {"id": 1924156, "name": "Pengwan", "state": "", "country": "CN", "coord": {"lon": 117.123543, "lat": 28.09564}}, {"id": 1924162, "name": "Gangdong", "state": "", "country": "CN", "coord": {"lon": 117.662498, "lat": 28.11639}}, {"id": 1924170, "name": "Yingjiang", "state": "", "country": "CN", "coord": {"lon": 117.91333, "lat": 28.138611}}, {"id": 1924191, "name": "Tieshan", "state": "", "country": "CN", "coord": {"lon": 118.095039, "lat": 28.215281}}, {"id": 1924194, "name": "Hongqiao", "state": "", "country": "CN", "coord": {"lon": 117.684441, "lat": 28.24889}}, {"id": 1924204, "name": "Xin\u2019anbu", "state": "", "country": "CN", "coord": {"lon": 117.594299, "lat": 28.26701}}, {"id": 1924207, "name": "Ehu", "state": "", "country": "CN", "coord": {"lon": 117.794312, "lat": 28.290501}}, {"id": 1924219, "name": "Hengshan", "state": "", "country": "CN", "coord": {"lon": 118.19706, "lat": 28.31724}}, {"id": 1924230, "name": "Shatian", "state": "", "country": "CN", "coord": {"lon": 118.280701, "lat": 28.338011}}, {"id": 1924241, "name": "Hongtang", "state": "", "country": "CN", "coord": {"lon": 117.016609, "lat": 28.35815}}, {"id": 1924248, "name": "Dongtuan", "state": "", "country": "CN", "coord": {"lon": 117.848633, "lat": 28.39142}}, {"id": 1924252, "name": "Maocun", "state": "", "country": "CN", "coord": {"lon": 118.364357, "lat": 28.394199}}, {"id": 1924255, "name": "Dashi", "state": "", "country": "CN", "coord": {"lon": 118.212318, "lat": 28.40247}}, {"id": 1924261, "name": "Huating", "state": "", "country": "CN", "coord": {"lon": 117.442223, "lat": 28.433889}}, {"id": 1924271, "name": "Gangbian", "state": "", "country": "CN", "coord": {"lon": 117.689171, "lat": 28.466391}}, {"id": 1924273, "name": "Paishan", "state": "", "country": "CN", "coord": {"lon": 118.279388, "lat": 28.45956}}, {"id": 1924275, "name": "Puqian", "state": "", "country": "CN", "coord": {"lon": 117.613609, "lat": 28.47333}}, {"id": 1924280, "name": "Shehou", "state": "", "country": "CN", "coord": {"lon": 118.367332, "lat": 28.48011}}, {"id": 1924288, "name": "Wucun", "state": "", "country": "CN", "coord": {"lon": 118.277153, "lat": 28.498911}}, {"id": 1924305, "name": "Huqiao", "state": "", "country": "CN", "coord": {"lon": 118.157784, "lat": 28.54833}}, {"id": 1924314, "name": "Xianyan", "state": "", "country": "CN", "coord": {"lon": 118.394173, "lat": 28.57333}}, {"id": 1924318, "name": "Hufeng", "state": "", "country": "CN", "coord": {"lon": 118.190826, "lat": 28.590281}}, {"id": 1924343, "name": "Liudu", "state": "", "country": "CN", "coord": {"lon": 118.305183, "lat": 28.64612}}, {"id": 1924348, "name": "Linhu", "state": "", "country": "CN", "coord": {"lon": 117.937683, "lat": 28.65958}}, {"id": 1924354, "name": "Shangfang", "state": "", "country": "CN", "coord": {"lon": 117.04583, "lat": 28.678329}}, {"id": 1924365, "name": "Yanrui", "state": "", "country": "CN", "coord": {"lon": 118.337151, "lat": 28.713989}}, {"id": 1924377, "name": "Siguqiao", "state": "", "country": "CN", "coord": {"lon": 118.261909, "lat": 28.746771}}, {"id": 1924384, "name": "Baiyun", "state": "", "country": "CN", "coord": {"lon": 118.325928, "lat": 28.75779}}, {"id": 1924385, "name": "Zhangcun", "state": "", "country": "CN", "coord": {"lon": 117.560654, "lat": 28.760229}}, {"id": 1924418, "name": "Lilin", "state": "", "country": "CN", "coord": {"lon": 117.165047, "lat": 28.86338}}, {"id": 1924452, "name": "Wukou", "state": "", "country": "CN", "coord": {"lon": 117.239159, "lat": 28.980619}}, {"id": 1924460, "name": "Gaojia", "state": "", "country": "CN", "coord": {"lon": 117.3825, "lat": 29.00111}}, {"id": 1924461, "name": "Tanbuqiao", "state": "", "country": "CN", "coord": {"lon": 117.629646, "lat": 29.00701}}, {"id": 1924513, "name": "Liyang", "state": "", "country": "CN", "coord": {"lon": 117.036972, "lat": 29.22064}}, {"id": 1924521, "name": "Zhentou", "state": "", "country": "CN", "coord": {"lon": 117.468269, "lat": 29.266769}}, {"id": 1924522, "name": "Longshan", "state": "", "country": "CN", "coord": {"lon": 117.684891, "lat": 29.270611}}, {"id": 1924537, "name": "Jialu", "state": "", "country": "CN", "coord": {"lon": 117.62056, "lat": 29.353201}}, {"id": 1924657, "name": "Bailu", "state": "", "country": "CN", "coord": {"lon": 116.19944, "lat": 27.910139}}, {"id": 1924660, "name": "Baimaqiao", "state": "", "country": "CN", "coord": {"lon": 116.738037, "lat": 28.6401}}, {"id": 1924665, "name": "Baixu", "state": "", "country": "CN", "coord": {"lon": 116.252487, "lat": 28.26156}}, {"id": 1924668, "name": "Bajiang", "state": "", "country": "CN", "coord": {"lon": 115.351517, "lat": 27.20363}}, {"id": 1924677, "name": "Beigang", "state": "", "country": "CN", "coord": {"lon": 115.093407, "lat": 27.92873}}, {"id": 1924692, "name": "Changjun", "state": "", "country": "CN", "coord": {"lon": 115.714188, "lat": 28.86618}}, {"id": 1924700, "name": "Chenfangji", "state": "", "country": "CN", "coord": {"lon": 116.553757, "lat": 28.059389}}, {"id": 1924710, "name": "Chonggang", "state": "", "country": "CN", "coord": {"lon": 116.374237, "lat": 27.911261}}, {"id": 1924728, "name": "Daqiao", "state": "", "country": "CN", "coord": {"lon": 115.580597, "lat": 28.05452}}, {"id": 1924730, "name": "Datang", "state": "", "country": "CN", "coord": {"lon": 116.51844, "lat": 28.7796}}, {"id": 1924735, "name": "Dayangzhou", "state": "", "country": "CN", "coord": {"lon": 115.448982, "lat": 27.900591}}, {"id": 1924739, "name": "Dengdun", "state": "", "country": "CN", "coord": {"lon": 116.576317, "lat": 28.399599}}, {"id": 1924740, "name": "Dengfang", "state": "", "country": "CN", "coord": {"lon": 116.524902, "lat": 27.811119}}, {"id": 1924751, "name": "Dinghu", "state": "", "country": "CN", "coord": {"lon": 115.544937, "lat": 28.837561}}, {"id": 1924769, "name": "Dongxin", "state": "", "country": "CN", "coord": {"lon": 115.827766, "lat": 28.589319}}, {"id": 1924770, "name": "Dongyuan", "state": "", "country": "CN", "coord": {"lon": 116.448601, "lat": 28.770491}}, {"id": 1924778, "name": "Ducheng", "state": "", "country": "CN", "coord": {"lon": 115.491531, "lat": 28.233459}}, {"id": 1924803, "name": "Fubei", "state": "", "country": "CN", "coord": {"lon": 116.292801, "lat": 28.006531}}, {"id": 1924809, "name": "Gangshang", "state": "", "country": "CN", "coord": {"lon": 115.863281, "lat": 28.41721}}, {"id": 1924813, "name": "Gaoping", "state": "", "country": "CN", "coord": {"lon": 116.154869, "lat": 27.927139}}, {"id": 1924835, "name": "Gugang", "state": "", "country": "CN", "coord": {"lon": 116.00116, "lat": 27.38413}}, {"id": 1924839, "name": "Hangbu", "state": "", "country": "CN", "coord": {"lon": 116.245781, "lat": 27.8153}}, {"id": 1924845, "name": "Hebu", "state": "", "country": "CN", "coord": {"lon": 116.39827, "lat": 27.78825}}, {"id": 1924848, "name": "Heling", "state": "", "country": "CN", "coord": {"lon": 115.41082, "lat": 28.35314}}, {"id": 1924858, "name": "Heshan", "state": "", "country": "CN", "coord": {"lon": 116.552254, "lat": 28.598169}}, {"id": 1924868, "name": "Hongjiazui", "state": "", "country": "CN", "coord": {"lon": 116.657639, "lat": 28.6991}}, {"id": 1924880, "name": "Houtian", "state": "", "country": "CN", "coord": {"lon": 115.790604, "lat": 28.465219}}, {"id": 1924884, "name": "Hualingang", "state": "", "country": "CN", "coord": {"lon": 116.693069, "lat": 28.706329}}, {"id": 1924887, "name": "Huangcheng", "state": "", "country": "CN", "coord": {"lon": 115.561562, "lat": 28.360161}}, {"id": 1924892, "name": "Huangma", "state": "", "country": "CN", "coord": {"lon": 116.011971, "lat": 28.352091}}, {"id": 1924895, "name": "Huangxi", "state": "", "country": "CN", "coord": {"lon": 116.876701, "lat": 28.33408}}, {"id": 1924901, "name": "Huangzhuang", "state": "", "country": "CN", "coord": {"lon": 116.951653, "lat": 28.47728}}, {"id": 1924905, "name": "Hutang", "state": "", "country": "CN", "coord": {"lon": 115.612106, "lat": 28.32362}}, {"id": 1924910, "name": "Huxu", "state": "", "country": "CN", "coord": {"lon": 116.574478, "lat": 28.177019}}, {"id": 1924922, "name": "Jiaokeng", "state": "", "country": "CN", "coord": {"lon": 115.816048, "lat": 27.75572}}, {"id": 1924933, "name": "Jingkou", "state": "", "country": "CN", "coord": {"lon": 116.160568, "lat": 28.65148}}, {"id": 1924937, "name": "Jinqiao", "state": "", "country": "CN", "coord": {"lon": 115.908508, "lat": 28.96994}}, {"id": 1924939, "name": "Jinshanzui", "state": "", "country": "CN", "coord": {"lon": 116.560318, "lat": 28.733509}}, {"id": 1924965, "name": "Lehua", "state": "", "country": "CN", "coord": {"lon": 115.864891, "lat": 28.821051}}, {"id": 1924968, "name": "Liancheng", "state": "", "country": "CN", "coord": {"lon": 116.307152, "lat": 27.892559}}, {"id": 1924993, "name": "Liugongmiao", "state": "", "country": "CN", "coord": {"lon": 115.30574, "lat": 28.110531}}, {"id": 1924995, "name": "Liuhu", "state": "", "country": "CN", "coord": {"lon": 115.721893, "lat": 28.469749}}, {"id": 1925002, "name": "Longhushan", "state": "", "country": "CN", "coord": {"lon": 116.975922, "lat": 28.123461}}, {"id": 1925003, "name": "Longtan", "state": "", "country": "CN", "coord": {"lon": 115.237267, "lat": 28.39259}}, {"id": 1925004, "name": "Longxi", "state": "", "country": "CN", "coord": {"lon": 116.287872, "lat": 27.713989}}, {"id": 1925008, "name": "Lufang", "state": "", "country": "CN", "coord": {"lon": 116.820549, "lat": 28.010481}}, {"id": 1925026, "name": "Luoshi", "state": "", "country": "CN", "coord": {"lon": 115.829651, "lat": 27.99225}}, {"id": 1925027, "name": "Luoting", "state": "", "country": "CN", "coord": {"lon": 115.787071, "lat": 28.89012}}, {"id": 1925029, "name": "Luozhen", "state": "", "country": "CN", "coord": {"lon": 116.262733, "lat": 28.12048}}, {"id": 1925031, "name": "Lusigang", "state": "", "country": "CN", "coord": {"lon": 116.649834, "lat": 28.75433}}, {"id": 1925033, "name": "Ma\u2019an", "state": "", "country": "CN", "coord": {"lon": 115.904381, "lat": 27.741261}}, {"id": 1925037, "name": "Mahong", "state": "", "country": "CN", "coord": {"lon": 115.017532, "lat": 27.919069}}, {"id": 1925044, "name": "Maopai", "state": "", "country": "CN", "coord": {"lon": 116.505173, "lat": 27.624611}}, {"id": 1925046, "name": "Maqiu", "state": "", "country": "CN", "coord": {"lon": 116.078423, "lat": 28.671089}}, {"id": 1925051, "name": "Meiling", "state": "", "country": "CN", "coord": {"lon": 115.745018, "lat": 28.79224}}, {"id": 1925076, "name": "Nantai", "state": "", "country": "CN", "coord": {"lon": 116.40419, "lat": 28.49152}}, {"id": 1925091, "name": "Pengzhou", "state": "", "country": "CN", "coord": {"lon": 115.724251, "lat": 27.49205}}, {"id": 1925100, "name": "Qiaole", "state": "", "country": "CN", "coord": {"lon": 115.563751, "lat": 28.64414}}, {"id": 1925107, "name": "Qidu", "state": "", "country": "CN", "coord": {"lon": 115.55632, "lat": 27.2756}}, {"id": 1925110, "name": "Qiligang", "state": "", "country": "CN", "coord": {"lon": 116.424156, "lat": 28.009701}}, {"id": 1925117, "name": "Qingyun", "state": "", "country": "CN", "coord": {"lon": 116.924721, "lat": 28.662081}}, {"id": 1925122, "name": "Quanling", "state": "", "country": "CN", "coord": {"lon": 116.072021, "lat": 28.377991}}, {"id": 1925127, "name": "Raobu", "state": "", "country": "CN", "coord": {"lon": 116.947281, "lat": 28.87859}}, {"id": 1925128, "name": "Raofeng", "state": "", "country": "CN", "coord": {"lon": 116.819443, "lat": 28.95639}}, {"id": 1925131, "name": "Rongtang", "state": "", "country": "CN", "coord": {"lon": 115.715157, "lat": 28.10862}}, {"id": 1925134, "name": "Sangtian", "state": "", "country": "CN", "coord": {"lon": 116.566658, "lat": 27.12578}}, {"id": 1925139, "name": "Sanshan", "state": "", "country": "CN", "coord": {"lon": 115.987709, "lat": 27.84198}}, {"id": 1925155, "name": "Shanghu", "state": "", "country": "CN", "coord": {"lon": 115.327423, "lat": 28.34659}}, {"id": 1925204, "name": "Shuangcun", "state": "", "country": "CN", "coord": {"lon": 115.21814, "lat": 27.39386}}, {"id": 1925221, "name": "Songhu", "state": "", "country": "CN", "coord": {"lon": 116.474213, "lat": 27.908051}}, {"id": 1925229, "name": "Sundu", "state": "", "country": "CN", "coord": {"lon": 115.764954, "lat": 28.1395}}, {"id": 1925231, "name": "Tacheng", "state": "", "country": "CN", "coord": {"lon": 116.093727, "lat": 28.506729}}, {"id": 1925240, "name": "Tangang", "state": "", "country": "CN", "coord": {"lon": 115.753036, "lat": 27.417139}}, {"id": 1925252, "name": "Taobei", "state": "", "country": "CN", "coord": {"lon": 116.270401, "lat": 27.63188}}, {"id": 1925253, "name": "Taohua", "state": "", "country": "CN", "coord": {"lon": 115.873062, "lat": 28.653379}}, {"id": 1925254, "name": "Taoxi", "state": "", "country": "CN", "coord": {"lon": 115.581718, "lat": 27.782301}}, {"id": 1925256, "name": "Taoyuan", "state": "", "country": "CN", "coord": {"lon": 116.04055, "lat": 27.637581}}, {"id": 1925260, "name": "Tiannan", "state": "", "country": "CN", "coord": {"lon": 115.109848, "lat": 28.123541}}, {"id": 1925261, "name": "Tiannan", "state": "", "country": "CN", "coord": {"lon": 115.107269, "lat": 28.10676}}, {"id": 1925269, "name": "Tonglin", "state": "", "country": "CN", "coord": {"lon": 115.4188, "lat": 27.512289}}, {"id": 1925274, "name": "Wanchong", "state": "", "country": "CN", "coord": {"lon": 115.701752, "lat": 27.2127}}, {"id": 1925277, "name": "Wangcheng", "state": "", "country": "CN", "coord": {"lon": 115.78138, "lat": 28.673349}}, {"id": 1925279, "name": "Wangjia", "state": "", "country": "CN", "coord": {"lon": 116.938599, "lat": 28.70907}}, {"id": 1925299, "name": "Wuyang", "state": "", "country": "CN", "coord": {"lon": 116.010452, "lat": 28.51878}}, {"id": 1925311, "name": "Xiangshan", "state": "", "country": "CN", "coord": {"lon": 115.980972, "lat": 28.95348}}, {"id": 1925312, "name": "Xiangshan", "state": "", "country": "CN", "coord": {"lon": 116.030113, "lat": 27.557079}}, {"id": 1925320, "name": "Xiaohuang", "state": "", "country": "CN", "coord": {"lon": 116.709717, "lat": 28.31222}}, {"id": 1925325, "name": "Xiaotang", "state": "", "country": "CN", "coord": {"lon": 115.912018, "lat": 28.208521}}, {"id": 1925363, "name": "Xixia", "state": "", "country": "CN", "coord": {"lon": 115.843262, "lat": 28.858549}}, {"id": 1925367, "name": "Xufang", "state": "", "country": "CN", "coord": {"lon": 116.218719, "lat": 27.65317}}, {"id": 1925368, "name": "Xushangqiao", "state": "", "country": "CN", "coord": {"lon": 116.546387, "lat": 28.22879}}, {"id": 1925370, "name": "Yanbei", "state": "", "country": "CN", "coord": {"lon": 115.532341, "lat": 27.36974}}, {"id": 1925380, "name": "Yangqiaodian", "state": "", "country": "CN", "coord": {"lon": 116.54184, "lat": 28.37162}}, {"id": 1925381, "name": "Yangshan", "state": "", "country": "CN", "coord": {"lon": 115.028702, "lat": 28.761471}}, {"id": 1925382, "name": "Yangsi", "state": "", "country": "CN", "coord": {"lon": 115.755508, "lat": 28.99378}}, {"id": 1925393, "name": "Tianjingyuan", "state": "", "country": "CN", "coord": {"lon": 116.647301, "lat": 27.53171}}, {"id": 1925398, "name": "Yaotian", "state": "", "country": "CN", "coord": {"lon": 115.620789, "lat": 27.129641}}, {"id": 1925399, "name": "Yaoxu", "state": "", "country": "CN", "coord": {"lon": 116.793114, "lat": 28.1096}}, {"id": 1925413, "name": "Yonghe", "state": "", "country": "CN", "coord": {"lon": 115.014687, "lat": 27.031111}}, {"id": 1925418, "name": "Yuandu", "state": "", "country": "CN", "coord": {"lon": 116.047241, "lat": 28.263639}}, {"id": 1925446, "name": "Zhangxiang", "state": "", "country": "CN", "coord": {"lon": 115.913078, "lat": 28.149611}}, {"id": 1925449, "name": "Zhangshan", "state": "", "country": "CN", "coord": {"lon": 115.044083, "lat": 27.18495}}, {"id": 1925456, "name": "Zhanxu", "state": "", "country": "CN", "coord": {"lon": 116.423622, "lat": 28.22011}}, {"id": 1925457, "name": "Zhaobu", "state": "", "country": "CN", "coord": {"lon": 116.262482, "lat": 28.56996}}, {"id": 1925460, "name": "Zhenkou", "state": "", "country": "CN", "coord": {"lon": 116.342857, "lat": 27.398781}}, {"id": 1925493, "name": "Zuofang", "state": "", "country": "CN", "coord": {"lon": 116.750908, "lat": 27.82328}}, {"id": 1925936, "name": "Naes\u014f", "state": "", "country": "KR", "coord": {"lon": 128.520004, "lat": 35.249722}}, {"id": 1925943, "name": "Hwaw\u014fn", "state": "", "country": "KR", "coord": {"lon": 128.500824, "lat": 35.80167}}, {"id": 1926004, "name": "Wakayama", "state": "", "country": "JP", "coord": {"lon": 135.167496, "lat": 34.226109}}, {"id": 1926006, "name": "Iyo", "state": "", "country": "JP", "coord": {"lon": 132.701385, "lat": 33.751389}}, {"id": 1926016, "name": "Yokogawara", "state": "", "country": "JP", "coord": {"lon": 132.886414, "lat": 33.803761}}, {"id": 1926020, "name": "Uwajima", "state": "", "country": "JP", "coord": {"lon": 132.560013, "lat": 33.223751}}, {"id": 1926024, "name": "Tsutsui", "state": "", "country": "JP", "coord": {"lon": 132.705017, "lat": 33.788849}}, {"id": 1926027, "name": "Tsuitachi", "state": "", "country": "JP", "coord": {"lon": 133.183334, "lat": 33.916672}}, {"id": 1926054, "name": "Saij\u014d", "state": "", "country": "JP", "coord": {"lon": 133.183334, "lat": 33.916672}}, {"id": 1926055, "name": "\u014czu", "state": "", "country": "JP", "coord": {"lon": 132.550003, "lat": 33.5}}, {"id": 1926099, "name": "Matsuyama", "state": "", "country": "JP", "coord": {"lon": 132.765747, "lat": 33.839161}}, {"id": 1926101, "name": "Masaki-ch\u014d", "state": "", "country": "JP", "coord": {"lon": 132.711243, "lat": 33.787571}}, {"id": 1926102, "name": "Mannen", "state": "", "country": "JP", "coord": {"lon": 132.792694, "lat": 33.707279}}, {"id": 1926108, "name": "Komatsu", "state": "", "country": "JP", "coord": {"lon": 133.116669, "lat": 33.883331}}, {"id": 1926116, "name": "Kawanoech\u014d", "state": "", "country": "JP", "coord": {"lon": 133.566666, "lat": 34.01667}}, {"id": 1926136, "name": "Ikazaki", "state": "", "country": "JP", "coord": {"lon": 132.654373, "lat": 33.535278}}, {"id": 1926142, "name": "H\u014dj\u014d", "state": "", "country": "JP", "coord": {"lon": 132.777664, "lat": 33.976608}}, {"id": 1927332, "name": "Xingsha", "state": "", "country": "CN", "coord": {"lon": 113.087784, "lat": 28.239719}}, {"id": 1927408, "name": "Daweishan", "state": "", "country": "CN", "coord": {"lon": 114.007851, "lat": 28.461861}}, {"id": 1927466, "name": "Guantouzui", "state": "", "country": "CN", "coord": {"lon": 112.001839, "lat": 29.052679}}, {"id": 1927474, "name": "Gutang", "state": "", "country": "CN", "coord": {"lon": 113.193329, "lat": 28.21806}}, {"id": 1927478, "name": "Heishanzui", "state": "", "country": "CN", "coord": {"lon": 112.008728, "lat": 29.111891}}, {"id": 1927514, "name": "Huangzhuzhou", "state": "", "country": "CN", "coord": {"lon": 112.084663, "lat": 29.11739}}, {"id": 1927584, "name": "Longmen", "state": "", "country": "CN", "coord": {"lon": 114.052757, "lat": 28.80909}}, {"id": 1927639, "name": "Yueyang", "state": "", "country": "CN", "coord": {"lon": 113.091942, "lat": 29.33333}}, {"id": 1927717, "name": "Shimeitang", "state": "", "country": "CN", "coord": {"lon": 112.070168, "lat": 29.19363}}, {"id": 1927826, "name": "Xinshazhou", "state": "", "country": "CN", "coord": {"lon": 112.875832, "lat": 29.76333}}, {"id": 1927890, "name": "Zhonghekou", "state": "", "country": "CN", "coord": {"lon": 111.987587, "lat": 29.32181}}, {"id": 1927896, "name": "Zhouwenmiao", "state": "", "country": "CN", "coord": {"lon": 112.051697, "lat": 28.9121}}, {"id": 1927920, "name": "Maoerzhai", "state": "", "country": "CN", "coord": {"lon": 109.499649, "lat": 29.561319}}, {"id": 1927922, "name": "Yanwukou", "state": "", "country": "CN", "coord": {"lon": 109.916458, "lat": 29.501381}}, {"id": 1927925, "name": "Shigaoshan", "state": "", "country": "CN", "coord": {"lon": 109.465317, "lat": 29.51358}}, {"id": 1927926, "name": "Xincheng", "state": "", "country": "CN", "coord": {"lon": 109.45826, "lat": 29.46207}}, {"id": 1927927, "name": "Xinchang\u2019ao", "state": "", "country": "CN", "coord": {"lon": 109.647476, "lat": 29.44541}}, {"id": 1927930, "name": "Bixidong", "state": "", "country": "CN", "coord": {"lon": 109.68811, "lat": 29.38414}}, {"id": 1927931, "name": "Xiluo", "state": "", "country": "CN", "coord": {"lon": 109.466469, "lat": 29.408661}}, {"id": 1927932, "name": "Cengjiawan", "state": "", "country": "CN", "coord": {"lon": 109.375069, "lat": 29.42049}}, {"id": 1927933, "name": "Longzui", "state": "", "country": "CN", "coord": {"lon": 109.367218, "lat": 29.334249}}, {"id": 1927935, "name": "Xinzhaipo", "state": "", "country": "CN", "coord": {"lon": 109.422447, "lat": 29.284781}}, {"id": 1927938, "name": "Shangdongjie", "state": "", "country": "CN", "coord": {"lon": 109.987381, "lat": 29.32972}}, {"id": 1927940, "name": "Xinchang", "state": "", "country": "CN", "coord": {"lon": 109.730453, "lat": 29.258101}}, {"id": 1927942, "name": "Chenzhouzhai", "state": "", "country": "CN", "coord": {"lon": 109.463203, "lat": 29.27342}}, {"id": 1927945, "name": "Luotache", "state": "", "country": "CN", "coord": {"lon": 109.522659, "lat": 29.208679}}, {"id": 1927947, "name": "Laoxingchang", "state": "", "country": "CN", "coord": {"lon": 109.343109, "lat": 29.15584}}, {"id": 1927948, "name": "Guitangba", "state": "", "country": "CN", "coord": {"lon": 109.25927, "lat": 29.109221}}, {"id": 1927949, "name": "Fengxizhai", "state": "", "country": "CN", "coord": {"lon": 109.445541, "lat": 29.006901}}, {"id": 1927950, "name": "Mengxihu", "state": "", "country": "CN", "coord": {"lon": 109.477577, "lat": 29.12196}}, {"id": 1927951, "name": "Xishaping", "state": "", "country": "CN", "coord": {"lon": 109.528297, "lat": 29.14257}}, {"id": 1927954, "name": "Liandonggang", "state": "", "country": "CN", "coord": {"lon": 109.882271, "lat": 29.007509}}, {"id": 1927956, "name": "Wujiazhai", "state": "", "country": "CN", "coord": {"lon": 109.710487, "lat": 29.10165}}, {"id": 1927960, "name": "Guancangping", "state": "", "country": "CN", "coord": {"lon": 109.91864, "lat": 29.182159}}, {"id": 1927962, "name": "Yanbanpu", "state": "", "country": "CN", "coord": {"lon": 109.832733, "lat": 29.091459}}, {"id": 1927964, "name": "Cheping", "state": "", "country": "CN", "coord": {"lon": 110.002502, "lat": 29.15444}}, {"id": 1927972, "name": "Yanchi", "state": "", "country": "CN", "coord": {"lon": 110.929878, "lat": 29.799219}}, {"id": 1927982, "name": "Baishi", "state": "", "country": "CN", "coord": {"lon": 110.585197, "lat": 29.703581}}, {"id": 1927984, "name": "Zhenjiatai", "state": "", "country": "CN", "coord": {"lon": 110.475327, "lat": 29.692881}}, {"id": 1927987, "name": "Linxihe", "state": "", "country": "CN", "coord": {"lon": 110.371338, "lat": 29.63242}}, {"id": 1927990, "name": "Bamaoxi", "state": "", "country": "CN", "coord": {"lon": 110.024872, "lat": 29.67384}}, {"id": 1927992, "name": "Sifangxi", "state": "", "country": "CN", "coord": {"lon": 110.168762, "lat": 29.65954}}, {"id": 1927996, "name": "Zhangjiaqiao", "state": "", "country": "CN", "coord": {"lon": 110.142021, "lat": 29.506849}}, {"id": 1928000, "name": "Xianchiyu", "state": "", "country": "CN", "coord": {"lon": 110.471397, "lat": 29.463921}}, {"id": 1928005, "name": "Qiaotou", "state": "", "country": "CN", "coord": {"lon": 110.283249, "lat": 29.346991}}, {"id": 1928011, "name": "Shanmuqiao", "state": "", "country": "CN", "coord": {"lon": 110.932152, "lat": 29.538111}}, {"id": 1928012, "name": "Gaofeng", "state": "", "country": "CN", "coord": {"lon": 110.917084, "lat": 29.43684}}, {"id": 1928020, "name": "Xujiafang", "state": "", "country": "CN", "coord": {"lon": 110.654678, "lat": 29.24369}}, {"id": 1928037, "name": "Qing\u2019anping", "state": "", "country": "CN", "coord": {"lon": 110.155037, "lat": 29.28083}}, {"id": 1928040, "name": "Daming", "state": "", "country": "CN", "coord": {"lon": 110.051147, "lat": 29.10783}}, {"id": 1928043, "name": "Chexi", "state": "", "country": "CN", "coord": {"lon": 110.167183, "lat": 29.115259}}, {"id": 1928049, "name": "Shuangxiqiao", "state": "", "country": "CN", "coord": {"lon": 110.639374, "lat": 29.025631}}, {"id": 1928053, "name": "Sigangtou", "state": "", "country": "CN", "coord": {"lon": 110.675003, "lat": 29.17672}}, {"id": 1928056, "name": "Wangjiaping", "state": "", "country": "CN", "coord": {"lon": 110.815163, "lat": 29.04439}}, {"id": 1928065, "name": "Nanshanping", "state": "", "country": "CN", "coord": {"lon": 110.894112, "lat": 29.317459}}, {"id": 1928075, "name": "Huolianpo", "state": "", "country": "CN", "coord": {"lon": 111.453232, "lat": 29.883711}}, {"id": 1928081, "name": "Fuxingchang", "state": "", "country": "CN", "coord": {"lon": 111.845596, "lat": 29.834379}}, {"id": 1928082, "name": "Shuanglong", "state": "", "country": "CN", "coord": {"lon": 111.898682, "lat": 29.81938}}, {"id": 1928084, "name": "Leigongta", "state": "", "country": "CN", "coord": {"lon": 111.769272, "lat": 29.79269}}, {"id": 1928086, "name": "Cennan", "state": "", "country": "CN", "coord": {"lon": 111.768768, "lat": 29.749929}}, {"id": 1928087, "name": "Zhongwu", "state": "", "country": "CN", "coord": {"lon": 111.672501, "lat": 29.774719}}, {"id": 1928088, "name": "Jinluo", "state": "", "country": "CN", "coord": {"lon": 111.598122, "lat": 29.8097}}, {"id": 1928095, "name": "Sansheng", "state": "", "country": "CN", "coord": {"lon": 111.247566, "lat": 29.807091}}, {"id": 1928100, "name": "Yangjiafang", "state": "", "country": "CN", "coord": {"lon": 111.357529, "lat": 29.755699}}, {"id": 1928105, "name": "Jiuli", "state": "", "country": "CN", "coord": {"lon": 111.585701, "lat": 29.694679}}, {"id": 1928106, "name": "Daping", "state": "", "country": "CN", "coord": {"lon": 111.643608, "lat": 29.66111}}, {"id": 1928109, "name": "Yongfeng", "state": "", "country": "CN", "coord": {"lon": 111.938248, "lat": 29.68413}}, {"id": 1928110, "name": "Xiaodukou", "state": "", "country": "CN", "coord": {"lon": 111.912216, "lat": 29.62833}}, {"id": 1928111, "name": "Jiuyuan", "state": "", "country": "CN", "coord": {"lon": 111.920464, "lat": 29.56613}}, {"id": 1928112, "name": "Lijiapu", "state": "", "country": "CN", "coord": {"lon": 111.919296, "lat": 29.497009}}, {"id": 1928114, "name": "Baohedi", "state": "", "country": "CN", "coord": {"lon": 111.990601, "lat": 29.404961}}, {"id": 1928116, "name": "Lingquan", "state": "", "country": "CN", "coord": {"lon": 111.823608, "lat": 29.528061}}, {"id": 1928118, "name": "Li\u2019nan", "state": "", "country": "CN", "coord": {"lon": 111.756111, "lat": 29.617491}}, {"id": 1928119, "name": "Zhanggongmiao", "state": "", "country": "CN", "coord": {"lon": 111.655281, "lat": 29.60611}}, {"id": 1928120, "name": "Yangban", "state": "", "country": "CN", "coord": {"lon": 111.69075, "lat": 29.529961}}, {"id": 1928122, "name": "Fenghuo", "state": "", "country": "CN", "coord": {"lon": 111.747726, "lat": 29.458759}}, {"id": 1928125, "name": "Sixingang", "state": "", "country": "CN", "coord": {"lon": 111.63591, "lat": 29.35964}}, {"id": 1928131, "name": "Leigongmiao", "state": "", "country": "CN", "coord": {"lon": 111.617828, "lat": 29.25647}}, {"id": 1928132, "name": "Changlinggang", "state": "", "country": "CN", "coord": {"lon": 111.69294, "lat": 29.2332}}, {"id": 1928134, "name": "Taifu", "state": "", "country": "CN", "coord": {"lon": 111.585617, "lat": 29.28912}}, {"id": 1928137, "name": "Wenjia", "state": "", "country": "CN", "coord": {"lon": 111.544693, "lat": 29.380541}}, {"id": 1928141, "name": "Shanban", "state": "", "country": "CN", "coord": {"lon": 111.526321, "lat": 29.55707}}, {"id": 1928145, "name": "Xinguan", "state": "", "country": "CN", "coord": {"lon": 111.307327, "lat": 29.61969}}, {"id": 1928163, "name": "Reshi", "state": "", "country": "CN", "coord": {"lon": 111.322479, "lat": 29.32136}}, {"id": 1928167, "name": "Mazongling", "state": "", "country": "CN", "coord": {"lon": 111.45562, "lat": 29.24065}}, {"id": 1928170, "name": "Haoping", "state": "", "country": "CN", "coord": {"lon": 111.271317, "lat": 29.275049}}, {"id": 1928171, "name": "Erfangping", "state": "", "country": "CN", "coord": {"lon": 111.193893, "lat": 29.28833}}, {"id": 1928172, "name": "Lingxi", "state": "", "country": "CN", "coord": {"lon": 111.174103, "lat": 29.370819}}, {"id": 1928182, "name": "Wuxihe", "state": "", "country": "CN", "coord": {"lon": 111.414398, "lat": 29.022829}}, {"id": 1928183, "name": "Fengshu", "state": "", "country": "CN", "coord": {"lon": 111.489021, "lat": 29.015829}}, {"id": 1928184, "name": "Mutangyuan", "state": "", "country": "CN", "coord": {"lon": 111.549507, "lat": 29.01573}}, {"id": 1928187, "name": "Huangjiapu", "state": "", "country": "CN", "coord": {"lon": 111.287567, "lat": 29.11326}}, {"id": 1928193, "name": "Guanxi", "state": "", "country": "CN", "coord": {"lon": 111.61647, "lat": 29.11215}}, {"id": 1928195, "name": "Caijiagang", "state": "", "country": "CN", "coord": {"lon": 111.61821, "lat": 29.188829}}, {"id": 1928202, "name": "Baiheshan", "state": "", "country": "CN", "coord": {"lon": 111.808891, "lat": 29.11278}}, {"id": 1928211, "name": "Fangshiping", "state": "", "country": "CN", "coord": {"lon": 111.437653, "lat": 29.801041}}, {"id": 1928212, "name": "Fuzhiping", "state": "", "country": "CN", "coord": {"lon": 109.923332, "lat": 28.895559}}, {"id": 1928316, "name": "Canmang", "state": "", "country": "CN", "coord": {"lon": 110.891991, "lat": 28.91925}}, {"id": 1928317, "name": "Nanmu", "state": "", "country": "CN", "coord": {"lon": 110.909622, "lat": 28.880899}}, {"id": 1928352, "name": "Siduping", "state": "", "country": "CN", "coord": {"lon": 110.430099, "lat": 28.9305}}, {"id": 1928358, "name": "Shiziqiao", "state": "", "country": "CN", "coord": {"lon": 110.068558, "lat": 28.97958}}, {"id": 1928359, "name": "Huilongan", "state": "", "country": "CN", "coord": {"lon": 110.18219, "lat": 28.889299}}, {"id": 1928393, "name": "Baisha", "state": "", "country": "CN", "coord": {"lon": 110.199997, "lat": 28.205561}}, {"id": 1928450, "name": "Guanyinsi", "state": "", "country": "CN", "coord": {"lon": 111.085449, "lat": 28.91617}}, {"id": 1928454, "name": "Qinglin", "state": "", "country": "CN", "coord": {"lon": 111.468903, "lat": 28.95426}}, {"id": 1928456, "name": "Shenshuigang", "state": "", "country": "CN", "coord": {"lon": 111.397911, "lat": 28.915899}}, {"id": 1928458, "name": "Xujiaqiao", "state": "", "country": "CN", "coord": {"lon": 111.584763, "lat": 28.913651}}, {"id": 1928510, "name": "Xinxing", "state": "", "country": "CN", "coord": {"lon": 111.823318, "lat": 28.95722}}, {"id": 1928516, "name": "Weidihu", "state": "", "country": "CN", "coord": {"lon": 111.962151, "lat": 28.976351}}, {"id": 1928621, "name": "Maidiping", "state": "", "country": "CN", "coord": {"lon": 110.358589, "lat": 29.49155}}, {"id": 1928622, "name": "Wuyahe", "state": "", "country": "CN", "coord": {"lon": 109.712418, "lat": 29.576521}}, {"id": 1928623, "name": "Zanguoping", "state": "", "country": "CN", "coord": {"lon": 109.34877, "lat": 29.02623}}, {"id": 1928708, "name": "Dashuitian", "state": "", "country": "CN", "coord": {"lon": 110.815277, "lat": 27.413059}}, {"id": 1928780, "name": "Huxingshan", "state": "", "country": "CN", "coord": {"lon": 110.696671, "lat": 27.548889}}, {"id": 1928889, "name": "Nanyuemiao", "state": "", "country": "CN", "coord": {"lon": 110.826942, "lat": 27.126671}}, {"id": 1928932, "name": "Sangesi", "state": "", "country": "CN", "coord": {"lon": 110.954437, "lat": 27.06694}}, {"id": 1929434, "name": "Bojia", "state": "", "country": "CN", "coord": {"lon": 111.968063, "lat": 26.46722}}, {"id": 1929499, "name": "Qidi", "state": "", "country": "CN", "coord": {"lon": 113.668892, "lat": 26.93528}}, {"id": 1929576, "name": "Lingfang", "state": "", "country": "CN", "coord": {"lon": 113.624443, "lat": 26.71583}}, {"id": 1929746, "name": "Huanxi", "state": "", "country": "CN", "coord": {"lon": 113.595284, "lat": 26.56333}}, {"id": 1929757, "name": "Huju", "state": "", "country": "CN", "coord": {"lon": 113.389999, "lat": 26.916389}}, {"id": 1929780, "name": "Jiangkou", "state": "", "country": "CN", "coord": {"lon": 113.80056, "lat": 26.65694}}, {"id": 1929865, "name": "Yatian", "state": "", "country": "CN", "coord": {"lon": 111.014442, "lat": 27.59194}}, {"id": 1929987, "name": "Beishan", "state": "", "country": "CN", "coord": {"lon": 111.090279, "lat": 27.08194}}, {"id": 1930001, "name": "Zhitang", "state": "", "country": "CN", "coord": {"lon": 113.859169, "lat": 26.945829}}, {"id": 1930141, "name": "Shimen", "state": "", "country": "CN", "coord": {"lon": 111.029999, "lat": 27.22694}}, {"id": 1930342, "name": "Xiaotian", "state": "", "country": "CN", "coord": {"lon": 113.836937, "lat": 26.85972}}, {"id": 1930346, "name": "Xiatangyunxiang", "state": "", "country": "CN", "coord": {"lon": 111.234718, "lat": 27.027781}}, {"id": 1930396, "name": "Batuan", "state": "", "country": "CN", "coord": {"lon": 113.721672, "lat": 27.037781}}, {"id": 1930423, "name": "Yaoshui", "state": "", "country": "CN", "coord": {"lon": 113.689171, "lat": 26.826941}}, {"id": 1930467, "name": "Yushanpu", "state": "", "country": "CN", "coord": {"lon": 111.11306, "lat": 27.15056}}, {"id": 1930831, "name": "T\u2019aep\u2019ong-dong", "state": "", "country": "KR", "coord": {"lon": 128.425278, "lat": 34.847778}}, {"id": 1932058, "name": "Sinsang-ni", "state": "", "country": "KP", "coord": {"lon": 127.40583, "lat": 39.65028}}, {"id": 1932513, "name": "Zhaocun", "state": "", "country": "CN", "coord": {"lon": 120.371941, "lat": 36.245281}}, {"id": 1933316, "name": "Ngemplak", "state": "", "country": "ID", "coord": {"lon": 110.759438, "lat": -7.52}}, {"id": 1936379, "name": "Sidu", "state": "", "country": "CN", "coord": {"lon": 115.264999, "lat": 24.216391}}, {"id": 1936413, "name": "Wushi", "state": "", "country": "CN", "coord": {"lon": 115.192711, "lat": 23.633051}}, {"id": 1936425, "name": "Shuikou", "state": "", "country": "CN", "coord": {"lon": 114.521393, "lat": 23.154119}}, {"id": 1936427, "name": "Songkeng", "state": "", "country": "CN", "coord": {"lon": 114.91375, "lat": 23.18251}}, {"id": 1936431, "name": "Mabei", "state": "", "country": "CN", "coord": {"lon": 114.528259, "lat": 23.491501}}, {"id": 1936433, "name": "Zengguang", "state": "", "country": "CN", "coord": {"lon": 114.872147, "lat": 23.018021}}, {"id": 1936444, "name": "Daba", "state": "", "country": "CN", "coord": {"lon": 116.177208, "lat": 23.369841}}, {"id": 1936475, "name": "Xicao", "state": "", "country": "CN", "coord": {"lon": 103.633331, "lat": 36.49472}}, {"id": 1937274, "name": "Lospalos", "state": "", "country": "TL", "coord": {"lon": 127.002502, "lat": -8.51861}}, {"id": 1938756, "name": "Sisali", "state": "", "country": "ID", "coord": {"lon": 124.531387, "lat": -9.19167}}, {"id": 1940868, "name": "Tiandian", "state": "", "country": "CN", "coord": {"lon": 113.44841, "lat": 31.029449}}, {"id": 1940872, "name": "Hujindian", "state": "", "country": "CN", "coord": {"lon": 113.658119, "lat": 31.07222}}, {"id": 1940883, "name": "Muzi", "state": "", "country": "CN", "coord": {"lon": 113.546944, "lat": 31.229441}}, {"id": 1940889, "name": "Jidian", "state": "", "country": "CN", "coord": {"lon": 113.90303, "lat": 31.287319}}, {"id": 1940895, "name": "Wangyi Zhendian", "state": "", "country": "CN", "coord": {"lon": 113.379639, "lat": 31.330549}}, {"id": 1940915, "name": "Jieguan", "state": "", "country": "CN", "coord": {"lon": 113.754303, "lat": 31.434771}}, {"id": 1940924, "name": "Lidian", "state": "", "country": "CN", "coord": {"lon": 113.950058, "lat": 31.5168}}, {"id": 1940926, "name": "Baolin", "state": "", "country": "CN", "coord": {"lon": 113.870323, "lat": 31.67382}}, {"id": 1940928, "name": "Shili", "state": "", "country": "CN", "coord": {"lon": 113.880127, "lat": 31.614161}}, {"id": 1940930, "name": "Guanmiao", "state": "", "country": "CN", "coord": {"lon": 113.704872, "lat": 31.70507}}, {"id": 1940937, "name": "Yudian", "state": "", "country": "CN", "coord": {"lon": 113.634697, "lat": 31.78364}}, {"id": 1940981, "name": "Zhichanghe", "state": "", "country": "CN", "coord": {"lon": 111.844719, "lat": 30.028061}}, {"id": 1940989, "name": "Zishi", "state": "", "country": "CN", "coord": {"lon": 112.408783, "lat": 30.18248}}, {"id": 1940997, "name": "Libu", "state": "", "country": "CN", "coord": {"lon": 112.066673, "lat": 30.322229}}, {"id": 1941002, "name": "Moshi", "state": "", "country": "CN", "coord": {"lon": 111.238663, "lat": 30.414869}}, {"id": 1941077, "name": "Luotaping", "state": "", "country": "CN", "coord": {"lon": 110.125153, "lat": 29.18713}}, {"id": 1941078, "name": "Gaoqiao", "state": "", "country": "CN", "coord": {"lon": 110.987343, "lat": 29.17454}}, {"id": 1941079, "name": "Luoshui", "state": "", "country": "CN", "coord": {"lon": 110.253662, "lat": 29.26829}}, {"id": 1941080, "name": "Maoba", "state": "", "country": "CN", "coord": {"lon": 109.887383, "lat": 29.272011}}, {"id": 1941081, "name": "Liangchahe", "state": "", "country": "CN", "coord": {"lon": 109.718399, "lat": 29.175739}}, {"id": 1941082, "name": "Guanba", "state": "", "country": "CN", "coord": {"lon": 109.965721, "lat": 29.29542}}, {"id": 1941083, "name": "Taozixi", "state": "", "country": "CN", "coord": {"lon": 110.054443, "lat": 29.308331}}, {"id": 1941086, "name": "Lianghekou", "state": "", "country": "CN", "coord": {"lon": 110.025833, "lat": 29.452221}}, {"id": 1941088, "name": "Xinglongjie", "state": "", "country": "CN", "coord": {"lon": 109.530167, "lat": 29.454981}}, {"id": 1941091, "name": "Sanhekou", "state": "", "country": "CN", "coord": {"lon": 110.824158, "lat": 29.62674}}, {"id": 1941094, "name": "Zhujiatai", "state": "", "country": "CN", "coord": {"lon": 110.502724, "lat": 29.740021}}, {"id": 1941099, "name": "Yongmao", "state": "", "country": "CN", "coord": {"lon": 110.27533, "lat": 29.014879}}, {"id": 1941100, "name": "Macha", "state": "", "country": "CN", "coord": {"lon": 110.046692, "lat": 29.042641}}, {"id": 1941101, "name": "Tasha", "state": "", "country": "CN", "coord": {"lon": 109.566971, "lat": 29.05806}}, {"id": 1941102, "name": "Xinzhaiping", "state": "", "country": "CN", "coord": {"lon": 109.8918, "lat": 29.1343}}, {"id": 1941103, "name": "Sanjiaguan", "state": "", "country": "CN", "coord": {"lon": 110.289703, "lat": 29.16305}}, {"id": 1941105, "name": "Jianxin", "state": "", "country": "CN", "coord": {"lon": 110.550903, "lat": 29.14513}}, {"id": 1941108, "name": "Matizhai", "state": "", "country": "CN", "coord": {"lon": 109.628693, "lat": 29.172911}}, {"id": 1941109, "name": "Shanmu", "state": "", "country": "CN", "coord": {"lon": 109.846062, "lat": 29.266741}}, {"id": 1941110, "name": "Zhonghuping", "state": "", "country": "CN", "coord": {"lon": 110.382568, "lat": 29.364059}}, {"id": 1941111, "name": "Ruchihe", "state": "", "country": "CN", "coord": {"lon": 109.713989, "lat": 29.296379}}, {"id": 1941112, "name": "Bishagou", "state": "", "country": "CN", "coord": {"lon": 109.591393, "lat": 29.34264}}, {"id": 1941113, "name": "Shuishaping", "state": "", "country": "CN", "coord": {"lon": 109.555054, "lat": 29.37779}}, {"id": 1941115, "name": "Tongche", "state": "", "country": "CN", "coord": {"lon": 109.567177, "lat": 29.50605}}, {"id": 1941116, "name": "Tianzishan", "state": "", "country": "CN", "coord": {"lon": 110.436432, "lat": 29.409719}}, {"id": 1941117, "name": "Zhaojiagang", "state": "", "country": "CN", "coord": {"lon": 110.676979, "lat": 29.49622}}, {"id": 1941119, "name": "Furongqiao", "state": "", "country": "CN", "coord": {"lon": 110.300011, "lat": 29.514351}}, {"id": 1941121, "name": "Jianjiapo", "state": "", "country": "CN", "coord": {"lon": 109.955688, "lat": 29.55271}}, {"id": 1941133, "name": "Nanzhen", "state": "", "country": "CN", "coord": {"lon": 110.548477, "lat": 29.87188}}, {"id": 1941157, "name": "Ban Laem Nok", "state": "", "country": "TH", "coord": {"lon": 101.282249, "lat": 6.88917}}, {"id": 1941183, "name": "Ban Hu Tae Thu Wo", "state": "", "country": "TH", "coord": {"lon": 101.754028, "lat": 6.51892}}, {"id": 1941204, "name": "Thung Yang Daeng", "state": "", "country": "TH", "coord": {"lon": 101.426498, "lat": 6.61822}}, {"id": 1941534, "name": "Dengying", "state": "", "country": "CN", "coord": {"lon": 120.574173, "lat": 36.138889}}, {"id": 1941535, "name": "Kutao", "state": "", "country": "CN", "coord": {"lon": 120.487778, "lat": 36.145}}, {"id": 1941563, "name": "Beizhai", "state": "", "country": "CN", "coord": {"lon": 120.528893, "lat": 36.219719}}, {"id": 1941584, "name": "Qingshancun", "state": "", "country": "CN", "coord": {"lon": 120.683327, "lat": 36.15472}}, {"id": 1941693, "name": "Xinzhuang", "state": "", "country": "CN", "coord": {"lon": 117.323891, "lat": 39.020279}}, {"id": 1941694, "name": "Weiwangzhuang", "state": "", "country": "CN", "coord": {"lon": 117.440826, "lat": 39.025002}}, {"id": 1941718, "name": "Goutou", "state": "", "country": "CN", "coord": {"lon": 117.199173, "lat": 39.805}}, {"id": 1941768, "name": "Meipu", "state": "", "country": "CN", "coord": {"lon": 118.896667, "lat": 26.211941}}, {"id": 1941783, "name": "Rong\u2019an", "state": "", "country": "CN", "coord": {"lon": 119.121391, "lat": 26.12472}}, {"id": 1941784, "name": "Shangjie", "state": "", "country": "CN", "coord": {"lon": 119.184723, "lat": 26.08639}}, {"id": 1941816, "name": "Kuai\u2019an", "state": "", "country": "CN", "coord": {"lon": 119.416389, "lat": 26.03417}}, {"id": 1941817, "name": "Chengmen", "state": "", "country": "CN", "coord": {"lon": 119.349167, "lat": 26.005831}}, {"id": 1941818, "name": "Hongtang", "state": "", "country": "CN", "coord": {"lon": 119.230827, "lat": 26.07056}}, {"id": 1941819, "name": "Huai\u2019an", "state": "", "country": "CN", "coord": {"lon": 119.222504, "lat": 26.101391}}, {"id": 1941830, "name": "Donghu", "state": "", "country": "CN", "coord": {"lon": 119.513611, "lat": 26.233061}}, {"id": 1941833, "name": "Houyu", "state": "", "country": "CN", "coord": {"lon": 119.535828, "lat": 26.06139}}, {"id": 1941847, "name": "Jitoucun", "state": "", "country": "CN", "coord": {"lon": 119.615829, "lat": 26.46917}}, {"id": 1941848, "name": "Beishancun", "state": "", "country": "CN", "coord": {"lon": 119.636108, "lat": 26.434719}}, {"id": 1941861, "name": "Huangtian", "state": "", "country": "CN", "coord": {"lon": 118.623978, "lat": 26.438511}}, {"id": 1941924, "name": "Dingtoucun", "state": "", "country": "CN", "coord": {"lon": 119.660561, "lat": 26.845831}}, {"id": 1942261, "name": "Daxi", "state": "", "country": "CN", "coord": {"lon": 109.147972, "lat": 29.09404}}, {"id": 1942534, "name": "Parlamento", "state": "", "country": "TL", "coord": {"lon": 126.38472, "lat": -8.46}}, {"id": 1943673, "name": "Naibaroc", "state": "", "country": "TL", "coord": {"lon": 126.376106, "lat": -8.88194}}, {"id": 1947261, "name": "Naisano Dua", "state": "", "country": "ID", "coord": {"lon": 123.770279, "lat": -9.59806}}, {"id": 1948005, "name": "Kwangmy\u014fng", "state": "", "country": "KR", "coord": {"lon": 126.866386, "lat": 37.477219}}, {"id": 1948015, "name": "Amphoe Sikhiu", "state": "", "country": "TH", "coord": {"lon": 101.708328, "lat": 14.89944}}, {"id": 1949757, "name": "K\u014fje", "state": "", "country": "KR", "coord": {"lon": 128.620834, "lat": 34.88472}}, {"id": 1950020, "name": "Ouyang", "state": "", "country": "CN", "coord": {"lon": 109.229439, "lat": 26.42528}}, {"id": 1950548, "name": "Dengyuantai", "state": "", "country": "CN", "coord": {"lon": 110.542221, "lat": 26.688061}}, {"id": 1950675, "name": "Ban Khok Nai", "state": "", "country": "TH", "coord": {"lon": 101.067619, "lat": 18.01824}}, {"id": 1950702, "name": "Ketos Dua", "state": "", "country": "ID", "coord": {"lon": 106.540001, "lat": -6.14694}}, {"id": 1951337, "name": "Cikotok", "state": "", "country": "ID", "coord": {"lon": 106.306702, "lat": -6.8612}}, {"id": 1952026, "name": "Bangunrejo", "state": "", "country": "ID", "coord": {"lon": 105.037201, "lat": -5.1403}}, {"id": 1952041, "name": "Punggur", "state": "", "country": "ID", "coord": {"lon": 105.277344, "lat": -5.04146}}, {"id": 1952054, "name": "Pekalongan", "state": "", "country": "ID", "coord": {"lon": 105.358841, "lat": -5.08277}}, {"id": 1952058, "name": "Batanghari", "state": "", "country": "ID", "coord": {"lon": 105.375198, "lat": -5.14095}}, {"id": 1952156, "name": "Ban Phonsavan", "state": "", "country": "LA", "coord": {"lon": 103.179993, "lat": 19.45907}}, {"id": 1954056, "name": "Phanom Dong Rak", "state": "", "country": "TH", "coord": {"lon": 103.305077, "lat": 14.44575}}, {"id": 1956309, "name": "Muang Nal\u00e8", "state": "", "country": "LA", "coord": {"lon": 101.445557, "lat": 20.533609}}, {"id": 1957148, "name": "Ban Xangkhong", "state": "", "country": "LA", "coord": {"lon": 102.164719, "lat": 19.900829}}, {"id": 1957226, "name": "Ban Louangnamtha", "state": "", "country": "LA", "coord": {"lon": 101.40667, "lat": 20.9625}}, {"id": 1957304, "name": "Tolosa", "state": "", "country": "PH", "coord": {"lon": 122.161392, "lat": 7.03222}}, {"id": 1957309, "name": "Sangali", "state": "", "country": "PH", "coord": {"lon": 122.201393, "lat": 7.06944}}, {"id": 1957313, "name": "Lamisahan", "state": "", "country": "PH", "coord": {"lon": 122.158333, "lat": 7.07083}}, {"id": 1957314, "name": "Dulian", "state": "", "country": "PH", "coord": {"lon": 122.178886, "lat": 7.12139}}, {"id": 1957317, "name": "Landang Laum", "state": "", "country": "PH", "coord": {"lon": 122.249168, "lat": 6.96889}}, {"id": 1957322, "name": "Talabaan", "state": "", "country": "PH", "coord": {"lon": 122.172218, "lat": 6.94111}}, {"id": 1957367, "name": "Tablas", "state": "", "country": "PH", "coord": {"lon": 122.174721, "lat": 6.62917}}, {"id": 1957465, "name": "Mangusu", "state": "", "country": "PH", "coord": {"lon": 122.277496, "lat": 7.32556}}, {"id": 1957466, "name": "Sibulao", "state": "", "country": "PH", "coord": {"lon": 122.239441, "lat": 7.32417}}, {"id": 1957481, "name": "Batu", "state": "", "country": "PH", "coord": {"lon": 122.829437, "lat": 7.75333}}, {"id": 1957505, "name": "Laparay", "state": "", "country": "PH", "coord": {"lon": 122.817223, "lat": 7.40361}}, {"id": 1957520, "name": "Monching", "state": "", "country": "PH", "coord": {"lon": 122.866386, "lat": 7.71583}}, {"id": 1957558, "name": "Dalangin", "state": "", "country": "PH", "coord": {"lon": 122.578331, "lat": 7.85056}}, {"id": 1957566, "name": "Tigpalay", "state": "", "country": "PH", "coord": {"lon": 122.343063, "lat": 7.49389}}, {"id": 1957588, "name": "Tunggol", "state": "", "country": "PH", "coord": {"lon": 121.154358, "lat": 5.84458}}, {"id": 1957653, "name": "Marsada", "state": "", "country": "PH", "coord": {"lon": 121.106941, "lat": 5.93139}}, {"id": 1957660, "name": "Talipaw", "state": "", "country": "PH", "coord": {"lon": 121.094437, "lat": 5.91}}, {"id": 1957671, "name": "Katipunan", "state": "", "country": "PH", "coord": {"lon": 122.830559, "lat": 7.5825}}, {"id": 1957691, "name": "Sanga-Sanga", "state": "", "country": "PH", "coord": {"lon": 119.785278, "lat": 5.0725}}, {"id": 1957769, "name": "Ungus-Ungus", "state": "", "country": "PH", "coord": {"lon": 119.839722, "lat": 5.05083}}, {"id": 1957775, "name": "Binuang", "state": "", "country": "PH", "coord": {"lon": 121.059998, "lat": 5.95694}}, {"id": 1957783, "name": "Pandakan", "state": "", "country": "PH", "coord": {"lon": 121.165833, "lat": 5.98889}}, {"id": 1957809, "name": "Mauboh", "state": "", "country": "PH", "coord": {"lon": 121.093613, "lat": 5.99}}, {"id": 1957824, "name": "Kulase", "state": "", "country": "PH", "coord": {"lon": 120.956902, "lat": 5.9052}}, {"id": 1957866, "name": "Kalang", "state": "", "country": "PH", "coord": {"lon": 121.36306, "lat": 5.91972}}, {"id": 1957875, "name": "Andalan", "state": "", "country": "PH", "coord": {"lon": 121.390282, "lat": 5.95944}}, {"id": 1957913, "name": "Buansa", "state": "", "country": "PH", "coord": {"lon": 120.961403, "lat": 6.0258}}, {"id": 1957914, "name": "Kajatian", "state": "", "country": "PH", "coord": {"lon": 120.991943, "lat": 6.03111}}, {"id": 1957915, "name": "Bato Bato", "state": "", "country": "PH", "coord": {"lon": 120.946297, "lat": 6.0344}}, {"id": 1957931, "name": "Sionogan", "state": "", "country": "PH", "coord": {"lon": 120.948608, "lat": 6.00528}}, {"id": 1957958, "name": "Payuhan", "state": "", "country": "PH", "coord": {"lon": 120.901108, "lat": 5.94167}}, {"id": 1958025, "name": "Glugur Krajan", "state": "", "country": "ID", "coord": {"lon": 114.046097, "lat": -7.6476}}, {"id": 1958029, "name": "Krajan Gebangan", "state": "", "country": "ID", "coord": {"lon": 114.0644, "lat": -7.6752}}, {"id": 1958030, "name": "Krajan Panji Kidul", "state": "", "country": "ID", "coord": {"lon": 114.041603, "lat": -7.7094}}, {"id": 1958033, "name": "Bercak", "state": "", "country": "ID", "coord": {"lon": 114.061501, "lat": -7.7761}}, {"id": 1958037, "name": "Kedungdowo", "state": "", "country": "ID", "coord": {"lon": 114.1492, "lat": -7.7515}}, {"id": 1958040, "name": "Selasaan", "state": "", "country": "ID", "coord": {"lon": 114.0998, "lat": -7.7031}}, {"id": 1958051, "name": "Pariyaan", "state": "", "country": "ID", "coord": {"lon": 114.174896, "lat": -7.7733}}, {"id": 1958052, "name": "Mojosari", "state": "", "country": "ID", "coord": {"lon": 114.194603, "lat": -7.7631}}, {"id": 1958055, "name": "Awar-awar", "state": "", "country": "ID", "coord": {"lon": 114.2248, "lat": -7.7602}}, {"id": 1958070, "name": "North Maluku", "state": "", "country": "ID", "coord": {"lon": 127.5, "lat": -0.25}}, {"id": 1958098, "name": "Buan", "state": "", "country": "PH", "coord": {"lon": 120.8815, "lat": 5.5508}}, {"id": 1958107, "name": "Kungtad", "state": "", "country": "PH", "coord": {"lon": 120.847198, "lat": 5.5572}}, {"id": 1958281, "name": "La Dicha", "state": "", "country": "PH", "coord": {"lon": 123.002296, "lat": 7.676}}, {"id": 1958286, "name": "Del Monte", "state": "", "country": "PH", "coord": {"lon": 123.008057, "lat": 7.72583}}, {"id": 1958297, "name": "Kalian", "state": "", "country": "PH", "coord": {"lon": 123.231903, "lat": 7.5916}}, {"id": 1958319, "name": "Lumbog", "state": "", "country": "PH", "coord": {"lon": 123.201401, "lat": 7.5581}}, {"id": 1958342, "name": "Tiguha", "state": "", "country": "PH", "coord": {"lon": 123.211388, "lat": 7.70444}}, {"id": 1958415, "name": "Sagacad", "state": "", "country": "PH", "coord": {"lon": 123.340561, "lat": 7.68611}}, {"id": 1958418, "name": "East Migpulao", "state": "", "country": "PH", "coord": {"lon": 123.359169, "lat": 7.6325}}, {"id": 1958435, "name": "Binuatan", "state": "", "country": "PH", "coord": {"lon": 123.34417, "lat": 7.61222}}, {"id": 1958436, "name": "Guiniculalay", "state": "", "country": "PH", "coord": {"lon": 123.391388, "lat": 7.65611}}, {"id": 1958457, "name": "Danlugan", "state": "", "country": "PH", "coord": {"lon": 123.37278, "lat": 7.89139}}, {"id": 1958471, "name": "Kagawasan", "state": "", "country": "PH", "coord": {"lon": 123.394997, "lat": 7.86611}}, {"id": 1958497, "name": "Cagayan", "state": "", "country": "PH", "coord": {"lon": 123.6745, "lat": 7.9177}}, {"id": 1958498, "name": "Lapining", "state": "", "country": "PH", "coord": {"lon": 123.688301, "lat": 7.9227}}, {"id": 1958501, "name": "Margos", "state": "", "country": "PH", "coord": {"lon": 123.658997, "lat": 7.932}}, {"id": 1958505, "name": "Taguitic", "state": "", "country": "PH", "coord": {"lon": 123.631203, "lat": 7.9387}}, {"id": 1958516, "name": "Sumalig", "state": "", "country": "PH", "coord": {"lon": 123.662697, "lat": 7.9986}}, {"id": 1958523, "name": "Gubaan", "state": "", "country": "PH", "coord": {"lon": 123.564003, "lat": 7.9748}}, {"id": 1958534, "name": "Lanipao", "state": "", "country": "PH", "coord": {"lon": 123.776672, "lat": 7.95528}}, {"id": 1958535, "name": "Maranding", "state": "", "country": "PH", "coord": {"lon": 123.7715, "lat": 7.9248}}, {"id": 1958545, "name": "Rebe", "state": "", "country": "PH", "coord": {"lon": 123.815498, "lat": 7.9076}}, {"id": 1958647, "name": "Panubigan", "state": "", "country": "PH", "coord": {"lon": 123.346603, "lat": 7.4281}}, {"id": 1958659, "name": "Malim", "state": "", "country": "PH", "coord": {"lon": 123.431198, "lat": 7.452}}, {"id": 1958709, "name": "Kapalong", "state": "", "country": "PH", "coord": {"lon": 125.558609, "lat": 7.77056}}, {"id": 1958713, "name": "Andop", "state": "", "country": "PH", "coord": {"lon": 125.753891, "lat": 7.86111}}, {"id": 1958719, "name": "Concepcion", "state": "", "country": "PH", "coord": {"lon": 125.711937, "lat": 7.75056}}, {"id": 1958729, "name": "Kaligutan", "state": "", "country": "PH", "coord": {"lon": 125.813057, "lat": 7.70306}}, {"id": 1958738, "name": "Del Pilar", "state": "", "country": "PH", "coord": {"lon": 125.826668, "lat": 7.56306}}, {"id": 1958747, "name": "Tagnanan", "state": "", "country": "PH", "coord": {"lon": 125.842216, "lat": 7.28361}}, {"id": 1958759, "name": "Camudmud", "state": "", "country": "PH", "coord": {"lon": 125.693329, "lat": 7.17611}}, {"id": 1958761, "name": "Maduao", "state": "", "country": "PH", "coord": {"lon": 125.625832, "lat": 7.29417}}, {"id": 1958762, "name": "Katipunan", "state": "", "country": "PH", "coord": {"lon": 125.620277, "lat": 7.32028}}, {"id": 1959015, "name": "Bulanbulan", "state": "", "country": "ID", "coord": {"lon": 106.993057, "lat": -6.23583}}, {"id": 1959094, "name": "San Remigio", "state": "", "country": "PH", "coord": {"lon": 125.775833, "lat": 6.92306}}, {"id": 1959388, "name": "Bonbon", "state": "", "country": "PH", "coord": {"lon": 124.733887, "lat": 9.10528}}, {"id": 1959801, "name": "Kosambi Dalam", "state": "", "country": "ID", "coord": {"lon": 106.402496, "lat": -6.085}}, {"id": 1959853, "name": "Pagedangan", "state": "", "country": "ID", "coord": {"lon": 106.500282, "lat": -6.09111}}, {"id": 1960764, "name": "Balas", "state": "", "country": "PH", "coord": {"lon": 120.605904, "lat": 15.0335}}, {"id": 1960765, "name": "Magliman", "state": "", "country": "PH", "coord": {"lon": 120.6651, "lat": 15.0337}}, {"id": 1961064, "name": "Motrico", "state": "", "country": "PH", "coord": {"lon": 120.676529, "lat": 15.41355}}, {"id": 1961370, "name": "Langgen", "state": "", "country": "ID", "coord": {"lon": 106.305611, "lat": -5.98322}}, {"id": 1961418, "name": "San Pascual", "state": "", "country": "PH", "coord": {"lon": 120.66806, "lat": 15.50917}}, {"id": 1961432, "name": "Santo Ni\u00f1o", "state": "", "country": "PH", "coord": {"lon": 120.703056, "lat": 15.22806}}, {"id": 1963770, "name": "Padalarang", "state": "", "country": "ID", "coord": {"lon": 107.472778, "lat": -6.83778}}, {"id": 1964032, "name": "Ciranjang-hilir", "state": "", "country": "ID", "coord": {"lon": 107.257217, "lat": -6.82}}, {"id": 1965178, "name": "Gunung Kendil", "state": "", "country": "ID", "coord": {"lon": 110.404167, "lat": -7.33167}}, {"id": 1965193, "name": "Pepe", "state": "", "country": "ID", "coord": {"lon": 112.769203, "lat": -7.4024}}, {"id": 1965198, "name": "Sawohan", "state": "", "country": "ID", "coord": {"lon": 112.770103, "lat": -7.4272}}, {"id": 1965199, "name": "Damarsi", "state": "", "country": "ID", "coord": {"lon": 112.759804, "lat": -7.4177}}, {"id": 1965202, "name": "Dukuh Tengah", "state": "", "country": "ID", "coord": {"lon": 112.753799, "lat": -7.416}}, {"id": 1965308, "name": "Capitan Ramon", "state": "", "country": "PH", "coord": {"lon": 123.129173, "lat": 10.77278}}, {"id": 1965316, "name": "Pandansari", "state": "", "country": "ID", "coord": {"lon": 112.561699, "lat": -8.0074}}, {"id": 1965330, "name": "Balesari", "state": "", "country": "ID", "coord": {"lon": 112.523399, "lat": -8.0329}}, {"id": 1965337, "name": "Wadung", "state": "", "country": "ID", "coord": {"lon": 112.5923, "lat": -8.0454}}, {"id": 1965338, "name": "Tambaksari", "state": "", "country": "ID", "coord": {"lon": 112.589897, "lat": -8.0545}}, {"id": 1965349, "name": "Gading", "state": "", "country": "ID", "coord": {"lon": 112.635201, "lat": -8.1025}}, {"id": 1965350, "name": "Glanggang", "state": "", "country": "ID", "coord": {"lon": 112.599098, "lat": -8.082}}, {"id": 1965351, "name": "Wonokerso", "state": "", "country": "ID", "coord": {"lon": 112.611298, "lat": -8.0765}}, {"id": 1965354, "name": "Golek", "state": "", "country": "ID", "coord": {"lon": 112.612198, "lat": -8.0639}}, {"id": 1965366, "name": "Kebonsari", "state": "", "country": "ID", "coord": {"lon": 112.619102, "lat": -8.0176}}, {"id": 1965387, "name": "Gedangan", "state": "", "country": "ID", "coord": {"lon": 112.5849, "lat": -8.0112}}, {"id": 1965398, "name": "Permanu", "state": "", "country": "ID", "coord": {"lon": 112.578499, "lat": -8.0637}}, {"id": 1965400, "name": "Kranggan", "state": "", "country": "ID", "coord": {"lon": 112.569199, "lat": -8.0803}}, {"id": 1965405, "name": "Mboto", "state": "", "country": "ID", "coord": {"lon": 112.568703, "lat": -8.0908}}, {"id": 1965408, "name": "Ngasem", "state": "", "country": "ID", "coord": {"lon": 112.5588, "lat": -8.0955}}, {"id": 1965409, "name": "Kesamben", "state": "", "country": "ID", "coord": {"lon": 112.566902, "lat": -8.0637}}, {"id": 1965418, "name": "Tumpangrejo", "state": "", "country": "ID", "coord": {"lon": 112.515099, "lat": -8.0665}}, {"id": 1965433, "name": "Kasembon", "state": "", "country": "ID", "coord": {"lon": 112.670403, "lat": -8.0878}}, {"id": 1965437, "name": "Krebet", "state": "", "country": "ID", "coord": {"lon": 112.637703, "lat": -8.0944}}, {"id": 1965443, "name": "Tangkilsari", "state": "", "country": "ID", "coord": {"lon": 112.652901, "lat": -8.0601}}, {"id": 1965445, "name": "Tutut", "state": "", "country": "ID", "coord": {"lon": 112.642899, "lat": -8.039}}, {"id": 1965450, "name": "Kalisari", "state": "", "country": "ID", "coord": {"lon": 112.6483, "lat": -8.0234}}, {"id": 1965454, "name": "Sumbersuko", "state": "", "country": "ID", "coord": {"lon": 112.667503, "lat": -8.0438}}, {"id": 1965462, "name": "Plaosan", "state": "", "country": "ID", "coord": {"lon": 112.517601, "lat": -8.0916}}, {"id": 1965471, "name": "Palaan", "state": "", "country": "ID", "coord": {"lon": 112.547798, "lat": -8.1049}}, {"id": 1965482, "name": "Blobo", "state": "", "country": "ID", "coord": {"lon": 112.597, "lat": -8.1153}}, {"id": 1965483, "name": "Boro Utara", "state": "", "country": "ID", "coord": {"lon": 112.608597, "lat": -8.1019}}, {"id": 1965490, "name": "Plandi", "state": "", "country": "ID", "coord": {"lon": 112.514397, "lat": -8.1101}}, {"id": 1965533, "name": "Tamiajeng", "state": "", "country": "ID", "coord": {"lon": 112.719597, "lat": -8.0074}}, {"id": 1965534, "name": "Kambingan", "state": "", "country": "ID", "coord": {"lon": 112.710297, "lat": -8.012}}, {"id": 1965536, "name": "Bokor", "state": "", "country": "ID", "coord": {"lon": 112.741501, "lat": -8.0047}}, {"id": 1965540, "name": "Glagahdowo", "state": "", "country": "ID", "coord": {"lon": 112.735497, "lat": -8.018}}, {"id": 1965547, "name": "Ngingit", "state": "", "country": "ID", "coord": {"lon": 112.716698, "lat": -8.0293}}, {"id": 1965557, "name": "Keden", "state": "", "country": "ID", "coord": {"lon": 112.741898, "lat": -8.0347}}, {"id": 1965558, "name": "Pajaran", "state": "", "country": "ID", "coord": {"lon": 112.7174, "lat": -8.0351}}, {"id": 1965560, "name": "Rambaan", "state": "", "country": "ID", "coord": {"lon": 112.678703, "lat": -8.0463}}, {"id": 1965566, "name": "Ngebruk", "state": "", "country": "ID", "coord": {"lon": 112.736702, "lat": -8.0467}}, {"id": 1965567, "name": "Argomulyo", "state": "", "country": "ID", "coord": {"lon": 112.705399, "lat": -8.0498}}, {"id": 1965588, "name": "Kasri", "state": "", "country": "ID", "coord": {"lon": 112.677399, "lat": -8.1091}}, {"id": 1965592, "name": "Pringu", "state": "", "country": "ID", "coord": {"lon": 112.684303, "lat": -8.0951}}, {"id": 1965594, "name": "Kidangbang", "state": "", "country": "ID", "coord": {"lon": 112.704803, "lat": -8.0954}}, {"id": 1965596, "name": "Sukoanyar", "state": "", "country": "ID", "coord": {"lon": 112.716103, "lat": -8.0979}}, {"id": 1965604, "name": "Bureng", "state": "", "country": "ID", "coord": {"lon": 112.616798, "lat": -8.1195}}, {"id": 1965608, "name": "Ngadilangkung", "state": "", "country": "ID", "coord": {"lon": 112.575699, "lat": -8.1058}}, {"id": 1965609, "name": "Ngantru", "state": "", "country": "ID", "coord": {"lon": 112.567703, "lat": -8.1178}}, {"id": 1965620, "name": "Putukrejo", "state": "", "country": "ID", "coord": {"lon": 112.632629, "lat": -8.12612}}, {"id": 1965623, "name": "Talangagung", "state": "", "country": "ID", "coord": {"lon": 112.554001, "lat": -8.1254}}, {"id": 1965628, "name": "Jatikerto", "state": "", "country": "ID", "coord": {"lon": 112.538101, "lat": -8.1369}}, {"id": 1965631, "name": "Penarukan", "state": "", "country": "ID", "coord": {"lon": 112.579102, "lat": -8.1354}}, {"id": 1965634, "name": "Ketawang", "state": "", "country": "ID", "coord": {"lon": 112.643539, "lat": -8.14111}}, {"id": 1965635, "name": "Urek-urek", "state": "", "country": "ID", "coord": {"lon": 112.664093, "lat": -8.14151}}, {"id": 1965637, "name": "Ganjaran", "state": "", "country": "ID", "coord": {"lon": 112.614799, "lat": -8.1413}}, {"id": 1965638, "name": "Malusay", "state": "", "country": "PH", "coord": {"lon": 123.271698, "lat": 10.1439}}, {"id": 1965642, "name": "Senggreng", "state": "", "country": "ID", "coord": {"lon": 112.515999, "lat": -8.1623}}, {"id": 1965648, "name": "Panggungrejo", "state": "", "country": "ID", "coord": {"lon": 112.560997, "lat": -8.1464}}, {"id": 1965651, "name": "Mangunrejo", "state": "", "country": "ID", "coord": {"lon": 112.556198, "lat": -8.1552}}, {"id": 1965653, "name": "Tegalsari", "state": "", "country": "ID", "coord": {"lon": 112.576393, "lat": -8.16472}}, {"id": 1965657, "name": "Panggungrejo", "state": "", "country": "ID", "coord": {"lon": 112.600899, "lat": -8.1455}}, {"id": 1965659, "name": "Karangsuko", "state": "", "country": "ID", "coord": {"lon": 112.599197, "lat": -8.1666}}, {"id": 1965670, "name": "Pagedangan", "state": "", "country": "ID", "coord": {"lon": 112.715302, "lat": -8.15927}}, {"id": 1965671, "name": "Jambangan", "state": "", "country": "ID", "coord": {"lon": 112.738213, "lat": -8.16225}}, {"id": 1965673, "name": "Jeru", "state": "", "country": "ID", "coord": {"lon": 112.675499, "lat": -8.16151}}, {"id": 1965677, "name": "Sanankerto", "state": "", "country": "ID", "coord": {"lon": 112.745941, "lat": -8.15051}}, {"id": 1965678, "name": "Sananrejo", "state": "", "country": "ID", "coord": {"lon": 112.717583, "lat": -8.14898}}, {"id": 1965679, "name": "Tumpukrenteng", "state": "", "country": "ID", "coord": {"lon": 112.694504, "lat": -8.1305}}, {"id": 1965680, "name": "Sudimoro", "state": "", "country": "ID", "coord": {"lon": 112.673103, "lat": -8.1237}}, {"id": 1965685, "name": "Kedok", "state": "", "country": "ID", "coord": {"lon": 112.694847, "lat": -8.14891}}, {"id": 1965687, "name": "Talang Suko", "state": "", "country": "ID", "coord": {"lon": 112.686829, "lat": -8.14075}}, {"id": 1965697, "name": "Codo", "state": "", "country": "ID", "coord": {"lon": 112.722198, "lat": -8.1286}}, {"id": 1965699, "name": "Blayu", "state": "", "country": "ID", "coord": {"lon": 112.734703, "lat": -8.1119}}, {"id": 1965740, "name": "Del Pilar", "state": "", "country": "PH", "coord": {"lon": 121.086304, "lat": 15.6956}}, {"id": 1965742, "name": "Tanggung", "state": "", "country": "ID", "coord": {"lon": 112.677483, "lat": -8.17111}}, {"id": 1965744, "name": "Putat Kidul", "state": "", "country": "ID", "coord": {"lon": 112.644531, "lat": -8.17433}}, {"id": 1965823, "name": "Sawahan", "state": "", "country": "ID", "coord": {"lon": 112.667038, "lat": -8.21245}}, {"id": 1965826, "name": "Kemulan", "state": "", "country": "ID", "coord": {"lon": 112.657112, "lat": -8.22226}}, {"id": 1965829, "name": "Sepanjang", "state": "", "country": "ID", "coord": {"lon": 112.66275, "lat": -8.17036}}, {"id": 1965844, "name": "Kademangan", "state": "", "country": "ID", "coord": {"lon": 112.5989, "lat": -8.2144}}, {"id": 1965847, "name": "Rejoyoso", "state": "", "country": "ID", "coord": {"lon": 112.578102, "lat": -8.2169}}, {"id": 1965852, "name": "Brongkal", "state": "", "country": "ID", "coord": {"lon": 112.593803, "lat": -8.1806}}, {"id": 1965857, "name": "Kanigorokrajan", "state": "", "country": "ID", "coord": {"lon": 112.578796, "lat": -8.1854}}, {"id": 1965918, "name": "Sedayu", "state": "", "country": "ID", "coord": {"lon": 112.6875, "lat": -8.1795}}, {"id": 1965919, "name": "Pojok", "state": "", "country": "ID", "coord": {"lon": 112.720718, "lat": -8.17735}}, {"id": 1965924, "name": "Undaan", "state": "", "country": "ID", "coord": {"lon": 112.677818, "lat": -8.19557}}, {"id": 1965928, "name": "Rembun", "state": "", "country": "ID", "coord": {"lon": 112.711861, "lat": -8.19368}}, {"id": 1965930, "name": "Pamotan", "state": "", "country": "ID", "coord": {"lon": 112.734871, "lat": -8.1996}}, {"id": 1965931, "name": "Majang Tengah", "state": "", "country": "ID", "coord": {"lon": 112.720573, "lat": -8.19706}}, {"id": 1965943, "name": "Tawangrejeni", "state": "", "country": "ID", "coord": {"lon": 112.687599, "lat": -8.2226}}, {"id": 1966063, "name": "Bulihan", "state": "", "country": "PH", "coord": {"lon": 120.995461, "lat": 14.26974}}, {"id": 1966068, "name": "Magsaysay", "state": "", "country": "PH", "coord": {"lon": 121.034103, "lat": 14.3388}}, {"id": 1966167, "name": "Gulod", "state": "", "country": "PH", "coord": {"lon": 121.217697, "lat": 14.3449}}, {"id": 1966226, "name": "Badak", "state": "", "country": "PH", "coord": {"lon": 124.720558, "lat": 6.84722}}, {"id": 1966336, "name": "Bagong Pagasa", "state": "", "country": "PH", "coord": {"lon": 121.032799, "lat": 14.6627}}, {"id": 1966352, "name": "Lim-oo", "state": "", "country": "PH", "coord": {"lon": 124.630829, "lat": 11.15083}}, {"id": 1966433, "name": "Ibung", "state": "", "country": "PH", "coord": {"lon": 121.186142, "lat": 16.609381}}, {"id": 1966436, "name": "Democratic Republic of Timor-Leste", "state": "", "country": "TL", "coord": {"lon": 125.75, "lat": -8.83333}}, {"id": 1966546, "name": "Pagsanghan", "state": "", "country": "PH", "coord": {"lon": 124.754997, "lat": 11.96694}}, {"id": 1966792, "name": "Dinopi", "state": "", "country": "ID", "coord": {"lon": 120.790703, "lat": 1.0147}}, {"id": 1966827, "name": "Kali", "state": "", "country": "ID", "coord": {"lon": 121.427803, "lat": 1.1627}}, {"id": 1966830, "name": "Lamadong", "state": "", "country": "ID", "coord": {"lon": 121.4142, "lat": 1.1175}}, {"id": 1967607, "name": "Ogotua", "state": "", "country": "ID", "coord": {"lon": 120.264198, "lat": 0.9596}}, {"id": 1967767, "name": "Sidomulyo", "state": "", "country": "ID", "coord": {"lon": 122.615196, "lat": 0.6496}}, {"id": 1967939, "name": "Tompasobaru", "state": "", "country": "ID", "coord": {"lon": 124.468903, "lat": 0.9202}}, {"id": 1968971, "name": "Rantepang", "state": "", "country": "ID", "coord": {"lon": 119.941299, "lat": -2.9252}}, {"id": 1969003, "name": "Rindingallo", "state": "", "country": "ID", "coord": {"lon": 119.813797, "lat": -2.8979}}, {"id": 1969268, "name": "Sukamaju", "state": "", "country": "ID", "coord": {"lon": 120.4664, "lat": -2.6098}}, {"id": 1969335, "name": "Lamasi", "state": "", "country": "ID", "coord": {"lon": 120.1763, "lat": -2.8166}}, {"id": 1969339, "name": "Walenrang", "state": "", "country": "ID", "coord": {"lon": 120.1222, "lat": -2.8417}}, {"id": 1969497, "name": "Malunda", "state": "", "country": "ID", "coord": {"lon": 118.855904, "lat": -3.013}}, {"id": 1969601, "name": "Madette", "state": "", "country": "ID", "coord": {"lon": 119.307701, "lat": -3.4097}}, {"id": 1969637, "name": "Lampa", "state": "", "country": "ID", "coord": {"lon": 119.533401, "lat": -3.6634}}, {"id": 1969668, "name": "Majennang", "state": "", "country": "ID", "coord": {"lon": 119.6091, "lat": -3.9728}}, {"id": 1969674, "name": "Uluale", "state": "", "country": "ID", "coord": {"lon": 119.744102, "lat": -3.9072}}, {"id": 1969684, "name": "Amparita", "state": "", "country": "ID", "coord": {"lon": 119.812202, "lat": -3.9937}}, {"id": 1969686, "name": "Sidenreng", "state": "", "country": "ID", "coord": {"lon": 119.799301, "lat": -3.92753}}, {"id": 1969717, "name": "Baranti", "state": "", "country": "ID", "coord": {"lon": 119.783798, "lat": -3.8398}}, {"id": 1969733, "name": "Teppo", "state": "", "country": "ID", "coord": {"lon": 119.669998, "lat": -3.7065}}, {"id": 1969795, "name": "Baraka", "state": "", "country": "ID", "coord": {"lon": 119.855904, "lat": -3.4079}}, {"id": 1969826, "name": "Getengan", "state": "", "country": "ID", "coord": {"lon": 119.883904, "lat": -3.1813}}, {"id": 1969926, "name": "Gopaan", "state": "", "country": "ID", "coord": {"lon": 112.510597, "lat": -7.0014}}, {"id": 1969934, "name": "Sembungan Kidul", "state": "", "country": "ID", "coord": {"lon": 112.507896, "lat": -7.0064}}, {"id": 1969935, "name": "Kalimati", "state": "", "country": "ID", "coord": {"lon": 112.499702, "lat": -7.0086}}, {"id": 1969936, "name": "Raci Kulon", "state": "", "country": "ID", "coord": {"lon": 112.542503, "lat": -7.0005}}, {"id": 1969949, "name": "Randuboto", "state": "", "country": "ID", "coord": {"lon": 112.5812, "lat": -7.0034}}, {"id": 1973692, "name": "Beringinjaya", "state": "", "country": "ID", "coord": {"lon": 120.205704, "lat": -3.0072}}, {"id": 1973714, "name": "Beuma", "state": "", "country": "ID", "coord": {"lon": 120.052696, "lat": -3.2115}}, {"id": 1973733, "name": "Padangsappa", "state": "", "country": "ID", "coord": {"lon": 120.300499, "lat": -3.2347}}, {"id": 1973780, "name": "Lempokasi", "state": "", "country": "ID", "coord": {"lon": 120.366096, "lat": -3.4557}}, {"id": 1974329, "name": "Unaaha", "state": "", "country": "ID", "coord": {"lon": 122.042, "lat": -3.8539}}, {"id": 1975094, "name": "Andou", "state": "", "country": "CN", "coord": {"lon": 118.126671, "lat": 24.524719}}, {"id": 1975112, "name": "Taipingyansi", "state": "", "country": "CN", "coord": {"lon": 118.090202, "lat": 24.46172}}, {"id": 1975225, "name": "Tancung", "state": "", "country": "ID", "coord": {"lon": 120.028801, "lat": -4.0525}}, {"id": 1975323, "name": "Maroanging", "state": "", "country": "ID", "coord": {"lon": 120.098396, "lat": -4.1961}}, {"id": 1975344, "name": "Kotabaru", "state": "", "country": "ID", "coord": {"lon": 120.009598, "lat": -4.2137}}, {"id": 1975600, "name": "Matango", "state": "", "country": "ID", "coord": {"lon": 120.014, "lat": -4.6619}}, {"id": 1975643, "name": "Apala", "state": "", "country": "ID", "coord": {"lon": 120.313599, "lat": -4.6125}}, {"id": 1975740, "name": "Kadai", "state": "", "country": "ID", "coord": {"lon": 120.3423, "lat": -4.8083}}, {"id": 1975859, "name": "Bulubulu", "state": "", "country": "ID", "coord": {"lon": 120.2817, "lat": -4.9127}}, {"id": 1976191, "name": "Ekabudi", "state": "", "country": "ID", "coord": {"lon": 122.239197, "lat": -4.0535}}, {"id": 1978259, "name": "Jinungcaan", "state": "", "country": "PH", "coord": {"lon": 124.1175, "lat": 7.07917}}, {"id": 1978282, "name": "Maitum", "state": "", "country": "PH", "coord": {"lon": 124.502777, "lat": 6.04194}}, {"id": 1978291, "name": "Damabalas", "state": "", "country": "PH", "coord": {"lon": 124.514168, "lat": 7.01556}}, {"id": 1978295, "name": "Dinaig", "state": "", "country": "PH", "coord": {"lon": 124.228607, "lat": 7.1725}}, {"id": 1978396, "name": "Esperanza", "state": "", "country": "PH", "coord": {"lon": 124.666107, "lat": 6.49944}}, {"id": 1978438, "name": "Makir", "state": "", "country": "PH", "coord": {"lon": 124.304169, "lat": 7.03083}}, {"id": 1978456, "name": "Nunguan", "state": "", "country": "PH", "coord": {"lon": 124.689117, "lat": 7.12825}}, {"id": 1978472, "name": "Basiawan", "state": "", "country": "PH", "coord": {"lon": 125.486938, "lat": 6.53417}}, {"id": 1978540, "name": "Lumbac", "state": "", "country": "PH", "coord": {"lon": 124.252777, "lat": 7.73417}}, {"id": 1978552, "name": "Pagalungan", "state": "", "country": "PH", "coord": {"lon": 125.013329, "lat": 6.26556}}, {"id": 1978565, "name": "Malandag", "state": "", "country": "PH", "coord": {"lon": 125.242783, "lat": 6.30944}}, {"id": 1978681, "name": "Malingao", "state": "", "country": "PH", "coord": {"lon": 124.474998, "lat": 7.16083}}, {"id": 1978691, "name": "Dado", "state": "", "country": "PH", "coord": {"lon": 124.459717, "lat": 7.05}}, {"id": 1978769, "name": "Molundo", "state": "", "country": "PH", "coord": {"lon": 124.370277, "lat": 7.93861}}, {"id": 1978781, "name": "Madamba", "state": "", "country": "PH", "coord": {"lon": 124.047119, "lat": 7.82733}}, {"id": 1978926, "name": "Simuay", "state": "", "country": "PH", "coord": {"lon": 124.30722, "lat": 7.27722}}, {"id": 1978987, "name": "Bualan", "state": "", "country": "PH", "coord": {"lon": 124.267502, "lat": 7.44778}}, {"id": 1979010, "name": "Mataya", "state": "", "country": "PH", "coord": {"lon": 124.371941, "lat": 7.47111}}, {"id": 1979014, "name": "Nuyo", "state": "", "country": "PH", "coord": {"lon": 124.410828, "lat": 7.41806}}, {"id": 1979031, "name": "Seolman", "state": "", "country": "KR", "coord": {"lon": 128.928329, "lat": 35.175282}}, {"id": 1979115, "name": "Tuka", "state": "", "country": "PH", "coord": {"lon": 124.584999, "lat": 6.52}}, {"id": 1979116, "name": "Busok", "state": "", "country": "PH", "coord": {"lon": 124.598892, "lat": 6.50611}}, {"id": 1979117, "name": "Lopez Jaena", "state": "", "country": "PH", "coord": {"lon": 124.682503, "lat": 6.50889}}, {"id": 1979125, "name": "Lambontong", "state": "", "country": "PH", "coord": {"lon": 124.810562, "lat": 6.30833}}, {"id": 1979142, "name": "Daguma", "state": "", "country": "PH", "coord": {"lon": 124.547218, "lat": 6.58667}}, {"id": 1979143, "name": "Kapaya", "state": "", "country": "PH", "coord": {"lon": 124.563057, "lat": 6.57111}}, {"id": 1979227, "name": "Mariano Marcos", "state": "", "country": "PH", "coord": {"lon": 124.633614, "lat": 6.79722}}, {"id": 1979271, "name": "Simod", "state": "", "country": "PH", "coord": {"lon": 125.340828, "lat": 7.47583}}, {"id": 1980603, "name": "Shenqiao", "state": "", "country": "CN", "coord": {"lon": 117.140503, "lat": 23.730021}}, {"id": 1980872, "name": "Koka", "state": "", "country": "ID", "coord": {"lon": 124.919998, "lat": 1.55056}}, {"id": 1980981, "name": "Modayag", "state": "", "country": "ID", "coord": {"lon": 124.383797, "lat": 0.7105}}, {"id": 1981717, "name": "Guanhubian", "state": "", "country": "CN", "coord": {"lon": 119.664169, "lat": 25.92861}}, {"id": 1982200, "name": "Batuputih", "state": "", "country": "ID", "coord": {"lon": 120.181, "lat": -2.9582}}, {"id": 1983170, "name": "Yanggu\u2019ao", "state": "", "country": "CN", "coord": {"lon": 110.943893, "lat": 27.48667}}, {"id": 1983190, "name": "Hetian", "state": "", "country": "CN", "coord": {"lon": 110.971672, "lat": 27.346939}}, {"id": 1983204, "name": "Matangshan", "state": "", "country": "CN", "coord": {"lon": 110.69278, "lat": 27.38806}}, {"id": 1983231, "name": "Xiyangjiang", "state": "", "country": "CN", "coord": {"lon": 110.828888, "lat": 27.190281}}, {"id": 1983329, "name": "Qijiang", "state": "", "country": "CN", "coord": {"lon": 110.973061, "lat": 27.44944}}, {"id": 1983877, "name": "Xiayuancun", "state": "", "country": "CN", "coord": {"lon": 119.061943, "lat": 27.282499}}, {"id": 1983912, "name": "Zhengyuan", "state": "", "country": "CN", "coord": {"lon": 119.114723, "lat": 27.226391}}, {"id": 1985348, "name": "Kalanganyartambak", "state": "", "country": "ID", "coord": {"lon": 112.7938, "lat": -7.3995}}, {"id": 1985355, "name": "Sedatigede", "state": "", "country": "ID", "coord": {"lon": 112.762299, "lat": -7.3768}}, {"id": 1985359, "name": "Sedatiagung", "state": "", "country": "ID", "coord": {"lon": 112.758057, "lat": -7.38194}}, {"id": 1985361, "name": "Gadung", "state": "", "country": "ID", "coord": {"lon": 112.785301, "lat": -7.3748}}, {"id": 1985526, "name": "Pacarkeling", "state": "", "country": "ID", "coord": {"lon": 112.758102, "lat": -7.258}}, {"id": 1985527, "name": "Mulyorejo", "state": "", "country": "ID", "coord": {"lon": 112.78392, "lat": -7.26287}}, {"id": 1985528, "name": "Gubengairlangga", "state": "", "country": "ID", "coord": {"lon": 112.757301, "lat": -7.2729}}, {"id": 1985530, "name": "Prapen", "state": "", "country": "ID", "coord": {"lon": 112.756668, "lat": -7.31453}}, {"id": 1985532, "name": "Gununganyartambak Tengah", "state": "", "country": "ID", "coord": {"lon": 112.801941, "lat": -7.33753}}, {"id": 1985535, "name": "Kedungasem", "state": "", "country": "ID", "coord": {"lon": 112.778702, "lat": -7.3216}}, {"id": 1985537, "name": "Jagirsidosermo", "state": "", "country": "ID", "coord": {"lon": 112.754532, "lat": -7.30678}}, {"id": 1985547, "name": "Labansari", "state": "", "country": "ID", "coord": {"lon": 112.791313, "lat": -7.25969}}, {"id": 1985548, "name": "Brongkalan", "state": "", "country": "ID", "coord": {"lon": 112.767403, "lat": -7.2575}}, {"id": 1985663, "name": "Cikupa", "state": "", "country": "ID", "coord": {"lon": 106.508331, "lat": -6.23639}}, {"id": 1985980, "name": "Tenggilis Lama", "state": "", "country": "ID", "coord": {"lon": 112.762802, "lat": -7.3166}}, {"id": 1987164, "name": "Shanjie", "state": "", "country": "CN", "coord": {"lon": 111.01944, "lat": 27.077499}}, {"id": 1989660, "name": "Lianbinxiang", "state": "", "country": "CN", "coord": {"lon": 111.983063, "lat": 27.74556}}, {"id": 1990171, "name": "Nagreg", "state": "", "country": "ID", "coord": {"lon": 106.335564, "lat": -6.17889}}, {"id": 1990589, "name": "Teluknaga", "state": "", "country": "ID", "coord": {"lon": 106.638062, "lat": -6.09889}}, {"id": 1992517, "name": "Qingtang", "state": "", "country": "CN", "coord": {"lon": 110.047783, "lat": 25.21056}}, {"id": 1993378, "name": "Cideng", "state": "", "country": "ID", "coord": {"lon": 106.806198, "lat": -6.1674}}, {"id": 1994622, "name": "Nanjindu", "state": "", "country": "CN", "coord": {"lon": 111.625282, "lat": 26.209999}}, {"id": 1996549, "name": "Provinsi Papua Barat", "state": "", "country": "ID", "coord": {"lon": 132.833328, "lat": -2.08333}}, {"id": 1996550, "name": "Provinsi Sulawesi Barat", "state": "", "country": "ID", "coord": {"lon": 119.333298, "lat": -2.5}}, {"id": 1996551, "name": "Provinsi Kepulauan Riau", "state": "", "country": "ID", "coord": {"lon": 106.98333, "lat": 0.61667}}, {"id": 1996552, "name": "Putrajaya", "state": "", "country": "MY", "coord": {"lon": 101.699997, "lat": 2.91667}}, {"id": 1996859, "name": "Jiangdong", "state": "", "country": "CN", "coord": {"lon": 116.651451, "lat": 23.58746}}, {"id": 1998137, "name": "Renheli", "state": "", "country": "CN", "coord": {"lon": 116.771591, "lat": 23.434179}}, {"id": 1998143, "name": "Xinan", "state": "", "country": "CN", "coord": {"lon": 116.810669, "lat": 23.550529}}, {"id": 1998290, "name": "Wutun", "state": "", "country": "CN", "coord": {"lon": 109.29512, "lat": 34.63768}}, {"id": 1998291, "name": "Beitun", "state": "", "country": "CN", "coord": {"lon": 109.231209, "lat": 34.617699}}, {"id": 1998292, "name": "Xinxing", "state": "", "country": "CN", "coord": {"lon": 109.274361, "lat": 34.666882}}, {"id": 1998293, "name": "Zhenxing", "state": "", "country": "CN", "coord": {"lon": 109.192841, "lat": 34.66853}}, {"id": 1998300, "name": "Renliu", "state": "", "country": "CN", "coord": {"lon": 109.227371, "lat": 34.49017}}, {"id": 1998305, "name": "Zhangbu", "state": "", "country": "CN", "coord": {"lon": 109.117317, "lat": 34.483582}}, {"id": 1998308, "name": "Xiaojin", "state": "", "country": "CN", "coord": {"lon": 109.41349, "lat": 34.339512}}, {"id": 1998309, "name": "Muzhai", "state": "", "country": "CN", "coord": {"lon": 109.367706, "lat": 34.366058}}, {"id": 1998310, "name": "Tuqiao", "state": "", "country": "CN", "coord": {"lon": 109.318779, "lat": 34.351662}}, {"id": 1998312, "name": "Xiquan", "state": "", "country": "CN", "coord": {"lon": 109.13858, "lat": 34.407539}}, {"id": 1998313, "name": "Xinhe", "state": "", "country": "CN", "coord": {"lon": 109.099739, "lat": 34.419041}}, {"id": 1998318, "name": "Yuchu", "state": "", "country": "CN", "coord": {"lon": 109.057877, "lat": 34.50272}}, {"id": 1998321, "name": "Dongda", "state": "", "country": "CN", "coord": {"lon": 108.768181, "lat": 34.044071}}, {"id": 1998326, "name": "Xinglong", "state": "", "country": "CN", "coord": {"lon": 108.816803, "lat": 34.12468}}, {"id": 1998335, "name": "Qujiang", "state": "", "country": "CN", "coord": {"lon": 108.988251, "lat": 34.193161}}, {"id": 1998336, "name": "Dengjiapo", "state": "", "country": "CN", "coord": {"lon": 109.025131, "lat": 34.22723}}, {"id": 1998337, "name": "Daminggong", "state": "", "country": "CN", "coord": {"lon": 108.963287, "lat": 34.30455}}, {"id": 1998338, "name": "Hancheng", "state": "", "country": "CN", "coord": {"lon": 108.907784, "lat": 34.334999}}, {"id": 1998339, "name": "Tanjia", "state": "", "country": "CN", "coord": {"lon": 108.967781, "lat": 34.332218}}, {"id": 1998356, "name": "Baoli", "state": "", "country": "CN", "coord": {"lon": 109.136513, "lat": 34.170952}}, {"id": 1998357, "name": "Huaxu", "state": "", "country": "CN", "coord": {"lon": 109.182289, "lat": 34.224949}}, {"id": 1998358, "name": "Shijiazhai", "state": "", "country": "CN", "coord": {"lon": 109.149323, "lat": 34.078049}}, {"id": 1998359, "name": "Yangzhuang", "state": "", "country": "CN", "coord": {"lon": 109.140327, "lat": 34.041248}}, {"id": 1998361, "name": "Wangmang", "state": "", "country": "CN", "coord": {"lon": 109.055519, "lat": 34.057861}}, {"id": 1998363, "name": "Wutai", "state": "", "country": "CN", "coord": {"lon": 108.971207, "lat": 34.034012}}, {"id": 1998374, "name": "Gaoqiao", "state": "", "country": "CN", "coord": {"lon": 108.705559, "lat": 34.243328}}, {"id": 1998376, "name": "Weifeng", "state": "", "country": "CN", "coord": {"lon": 108.613426, "lat": 34.19508}}, {"id": 1998377, "name": "Cangyou", "state": "", "country": "CN", "coord": {"lon": 108.654442, "lat": 34.163239}}, {"id": 1998381, "name": "Tianqiao", "state": "", "country": "CN", "coord": {"lon": 108.5625, "lat": 34.051941}}, {"id": 1998383, "name": "Jiufeng", "state": "", "country": "CN", "coord": {"lon": 108.427032, "lat": 34.10149}}, {"id": 1998386, "name": "Wuzhu", "state": "", "country": "CN", "coord": {"lon": 108.657997, "lat": 34.113022}}, {"id": 1998388, "name": "Shijing", "state": "", "country": "CN", "coord": {"lon": 108.588608, "lat": 34.028332}}, {"id": 1998393, "name": "Houjia", "state": "", "country": "CN", "coord": {"lon": 108.180817, "lat": 34.165138}}, {"id": 1998417, "name": "Xinyang", "state": "", "country": "CN", "coord": {"lon": 108.140518, "lat": 34.482941}}, {"id": 1998418, "name": "Moxi", "state": "", "country": "CN", "coord": {"lon": 108.188889, "lat": 34.514999}}, {"id": 1998434, "name": "Fengyang", "state": "", "country": "CN", "coord": {"lon": 108.277222, "lat": 34.68314}}, {"id": 1998473, "name": "Zhuganzhen", "state": "", "country": "CN", "coord": {"lon": 108.308609, "lat": 34.624168}}, {"id": 1998509, "name": "Liangshan", "state": "", "country": "CN", "coord": {"lon": 108.192711, "lat": 34.62085}}, {"id": 1998538, "name": "Dayang", "state": "", "country": "CN", "coord": {"lon": 108.317223, "lat": 34.47361}}, {"id": 1998565, "name": "Shiniu", "state": "", "country": "CN", "coord": {"lon": 108.072723, "lat": 34.50758}}, {"id": 1998706, "name": "Yanxia", "state": "", "country": "CN", "coord": {"lon": 108.54306, "lat": 34.575562}}, {"id": 1998727, "name": "Jianling", "state": "", "country": "CN", "coord": {"lon": 108.415001, "lat": 34.639721}}, {"id": 1998750, "name": "Zhaoling", "state": "", "country": "CN", "coord": {"lon": 108.447502, "lat": 34.563061}}, {"id": 1998768, "name": "Xinshi", "state": "", "country": "CN", "coord": {"lon": 108.422218, "lat": 34.43972}}, {"id": 1999104, "name": "Sangzhen", "state": "", "country": "CN", "coord": {"lon": 108.346107, "lat": 34.256111}}, {"id": 1999164, "name": "Fengyi", "state": "", "country": "CN", "coord": {"lon": 108.411392, "lat": 34.249168}}, {"id": 1999297, "name": "Tianfu", "state": "", "country": "CN", "coord": {"lon": 108.59417, "lat": 34.264439}}, {"id": 1999301, "name": "Fuzhai", "state": "", "country": "CN", "coord": {"lon": 108.522217, "lat": 34.253891}}, {"id": 1999581, "name": "Baiwang", "state": "", "country": "CN", "coord": {"lon": 108.646111, "lat": 34.673328}}, {"id": 1999687, "name": "Zhongzhang", "state": "", "country": "CN", "coord": {"lon": 108.766838, "lat": 34.554451}}, {"id": 1999689, "name": "Taiping", "state": "", "country": "CN", "coord": {"lon": 108.736107, "lat": 34.505829}}, {"id": 1999718, "name": "Yanwang", "state": "", "country": "CN", "coord": {"lon": 108.801941, "lat": 34.571671}}, {"id": 1999733, "name": "Longquan", "state": "", "country": "CN", "coord": {"lon": 108.868057, "lat": 34.684719}}, {"id": 1999829, "name": "Chongwen", "state": "", "country": "CN", "coord": {"lon": 108.933167, "lat": 34.494301}}, {"id": 1999912, "name": "Karangploso", "state": "", "country": "ID", "coord": {"lon": 110.433609, "lat": -7.785}}, {"id": 1999938, "name": "Cuo\u2019e", "state": "", "country": "CN", "coord": {"lon": 108.878891, "lat": 34.73917}}, {"id": 2000018, "name": "Xumu", "state": "", "country": "CN", "coord": {"lon": 109.115601, "lat": 34.694141}}, {"id": 2000026, "name": "Beixi", "state": "", "country": "CN", "coord": {"lon": 109.10894, "lat": 34.620121}}, {"id": 2000546, "name": "Duma", "state": "", "country": "CN", "coord": {"lon": 108.135002, "lat": 34.765282}}, {"id": 2000568, "name": "Yujiagong", "state": "", "country": "CN", "coord": {"lon": 108.187752, "lat": 34.729321}}, {"id": 2000597, "name": "Shangyi", "state": "", "country": "CN", "coord": {"lon": 108.264664, "lat": 34.83477}}, {"id": 2000700, "name": "Bojia", "state": "", "country": "CN", "coord": {"lon": 108.512497, "lat": 34.92667}}, {"id": 2000711, "name": "Tiewang", "state": "", "country": "CN", "coord": {"lon": 108.572502, "lat": 34.916672}}, {"id": 2000712, "name": "Qinhe", "state": "", "country": "CN", "coord": {"lon": 108.592781, "lat": 34.92028}}, {"id": 2000820, "name": "Meijiaping", "state": "", "country": "CN", "coord": {"lon": 108.992943, "lat": 34.866051}}, {"id": 2000863, "name": "Huazhu", "state": "", "country": "CN", "coord": {"lon": 109.195648, "lat": 34.786011}}, {"id": 2000872, "name": "Xiaohui", "state": "", "country": "CN", "coord": {"lon": 109.270638, "lat": 34.90926}}, {"id": 2000889, "name": "Gongli", "state": "", "country": "CN", "coord": {"lon": 109.144142, "lat": 34.831139}}, {"id": 2000890, "name": "Qicun", "state": "", "country": "CN", "coord": {"lon": 109.109444, "lat": 34.822708}}, {"id": 2000954, "name": "Laomiao", "state": "", "country": "CN", "coord": {"lon": 109.412804, "lat": 34.999222}}, {"id": 2001001, "name": "Mizi", "state": "", "country": "CN", "coord": {"lon": 109.015411, "lat": 34.81242}}, {"id": 2001045, "name": "Maquan", "state": "", "country": "CN", "coord": {"lon": 108.603607, "lat": 34.323608}}, {"id": 2001056, "name": "Weibin", "state": "", "country": "CN", "coord": {"lon": 108.645828, "lat": 34.31583}}, {"id": 2001062, "name": "Diaotai", "state": "", "country": "CN", "coord": {"lon": 108.686394, "lat": 34.285561}}, {"id": 2001071, "name": "Wujiabao", "state": "", "country": "CN", "coord": {"lon": 108.699257, "lat": 34.347542}}, {"id": 2001077, "name": "Fengdong", "state": "", "country": "CN", "coord": {"lon": 108.758331, "lat": 34.324718}}, {"id": 2001088, "name": "Weicheng", "state": "", "country": "CN", "coord": {"lon": 108.778061, "lat": 34.384171}}, {"id": 2001123, "name": "Zhengyang", "state": "", "country": "CN", "coord": {"lon": 108.921387, "lat": 34.423611}}, {"id": 2001378, "name": "Weiyanggong", "state": "", "country": "CN", "coord": {"lon": 108.910583, "lat": 34.28936}}, {"id": 2001380, "name": "Yanta", "state": "", "country": "CN", "coord": {"lon": 108.9524, "lat": 34.20636}}, {"id": 2001434, "name": "Zhangbagou", "state": "", "country": "CN", "coord": {"lon": 108.88028, "lat": 34.21291}}, {"id": 2001532, "name": "Youfeng", "state": "", "country": "CN", "coord": {"lon": 108.043777, "lat": 34.390911}}, {"id": 2001540, "name": "Sufang", "state": "", "country": "CN", "coord": {"lon": 108.084618, "lat": 34.396141}}, {"id": 2001585, "name": "Daijia", "state": "", "country": "CN", "coord": {"lon": 108.150429, "lat": 34.33514}}, {"id": 2001694, "name": "Changning", "state": "", "country": "CN", "coord": {"lon": 108.291252, "lat": 34.301521}}, {"id": 2001711, "name": "Hedaoxiang", "state": "", "country": "CN", "coord": {"lon": 108.282967, "lat": 34.335918}}, {"id": 2001738, "name": "Xingzhe", "state": "", "country": "CN", "coord": {"lon": 109.19693, "lat": 34.405231}}, {"id": 2001854, "name": "Hexi", "state": "", "country": "CN", "coord": {"lon": 109.525101, "lat": 34.41119}}, {"id": 2001855, "name": "Yancun", "state": "", "country": "CN", "coord": {"lon": 109.494957, "lat": 34.418968}}, {"id": 2002872, "name": "Wonosari", "state": "", "country": "ID", "coord": {"lon": 110.603607, "lat": -7.96556}}, {"id": 2005057, "name": "Gamping Lor", "state": "", "country": "ID", "coord": {"lon": 110.326393, "lat": -7.79556}}, {"id": 2005237, "name": "Kasihan", "state": "", "country": "ID", "coord": {"lon": 110.32917, "lat": -7.82694}}, {"id": 2009359, "name": "Puntan", "state": "", "country": "ID", "coord": {"lon": 110.553329, "lat": -7.51944}}, {"id": 2009683, "name": "Semaran", "state": "", "country": "ID", "coord": {"lon": 110.600563, "lat": -7.56028}}, {"id": 2010971, "name": "Ngemplak", "state": "", "country": "ID", "coord": {"lon": 110.716393, "lat": -7.54972}}, {"id": 2010985, "name": "Kartasura", "state": "", "country": "ID", "coord": {"lon": 110.737778, "lat": -7.55194}}, {"id": 2011457, "name": "Gatak", "state": "", "country": "ID", "coord": {"lon": 110.704437, "lat": -7.59083}}, {"id": 2012337, "name": "Sukhaya", "state": "", "country": "RU", "coord": {"lon": 109.800003, "lat": 53.73333}}, {"id": 2012349, "name": "Krasnyy Chikoy", "state": "", "country": "RU", "coord": {"lon": 108.751198, "lat": 50.3643}}, {"id": 2012350, "name": "Noty", "state": "", "country": "RU", "coord": {"lon": 102.896942, "lat": 53.243889}}, {"id": 2012367, "name": "Zyryansk", "state": "", "country": "RU", "coord": {"lon": 107.800003, "lat": 52.283329}}, {"id": 2012379, "name": "Zv\u00ebzdnyy", "state": "", "country": "RU", "coord": {"lon": 106.479897, "lat": 56.749199}}, {"id": 2012425, "name": "Zugdeli", "state": "", "country": "RU", "coord": {"lon": 111.166672, "lat": 55.049999}}, {"id": 2012455, "name": "Zolotaya Dolina", "state": "", "country": "RU", "coord": {"lon": 133.116669, "lat": 42.933331}}, {"id": 2012484, "name": "Zima", "state": "", "country": "RU", "coord": {"lon": 102.044197, "lat": 53.9202}}, {"id": 2012503, "name": "Zhmurova", "state": "", "country": "RU", "coord": {"lon": 102.928802, "lat": 53.1329}}, {"id": 2012510, "name": "Zhireken", "state": "", "country": "RU", "coord": {"lon": 117.307602, "lat": 52.824902}}, {"id": 2012530, "name": "Zhigansk", "state": "", "country": "RU", "coord": {"lon": 123.371109, "lat": 66.769722}}, {"id": 2012532, "name": "Zhigalovo", "state": "", "country": "RU", "coord": {"lon": 105.157784, "lat": 54.809719}}, {"id": 2012544, "name": "Zhemchug", "state": "", "country": "RU", "coord": {"lon": 102.459, "lat": 51.6861}}, {"id": 2012557, "name": "Zheleznogorsk-Ilimskiy", "state": "", "country": "RU", "coord": {"lon": 104.121696, "lat": 56.576801}}, {"id": 2012561, "name": "Zheleznodorozhnyy", "state": "", "country": "RU", "coord": {"lon": 102.765282, "lat": 57.91222}}, {"id": 2012570, "name": "Zhatay", "state": "", "country": "RU", "coord": {"lon": 129.829437, "lat": 62.159439}}, {"id": 2012573, "name": "Zharikovo", "state": "", "country": "RU", "coord": {"lon": 131.731934, "lat": 44.57972}}, {"id": 2012577, "name": "Zhardovnik", "state": "", "country": "RU", "coord": {"lon": 103.933327, "lat": 52.450001}}, {"id": 2012593, "name": "Zeya", "state": "", "country": "RU", "coord": {"lon": 127.26667, "lat": 53.75}}, {"id": 2012623, "name": "Zavodskoy", "state": "", "country": "RU", "coord": {"lon": 132.292221, "lat": 43.459721}}, {"id": 2012626, "name": "Zavitinsk", "state": "", "country": "RU", "coord": {"lon": 129.449997, "lat": 50.116669}}, {"id": 2012646, "name": "Zarubino", "state": "", "country": "RU", "coord": {"lon": 131.092224, "lat": 42.630001}}, {"id": 2012655, "name": "Zarechnyy", "state": "", "country": "RU", "coord": {"lon": 107.51445, "lat": 51.851391}}, {"id": 2012702, "name": "Zalari", "state": "", "country": "RU", "coord": {"lon": 102.5065, "lat": 53.558399}}, {"id": 2012728, "name": "Zakamensk", "state": "", "country": "RU", "coord": {"lon": 103.286301, "lat": 50.3741}}, {"id": 2012732, "name": "Zakaltus", "state": "", "country": "RU", "coord": {"lon": 106.584167, "lat": 52.013062}}, {"id": 2012735, "name": "Zaigrayevo", "state": "", "country": "RU", "coord": {"lon": 108.270302, "lat": 51.833599}}, {"id": 2012773, "name": "Zabituy", "state": "", "country": "RU", "coord": {"lon": 102.8312, "lat": 53.275398}}, {"id": 2012780, "name": "Zabaykal\u2019sk", "state": "", "country": "RU", "coord": {"lon": 117.316673, "lat": 49.633331}}, {"id": 2012861, "name": "Yugovo", "state": "", "country": "RU", "coord": {"lon": 107.116386, "lat": 52.12278}}, {"id": 2012938, "name": "Yerofey Pavlovich", "state": "", "country": "RU", "coord": {"lon": 121.966667, "lat": 53.966671}}, {"id": 2012956, "name": "Yerbogachen", "state": "", "country": "RU", "coord": {"lon": 108.010834, "lat": 61.276669}}, {"id": 2012979, "name": "Yel\u2019tsovo", "state": "", "country": "RU", "coord": {"lon": 107.849998, "lat": 52.299999}}, {"id": 2012997, "name": "Y\u00eblkino", "state": "", "country": "RU", "coord": {"lon": 109.616669, "lat": 53.599998}}, {"id": 2013030, "name": "Yekaterinovka", "state": "", "country": "RU", "coord": {"lon": 133.047226, "lat": 42.924999}}, {"id": 2013032, "name": "Yekaterinoslavka", "state": "", "country": "RU", "coord": {"lon": 129.113861, "lat": 50.37336}}, {"id": 2013089, "name": "Yaroslavskiy", "state": "", "country": "RU", "coord": {"lon": 132.207214, "lat": 44.168331}}, {"id": 2013101, "name": "Yarikta", "state": "", "country": "RU", "coord": {"lon": 110.01667, "lat": 53.933331}}, {"id": 2013159, "name": "Yakutsk", "state": "", "country": "RU", "coord": {"lon": 129.733063, "lat": 62.03389}}, {"id": 2013162, "name": "Respublika Sakha (Yakutiya)", "state": "", "country": "RU", "coord": {"lon": 130, "lat": 65}}, {"id": 2013176, "name": "Yakovlevka", "state": "", "country": "RU", "coord": {"lon": 133.477219, "lat": 44.424999}}, {"id": 2013191, "name": "Yagodnyy", "state": "", "country": "RU", "coord": {"lon": 113.5, "lat": 52.083328}}, {"id": 2013198, "name": "Yagdag", "state": "", "country": "RU", "coord": {"lon": 111.066673, "lat": 54.849998}},