[{"id": 2518213, "name": "El Puerto de Mazarr\u00f3n", "state": "", "country": "ES", "coord": {"lon": -1.25639, "lat": 37.561378}}, {"id": 2518221, "name": "El Puente del Arzobispo", "state": "", "country": "ES", "coord": {"lon": -5.17178, "lat": 39.801739}}, {"id": 2518222, "name": "El Puente", "state": "", "country": "ES", "coord": {"lon": -6.96667, "lat": 37.383331}}, {"id": 2518224, "name": "El Provencio", "state": "", "country": "ES", "coord": {"lon": -2.57448, "lat": 39.377399}}, {"id": 2518272, "name": "El Pedrosillo", "state": "", "country": "ES", "coord": {"lon": -6.34066, "lat": 37.661251}}, {"id": 2518273, "name": "El Pedernoso", "state": "", "country": "ES", "coord": {"lon": -2.74642, "lat": 39.485802}}, {"id": 2518277, "name": "El Paso", "state": "", "country": "ES", "coord": {"lon": -17.88274, "lat": 28.65007}}, {"id": 2518285, "name": "El Palomar", "state": "", "country": "ES", "coord": {"lon": -2.97138, "lat": 37.957539}}, {"id": 2518292, "name": "El Palmar de Troya", "state": "", "country": "ES", "coord": {"lon": -5.80471, "lat": 37.061539}}, {"id": 2518293, "name": "El Palmar", "state": "", "country": "ES", "coord": {"lon": -0.31667, "lat": 39.299999}}, {"id": 2518325, "name": "El Molledo", "state": "", "country": "ES", "coord": {"lon": -16.814951, "lat": 28.286039}}, {"id": 2518328, "name": "El Molino", "state": "", "country": "ES", "coord": {"lon": -3.87743, "lat": 36.76849}}, {"id": 2518338, "name": "El Moj\u00f3n", "state": "", "country": "ES", "coord": {"lon": -13.51747, "lat": 29.06312}}, {"id": 2518347, "name": "El Mayordomo", "state": "", "country": "ES", "coord": {"lon": -2.12111, "lat": 37.120258}}, {"id": 2518348, "name": "El Matorral", "state": "", "country": "ES", "coord": {"lon": -13.86711, "lat": 28.432199}}, {"id": 2518395, "name": "El Jinete", "state": "", "country": "ES", "coord": {"lon": -1.998, "lat": 38.512699}}, {"id": 2518397, "name": "El Jau", "state": "", "country": "ES", "coord": {"lon": -3.74102, "lat": 37.196289}}, {"id": 2518435, "name": "El Guincho", "state": "", "country": "ES", "coord": {"lon": -16.716669, "lat": 28.366671}}, {"id": 2518455, "name": "El Gastor", "state": "", "country": "ES", "coord": {"lon": -5.32334, "lat": 36.854778}}, {"id": 2518494, "name": "El Ejido", "state": "", "country": "ES", "coord": {"lon": -2.81456, "lat": 36.776291}}, {"id": 2518498, "name": "El Draguito", "state": "", "country": "ES", "coord": {"lon": -16.565929, "lat": 28.11253}}, {"id": 2518505, "name": "Elda", "state": "", "country": "ES", "coord": {"lon": -0.79157, "lat": 38.477829}}, {"id": 2518510, "name": "El Cuervo", "state": "", "country": "ES", "coord": {"lon": -6.03785, "lat": 36.852982}}, {"id": 2518521, "name": "El Coronil", "state": "", "country": "ES", "coord": {"lon": -5.6341, "lat": 37.07954}}, {"id": 2518524, "name": "El Convoy", "state": "", "country": "ES", "coord": {"lon": -1.76278, "lat": 37.397251}}, {"id": 2518551, "name": "El Chive", "state": "", "country": "ES", "coord": {"lon": -2.0734, "lat": 37.177509}}, {"id": 2518555, "name": "Elche de la Sierra", "state": "", "country": "ES", "coord": {"lon": -2.0476, "lat": 38.451229}}, {"id": 2518559, "name": "Elche", "state": "", "country": "ES", "coord": {"lon": -0.70107, "lat": 38.26218}}, {"id": 2518567, "name": "El Chaparral de Cartuja", "state": "", "country": "ES", "coord": {"lon": -3.6563, "lat": 37.25568}}, {"id": 2518569, "name": "El Chaparral", "state": "", "country": "ES", "coord": {"lon": -3.94203, "lat": 37.178028}}, {"id": 2518575, "name": "El Cerro de And\u00e9valo", "state": "", "country": "ES", "coord": {"lon": -6.93692, "lat": 37.735359}}, {"id": 2518591, "name": "El Castillo de las Guardas", "state": "", "country": "ES", "coord": {"lon": -6.31503, "lat": 37.693138}}, {"id": 2518597, "name": "El Casar", "state": "", "country": "ES", "coord": {"lon": -5.92513, "lat": 38.530891}}, {"id": 2518606, "name": "El Carpio de Tajo", "state": "", "country": "ES", "coord": {"lon": -4.45388, "lat": 39.887959}}, {"id": 2518607, "name": "El Carpio", "state": "", "country": "ES", "coord": {"lon": -4.49696, "lat": 37.940849}}, {"id": 2518653, "name": "El Campamento", "state": "", "country": "ES", "coord": {"lon": -5.38125, "lat": 36.17878}}, {"id": 2518659, "name": "El Calguer\u00edn", "state": "", "country": "ES", "coord": {"lon": -1.88428, "lat": 37.302219}}, {"id": 2518667, "name": "El Cabo de Gata", "state": "", "country": "ES", "coord": {"lon": -2.24198, "lat": 36.782341}}, {"id": 2518677, "name": "El Bueno", "state": "", "country": "ES", "coord": {"lon": -16.48506, "lat": 28.20784}}, {"id": 2518682, "name": "El Bosque", "state": "", "country": "ES", "coord": {"lon": -5.50535, "lat": 36.758282}}, {"id": 2518684, "name": "El Bonillo", "state": "", "country": "ES", "coord": {"lon": -2.54048, "lat": 38.950481}}, {"id": 2518719, "name": "El Arroyo Aceituno", "state": "", "country": "ES", "coord": {"lon": -2.06667, "lat": 37.349998}}, {"id": 2518723, "name": "s'Arenal", "state": "", "country": "ES", "coord": {"lon": 2.75, "lat": 39.5}}, {"id": 2518729, "name": "El Arahal", "state": "", "country": "ES", "coord": {"lon": -5.5453, "lat": 37.26273}}, {"id": 2518733, "name": "El Amparo", "state": "", "country": "ES", "coord": {"lon": -16.714439, "lat": 28.353889}}, {"id": 2518736, "name": "El Altet", "state": "", "country": "ES", "coord": {"lon": -0.5397, "lat": 38.272991}}, {"id": 2518737, "name": "El Alqui\u00e1n", "state": "", "country": "ES", "coord": {"lon": -2.35313, "lat": 36.852631}}, {"id": 2518759, "name": "El \u00c1guila", "state": "", "country": "ES", "coord": {"lon": -5.01667, "lat": 38.299999}}, {"id": 2518770, "name": "\u00c9cija", "state": "", "country": "ES", "coord": {"lon": -5.0826, "lat": 37.542198}}, {"id": 2518774, "name": "D\u00farcal", "state": "", "country": "ES", "coord": {"lon": -3.56601, "lat": 36.987881}}, {"id": 2518782, "name": "D\u00fadar", "state": "", "country": "ES", "coord": {"lon": -3.48347, "lat": 37.185791}}, {"id": 2518791, "name": "Dos Torres", "state": "", "country": "ES", "coord": {"lon": -4.9, "lat": 38.450001}}, {"id": 2518794, "name": "Dos Hermanas", "state": "", "country": "ES", "coord": {"lon": -5.92088, "lat": 37.282871}}, {"id": 2518796, "name": "Dosbarrios", "state": "", "country": "ES", "coord": {"lon": -3.48419, "lat": 39.881981}}, {"id": 2518797, "name": "Dos Aguas", "state": "", "country": "ES", "coord": {"lon": -0.8, "lat": 39.283329}}, {"id": 2518820, "name": "Don Benito", "state": "", "country": "ES", "coord": {"lon": -5.86162, "lat": 38.956268}}, {"id": 2518825, "name": "Do\u00f1a Menc\u00eda", "state": "", "country": "ES", "coord": {"lon": -4.35602, "lat": 37.553459}}, {"id": 2518828, "name": "Don \u00c1lvaro", "state": "", "country": "ES", "coord": {"lon": -6.27475, "lat": 38.848381}}, {"id": 2518837, "name": "Domingo P\u00e9rez", "state": "", "country": "ES", "coord": {"lon": -4.50554, "lat": 39.976608}}, {"id": 2518840, "name": "Dome\u00f1o", "state": "", "country": "ES", "coord": {"lon": -0.67077, "lat": 39.661152}}, {"id": 2518842, "name": "Dolores", "state": "", "country": "ES", "coord": {"lon": -0.77088, "lat": 38.140018}}, {"id": 2518849, "name": "D\u00edlar", "state": "", "country": "ES", "coord": {"lon": -3.60134, "lat": 37.072819}}, {"id": 2518850, "name": "Diezma", "state": "", "country": "ES", "coord": {"lon": -3.33256, "lat": 37.31982}}, {"id": 2518859, "name": "Dei\u00e0", "state": "", "country": "ES", "coord": {"lon": 2.64823, "lat": 39.748058}}, {"id": 2518878, "name": "Denia", "state": "", "country": "ES", "coord": {"lon": 0.10574, "lat": 38.840778}}, {"id": 2518881, "name": "Deleitosa", "state": "", "country": "ES", "coord": {"lon": -5.64576, "lat": 39.643589}}, {"id": 2518882, "name": "Deifontes", "state": "", "country": "ES", "coord": {"lon": -3.59568, "lat": 37.326199}}, {"id": 2518893, "name": "Dehesas de Guadix", "state": "", "country": "ES", "coord": {"lon": -3.10318, "lat": 37.58876}}, {"id": 2518912, "name": "Daya Vieja", "state": "", "country": "ES", "coord": {"lon": -0.73804, "lat": 38.104801}}, {"id": 2518913, "name": "Daya Nueva", "state": "", "country": "ES", "coord": {"lon": -0.76028, "lat": 38.113129}}, {"id": 2518917, "name": "Darro", "state": "", "country": "ES", "coord": {"lon": -3.29465, "lat": 37.349869}}, {"id": 2518921, "name": "Dal\u00edas", "state": "", "country": "ES", "coord": {"lon": -2.87138, "lat": 36.821789}}, {"id": 2518923, "name": "Daim\u00fas", "state": "", "country": "ES", "coord": {"lon": -0.15, "lat": 38.966671}}, {"id": 2518924, "name": "Daimiel", "state": "", "country": "ES", "coord": {"lon": -3.61498, "lat": 39.070042}}, {"id": 2518931, "name": "C\u00fatar", "state": "", "country": "ES", "coord": {"lon": -4.22739, "lat": 36.831341}}, {"id": 2518942, "name": "Cumbres Mayores", "state": "", "country": "ES", "coord": {"lon": -6.64565, "lat": 38.061939}}, {"id": 2518949, "name": "Cullera", "state": "", "country": "ES", "coord": {"lon": -0.25, "lat": 39.166672}}, {"id": 2518950, "name": "C\u00fallar-Vega", "state": "", "country": "ES", "coord": {"lon": -3.67072, "lat": 37.15361}}, {"id": 2518967, "name": "Cuevas de Yeseras", "state": "", "country": "ES", "coord": {"lon": -2.69645, "lat": 37.604481}}, {"id": 2518969, "name": "Cuevas de San Marcos", "state": "", "country": "ES", "coord": {"lon": -4.41432, "lat": 37.266659}}, {"id": 2518972, "name": "Cuevas de Reyllo", "state": "", "country": "ES", "coord": {"lon": -1.24241, "lat": 37.734612}}, {"id": 2518981, "name": "Cuevas del Campo", "state": "", "country": "ES", "coord": {"lon": -2.92938, "lat": 37.607552}}, {"id": 2518982, "name": "Cuevas del Becerro", "state": "", "country": "ES", "coord": {"lon": -5.04488, "lat": 36.87537}}, {"id": 2518988, "name": "Cuevas del Almanzora", "state": "", "country": "ES", "coord": {"lon": -1.88466, "lat": 37.296459}}, {"id": 2518993, "name": "Cuevas Bajas", "state": "", "country": "ES", "coord": {"lon": -4.48714, "lat": 37.23526}}, {"id": 2519028, "name": "Cuerva", "state": "", "country": "ES", "coord": {"lon": -4.21085, "lat": 39.663738}}, {"id": 2519034, "name": "Provincia de Cuenca", "state": "", "country": "ES", "coord": {"lon": -2, "lat": 40}}, {"id": 2519061, "name": "Quatretonda", "state": "", "country": "ES", "coord": {"lon": -0.4, "lat": 38.950001}}, {"id": 2519066, "name": "Quartell", "state": "", "country": "ES", "coord": {"lon": -0.26667, "lat": 39.73333}}, {"id": 2519068, "name": "Quart de Poblet", "state": "", "country": "ES", "coord": {"lon": -0.43937, "lat": 39.481392}}, {"id": 2519069, "name": "Quart de les Valls", "state": "", "country": "ES", "coord": {"lon": -0.26667, "lat": 39.73333}}, {"id": 2519077, "name": "Cruz de Lagos", "state": "", "country": "ES", "coord": {"lon": -3.6, "lat": 37.150002}}, {"id": 2519105, "name": "Cristina", "state": "", "country": "ES", "coord": {"lon": -6.09867, "lat": 38.837448}}, {"id": 2519110, "name": "Crevillente", "state": "", "country": "ES", "coord": {"lon": -0.80975, "lat": 38.249939}}, {"id": 2519111, "name": "Creu Vermella", "state": "", "country": "ES", "coord": {"lon": 2.71532, "lat": 39.579731}}, {"id": 2519116, "name": "Cozv\u00edjar", "state": "", "country": "ES", "coord": {"lon": -3.5921, "lat": 36.988911}}, {"id": 2519118, "name": "C\u00f3zar", "state": "", "country": "ES", "coord": {"lon": -3.07205, "lat": 38.662189}}, {"id": 2519120, "name": "Cox", "state": "", "country": "ES", "coord": {"lon": -0.88736, "lat": 38.14164}}, {"id": 2519134, "name": "Cotillas", "state": "", "country": "ES", "coord": {"lon": -2.5055, "lat": 38.431149}}, {"id": 2519137, "name": "Cotes", "state": "", "country": "ES", "coord": {"lon": -0.57449, "lat": 39.070099}}, {"id": 2519139, "name": "Costitx", "state": "", "country": "ES", "coord": {"lon": 2.94953, "lat": 39.65675}}, {"id": 2519154, "name": "Cortijos Nuevos del Campo", "state": "", "country": "ES", "coord": {"lon": -2.33981, "lat": 37.857639}}, {"id": 2519172, "name": "Cortijo de Palomo", "state": "", "country": "ES", "coord": {"lon": -5.63888, "lat": 37.151199}}, {"id": 2519197, "name": "Cortes de Pall\u00e1s", "state": "", "country": "ES", "coord": {"lon": -0.93333, "lat": 39.25}}, {"id": 2519198, "name": "Cortes de la Frontera", "state": "", "country": "ES", "coord": {"lon": -5.34266, "lat": 36.6171}}, {"id": 2519199, "name": "Cortes de Baza", "state": "", "country": "ES", "coord": {"lon": -2.77166, "lat": 37.65514}}, {"id": 2519203, "name": "Cortelazor", "state": "", "country": "ES", "coord": {"lon": -6.62462, "lat": 37.93639}}, {"id": 2519206, "name": "Cortegana", "state": "", "country": "ES", "coord": {"lon": -6.82045, "lat": 37.91116}}, {"id": 2519207, "name": "Corte de Peleas", "state": "", "country": "ES", "coord": {"lon": -6.67035, "lat": 38.726311}}, {"id": 2519208, "name": "Corteconcepci\u00f3n", "state": "", "country": "ES", "coord": {"lon": -6.5, "lat": 37.900002}}, {"id": 2519211, "name": "Corral-Rubio", "state": "", "country": "ES", "coord": {"lon": -1.46034, "lat": 38.834621}}, {"id": 2519217, "name": "Corralejo", "state": "", "country": "ES", "coord": {"lon": -13.86839, "lat": 28.74243}}, {"id": 2519219, "name": "Corral de Calatrava", "state": "", "country": "ES", "coord": {"lon": -4.0814, "lat": 38.857929}}, {"id": 2519221, "name": "Corral de Almaguer", "state": "", "country": "ES", "coord": {"lon": -3.16452, "lat": 39.759869}}, {"id": 2519232, "name": "Coripe", "state": "", "country": "ES", "coord": {"lon": -5.44022, "lat": 36.973351}}, {"id": 2519233, "name": "Coria del R\u00edo", "state": "", "country": "ES", "coord": {"lon": -6.0541, "lat": 37.287659}}, {"id": 2519234, "name": "Coria", "state": "", "country": "ES", "coord": {"lon": -6.53772, "lat": 39.987881}}, {"id": 2519237, "name": "Cordobilla de L\u00e1cara", "state": "", "country": "ES", "coord": {"lon": -6.43619, "lat": 39.147629}}, {"id": 2519239, "name": "Province of C\u00f3rdoba", "state": "", "country": "ES", "coord": {"lon": -4.83333, "lat": 38}}, {"id": 2519240, "name": "C\u00f3rdoba", "state": "", "country": "ES", "coord": {"lon": -4.76667, "lat": 37.883331}}, {"id": 2519264, "name": "Corbera", "state": "", "country": "ES", "coord": {"lon": -0.35, "lat": 39.150002}}, {"id": 2519270, "name": "Cope", "state": "", "country": "ES", "coord": {"lon": -1.48453, "lat": 37.43663}}, {"id": 2519277, "name": "Consuegra", "state": "", "country": "ES", "coord": {"lon": -3.608, "lat": 39.46246}}, {"id": 2519278, "name": "Constantina", "state": "", "country": "ES", "coord": {"lon": -5.61667, "lat": 37.866669}}, {"id": 2519283, "name": "Consell", "state": "", "country": "ES", "coord": {"lon": 2.81267, "lat": 39.66861}}, {"id": 2519284, "name": "Conquista de la Sierra", "state": "", "country": "ES", "coord": {"lon": -5.73464, "lat": 39.3507}}, {"id": 2519286, "name": "Conquista", "state": "", "country": "ES", "coord": {"lon": -4.5, "lat": 38.400002}}, {"id": 2519289, "name": "Conil de la Frontera", "state": "", "country": "ES", "coord": {"lon": -6.0885, "lat": 36.277191}}, {"id": 2519293, "name": "Confrides", "state": "", "country": "ES", "coord": {"lon": -0.2689, "lat": 38.684509}}, {"id": 2519312, "name": "C\u00f3nchar", "state": "", "country": "ES", "coord": {"lon": -3.58882, "lat": 36.965931}}, {"id": 2519319, "name": "C\u00f3mpeta", "state": "", "country": "ES", "coord": {"lon": -3.9743, "lat": 36.833519}}, {"id": 2519325, "name": "Comares", "state": "", "country": "ES", "coord": {"lon": -4.24664, "lat": 36.849289}}, {"id": 2519340, "name": "Col\u00f2nia de Sant Jordi", "state": "", "country": "ES", "coord": {"lon": 2.99197, "lat": 39.3181}}, {"id": 2519343, "name": "Colomera", "state": "", "country": "ES", "coord": {"lon": -3.71393, "lat": 37.371559}}, {"id": 2519352, "name": "Colmenar", "state": "", "country": "ES", "coord": {"lon": -4.33557, "lat": 36.90519}}, {"id": 2519367, "name": "Co\u00edn", "state": "", "country": "ES", "coord": {"lon": -4.75639, "lat": 36.65947}}, {"id": 2519370, "name": "Cogollos de Guadix", "state": "", "country": "ES", "coord": {"lon": -3.16094, "lat": 37.225208}}, {"id": 2519373, "name": "Cofrentes", "state": "", "country": "ES", "coord": {"lon": -1.06061, "lat": 39.229259}}, {"id": 2519375, "name": "Cofete", "state": "", "country": "ES", "coord": {"lon": -14.38966, "lat": 28.099131}}, {"id": 2519382, "name": "Cocentaina", "state": "", "country": "ES", "coord": {"lon": -0.43976, "lat": 38.73975}}, {"id": 2519385, "name": "Cobisa", "state": "", "country": "ES", "coord": {"lon": -4.02528, "lat": 39.804249}}, {"id": 2519387, "name": "C\u00f3bdar", "state": "", "country": "ES", "coord": {"lon": -2.21098, "lat": 37.261662}}, {"id": 2519390, "name": "Cobatillas", "state": "", "country": "ES", "coord": {"lon": -1.06667, "lat": 38.049999}}, {"id": 2519401, "name": "Provincia de Ciudad Real", "state": "", "country": "ES", "coord": {"lon": -4, "lat": 39}}, {"id": 2519402, "name": "Ciudad Real", "state": "", "country": "ES", "coord": {"lon": -3.93333, "lat": 38.98333}}, {"id": 2519403, "name": "Ciudad Jard\u00edn", "state": "", "country": "ES", "coord": {"lon": -0.9859, "lat": 37.611389}}, {"id": 2519405, "name": "Ciudad Jard\u00edn", "state": "", "country": "ES", "coord": {"lon": -0.49584, "lat": 38.372551}}, {"id": 2519409, "name": "Ciruelos", "state": "", "country": "ES", "coord": {"lon": -3.61383, "lat": 39.938808}}, {"id": 2519415, "name": "Cinco Casas", "state": "", "country": "ES", "coord": {"lon": -3.23636, "lat": 39.174141}}, {"id": 2519421, "name": "Cijuela", "state": "", "country": "ES", "coord": {"lon": -3.81174, "lat": 37.198002}}, {"id": 2519425, "name": "Cieza", "state": "", "country": "ES", "coord": {"lon": -1.41987, "lat": 38.239979}}, {"id": 2519436, "name": "Churriana de la Vega", "state": "", "country": "ES", "coord": {"lon": -3.64617, "lat": 37.144989}}, {"id": 2519438, "name": "Churra", "state": "", "country": "ES", "coord": {"lon": -1.13292, "lat": 38.023399}}, {"id": 2519441, "name": "Chumillas", "state": "", "country": "ES", "coord": {"lon": -2.03333, "lat": 39.76667}}, {"id": 2519444, "name": "Chulilla", "state": "", "country": "ES", "coord": {"lon": -0.88333, "lat": 39.650002}}, {"id": 2519445, "name": "Chueca", "state": "", "country": "ES", "coord": {"lon": -3.94365, "lat": 39.731911}}, {"id": 2519447, "name": "Chucena", "state": "", "country": "ES", "coord": {"lon": -6.39304, "lat": 37.363049}}, {"id": 2519450, "name": "Ch\u00f3var", "state": "", "country": "ES", "coord": {"lon": -0.31667, "lat": 39.849998}}, {"id": 2519464, "name": "Chiva", "state": "", "country": "ES", "coord": {"lon": -0.71667, "lat": 39.466671}}, {"id": 2519466, "name": "Xirivella", "state": "", "country": "ES", "coord": {"lon": -0.42589, "lat": 39.465881}}, {"id": 2519468, "name": "Chirivel", "state": "", "country": "ES", "coord": {"lon": -2.26844, "lat": 37.595268}}, {"id": 2519477, "name": "Chipiona", "state": "", "country": "ES", "coord": {"lon": -6.43703, "lat": 36.736629}}, {"id": 2519479, "name": "Chinorlet", "state": "", "country": "ES", "coord": {"lon": -0.96143, "lat": 38.416279}}, {"id": 2519483, "name": "Chinchilla de Monte Arag\u00f3n", "state": "", "country": "ES", "coord": {"lon": -1.72018, "lat": 38.920879}}, {"id": 2519491, "name": "Chimeneas", "state": "", "country": "ES", "coord": {"lon": -3.8213, "lat": 37.131248}}, {"id": 2519495, "name": "Chillu\u00e9var", "state": "", "country": "ES", "coord": {"lon": -3.0324, "lat": 38.000881}}, {"id": 2519497, "name": "Chill\u00f3n", "state": "", "country": "ES", "coord": {"lon": -4.86628, "lat": 38.795952}}, {"id": 2519503, "name": "Chilches", "state": "", "country": "ES", "coord": {"lon": -0.18742, "lat": 39.782379}}, {"id": 2519512, "name": "Chiclana de Segura", "state": "", "country": "ES", "coord": {"lon": -3.04219, "lat": 38.311871}}, {"id": 2519513, "name": "Chiclana de la Frontera", "state": "", "country": "ES", "coord": {"lon": -6.14941, "lat": 36.419151}}, {"id": 2519522, "name": "Cheste", "state": "", "country": "ES", "coord": {"lon": -0.68333, "lat": 39.48333}}, {"id": 2519525, "name": "Chercos", "state": "", "country": "ES", "coord": {"lon": -2.26657, "lat": 37.254501}}, {"id": 2519526, "name": "Chera", "state": "", "country": "ES", "coord": {"lon": -0.96667, "lat": 39.599998}}, {"id": 2519528, "name": "Chelva", "state": "", "country": "ES", "coord": {"lon": -0.99684, "lat": 39.749298}}, {"id": 2519529, "name": "Chella", "state": "", "country": "ES", "coord": {"lon": -0.65916, "lat": 39.04203}}, {"id": 2519530, "name": "Cheles", "state": "", "country": "ES", "coord": {"lon": -7.28176, "lat": 38.512249}}, {"id": 2519534, "name": "Chauchina", "state": "", "country": "ES", "coord": {"lon": -3.77157, "lat": 37.199772}}, {"id": 2519579, "name": "Ceuti", "state": "", "country": "ES", "coord": {"lon": -1.27467, "lat": 38.07859}}, {"id": 2519582, "name": "Ceuta", "state": "", "country": "ES", "coord": {"lon": -5.3075, "lat": 35.890282}}, {"id": 2519584, "name": "Cervera del Llano", "state": "", "country": "ES", "coord": {"lon": -2.42019, "lat": 39.783119}}, {"id": 2519588, "name": "Cerro Muriano", "state": "", "country": "ES", "coord": {"lon": -4.7704, "lat": 38.004509}}, {"id": 2519623, "name": "Cerd\u00e0", "state": "", "country": "ES", "coord": {"lon": -0.56667, "lat": 38.98333}}, {"id": 2519632, "name": "Cenizate", "state": "", "country": "ES", "coord": {"lon": -1.65, "lat": 39.299999}}, {"id": 2519634, "name": "Cenes de la Vega", "state": "", "country": "ES", "coord": {"lon": -3.53548, "lat": 37.160061}}, {"id": 2519651, "name": "Ceheg\u00edn", "state": "", "country": "ES", "coord": {"lon": -1.7985, "lat": 38.092419}}, {"id": 2519656, "name": "Cedillo", "state": "", "country": "ES", "coord": {"lon": -7.49817, "lat": 39.65099}}, {"id": 2519659, "name": "Ceclav\u00edn", "state": "", "country": "ES", "coord": {"lon": -6.77329, "lat": 39.822311}}, {"id": 2519664, "name": "Cebolla", "state": "", "country": "ES", "coord": {"lon": -4.57175, "lat": 39.948971}}, {"id": 2519668, "name": "Ceal", "state": "", "country": "ES", "coord": {"lon": -3.05332, "lat": 37.724468}}, {"id": 2519672, "name": "Cazorla", "state": "", "country": "ES", "coord": {"lon": -3.00342, "lat": 37.914951}}, {"id": 2519675, "name": "Cazalla de la Sierra", "state": "", "country": "ES", "coord": {"lon": -5.75, "lat": 37.933331}}, {"id": 2519677, "name": "Cazalilla", "state": "", "country": "ES", "coord": {"lon": -3.88296, "lat": 37.983891}}, {"id": 2519683, "name": "Caudete de las Fuentes", "state": "", "country": "ES", "coord": {"lon": -1.25, "lat": 39.566669}}, {"id": 2519685, "name": "Caudete", "state": "", "country": "ES", "coord": {"lon": -0.98722, "lat": 38.706799}}, {"id": 2519688, "name": "Catral", "state": "", "country": "ES", "coord": {"lon": -0.80209, "lat": 38.16061}}, {"id": 2519690, "name": "Catarroja", "state": "", "country": "ES", "coord": {"lon": -0.4, "lat": 39.400002}}, {"id": 2519694, "name": "Catadau", "state": "", "country": "ES", "coord": {"lon": -0.56667, "lat": 39.26667}}, {"id": 2519696, "name": "Castuera", "state": "", "country": "ES", "coord": {"lon": -5.5439, "lat": 38.73204}}, {"id": 2519697, "name": "Castro del R\u00edo", "state": "", "country": "ES", "coord": {"lon": -4.48058, "lat": 37.69125}}, {"id": 2519698, "name": "Castro de Filabres", "state": "", "country": "ES", "coord": {"lon": -2.44024, "lat": 37.184841}}, {"id": 2519703, "name": "Castril", "state": "", "country": "ES", "coord": {"lon": -2.78002, "lat": 37.795811}}, {"id": 2519709, "name": "Castillo del Romeral", "state": "", "country": "ES", "coord": {"lon": -15.46077, "lat": 27.799641}}, {"id": 2519711, "name": "Castillo de Locub\u00edn", "state": "", "country": "ES", "coord": {"lon": -3.9422, "lat": 37.52858}}, {"id": 2519713, "name": "Castillo de Garcimu\u00f1oz", "state": "", "country": "ES", "coord": {"lon": -2.3803, "lat": 39.659279}}, {"id": 2519730, "name": "Castillejo de Iniesta", "state": "", "country": "ES", "coord": {"lon": -1.76667, "lat": 39.533329}}, {"id": 2519736, "name": "Castill\u00e9jar", "state": "", "country": "ES", "coord": {"lon": -2.6406, "lat": 37.716969}}, {"id": 2519737, "name": "Castilleja del Campo", "state": "", "country": "ES", "coord": {"lon": -6.33443, "lat": 37.386269}}, {"id": 2519738, "name": "Castilleja de la Cuesta", "state": "", "country": "ES", "coord": {"lon": -6.05258, "lat": 37.385941}}, {"id": 2519739, "name": "Castilleja de Guzm\u00e1n", "state": "", "country": "ES", "coord": {"lon": -6.05515, "lat": 37.40955}}, {"id": 2519744, "name": "Castil de Campos", "state": "", "country": "ES", "coord": {"lon": -4.14356, "lat": 37.49189}}, {"id": 2519746, "name": "Castilblanco de los Arroyos", "state": "", "country": "ES", "coord": {"lon": -5.98886, "lat": 37.675758}}, {"id": 2519747, "name": "Castilblanco", "state": "", "country": "ES", "coord": {"lon": -5.09098, "lat": 39.28487}}, {"id": 2519749, "name": "Castellonet de la Conquesta", "state": "", "country": "ES", "coord": {"lon": -0.26667, "lat": 38.916672}}, {"id": 2519751, "name": "Castell\u00f3 de Rugat", "state": "", "country": "ES", "coord": {"lon": -0.36667, "lat": 38.883331}}, {"id": 2519752, "name": "Castell\u00f3 de la Plana", "state": "", "country": "ES", "coord": {"lon": -0.03333, "lat": 39.98333}}, {"id": 2519753, "name": "Castellnovo", "state": "", "country": "ES", "coord": {"lon": -0.45, "lat": 39.866669}}, {"id": 2519758, "name": "Castell de Castells", "state": "", "country": "ES", "coord": {"lon": -0.19242, "lat": 38.725559}}, {"id": 2519762, "name": "Castellar de Santiago", "state": "", "country": "ES", "coord": {"lon": -3.27573, "lat": 38.53928}}, {"id": 2519763, "name": "Castellar de la Frontera", "state": "", "country": "ES", "coord": {"lon": -5.45407, "lat": 36.31736}}, {"id": 2519770, "name": "C\u00e1staras", "state": "", "country": "ES", "coord": {"lon": -3.25406, "lat": 36.931641}}, {"id": 2519780, "name": "Casta\u00f1ar de Ibor", "state": "", "country": "ES", "coord": {"lon": -5.41709, "lat": 39.628429}}, {"id": 2519783, "name": "Castalla", "state": "", "country": "ES", "coord": {"lon": -0.67207, "lat": 38.596939}}, {"id": 2519786, "name": "Casinos", "state": "", "country": "ES", "coord": {"lon": -0.7, "lat": 39.700001}}, {"id": 2519791, "name": "Casillas de Morales", "state": "", "country": "ES", "coord": {"lon": -14.00829, "lat": 28.376921}}, {"id": 2519795, "name": "Casillas de Coria", "state": "", "country": "ES", "coord": {"lon": -6.63711, "lat": 39.965431}}, {"id": 2519805, "name": "Caser\u00edo R\u00edo Ugijar", "state": "", "country": "ES", "coord": {"lon": -3.05, "lat": 36.950001}}, {"id": 2519812, "name": "Caser\u00edo Los Tarquinos", "state": "", "country": "ES", "coord": {"lon": -1.10025, "lat": 37.865688}}, {"id": 2519861, "name": "Casatejada", "state": "", "country": "ES", "coord": {"lon": -5.68193, "lat": 39.886421}}, {"id": 2519879, "name": "Casasimarro", "state": "", "country": "ES", "coord": {"lon": -2.03333, "lat": 39.366669}}, {"id": 2519880, "name": "Casas Ib\u00e1\u00f1ez", "state": "", "country": "ES", "coord": {"lon": -1.46667, "lat": 39.283329}}, {"id": 2519882, "name": "Casas de Ves", "state": "", "country": "ES", "coord": {"lon": -1.33333, "lat": 39.25}}, {"id": 2519887, "name": "Casas de Santa Cruz", "state": "", "country": "ES", "coord": {"lon": -1.85, "lat": 39.400002}}, {"id": 2519889, "name": "Casas de Reina", "state": "", "country": "ES", "coord": {"lon": -5.96667, "lat": 38.200001}}, {"id": 2519898, "name": "Casas de Miravete", "state": "", "country": "ES", "coord": {"lon": -5.74363, "lat": 39.726879}}, {"id": 2519899, "name": "Casas de Mill\u00e1n", "state": "", "country": "ES", "coord": {"lon": -6.32966, "lat": 39.81757}}, {"id": 2519903, "name": "Casas del Se\u00f1or", "state": "", "country": "ES", "coord": {"lon": -0.95325, "lat": 38.405418}}, {"id": 2519904, "name": "Casas del R\u00edo", "state": "", "country": "ES", "coord": {"lon": -1.13333, "lat": 39.299999}}, {"id": 2519908, "name": "Casas de los Pinos", "state": "", "country": "ES", "coord": {"lon": -2.36984, "lat": 39.333759}}, {"id": 2519927, "name": "Casas de L\u00e1zaro", "state": "", "country": "ES", "coord": {"lon": -2.24044, "lat": 38.770561}}, {"id": 2519937, "name": "Casas de Juan N\u00fa\u00f1ez", "state": "", "country": "ES", "coord": {"lon": -1.55822, "lat": 39.101898}}, {"id": 2519943, "name": "Casas de Haro", "state": "", "country": "ES", "coord": {"lon": -2.27273, "lat": 39.333549}}, {"id": 2519944, "name": "Casas de Guijarro", "state": "", "country": "ES", "coord": {"lon": -2.16667, "lat": 39.349998}}, {"id": 2519945, "name": "Casas de Garcimolina", "state": "", "country": "ES", "coord": {"lon": -1.41667, "lat": 40}}, {"id": 2519946, "name": "Casas de Fernando Alonso", "state": "", "country": "ES", "coord": {"lon": -2.32402, "lat": 39.350651}}, {"id": 2519949, "name": "Casas de Don Pedro", "state": "", "country": "ES", "coord": {"lon": -5.33077, "lat": 39.108219}}, {"id": 2519952, "name": "Casas de Don Antonio", "state": "", "country": "ES", "coord": {"lon": -6.29143, "lat": 39.235779}}, {"id": 2519954, "name": "Casas de Ben\u00edtez", "state": "", "country": "ES", "coord": {"lon": -2.13333, "lat": 39.366669}}, {"id": 2519967, "name": "Casasbuenas", "state": "", "country": "ES", "coord": {"lon": -4.12558, "lat": 39.761169}}, {"id": 2519979, "name": "Casariche", "state": "", "country": "ES", "coord": {"lon": -4.75972, "lat": 37.293892}}, {"id": 2519980, "name": "Casares", "state": "", "country": "ES", "coord": {"lon": -5.2858, "lat": 36.446892}}, {"id": 2519985, "name": "Casar de C\u00e1ceres", "state": "", "country": "ES", "coord": {"lon": -6.41944, "lat": 39.561062}}, {"id": 2519988, "name": "Casarabonela", "state": "", "country": "ES", "coord": {"lon": -4.84276, "lat": 36.78616}}, {"id": 2520036, "name": "Casa Blanca", "state": "", "country": "ES", "coord": {"lon": -1.96764, "lat": 38.631618}}, {"id": 2520045, "name": "Casabermeja", "state": "", "country": "ES", "coord": {"lon": -4.42938, "lat": 36.892601}}, {"id": 2520052, "name": "Cartaya", "state": "", "country": "ES", "coord": {"lon": -7.15071, "lat": 37.281139}}, {"id": 2520053, "name": "Estaci\u00f3n de C\u00e1rtama", "state": "", "country": "ES", "coord": {"lon": -4.61667, "lat": 36.73333}}, {"id": 2520055, "name": "C\u00e1rtama", "state": "", "country": "ES", "coord": {"lon": -4.63297, "lat": 36.710678}}, {"id": 2520056, "name": "Cartajima", "state": "", "country": "ES", "coord": {"lon": -5.1541, "lat": 36.645481}}, {"id": 2520058, "name": "Cartagena", "state": "", "country": "ES", "coord": {"lon": -0.98623, "lat": 37.605122}}, {"id": 2520064, "name": "Carrizosa", "state": "", "country": "ES", "coord": {"lon": -2.9925, "lat": 38.842041}}, {"id": 2520071, "name": "Carri\u00f3n de los C\u00e9spedes", "state": "", "country": "ES", "coord": {"lon": -6.32923, "lat": 37.370071}}, {"id": 2520072, "name": "Carri\u00f3n de Calatrava", "state": "", "country": "ES", "coord": {"lon": -3.81683, "lat": 39.018978}}, {"id": 2520077, "name": "Carr\u00edcola", "state": "", "country": "ES", "coord": {"lon": -0.4726, "lat": 38.841331}}, {"id": 2520078, "name": "Carriches", "state": "", "country": "ES", "coord": {"lon": -4.45864, "lat": 39.964169}}, {"id": 2520083, "name": "Carratraca", "state": "", "country": "ES", "coord": {"lon": -4.81998, "lat": 36.852901}}, {"id": 2520087, "name": "Carrascosa de Haro", "state": "", "country": "ES", "coord": {"lon": -2.54182, "lat": 39.597569}}, {"id": 2520092, "name": "Carrascalejo", "state": "", "country": "ES", "coord": {"lon": -5.21667, "lat": 39.633331}}, {"id": 2520114, "name": "Carmonita", "state": "", "country": "ES", "coord": {"lon": -6.33864, "lat": 39.154549}}, {"id": 2520118, "name": "Carmona", "state": "", "country": "ES", "coord": {"lon": -5.64608, "lat": 37.471249}}, {"id": 2520119, "name": "Carmena", "state": "", "country": "ES", "coord": {"lon": -4.40148, "lat": 39.95562}}, {"id": 2520121, "name": "Carlet", "state": "", "country": "ES", "coord": {"lon": -0.51667, "lat": 39.23333}}, {"id": 2520131, "name": "Cardenete", "state": "", "country": "ES", "coord": {"lon": -1.68333, "lat": 39.76667}}, {"id": 2520134, "name": "Carde\u00f1a", "state": "", "country": "ES", "coord": {"lon": -4.32358, "lat": 38.270222}}, {"id": 2520139, "name": "Carchelejo", "state": "", "country": "ES", "coord": {"lon": -3.64058, "lat": 37.63596}}, {"id": 2520144, "name": "C\u00e0rcer", "state": "", "country": "ES", "coord": {"lon": -0.56667, "lat": 39.066669}}, {"id": 2520145, "name": "Carcel\u00e9n", "state": "", "country": "ES", "coord": {"lon": -1.30879, "lat": 39.10202}}, {"id": 2520150, "name": "Carcaixent", "state": "", "country": "ES", "coord": {"lon": -0.45, "lat": 39.133331}}, {"id": 2520151, "name": "Carcabuey", "state": "", "country": "ES", "coord": {"lon": -4.27471, "lat": 37.444199}}, {"id": 2520155, "name": "Carboneros", "state": "", "country": "ES", "coord": {"lon": -3.63139, "lat": 38.22958}}, {"id": 2520156, "name": "Carboneras de Guadaza\u00f3n", "state": "", "country": "ES", "coord": {"lon": -1.8, "lat": 39.883331}}, {"id": 2520163, "name": "Carboneras", "state": "", "country": "ES", "coord": {"lon": -1.89651, "lat": 36.996658}}, {"id": 2520169, "name": "Carbajo", "state": "", "country": "ES", "coord": {"lon": -7.19565, "lat": 39.603329}}, {"id": 2520171, "name": "Caravaca", "state": "", "country": "ES", "coord": {"lon": -1.86342, "lat": 38.105579}}, {"id": 2520172, "name": "Carataunas", "state": "", "country": "ES", "coord": {"lon": -3.40834, "lat": 36.922039}}, {"id": 2520187, "name": "Capr\u00e9s", "state": "", "country": "ES", "coord": {"lon": -1.13658, "lat": 38.231258}}, {"id": 2520192, "name": "Capilla", "state": "", "country": "ES", "coord": {"lon": -5.08417, "lat": 38.820358}}, {"id": 2520194, "name": "Capileira", "state": "", "country": "ES", "coord": {"lon": -3.35864, "lat": 36.961479}}, {"id": 2520200, "name": "Capdepera", "state": "", "country": "ES", "coord": {"lon": 3.43357, "lat": 39.702629}}, {"id": 2520209, "name": "Cantoria", "state": "", "country": "ES", "coord": {"lon": -2.19209, "lat": 37.35146}}, {"id": 2520214, "name": "Cantoblanco", "state": "", "country": "ES", "coord": {"lon": -1.25, "lat": 39.25}}, {"id": 2520215, "name": "Cantillana", "state": "", "country": "ES", "coord": {"lon": -5.82472, "lat": 37.610321}}, {"id": 2520230, "name": "C\u00e1novas", "state": "", "country": "ES", "coord": {"lon": -1.27948, "lat": 37.7356}}, {"id": 2520248, "name": "Canj\u00e1yar", "state": "", "country": "ES", "coord": {"lon": -2.73943, "lat": 37.00959}}, {"id": 2520253, "name": "Canillas de Albaida", "state": "", "country": "ES", "coord": {"lon": -3.98678, "lat": 36.846649}}, {"id": 2520254, "name": "Canillas de Aceituno", "state": "", "country": "ES", "coord": {"lon": -4.08254, "lat": 36.873032}}, {"id": 2520261, "name": "Caniles", "state": "", "country": "ES", "coord": {"lon": -2.72482, "lat": 37.43671}}, {"id": 2520266, "name": "Ca\u00f1ete la Real", "state": "", "country": "ES", "coord": {"lon": -5.0244, "lat": 36.951542}}, {"id": 2520268, "name": "Ca\u00f1ete de las Torres", "state": "", "country": "ES", "coord": {"lon": -4.31835, "lat": 37.867168}}, {"id": 2520271, "name": "Canet d'En Berenguer", "state": "", "country": "ES", "coord": {"lon": -0.21667, "lat": 39.683331}}, {"id": 2520272, "name": "Canena", "state": "", "country": "ES", "coord": {"lon": -3.4831, "lat": 38.049301}}, {"id": 2520283, "name": "Candelaria", "state": "", "country": "ES", "coord": {"lon": -16.372681, "lat": 28.354799}}, {"id": 2520292, "name": "Ca\u00f1averal de Le\u00f3n", "state": "", "country": "ES", "coord": {"lon": -6.51667, "lat": 38.01667}}, {"id": 2520295, "name": "Ca\u00f1averal", "state": "", "country": "ES", "coord": {"lon": -6.3913, "lat": 39.791981}}, {"id": 2520312, "name": "C\u00e1\u00f1ar", "state": "", "country": "ES", "coord": {"lon": -3.42808, "lat": 36.926842}}, {"id": 2520314, "name": "Ca\u00f1amero", "state": "", "country": "ES", "coord": {"lon": -5.38857, "lat": 39.379951}}, {"id": 2520320, "name": "Canals", "state": "", "country": "ES", "coord": {"lon": -0.58443, "lat": 38.962509}}, {"id": 2520344, "name": "Ca\u00f1ada Rosal", "state": "", "country": "ES", "coord": {"lon": -5.21016, "lat": 37.599239}}, {"id": 2520362, "name": "Ca\u00f1ada del Trigo", "state": "", "country": "ES", "coord": {"lon": -1.08966, "lat": 38.347561}}, {"id": 2520373, "name": "Ca\u00f1ada del Hoyo", "state": "", "country": "ES", "coord": {"lon": -1.9, "lat": 39.966671}}, {"id": 2520387, "name": "Ca\u00f1ada de Calatrava", "state": "", "country": "ES", "coord": {"lon": -4.02103, "lat": 38.85429}}, {"id": 2520397, "name": "Ca\u00f1ada", "state": "", "country": "ES", "coord": {"lon": -0.8133, "lat": 38.673901}}, {"id": 2520399, "name": "Camu\u00f1as", "state": "", "country": "ES", "coord": {"lon": -3.45503, "lat": 39.42704}}, {"id": 2520401, "name": "Campot\u00e9jar", "state": "", "country": "ES", "coord": {"lon": -3.61771, "lat": 37.482361}}, {"id": 2520402, "name": "Campos del R\u00edo", "state": "", "country": "ES", "coord": {"lon": -1.35306, "lat": 38.039661}}, {"id": 2520403, "name": "Campos", "state": "", "country": "ES", "coord": {"lon": 3.01935, "lat": 39.430988}}, {"id": 2520405, "name": "Camporrobles", "state": "", "country": "ES", "coord": {"lon": -1.4, "lat": 39.650002}}, {"id": 2520410, "name": "Campofr\u00edo", "state": "", "country": "ES", "coord": {"lon": -6.57363, "lat": 37.766521}}, {"id": 2520413, "name": "Campo de Criptana", "state": "", "country": "ES", "coord": {"lon": -3.12492, "lat": 39.404629}}, {"id": 2520419, "name": "Campo Arc\u00eds", "state": "", "country": "ES", "coord": {"lon": -1.16667, "lat": 39.433331}}, {"id": 2520427, "name": "Campillos-Paravientos", "state": "", "country": "ES", "coord": {"lon": -1.55, "lat": 39.98333}}, {"id": 2520428, "name": "Campillos", "state": "", "country": "ES", "coord": {"lon": -4.86308, "lat": 37.04826}}, {"id": 2520430, "name": "Campillo de Llerena", "state": "", "country": "ES", "coord": {"lon": -5.83139, "lat": 38.501961}}, {"id": 2520433, "name": "Campillo de Deleitosa", "state": "", "country": "ES", "coord": {"lon": -5.57436, "lat": 39.702969}}, {"id": 2520435, "name": "Campillo de Arenas", "state": "", "country": "ES", "coord": {"lon": -3.63552, "lat": 37.555351}}, {"id": 2520436, "name": "Campillo de Altobuey", "state": "", "country": "ES", "coord": {"lon": -1.8, "lat": 39.599998}}, {"id": 2520437, "name": "Campillo de Adentro", "state": "", "country": "ES", "coord": {"lon": -1.1491, "lat": 37.563431}}, {"id": 2520447, "name": "El Campello", "state": "", "country": "ES", "coord": {"lon": -0.39774, "lat": 38.428848}}, {"id": 2520448, "name": "Campell", "state": "", "country": "ES", "coord": {"lon": -0.10397, "lat": 38.780258}}, {"id": 2520453, "name": "Campanet", "state": "", "country": "ES", "coord": {"lon": 2.96506, "lat": 39.7747}}, {"id": 2520456, "name": "Campanario", "state": "", "country": "ES", "coord": {"lon": -5.61744, "lat": 38.864399}}, {"id": 2520457, "name": "Campanar", "state": "", "country": "ES", "coord": {"lon": -0.4, "lat": 39.48333}}, {"id": 2520476, "name": "Cambil", "state": "", "country": "ES", "coord": {"lon": -3.56538, "lat": 37.67934}}, {"id": 2520477, "name": "Camas", "state": "", "country": "ES", "coord": {"lon": -6.03314, "lat": 37.40202}}, {"id": 2520493, "name": "Calvi\u00e0", "state": "", "country": "ES", "coord": {"lon": 2.50621, "lat": 39.565701}}, {"id": 2520496, "name": "Calp", "state": "", "country": "ES", "coord": {"lon": 0.0445, "lat": 38.644699}}, {"id": 2520502, "name": "Callosa de Segura", "state": "", "country": "ES", "coord": {"lon": -0.87822, "lat": 38.124969}}, {"id": 2520503, "name": "Callosa d'En Sarri\u00e0", "state": "", "country": "ES", "coord": {"lon": -0.11667, "lat": 38.650002}}, {"id": 2520505, "name": "Calles", "state": "", "country": "ES", "coord": {"lon": -0.97057, "lat": 39.72118}}, {"id": 2520512, "name": "Calicasas", "state": "", "country": "ES", "coord": {"lon": -3.61345, "lat": 37.271301}}, {"id": 2520526, "name": "Caleruela", "state": "", "country": "ES", "coord": {"lon": -5.25693, "lat": 39.874828}}, {"id": 2520528, "name": "Calera y Chozas", "state": "", "country": "ES", "coord": {"lon": -4.98213, "lat": 39.882778}}, {"id": 2520529, "name": "Calera de Le\u00f3n", "state": "", "country": "ES", "coord": {"lon": -6.33333, "lat": 38.099998}}, {"id": 2520543, "name": "Calder\u00f3n", "state": "", "country": "ES", "coord": {"lon": -1.18333, "lat": 39.533329}}, {"id": 2520558, "name": "Calasparra", "state": "", "country": "ES", "coord": {"lon": -1.69986, "lat": 38.229969}}, {"id": 2520566, "name": "Cala\u00f1as", "state": "", "country": "ES", "coord": {"lon": -6.8805, "lat": 37.655682}}, {"id": 2520568, "name": "Calamonte", "state": "", "country": "ES", "coord": {"lon": -6.38791, "lat": 38.888611}}, {"id": 2520570, "name": "Cala Millor", "state": "", "country": "ES", "coord": {"lon": 3.38671, "lat": 39.604961}}, {"id": 2520575, "name": "Cala Figuera", "state": "", "country": "ES", "coord": {"lon": 3.17136, "lat": 39.330002}}, {"id": 2520577, "name": "Cala del Moral", "state": "", "country": "ES", "coord": {"lon": -4.30647, "lat": 36.717972}}, {"id": 2520590, "name": "Cala", "state": "", "country": "ES", "coord": {"lon": -6.31667, "lat": 37.966671}}, {"id": 2520592, "name": "C\u00e1jar", "state": "", "country": "ES", "coord": {"lon": -3.57274, "lat": 37.13382}}, {"id": 2520593, "name": "Caimari", "state": "", "country": "ES", "coord": {"lon": 2.90343, "lat": 39.771332}}, {"id": 2520597, "name": "Provincia de C\u00e1diz", "state": "", "country": "ES", "coord": {"lon": -5.75, "lat": 36.5}}, {"id": 2520600, "name": "Cadiz", "state": "", "country": "ES", "coord": {"lon": -6.29944, "lat": 36.533611}}, {"id": 2520601, "name": "C\u00e1diar", "state": "", "country": "ES", "coord": {"lon": -3.1802, "lat": 36.945911}}, {"id": 2520604, "name": "Cachorrilla", "state": "", "country": "ES", "coord": {"lon": -6.66909, "lat": 39.915569}}, {"id": 2520610, "name": "Provincia de C\u00e1ceres", "state": "", "country": "ES", "coord": {"lon": -6.37482, "lat": 39.522049}}, {"id": 2520611, "name": "C\u00e1ceres", "state": "", "country": "ES", "coord": {"lon": -6.37224, "lat": 39.47649}}, {"id": 2520641, "name": "Cabra del Santo Cristo", "state": "", "country": "ES", "coord": {"lon": -3.28765, "lat": 37.703789}}, {"id": 2520645, "name": "Cabra", "state": "", "country": "ES", "coord": {"lon": -4.44206, "lat": 37.472488}}, {"id": 2520657, "name": "Cabezas Rubias", "state": "", "country": "ES", "coord": {"lon": -7.08738, "lat": 37.726601}}, {"id": 2520661, "name": "Cabezarados", "state": "", "country": "ES", "coord": {"lon": -4.2983, "lat": 38.844688}}, {"id": 2520663, "name": "Cabezamesada", "state": "", "country": "ES", "coord": {"lon": -3.10236, "lat": 39.816299}}, {"id": 2520666, "name": "Cabeza la Vaca", "state": "", "country": "ES", "coord": {"lon": -6.41667, "lat": 38.083328}}, {"id": 2520672, "name": "Cabeza del Buey", "state": "", "country": "ES", "coord": {"lon": -5.21946, "lat": 38.722271}}, {"id": 2520673, "name": "Caba\u00f1as de Yepes", "state": "", "country": "ES", "coord": {"lon": -3.53502, "lat": 39.890511}}, {"id": 2520674, "name": "Caba\u00f1as del Castillo", "state": "", "country": "ES", "coord": {"lon": -5.51203, "lat": 39.548038}}, {"id": 2520696, "name": "Buzanada", "state": "", "country": "ES", "coord": {"lon": -16.65514, "lat": 28.068541}}, {"id": 2520697, "name": "Busqu\u00edstar", "state": "", "country": "ES", "coord": {"lon": -3.29444, "lat": 36.937962}}, {"id": 2520698, "name": "Busot", "state": "", "country": "ES", "coord": {"lon": -0.41918, "lat": 38.482059}}, {"id": 2520699, "name": "Burunchel", "state": "", "country": "ES", "coord": {"lon": -2.9537, "lat": 37.9464}}, {"id": 2520700, "name": "Buruj\u00f3n", "state": "", "country": "ES", "coord": {"lon": -4.2973, "lat": 39.901119}}, {"id": 2520709, "name": "Burriana", "state": "", "country": "ES", "coord": {"lon": -0.08499, "lat": 39.889011}}, {"id": 2520712, "name": "Burjassot", "state": "", "country": "ES", "coord": {"lon": -0.41667, "lat": 39.51667}}, {"id": 2520713, "name": "Burguillos de Toledo", "state": "", "country": "ES", "coord": {"lon": -3.99254, "lat": 39.796349}}, {"id": 2520714, "name": "Burguillos del Cerro", "state": "", "country": "ES", "coord": {"lon": -6.59038, "lat": 38.380081}}, {"id": 2520715, "name": "Burguillos", "state": "", "country": "ES", "coord": {"lon": -5.96654, "lat": 37.5844}}, {"id": 2520724, "name": "Bunyola", "state": "", "country": "ES", "coord": {"lon": 2.69955, "lat": 39.696339}}, {"id": 2520726, "name": "Bu\u00f1ol", "state": "", "country": "ES", "coord": {"lon": -0.78333, "lat": 39.416672}}, {"id": 2520727, "name": "Bullas", "state": "", "country": "ES", "coord": {"lon": -1.67227, "lat": 38.046669}}, {"id": 2520735, "name": "Bujalance", "state": "", "country": "ES", "coord": {"lon": -4.38074, "lat": 37.895561}}, {"id": 2520745, "name": "B\u00fager", "state": "", "country": "ES", "coord": {"lon": 2.98349, "lat": 39.758091}}, {"id": 2520748, "name": "Bugarra", "state": "", "country": "ES", "coord": {"lon": -0.76667, "lat": 39.616669}}, {"id": 2520751, "name": "Bufali", "state": "", "country": "ES", "coord": {"lon": -0.51617, "lat": 38.867748}}, {"id": 2520760, "name": "Buenavista del Norte", "state": "", "country": "ES", "coord": {"lon": -16.860979, "lat": 28.37458}}, {"id": 2520775, "name": "Buenache de Alarc\u00f3n", "state": "", "country": "ES", "coord": {"lon": -2.16667, "lat": 39.650002}}, {"id": 2520781, "name": "Bubi\u00f3n", "state": "", "country": "ES", "coord": {"lon": -3.35615, "lat": 36.949001}}, {"id": 2520790, "name": "Brozas", "state": "", "country": "ES", "coord": {"lon": -6.7777, "lat": 39.612782}}, {"id": 2520798, "name": "Brenes", "state": "", "country": "ES", "coord": {"lon": -5.87139, "lat": 37.549438}}, {"id": 2520799, "name": "Bre\u00f1a Baja", "state": "", "country": "ES", "coord": {"lon": -17.78953, "lat": 28.63011}}, {"id": 2520800, "name": "Bre\u00f1a Alta", "state": "", "country": "ES", "coord": {"lon": -17.783331, "lat": 28.65}}, {"id": 2520805, "name": "Brazatortas", "state": "", "country": "ES", "coord": {"lon": -4.29368, "lat": 38.658691}}, {"id": 2520814, "name": "Br\u00e1cana", "state": "", "country": "ES", "coord": {"lon": -3.94504, "lat": 37.22739}}, {"id": 2520819, "name": "Botija", "state": "", "country": "ES", "coord": {"lon": -6.07318, "lat": 39.344978}}, {"id": 2520832, "name": "Bornos", "state": "", "country": "ES", "coord": {"lon": -5.74448, "lat": 36.816769}}, {"id": 2520833, "name": "Bormujos", "state": "", "country": "ES", "coord": {"lon": -6.07232, "lat": 37.373581}}, {"id": 2520837, "name": "Borbot\u00f3", "state": "", "country": "ES", "coord": {"lon": -0.4, "lat": 39.51667}}, {"id": 2520844, "name": "Bonrep\u00f2s i Mirambell", "state": "", "country": "ES", "coord": {"lon": -0.36667, "lat": 39.51667}}, {"id": 2520845, "name": "Boniches", "state": "", "country": "ES", "coord": {"lon": -1.61667, "lat": 39.98333}}, {"id": 2520849, "name": "Bonete", "state": "", "country": "ES", "coord": {"lon": -1.34851, "lat": 38.871361}}, {"id": 2520850, "name": "Bonares", "state": "", "country": "ES", "coord": {"lon": -6.68073, "lat": 37.32423}}, {"id": 2520864, "name": "Bolulla", "state": "", "country": "ES", "coord": {"lon": -0.11184, "lat": 38.675289}}, {"id": 2520869, "name": "Bollullos par del Condado", "state": "", "country": "ES", "coord": {"lon": -6.5397, "lat": 37.34127}}, {"id": 2520870, "name": "Bollullos de la Mitaci\u00f3n", "state": "", "country": "ES", "coord": {"lon": -6.13719, "lat": 37.340141}}, {"id": 2520874, "name": "Bolbaite", "state": "", "country": "ES", "coord": {"lon": -0.67466, "lat": 39.060398}}, {"id": 2520875, "name": "Bola\u00f1os de Calatrava", "state": "", "country": "ES", "coord": {"lon": -3.66346, "lat": 38.906898}}, {"id": 2520878, "name": "Bohonal de Ibor", "state": "", "country": "ES", "coord": {"lon": -5.485, "lat": 39.784569}}, {"id": 2520885, "name": "Bogarra", "state": "", "country": "ES", "coord": {"lon": -2.2129, "lat": 38.58139}}, {"id": 2520887, "name": "Bodonal de la Sierra", "state": "", "country": "ES", "coord": {"lon": -6.5595, "lat": 38.147511}}, {"id": 2520898, "name": "Bocairent", "state": "", "country": "ES", "coord": {"lon": -0.61667, "lat": 38.76667}}, {"id": 2520905, "name": "Bobadilla", "state": "", "country": "ES", "coord": {"lon": -4.69588, "lat": 37.04192}}, {"id": 2520940, "name": "Blanca", "state": "", "country": "ES", "coord": {"lon": -1.37473, "lat": 38.1791}}, {"id": 2520943, "name": "Binissalem", "state": "", "country": "ES", "coord": {"lon": 2.84396, "lat": 39.687439}}, {"id": 2520944, "name": "Biniparrell", "state": "", "country": "ES", "coord": {"lon": 4.25, "lat": 39.849998}}, {"id": 2520953, "name": "Biniali", "state": "", "country": "ES", "coord": {"lon": 2.85949, "lat": 39.641022}}, {"id": 2520955, "name": "Bigastro", "state": "", "country": "ES", "coord": {"lon": -0.89841, "lat": 38.06237}}, {"id": 2520957, "name": "Bienvenida", "state": "", "country": "ES", "coord": {"lon": -6.2, "lat": 38.299999}}, {"id": 2520959, "name": "Bienservida", "state": "", "country": "ES", "coord": {"lon": -2.61087, "lat": 38.517159}}, {"id": 2520962, "name": "Bicorp", "state": "", "country": "ES", "coord": {"lon": -0.7872, "lat": 39.132149}}, {"id": 2520964, "name": "Biar", "state": "", "country": "ES", "coord": {"lon": -0.76458, "lat": 38.631168}}, {"id": 2520965, "name": "B\u00e9znar", "state": "", "country": "ES", "coord": {"lon": -3.54155, "lat": 36.927391}}, {"id": 2520968, "name": "B\u00e9tera", "state": "", "country": "ES", "coord": {"lon": -0.45, "lat": 39.583328}}, {"id": 2520977, "name": "Berrocalejo", "state": "", "country": "ES", "coord": {"lon": -5.34951, "lat": 39.819481}}, {"id": 2520979, "name": "Berrocal", "state": "", "country": "ES", "coord": {"lon": -6.54147, "lat": 37.608631}}, {"id": 2520990, "name": "Bernal", "state": "", "country": "ES", "coord": {"lon": -0.98028, "lat": 37.725349}}, {"id": 2521015, "name": "Berlanga", "state": "", "country": "ES", "coord": {"lon": -5.81667, "lat": 38.283329}}, {"id": 2521016, "name": "Berja", "state": "", "country": "ES", "coord": {"lon": -2.94966, "lat": 36.846931}}, {"id": 2521025, "name": "B\u00e9rchules", "state": "", "country": "ES", "coord": {"lon": -3.19067, "lat": 36.97678}}, {"id": 2521031, "name": "Bentarique", "state": "", "country": "ES", "coord": {"lon": -2.61991, "lat": 36.988232}}, {"id": 2521034, "name": "Benquerencia", "state": "", "country": "ES", "coord": {"lon": -6.08465, "lat": 39.30994}}, {"id": 2521036, "name": "Benizal\u00f3n", "state": "", "country": "ES", "coord": {"lon": -2.2418, "lat": 37.212132}}, {"id": 2521043, "name": "Benitagla", "state": "", "country": "ES", "coord": {"lon": -2.23935, "lat": 37.23138}}, {"id": 2521044, "name": "Benitachell", "state": "", "country": "ES", "coord": {"lon": 0.14354, "lat": 38.732731}}, {"id": 2521045, "name": "Benisuera", "state": "", "country": "ES", "coord": {"lon": -0.47784, "lat": 38.9132}}, {"id": 2521046, "name": "Benissoda", "state": "", "country": "ES", "coord": {"lon": -0.51667, "lat": 38.833328}}, {"id": 2521049, "name": "Benisan\u00f3", "state": "", "country": "ES", "coord": {"lon": -0.56667, "lat": 39.616669}}, {"id": 2521050, "name": "Benissa", "state": "", "country": "ES", "coord": {"lon": 0.04849, "lat": 38.71492}}, {"id": 2521052, "name": "Benirredr\u00e0", "state": "", "country": "ES", "coord": {"lon": -0.18333, "lat": 38.966671}}, {"id": 2521055, "name": "Beniparrell", "state": "", "country": "ES", "coord": {"lon": -0.41667, "lat": 39.383331}}, {"id": 2521059, "name": "Benimuslem", "state": "", "country": "ES", "coord": {"lon": -0.49288, "lat": 39.131618}}, {"id": 2521060, "name": "Benimodo", "state": "", "country": "ES", "coord": {"lon": -0.53333, "lat": 39.216671}}, {"id": 2521061, "name": "Benimeli", "state": "", "country": "ES", "coord": {"lon": -0.04221, "lat": 38.82362}}, {"id": 2521063, "name": "Benimassot", "state": "", "country": "ES", "coord": {"lon": -0.28333, "lat": 38.75}}, {"id": 2521064, "name": "Benimarfull", "state": "", "country": "ES", "coord": {"lon": -0.39079, "lat": 38.775902}}, {"id": 2521065, "name": "Benimantell", "state": "", "country": "ES", "coord": {"lon": -0.21057, "lat": 38.67709}}, {"id": 2521070, "name": "Benillup", "state": "", "country": "ES", "coord": {"lon": -0.37991, "lat": 38.753979}}, {"id": 2521071, "name": "Benilloba", "state": "", "country": "ES", "coord": {"lon": -0.38998, "lat": 38.700119}}, {"id": 2521072, "name": "Benijofar", "state": "", "country": "ES", "coord": {"lon": -0.7368, "lat": 38.07785}}, {"id": 2521075, "name": "Benig\u00e0nim", "state": "", "country": "ES", "coord": {"lon": -0.43333, "lat": 38.950001}}, {"id": 2521076, "name": "Benifl\u00e1", "state": "", "country": "ES", "coord": {"lon": -0.17816, "lat": 38.928139}}, {"id": 2521080, "name": "Benifai\u00f3", "state": "", "country": "ES", "coord": {"lon": -0.42598, "lat": 39.284389}}, {"id": 2521082, "name": "Benifaraig", "state": "", "country": "ES", "coord": {"lon": -0.38333, "lat": 39.533329}}, {"id": 2521083, "name": "Benifallim", "state": "", "country": "ES", "coord": {"lon": -0.39994, "lat": 38.66259}}, {"id": 2521085, "name": "Benifair\u00f3 de les Valls", "state": "", "country": "ES", "coord": {"lon": -0.26667, "lat": 39.73333}}, {"id": 2521086, "name": "Beniel", "state": "", "country": "ES", "coord": {"lon": -1.00233, "lat": 38.04636}}, {"id": 2521088, "name": "Benidorm", "state": "", "country": "ES", "coord": {"lon": -0.13098, "lat": 38.538158}}, {"id": 2521089, "name": "Benidoleig", "state": "", "country": "ES", "coord": {"lon": -0.02992, "lat": 38.792782}}, {"id": 2521091, "name": "Benicolet", "state": "", "country": "ES", "coord": {"lon": -0.34694, "lat": 38.919868}}, {"id": 2521095, "name": "Beniatjar", "state": "", "country": "ES", "coord": {"lon": -0.41736, "lat": 38.847542}}, {"id": 2521096, "name": "Beniarr\u00e9s", "state": "", "country": "ES", "coord": {"lon": -0.37741, "lat": 38.82019}}, {"id": 2521097, "name": "Beniarj\u00f3", "state": "", "country": "ES", "coord": {"lon": -0.18634, "lat": 38.932491}}, {"id": 2521099, "name": "Beniard\u00e1", "state": "", "country": "ES", "coord": {"lon": -0.21629, "lat": 38.68433}}, {"id": 2521100, "name": "Beniarbeig", "state": "", "country": "ES", "coord": {"lon": -0.0021, "lat": 38.822319}}, {"id": 2521101, "name": "Beniali", "state": "", "country": "ES", "coord": {"lon": -0.2221, "lat": 38.821239}}, {"id": 2521103, "name": "Beniaj\u00e1n", "state": "", "country": "ES", "coord": {"lon": -1.07062, "lat": 37.9739}}, {"id": 2521104, "name": "Benferri", "state": "", "country": "ES", "coord": {"lon": -0.96212, "lat": 38.141289}}, {"id": 2521105, "name": "Benet\u00fasser", "state": "", "country": "ES", "coord": {"lon": -0.4, "lat": 39.416672}}, {"id": 2521106, "name": "Benej\u00fazar", "state": "", "country": "ES", "coord": {"lon": -0.83942, "lat": 38.077278}}, {"id": 2521108, "name": "Beneixama", "state": "", "country": "ES", "coord": {"lon": -0.76667, "lat": 38.700001}}, {"id": 2521109, "name": "Beneixida", "state": "", "country": "ES", "coord": {"lon": -0.55, "lat": 39.066669}}, {"id": 2521114, "name": "Benavites", "state": "", "country": "ES", "coord": {"lon": -0.25, "lat": 39.73333}}, {"id": 2521118, "name": "Benatae", "state": "", "country": "ES", "coord": {"lon": -2.65121, "lat": 38.35323}}, {"id": 2521120, "name": "Benasau", "state": "", "country": "ES", "coord": {"lon": -0.34278, "lat": 38.690472}}, {"id": 2521121, "name": "Benarrab\u00e1", "state": "", "country": "ES", "coord": {"lon": -5.27608, "lat": 36.551201}}, {"id": 2521123, "name": "Benaoj\u00e1n", "state": "", "country": "ES", "coord": {"lon": -5.2522, "lat": 36.719292}}, {"id": 2521124, "name": "Benaocaz", "state": "", "country": "ES", "coord": {"lon": -5.42222, "lat": 36.700691}}, {"id": 2521128, "name": "Benamocarra", "state": "", "country": "ES", "coord": {"lon": -4.16146, "lat": 36.790741}}, {"id": 2521129, "name": "Benamer", "state": "", "country": "ES", "coord": {"lon": -0.41548, "lat": 38.78421}}, {"id": 2521130, "name": "Benamej\u00ed", "state": "", "country": "ES", "coord": {"lon": -4.54123, "lat": 37.26833}}, {"id": 2521131, "name": "Benamaurel", "state": "", "country": "ES", "coord": {"lon": -2.7025, "lat": 37.608261}}, {"id": 2521132, "name": "Benamargosa", "state": "", "country": "ES", "coord": {"lon": -4.19362, "lat": 36.83498}}, {"id": 2521133, "name": "Benamahoma", "state": "", "country": "ES", "coord": {"lon": -5.46656, "lat": 36.765049}}, {"id": 2521136, "name": "Benal\u00faa de las Villas", "state": "", "country": "ES", "coord": {"lon": -3.68346, "lat": 37.427422}}, {"id": 2521137, "name": "Benal\u00faa de Guadix", "state": "", "country": "ES", "coord": {"lon": -3.16404, "lat": 37.351898}}, {"id": 2521139, "name": "Benalm\u00e1dena", "state": "", "country": "ES", "coord": {"lon": -4.56937, "lat": 36.595482}}, {"id": 2521142, "name": "Benalaur\u00eda", "state": "", "country": "ES", "coord": {"lon": -5.26099, "lat": 36.59444}}, {"id": 2521146, "name": "Benahav\u00eds", "state": "", "country": "ES", "coord": {"lon": -5.04631, "lat": 36.523609}}, {"id": 2521147, "name": "Benahadux", "state": "", "country": "ES", "coord": {"lon": -2.45941, "lat": 36.924931}}, {"id": 2521148, "name": "Benaguasil", "state": "", "country": "ES", "coord": {"lon": -0.58333, "lat": 39.599998}}, {"id": 2521149, "name": "Benag\u00e9ber", "state": "", "country": "ES", "coord": {"lon": -1.1, "lat": 39.716671}}, {"id": 2521154, "name": "Benacaz\u00f3n", "state": "", "country": "ES", "coord": {"lon": -6.19662, "lat": 37.352879}}, {"id": 2521159, "name": "Belvis de la Jara", "state": "", "country": "ES", "coord": {"lon": -4.94932, "lat": 39.757679}}, {"id": 2521163, "name": "Belmontejo", "state": "", "country": "ES", "coord": {"lon": -2.34467, "lat": 39.822121}}, {"id": 2521165, "name": "Belmonte", "state": "", "country": "ES", "coord": {"lon": -2.70461, "lat": 39.557461}}, {"id": 2521166, "name": "B\u00e9lmez de la Moraleda", "state": "", "country": "ES", "coord": {"lon": -3.38207, "lat": 37.72382}}, {"id": 2521167, "name": "B\u00e9lmez", "state": "", "country": "ES", "coord": {"lon": -5.2, "lat": 38.26667}}, {"id": 2521170, "name": "Bell\u00fas", "state": "", "country": "ES", "coord": {"lon": -0.48697, "lat": 38.945801}}, {"id": 2521172, "name": "Bellreguard", "state": "", "country": "ES", "coord": {"lon": -0.16667, "lat": 38.950001}}, {"id": 2521174, "name": "Belicena", "state": "", "country": "ES", "coord": {"lon": -3.69089, "lat": 37.172291}}, {"id": 2521175, "name": "B\u00e8lgida", "state": "", "country": "ES", "coord": {"lon": -0.46667, "lat": 38.849998}}, {"id": 2521176, "name": "Belgara Baja", "state": "", "country": "ES", "coord": {"lon": -18, "lat": 27.75}}, {"id": 2521183, "name": "Belalc\u00e1zar", "state": "", "country": "ES", "coord": {"lon": -5.16654, "lat": 38.575661}}, {"id": 2521190, "name": "Beires", "state": "", "country": "ES", "coord": {"lon": -2.79134, "lat": 37.012371}}, {"id": 2521192, "name": "Beg\u00edjar", "state": "", "country": "ES", "coord": {"lon": -3.53094, "lat": 37.984921}}, {"id": 2521195, "name": "Bedmar", "state": "", "country": "ES", "coord": {"lon": -3.41142, "lat": 37.82185}}, {"id": 2521197, "name": "B\u00e9dar", "state": "", "country": "ES", "coord": {"lon": -1.98166, "lat": 37.19389}}, {"id": 2521198, "name": "Betx\u00ed", "state": "", "country": "ES", "coord": {"lon": -0.2, "lat": 39.933331}}, {"id": 2521207, "name": "Beas de Segura", "state": "", "country": "ES", "coord": {"lon": -2.88875, "lat": 38.252399}}, {"id": 2521208, "name": "Beas de Guadix", "state": "", "country": "ES", "coord": {"lon": -3.20578, "lat": 37.27861}}, {"id": 2521209, "name": "Beas de Granada", "state": "", "country": "ES", "coord": {"lon": -3.48095, "lat": 37.218029}}, {"id": 2521212, "name": "Beas", "state": "", "country": "ES", "coord": {"lon": -6.79318, "lat": 37.425701}}, {"id": 2521215, "name": "Baza", "state": "", "country": "ES", "coord": {"lon": -2.77259, "lat": 37.49073}}, {"id": 2521219, "name": "Bayarque", "state": "", "country": "ES", "coord": {"lon": -2.4361, "lat": 37.33062}}, {"id": 2521221, "name": "Bay\u00e1rcal", "state": "", "country": "ES", "coord": {"lon": -2.99606, "lat": 37.030731}}, {"id": 2521226, "name": "Baterno", "state": "", "country": "ES", "coord": {"lon": -4.91039, "lat": 38.95578}}, {"id": 2521248, "name": "Barrio de Pescadores", "state": "", "country": "ES", "coord": {"lon": -1.89895, "lat": 36.99329}}, {"id": 2521249, "name": "Barrio de Peral", "state": "", "country": "ES", "coord": {"lon": -0.98792, "lat": 37.62513}}, {"id": 2521260, "name": "Barrio de Fern\u00e1n N\u00fa\u00f1ez", "state": "", "country": "ES", "coord": {"lon": -3.62171, "lat": 36.930481}}, {"id": 2521264, "name": "Barrio Bajo", "state": "", "country": "ES", "coord": {"lon": -3.5533, "lat": 36.910782}}, {"id": 2521269, "name": "Barrial", "state": "", "country": "ES", "coord": {"lon": -17.86754, "lat": 28.65451}}, {"id": 2521273, "name": "Barrax", "state": "", "country": "ES", "coord": {"lon": -2.20152, "lat": 39.04607}}, {"id": 2521286, "name": "Barranco Hondo", "state": "", "country": "ES", "coord": {"lon": -16.349871, "lat": 28.403419}}, {"id": 2521298, "name": "Barranco", "state": "", "country": "ES", "coord": {"lon": -0.48787, "lat": 38.522362}}, {"id": 2521309, "name": "Barlovento", "state": "", "country": "ES", "coord": {"lon": -17.80377, "lat": 28.82708}}, {"id": 2521311, "name": "Barx", "state": "", "country": "ES", "coord": {"lon": -0.3, "lat": 39.01667}}, {"id": 2521316, "name": "Bargas", "state": "", "country": "ES", "coord": {"lon": -4.01979, "lat": 39.941132}}, {"id": 2521321, "name": "Barcience", "state": "", "country": "ES", "coord": {"lon": -4.23437, "lat": 39.983669}}, {"id": 2521323, "name": "Barch\u00edn del Hoyo", "state": "", "country": "ES", "coord": {"lon": -2.06667, "lat": 39.666672}}, {"id": 2521325, "name": "Barxeta", "state": "", "country": "ES", "coord": {"lon": -0.41667, "lat": 39.01667}}, {"id": 2521329, "name": "Barcarrota", "state": "", "country": "ES", "coord": {"lon": -6.84923, "lat": 38.514729}}, {"id": 2521335, "name": "Barbate", "state": "", "country": "ES", "coord": {"lon": -5.92186, "lat": 36.192371}}, {"id": 2521351, "name": "Ba\u00f1os de la Encina", "state": "", "country": "ES", "coord": {"lon": -3.77477, "lat": 38.17379}}, {"id": 2521365, "name": "Balsicas", "state": "", "country": "ES", "coord": {"lon": -0.95637, "lat": 37.81818}}, {"id": 2521368, "name": "Balsa de Ves", "state": "", "country": "ES", "coord": {"lon": -1.2, "lat": 39.26667}}, {"id": 2521373, "name": "Balones", "state": "", "country": "ES", "coord": {"lon": -0.34324, "lat": 38.737259}}, {"id": 2521382, "name": "Balerma", "state": "", "country": "ES", "coord": {"lon": -2.88649, "lat": 36.731461}}, {"id": 2521383, "name": "Comunitat Aut\u00f2noma de les Illes Balears", "state": "", "country": "ES", "coord": {"lon": 2.90314, "lat": 39.58876}}, {"id": 2521390, "name": "Balazote", "state": "", "country": "ES", "coord": {"lon": -2.1518, "lat": 38.884441}}, {"id": 2521410, "name": "Bail\u00e9n", "state": "", "country": "ES", "coord": {"lon": -3.77786, "lat": 38.09639}}, {"id": 2521413, "name": "Baeza", "state": "", "country": "ES", "coord": {"lon": -3.47103, "lat": 37.993839}}, {"id": 2521415, "name": "Baena", "state": "", "country": "ES", "coord": {"lon": -4.32245, "lat": 37.616699}}, {"id": 2521417, "name": "Badolatosa", "state": "", "country": "ES", "coord": {"lon": -4.67296, "lat": 37.30785}}, {"id": 2521419, "name": "Provincia de Badajoz", "state": "", "country": "ES", "coord": {"lon": -6.16667, "lat": 38.666672}}, {"id": 2521420, "name": "Badajoz", "state": "", "country": "ES", "coord": {"lon": -6.97061, "lat": 38.877892}}, {"id": 2521424, "name": "Bacarot", "state": "", "country": "ES", "coord": {"lon": -0.55836, "lat": 38.319908}}, {"id": 2521429, "name": "Azut\u00e1n", "state": "", "country": "ES", "coord": {"lon": -5.1273, "lat": 39.785641}}, {"id": 2521434, "name": "Azu\u00e9bar", "state": "", "country": "ES", "coord": {"lon": -0.36667, "lat": 39.833328}}, {"id": 2521435, "name": "Azucaica", "state": "", "country": "ES", "coord": {"lon": -3.97189, "lat": 39.88221}}, {"id": 2521436, "name": "Azuaga", "state": "", "country": "ES", "coord": {"lon": -5.68333, "lat": 38.26667}}, {"id": 2521439, "name": "Aznalc\u00f3llar", "state": "", "country": "ES", "coord": {"lon": -6.26988, "lat": 37.519138}}, {"id": 2521440, "name": "Aznalc\u00e1zar", "state": "", "country": "ES", "coord": {"lon": -6.24963, "lat": 37.304218}}, {"id": 2521451, "name": "Ayora", "state": "", "country": "ES", "coord": {"lon": -1.05635, "lat": 39.058521}}, {"id": 2521452, "name": "Ay\u00f3dar", "state": "", "country": "ES", "coord": {"lon": -0.36667, "lat": 40}}, {"id": 2521453, "name": "Ayna", "state": "", "country": "ES", "coord": {"lon": -2.08333, "lat": 38.549999}}, {"id": 2521455, "name": "Aielo de Malferit", "state": "", "country": "ES", "coord": {"lon": -0.58333, "lat": 38.883331}}, {"id": 2521456, "name": "Ayamonte", "state": "", "country": "ES", "coord": {"lon": -7.40266, "lat": 37.209942}}, {"id": 2521462, "name": "Avileses", "state": "", "country": "ES", "coord": {"lon": -0.94336, "lat": 37.848728}}, {"id": 2521481, "name": "Atogo", "state": "", "country": "ES", "coord": {"lon": -16.588249, "lat": 28.05982}}, {"id": 2521485, "name": "Atarfe", "state": "", "country": "ES", "coord": {"lon": -3.68686, "lat": 37.224789}}, {"id": 2521491, "name": "Atalaya del Ca\u00f1avate", "state": "", "country": "ES", "coord": {"lon": -2.25175, "lat": 39.518639}}, {"id": 2521500, "name": "Atalaya", "state": "", "country": "ES", "coord": {"lon": -6.46667, "lat": 38.333328}}, {"id": 2521504, "name": "Atajate", "state": "", "country": "ES", "coord": {"lon": -5.24606, "lat": 36.640171}}, {"id": 2521510, "name": "Aspe", "state": "", "country": "ES", "coord": {"lon": -0.76722, "lat": 38.345112}}, {"id": 2521519, "name": "Arucas", "state": "", "country": "ES", "coord": {"lon": -15.52325, "lat": 28.119829}}, {"id": 2521521, "name": "Artenara", "state": "", "country": "ES", "coord": {"lon": -15.64693, "lat": 28.02055}}, {"id": 2521528, "name": "Artana", "state": "", "country": "ES", "coord": {"lon": -0.25758, "lat": 39.891041}}, {"id": 2521534, "name": "Art\u00e0", "state": "", "country": "ES", "coord": {"lon": 3.34979, "lat": 39.69315}}, {"id": 2521545, "name": "Arroyomolinos de Le\u00f3n", "state": "", "country": "ES", "coord": {"lon": -6.41667, "lat": 38.01667}}, {"id": 2521549, "name": "Arroyo de San Serv\u00e1n", "state": "", "country": "ES", "coord": {"lon": -6.45402, "lat": 38.854431}}, {"id": 2521550, "name": "Arroyo del Ojanco", "state": "", "country": "ES", "coord": {"lon": -2.89486, "lat": 38.320648}}, {"id": 2521554, "name": "Arroyo de la Miel", "state": "", "country": "ES", "coord": {"lon": -4.54242, "lat": 36.60326}}, {"id": 2521555, "name": "Arroyo de la Luz", "state": "", "country": "ES", "coord": {"lon": -6.58401, "lat": 39.485111}}, {"id": 2521566, "name": "Arriate", "state": "", "country": "ES", "coord": {"lon": -5.1408, "lat": 36.800049}}, {"id": 2521570, "name": "Arrecife", "state": "", "country": "ES", "coord": {"lon": -13.54769, "lat": 28.96302}}, {"id": 2521577, "name": "Arquillos", "state": "", "country": "ES", "coord": {"lon": -3.42827, "lat": 38.18148}}, {"id": 2521582, "name": "Arona", "state": "", "country": "ES", "coord": {"lon": -16.681021, "lat": 28.099621}}, {"id": 2521585, "name": "Aroche", "state": "", "country": "ES", "coord": {"lon": -6.9576, "lat": 37.942131}}, {"id": 2521587, "name": "Arneva", "state": "", "country": "ES", "coord": {"lon": -0.94091, "lat": 38.055431}}, {"id": 2521589, "name": "Armu\u00f1a de Almanzora", "state": "", "country": "ES", "coord": {"lon": -2.4115, "lat": 37.3503}}, {"id": 2521590, "name": "Armilla", "state": "", "country": "ES", "coord": {"lon": -3.61854, "lat": 37.141022}}, {"id": 2521593, "name": "Arjonilla", "state": "", "country": "ES", "coord": {"lon": -4.10677, "lat": 37.97422}}, {"id": 2521594, "name": "Arjona", "state": "", "country": "ES", "coord": {"lon": -4.05478, "lat": 37.934929}}, {"id": 2521602, "name": "Cruce de Arinaga", "state": "", "country": "ES", "coord": {"lon": -15.42798, "lat": 27.87656}}, {"id": 2521604, "name": "Arico Viejo", "state": "", "country": "ES", "coord": {"lon": -16.4797, "lat": 28.182039}}, {"id": 2521606, "name": "Ariany", "state": "", "country": "ES", "coord": {"lon": 3.11055, "lat": 39.650478}}, {"id": 2521607, "name": "Arguisuelas", "state": "", "country": "ES", "coord": {"lon": -1.81667, "lat": 39.833328}}, {"id": 2521619, "name": "Argamasilla de Calatrava", "state": "", "country": "ES", "coord": {"lon": -4.07627, "lat": 38.729851}}, {"id": 2521620, "name": "Argamasilla de Alba", "state": "", "country": "ES", "coord": {"lon": -3.09247, "lat": 39.129169}}, {"id": 2521636, "name": "Arenas de San Juan", "state": "", "country": "ES", "coord": {"lon": -3.50211, "lat": 39.218609}}, {"id": 2521637, "name": "Arenas del Rey", "state": "", "country": "ES", "coord": {"lon": -3.89362, "lat": 36.957989}}, {"id": 2521642, "name": "Arenas", "state": "", "country": "ES", "coord": {"lon": -4.04412, "lat": 36.816238}}, {"id": 2521646, "name": "Arenales", "state": "", "country": "ES", "coord": {"lon": -3.64692, "lat": 37.318619}}, {"id": 2521661, "name": "Ardales", "state": "", "country": "ES", "coord": {"lon": -4.84694, "lat": 36.87804}}, {"id": 2521664, "name": "Arcos de las Salinas", "state": "", "country": "ES", "coord": {"lon": -1.03333, "lat": 39.98333}}, {"id": 2521665, "name": "Arcos de la Frontera", "state": "", "country": "ES", "coord": {"lon": -5.81056, "lat": 36.750751}}, {"id": 2521670, "name": "Archivel", "state": "", "country": "ES", "coord": {"lon": -2.00605, "lat": 38.072819}}, {"id": 2521673, "name": "Archidona", "state": "", "country": "ES", "coord": {"lon": -4.38869, "lat": 37.096539}}, {"id": 2521674, "name": "\u00c1rchez", "state": "", "country": "ES", "coord": {"lon": -3.99208, "lat": 36.83992}}, {"id": 2521676, "name": "Archena", "state": "", "country": "ES", "coord": {"lon": -1.30043, "lat": 38.11631}}, {"id": 2521682, "name": "Arbuniel", "state": "", "country": "ES", "coord": {"lon": -3.53684, "lat": 37.62793}}, {"id": 2521683, "name": "Arboleas", "state": "", "country": "ES", "coord": {"lon": -2.07384, "lat": 37.350239}}, {"id": 2521692, "name": "Arafo", "state": "", "country": "ES", "coord": {"lon": -16.42244, "lat": 28.33971}}, {"id": 2521694, "name": "Aracena", "state": "", "country": "ES", "coord": {"lon": -6.56116, "lat": 37.893959}}, {"id": 2521706, "name": "Antigua", "state": "", "country": "ES", "coord": {"lon": -14.01379, "lat": 28.423071}}, {"id": 2521710, "name": "Antequera", "state": "", "country": "ES", "coord": {"lon": -4.56123, "lat": 37.019379}}, {"id": 2521712, "name": "Antella", "state": "", "country": "ES", "coord": {"lon": -0.59195, "lat": 39.079769}}, {"id": 2521714, "name": "Antas", "state": "", "country": "ES", "coord": {"lon": -1.9176, "lat": 37.245361}}, {"id": 2521715, "name": "\u00c1nsola", "state": "", "country": "ES", "coord": {"lon": -3.78144, "lat": 37.250488}}, {"id": 2521718, "name": "A\u00f1over de Tajo", "state": "", "country": "ES", "coord": {"lon": -3.76578, "lat": 39.988731}}, {"id": 2521721, "name": "A\u00f1ora", "state": "", "country": "ES", "coord": {"lon": -4.9, "lat": 38.416672}}, {"id": 2521722, "name": "Anna", "state": "", "country": "ES", "coord": {"lon": -0.64621, "lat": 39.02029}}, {"id": 2521738, "name": "And\u00fajar", "state": "", "country": "ES", "coord": {"lon": -4.05078, "lat": 38.039219}}, {"id": 2521741, "name": "Andratx", "state": "", "country": "ES", "coord": {"lon": 2.42017, "lat": 39.575531}}, {"id": 2521744, "name": "Andilla", "state": "", "country": "ES", "coord": {"lon": -0.8, "lat": 39.833328}}, {"id": 2521757, "name": "Anchuras", "state": "", "country": "ES", "coord": {"lon": -4.83381, "lat": 39.480591}}, {"id": 2521775, "name": "Ambroz", "state": "", "country": "ES", "coord": {"lon": -3.66257, "lat": 37.164631}}, {"id": 2521790, "name": "Alumbres", "state": "", "country": "ES", "coord": {"lon": -0.91616, "lat": 37.606071}}, {"id": 2521793, "name": "Altura", "state": "", "country": "ES", "coord": {"lon": -0.51667, "lat": 39.849998}}, {"id": 2521804, "name": "Altea", "state": "", "country": "ES", "coord": {"lon": -0.05139, "lat": 38.59885}}, {"id": 2521807, "name": "Altarejos", "state": "", "country": "ES", "coord": {"lon": -2.35692, "lat": 39.912579}}, {"id": 2521820, "name": "Alsodux", "state": "", "country": "ES", "coord": {"lon": -2.59476, "lat": 37.00246}}, {"id": 2521822, "name": "Alquife", "state": "", "country": "ES", "coord": {"lon": -3.11553, "lat": 37.180241}}, {"id": 2521823, "name": "Alquer\u00edas", "state": "", "country": "ES", "coord": {"lon": -1.03748, "lat": 38.014011}}, {"id": 2521824, "name": "L'Alqueria de la Comtessa", "state": "", "country": "ES", "coord": {"lon": -0.15, "lat": 38.933331}}, {"id": 2521830, "name": "Alpuente", "state": "", "country": "ES", "coord": {"lon": -1.01667, "lat": 39.866669}}, {"id": 2521836, "name": "Alpera", "state": "", "country": "ES", "coord": {"lon": -1.21667, "lat": 38.966671}}, {"id": 2521837, "name": "Alpandeire", "state": "", "country": "ES", "coord": {"lon": -5.20216, "lat": 36.634022}}, {"id": 2521838, "name": "Alozaina", "state": "", "country": "ES", "coord": {"lon": -4.85761, "lat": 36.72736}}, {"id": 2521839, "name": "Alosno", "state": "", "country": "ES", "coord": {"lon": -7.1147, "lat": 37.548611}}, {"id": 2521840, "name": "Alora", "state": "", "country": "ES", "coord": {"lon": -4.70575, "lat": 36.823582}}, {"id": 2521842, "name": "Alomartes", "state": "", "country": "ES", "coord": {"lon": -3.91302, "lat": 37.263531}}, {"id": 2521845, "name": "Almussafes", "state": "", "country": "ES", "coord": {"lon": -0.41667, "lat": 39.283329}}, {"id": 2521846, "name": "Almuradiel", "state": "", "country": "ES", "coord": {"lon": -3.49776, "lat": 38.513248}}, {"id": 2521847, "name": "Almu\u00f1\u00e9car", "state": "", "country": "ES", "coord": {"lon": -3.69072, "lat": 36.733929}}, {"id": 2521850, "name": "Almudaina", "state": "", "country": "ES", "coord": {"lon": -0.35149, "lat": 38.759991}}, {"id": 2521855, "name": "Almorad\u00ed", "state": "", "country": "ES", "coord": {"lon": -0.79197, "lat": 38.108791}}, {"id": 2521857, "name": "Almonte", "state": "", "country": "ES", "coord": {"lon": -6.51667, "lat": 37.264702}}, {"id": 2521859, "name": "Almonaster la Real", "state": "", "country": "ES", "coord": {"lon": -6.78872, "lat": 37.873959}}, {"id": 2521861, "name": "Almonacid del Marquesado", "state": "", "country": "ES", "coord": {"lon": -2.7677, "lat": 39.823441}}, {"id": 2521863, "name": "Almoines", "state": "", "country": "ES", "coord": {"lon": -0.18155, "lat": 38.943249}}, {"id": 2521864, "name": "Almohar\u00edn", "state": "", "country": "ES", "coord": {"lon": -6.04283, "lat": 39.176849}}, {"id": 2521866, "name": "Almog\u00eda", "state": "", "country": "ES", "coord": {"lon": -4.5407, "lat": 36.8255}}, {"id": 2521867, "name": "Almod\u00f3var del R\u00edo", "state": "", "country": "ES", "coord": {"lon": -5.02037, "lat": 37.810699}}, {"id": 2521868, "name": "Almod\u00f3var del Pinar", "state": "", "country": "ES", "coord": {"lon": -1.88333, "lat": 39.716671}}, {"id": 2521869, "name": "Almod\u00f3var del Campo", "state": "", "country": "ES", "coord": {"lon": -4.17908, "lat": 38.709358}}, {"id": 2521871, "name": "Alm\u00f3cita", "state": "", "country": "ES", "coord": {"lon": -2.79051, "lat": 37.002621}}, {"id": 2521873, "name": "Almiser\u00e0", "state": "", "country": "ES", "coord": {"lon": -0.28333, "lat": 38.916672}}, {"id": 2521883, "name": "Almer\u00eda", "state": "", "country": "ES", "coord": {"lon": -2.33333, "lat": 37.166672}}, {"id": 2521886, "name": "Almer\u00eda", "state": "", "country": "ES", "coord": {"lon": -2.45974, "lat": 36.838139}}, {"id": 2521887, "name": "Almensilla", "state": "", "country": "ES", "coord": {"lon": -6.10998, "lat": 37.310989}}, {"id": 2521892, "name": "Almendricos", "state": "", "country": "ES", "coord": {"lon": -1.77468, "lat": 37.472561}}, {"id": 2521893, "name": "Almendralejo", "state": "", "country": "ES", "coord": {"lon": -6.40747, "lat": 38.683159}}, {"id": 2521894, "name": "Almendral", "state": "", "country": "ES", "coord": {"lon": -6.82096, "lat": 38.614182}}, {"id": 2521899, "name": "Almenara", "state": "", "country": "ES", "coord": {"lon": -0.21667, "lat": 39.75}}, {"id": 2521903, "name": "Almeg\u00edjar", "state": "", "country": "ES", "coord": {"lon": -3.30122, "lat": 36.90258}}, {"id": 2521905, "name": "Almedinilla", "state": "", "country": "ES", "coord": {"lon": -4.09052, "lat": 37.439018}}, {"id": 2521906, "name": "Almedina", "state": "", "country": "ES", "coord": {"lon": -2.95382, "lat": 38.624531}}, {"id": 2521908, "name": "Almed\u00edjar", "state": "", "country": "ES", "coord": {"lon": -0.4, "lat": 39.866669}}, {"id": 2521909, "name": "Almassora", "state": "", "country": "ES", "coord": {"lon": -0.05, "lat": 39.950001}}, {"id": 2521911, "name": "Almayate Bajo", "state": "", "country": "ES", "coord": {"lon": -4.12919, "lat": 36.731461}}, {"id": 2521913, "name": "Almargen", "state": "", "country": "ES", "coord": {"lon": -5.02178, "lat": 37.002102}}, {"id": 2521916, "name": "Almarch", "state": "", "country": "ES", "coord": {"lon": -0.4977, "lat": 38.53664}}, {"id": 2521917, "name": "Almaraz", "state": "", "country": "ES", "coord": {"lon": -5.67698, "lat": 39.814159}}, {"id": 2521919, "name": "Almanzora", "state": "", "country": "ES", "coord": {"lon": -2.13635, "lat": 37.349281}}, {"id": 2521923, "name": "Almansa", "state": "", "country": "ES", "coord": {"lon": -1.09713, "lat": 38.869171}}, {"id": 2521928, "name": "Almagro", "state": "", "country": "ES", "coord": {"lon": -3.71132, "lat": 38.889408}}, {"id": 2521937, "name": "Almad\u00e9n de la Plata", "state": "", "country": "ES", "coord": {"lon": -6.06667, "lat": 37.866669}}, {"id": 2521938, "name": "Almad\u00e9n", "state": "", "country": "ES", "coord": {"lon": -4.83156, "lat": 38.77541}}, {"id": 2521945, "name": "Alm\u00e1char", "state": "", "country": "ES", "coord": {"lon": -4.21614, "lat": 36.808922}}, {"id": 2521948, "name": "Aljucer", "state": "", "country": "ES", "coord": {"lon": -1.15299, "lat": 37.955769}}, {"id": 2521950, "name": "Aljuc\u00e9n", "state": "", "country": "ES", "coord": {"lon": -6.33109, "lat": 39.044258}}, {"id": 2521961, "name": "Aljau", "state": "", "country": "ES", "coord": {"lon": -0.76667, "lat": 38.349998}}, {"id": 2521962, "name": "Aljariz", "state": "", "country": "ES", "coord": {"lon": -1.93535, "lat": 37.2509}}, {"id": 2521964, "name": "Aljaraque", "state": "", "country": "ES", "coord": {"lon": -7.02312, "lat": 37.269901}}, {"id": 2521972, "name": "Aliseda", "state": "", "country": "ES", "coord": {"lon": -6.69228, "lat": 39.42329}}, {"id": 2521974, "name": "Alic\u00fan de Ortega", "state": "", "country": "ES", "coord": {"lon": -3.13648, "lat": 37.608978}}, {"id": 2521975, "name": "Alic\u00fan", "state": "", "country": "ES", "coord": {"lon": -2.60212, "lat": 36.965801}}, {"id": 2521976, "name": "Provincia de Alicante", "state": "", "country": "ES", "coord": {"lon": -0.5, "lat": 38.5}}, {"id": 2521978, "name": "Alicante", "state": "", "country": "ES", "coord": {"lon": -0.48149, "lat": 38.345169}}, {"id": 2521980, "name": "Aliaguilla", "state": "", "country": "ES", "coord": {"lon": -1.31667, "lat": 39.73333}}, {"id": 2521981, "name": "Al\u00eda", "state": "", "country": "ES", "coord": {"lon": -5.21754, "lat": 39.448029}}, {"id": 2521984, "name": "Alhend\u00edn", "state": "", "country": "ES", "coord": {"lon": -3.64557, "lat": 37.108791}}, {"id": 2521985, "name": "Alhaur\u00edn el Grande", "state": "", "country": "ES", "coord": {"lon": -4.68728, "lat": 36.643002}}, {"id": 2521986, "name": "Alhaur\u00edn de la Torre", "state": "", "country": "ES", "coord": {"lon": -4.56139, "lat": 36.664009}}, {"id": 2521991, "name": "Alhambra", "state": "", "country": "ES", "coord": {"lon": -3.05333, "lat": 38.89925}}, {"id": 2521992, "name": "Alhama de Murcia", "state": "", "country": "ES", "coord": {"lon": -1.42507, "lat": 37.851028}}, {"id": 2521993, "name": "Alhama de Granada", "state": "", "country": "ES", "coord": {"lon": -3.98963, "lat": 37.006889}}, {"id": 2521994, "name": "Alhama de Almer\u00eda", "state": "", "country": "ES", "coord": {"lon": -2.56861, "lat": 36.956921}}, {"id": 2521998, "name": "Alhabia", "state": "", "country": "ES", "coord": {"lon": -2.58655, "lat": 36.990028}}, {"id": 2521999, "name": "Algue\u00f1a", "state": "", "country": "ES", "coord": {"lon": -1.00433, "lat": 38.33905}}, {"id": 2522000, "name": "Alguazas", "state": "", "country": "ES", "coord": {"lon": -1.25051, "lat": 38.053558}}, {"id": 2522001, "name": "Algorfa", "state": "", "country": "ES", "coord": {"lon": -0.79646, "lat": 38.086361}}, {"id": 2522005, "name": "Algodonales", "state": "", "country": "ES", "coord": {"lon": -5.40536, "lat": 36.88044}}, {"id": 2522007, "name": "Alginet", "state": "", "country": "ES", "coord": {"lon": -0.46667, "lat": 39.26667}}, {"id": 2522008, "name": "Algimia de Almonacid", "state": "", "country": "ES", "coord": {"lon": -0.43333, "lat": 39.916672}}, {"id": 2522009, "name": "Algimia de Alfara", "state": "", "country": "ES", "coord": {"lon": -0.36667, "lat": 39.75}}, {"id": 2522012, "name": "Algemes\u00ed", "state": "", "country": "ES", "coord": {"lon": -0.43333, "lat": 39.183331}}, {"id": 2522013, "name": "Algeciras", "state": "", "country": "ES", "coord": {"lon": -5.45051, "lat": 36.133259}}, {"id": 2522014, "name": "Algatoc\u00edn", "state": "", "country": "ES", "coord": {"lon": -5.27554, "lat": 36.573559}}, {"id": 2522019, "name": "Algarrobo", "state": "", "country": "ES", "coord": {"lon": -4.03952, "lat": 36.77388}}, {"id": 2522022, "name": "Algarra", "state": "", "country": "ES", "coord": {"lon": -1.43333, "lat": 40}}, {"id": 2522023, "name": "Algarinejo", "state": "", "country": "ES", "coord": {"lon": -4.1585, "lat": 37.32526}}, {"id": 2522031, "name": "Algar", "state": "", "country": "ES", "coord": {"lon": -5.65558, "lat": 36.657478}}, {"id": 2522032, "name": "Alg\u00e1mitas", "state": "", "country": "ES", "coord": {"lon": -5.14949, "lat": 37.01516}}, {"id": 2522036, "name": "Algaida", "state": "", "country": "ES", "coord": {"lon": 2.89541, "lat": 39.55899}}, {"id": 2522044, "name": "Alfondeguilla", "state": "", "country": "ES", "coord": {"lon": -0.26667, "lat": 39.833328}}, {"id": 2522046, "name": "Alfarras\u00ed", "state": "", "country": "ES", "coord": {"lon": -0.5, "lat": 38.900002}}, {"id": 2522047, "name": "Alfarp", "state": "", "country": "ES", "coord": {"lon": -0.55, "lat": 39.283329}}, {"id": 2522049, "name": "Alfarnatejo", "state": "", "country": "ES", "coord": {"lon": -4.26064, "lat": 36.995701}}, {"id": 2522050, "name": "Alfarnate", "state": "", "country": "ES", "coord": {"lon": -4.25929, "lat": 36.994259}}, {"id": 2522051, "name": "Alfarer\u00eda", "state": "", "country": "ES", "coord": {"lon": -0.01667, "lat": 38.73333}}, {"id": 2522052, "name": "Alfara del Patriarca", "state": "", "country": "ES", "coord": {"lon": -0.38333, "lat": 39.549999}}, {"id": 2522053, "name": "Alfara de Algimia", "state": "", "country": "ES", "coord": {"lon": -0.35, "lat": 39.76667}}, {"id": 2522054, "name": "Alfa\u00edx", "state": "", "country": "ES", "coord": {"lon": -1.9602, "lat": 37.141979}}, {"id": 2522055, "name": "Alfauir", "state": "", "country": "ES", "coord": {"lon": -0.25, "lat": 38.933331}}, {"id": 2522056, "name": "Alfafara", "state": "", "country": "ES", "coord": {"lon": -0.55551, "lat": 38.773392}}, {"id": 2522057, "name": "Alfafar", "state": "", "country": "ES", "coord": {"lon": -0.38333, "lat": 39.416672}}, {"id": 2522058, "name": "Alfacar", "state": "", "country": "ES", "coord": {"lon": -3.56807, "lat": 37.237438}}, {"id": 2522061, "name": "Aledo", "state": "", "country": "ES", "coord": {"lon": -1.57356, "lat": 37.793411}}, {"id": 2522063, "name": "Aldeire", "state": "", "country": "ES", "coord": {"lon": -3.07204, "lat": 37.160118}}, {"id": 2522065, "name": "Aldeaquemada", "state": "", "country": "ES", "coord": {"lon": -3.37137, "lat": 38.412151}}, {"id": 2522066, "name": "Aldeanueva de San Bartolom\u00e9", "state": "", "country": "ES", "coord": {"lon": -5.11307, "lat": 39.636082}}, {"id": 2522067, "name": "Aldeanueva de Barbarroya", "state": "", "country": "ES", "coord": {"lon": -5.02287, "lat": 39.759338}}, {"id": 2522069, "name": "Aldeahermosa", "state": "", "country": "ES", "coord": {"lon": -3.12694, "lat": 38.32901}}, {"id": 2522072, "name": "Aldea del Rey", "state": "", "country": "ES", "coord": {"lon": -3.84017, "lat": 38.7383}}, {"id": 2522073, "name": "Aldea del Cano", "state": "", "country": "ES", "coord": {"lon": -6.31806, "lat": 39.288738}}, {"id": 2522074, "name": "Aldeacentenera", "state": "", "country": "ES", "coord": {"lon": -5.62936, "lat": 39.527248}}, {"id": 2522076, "name": "Aldea Blanca", "state": "", "country": "ES", "coord": {"lon": -15.47338, "lat": 27.84166}}, {"id": 2522077, "name": "Aldaia", "state": "", "country": "ES", "coord": {"lon": -0.46005, "lat": 39.465691}}, {"id": 2522079, "name": "Alcu\u00e9scar", "state": "", "country": "ES", "coord": {"lon": -6.22917, "lat": 39.180908}}, {"id": 2522081, "name": "Alcudia de Veo", "state": "", "country": "ES", "coord": {"lon": -0.35, "lat": 39.916672}}, {"id": 2522082, "name": "Alcudia de Monteagud", "state": "", "country": "ES", "coord": {"lon": -2.2665, "lat": 37.235291}}, {"id": 2522084, "name": "L'Alc\u00fadia de Cresp\u00ecns", "state": "", "country": "ES", "coord": {"lon": -0.58333, "lat": 38.966671}}, {"id": 2522085, "name": "L'Alc\u00fadia", "state": "", "country": "ES", "coord": {"lon": -0.5, "lat": 39.200001}}, {"id": 2522091, "name": "Alc\u00fadia", "state": "", "country": "ES", "coord": {"lon": 3.12138, "lat": 39.853161}}, {"id": 2522092, "name": "Alcudia", "state": "", "country": "ES", "coord": {"lon": -0.42943, "lat": 38.759071}}, {"id": 2522094, "name": "Alcublas", "state": "", "country": "ES", "coord": {"lon": -0.7, "lat": 39.799999}}, {"id": 2522096, "name": "Alcubillas", "state": "", "country": "ES", "coord": {"lon": -3.13407, "lat": 38.75312}}, {"id": 2522098, "name": "Alcoy", "state": "", "country": "ES", "coord": {"lon": -0.47432, "lat": 38.705448}}, {"id": 2522108, "name": "Alc\u00f3ntar", "state": "", "country": "ES", "coord": {"lon": -2.59725, "lat": 37.336472}}, {"id": 2522110, "name": "Alconera", "state": "", "country": "ES", "coord": {"lon": -6.46667, "lat": 38.400002}}, {"id": 2522111, "name": "Alconchel de la Estrella", "state": "", "country": "ES", "coord": {"lon": -2.57366, "lat": 39.719631}}, {"id": 2522112, "name": "Alconchel", "state": "", "country": "ES", "coord": {"lon": -7.07161, "lat": 38.516479}}, {"id": 2522114, "name": "Alcollar\u00edn", "state": "", "country": "ES", "coord": {"lon": -5.73924, "lat": 39.244701}}, {"id": 2522116, "name": "Alcolea de Tajo", "state": "", "country": "ES", "coord": {"lon": -5.14738, "lat": 39.809662}}, {"id": 2522117, "name": "Alcolea del R\u00edo", "state": "", "country": "ES", "coord": {"lon": -5.66694, "lat": 37.615059}}, {"id": 2522118, "name": "Alcolea de Calatrava", "state": "", "country": "ES", "coord": {"lon": -4.11597, "lat": 38.986801}}, {"id": 2522121, "name": "Alcolea", "state": "", "country": "ES", "coord": {"lon": -2.9615, "lat": 36.974579}}, {"id": 2522124, "name": "Alcocer de Planes", "state": "", "country": "ES", "coord": {"lon": -0.40244, "lat": 38.79501}}, {"id": 2522128, "name": "Alcoba", "state": "", "country": "ES", "coord": {"lon": -4.47715, "lat": 39.25988}}, {"id": 2522129, "name": "Alzira", "state": "", "country": "ES", "coord": {"lon": -0.43333, "lat": 39.150002}}, {"id": 2522131, "name": "Alc\u00e1zar de San Juan", "state": "", "country": "ES", "coord": {"lon": -3.20827, "lat": 39.39011}}, {"id": 2522137, "name": "Alcaudete", "state": "", "country": "ES", "coord": {"lon": -4.08237, "lat": 37.590912}}, {"id": 2522138, "name": "Alcauc\u00edn", "state": "", "country": "ES", "coord": {"lon": -4.11406, "lat": 36.903011}}, {"id": 2522143, "name": "Alcaraz", "state": "", "country": "ES", "coord": {"lon": -2.49106, "lat": 38.666801}}, {"id": 2522146, "name": "Alcaracejos", "state": "", "country": "ES", "coord": {"lon": -4.96667, "lat": 38.383331}}, {"id": 2522152, "name": "Alcantarilla", "state": "", "country": "ES", "coord": {"lon": -1.21714, "lat": 37.969391}}, {"id": 2522153, "name": "Alc\u00e0ntera de X\u00faquer", "state": "", "country": "ES", "coord": {"lon": -0.55, "lat": 39.066669}}, {"id": 2522155, "name": "Alc\u00e1ntara", "state": "", "country": "ES", "coord": {"lon": -6.88376, "lat": 39.718948}}, {"id": 2522157, "name": "Alca\u00f1izo", "state": "", "country": "ES", "coord": {"lon": -5.10588, "lat": 39.90316}}, {"id": 2522159, "name": "Alcalal\u00ed", "state": "", "country": "ES", "coord": {"lon": -0.04013, "lat": 38.750381}}, {"id": 2522160, "name": "Alcal\u00e1 la Real", "state": "", "country": "ES", "coord": {"lon": -3.92301, "lat": 37.461399}}, {"id": 2522161, "name": "Alcal\u00e1 del Valle", "state": "", "country": "ES", "coord": {"lon": -5.1724, "lat": 36.90448}}, {"id": 2522162, "name": "Alcal\u00e1 de los Gazules", "state": "", "country": "ES", "coord": {"lon": -5.72382, "lat": 36.46212}}, {"id": 2522163, "name": "Alcal\u00e1 del J\u00facar", "state": "", "country": "ES", "coord": {"lon": -1.43333, "lat": 39.200001}}, {"id": 2522164, "name": "Alcal\u00e1 de la Jovada", "state": "", "country": "ES", "coord": {"lon": -0.25138, "lat": 38.794769}}, {"id": 2522165, "name": "Alcal\u00e1 de Guadaira", "state": "", "country": "ES", "coord": {"lon": -5.83951, "lat": 37.33791}}, {"id": 2522177, "name": "Alcadozo", "state": "", "country": "ES", "coord": {"lon": -1.97998, "lat": 38.649158}}, {"id": 2522179, "name": "Alc\u00e0sser", "state": "", "country": "ES", "coord": {"lon": -0.43333, "lat": 39.366669}}, {"id": 2522180, "name": "Alcab\u00f3n", "state": "", "country": "ES", "coord": {"lon": -4.36852, "lat": 40.002239}}, {"id": 2522183, "name": "Alburquerque", "state": "", "country": "ES", "coord": {"lon": -7.00234, "lat": 39.22076}}, {"id": 2522185, "name": "Albu\u00f1uelas", "state": "", "country": "ES", "coord": {"lon": -3.63184, "lat": 36.92828}}, {"id": 2522187, "name": "Albu\u00f1ol", "state": "", "country": "ES", "coord": {"lon": -3.205, "lat": 36.79203}}, {"id": 2522188, "name": "Albu\u00f1\u00e1n", "state": "", "country": "ES", "coord": {"lon": -3.13321, "lat": 37.227081}}, {"id": 2522190, "name": "Albuj\u00f3n", "state": "", "country": "ES", "coord": {"lon": -1.04816, "lat": 37.716648}}, {"id": 2522191, "name": "Albuixech", "state": "", "country": "ES", "coord": {"lon": -0.31667, "lat": 39.549999}}, {"id": 2522197, "name": "Albudeite", "state": "", "country": "ES", "coord": {"lon": -1.38664, "lat": 38.02895}}, {"id": 2522198, "name": "Alboy", "state": "", "country": "ES", "coord": {"lon": -0.48838, "lat": 38.972591}}, {"id": 2522200, "name": "Albox", "state": "", "country": "ES", "coord": {"lon": -2.1495, "lat": 37.388561}}, {"id": 2522202, "name": "Alborea", "state": "", "country": "ES", "coord": {"lon": -1.38333, "lat": 39.283329}}, {"id": 2522203, "name": "Alboraya", "state": "", "country": "ES", "coord": {"lon": -0.35, "lat": 39.5}}, {"id": 2522206, "name": "Alborache", "state": "", "country": "ES", "coord": {"lon": -0.76667, "lat": 39.383331}}, {"id": 2522207, "name": "Albond\u00f3n", "state": "", "country": "ES", "coord": {"lon": -3.21144, "lat": 36.827702}}, {"id": 2522208, "name": "Albolote", "state": "", "country": "ES", "coord": {"lon": -3.6551, "lat": 37.230881}}, {"id": 2522222, "name": "Alberic", "state": "", "country": "ES", "coord": {"lon": -0.51667, "lat": 39.116669}}, {"id": 2522225, "name": "Albend\u00edn", "state": "", "country": "ES", "coord": {"lon": -4.23849, "lat": 37.670319}}, {"id": 2522228, "name": "Albatera", "state": "", "country": "ES", "coord": {"lon": -0.87059, "lat": 38.17902}}, {"id": 2522229, "name": "Albatana", "state": "", "country": "ES", "coord": {"lon": -1.5221, "lat": 38.570572}}, {"id": 2522231, "name": "Albarreal de Tajo", "state": "", "country": "ES", "coord": {"lon": -4.22895, "lat": 39.89698}}, {"id": 2522242, "name": "Alb\u00e1nchez", "state": "", "country": "ES", "coord": {"lon": -2.18229, "lat": 37.283611}}, {"id": 2522243, "name": "Albalat dels Tarongers", "state": "", "country": "ES", "coord": {"lon": -0.33333, "lat": 39.700001}}, {"id": 2522244, "name": "Albalat dels Sorells", "state": "", "country": "ES", "coord": {"lon": -0.35, "lat": 39.533329}}, {"id": 2522245, "name": "Albalat de la Ribera", "state": "", "country": "ES", "coord": {"lon": -0.38333, "lat": 39.200001}}, {"id": 2522246, "name": "Albaladejo del Cuende", "state": "", "country": "ES", "coord": {"lon": -2.22903, "lat": 39.806839}}, {"id": 2522247, "name": "Albaladejo", "state": "", "country": "ES", "coord": {"lon": -2.80784, "lat": 38.61887}}, {"id": 2522249, "name": "Albal\u00e1", "state": "", "country": "ES", "coord": {"lon": -6.18528, "lat": 39.25592}}, {"id": 2522250, "name": "Albal", "state": "", "country": "ES", "coord": {"lon": -0.41667, "lat": 39.400002}}, {"id": 2522251, "name": "Albaida del Aljarafe", "state": "", "country": "ES", "coord": {"lon": -6.16675, "lat": 37.423538}}, {"id": 2522253, "name": "Albaida", "state": "", "country": "ES", "coord": {"lon": -0.51721, "lat": 38.837978}}, {"id": 2522257, "name": "Provincia de Albacete", "state": "", "country": "ES", "coord": {"lon": -2, "lat": 38.833328}}, {"id": 2522258, "name": "Albacete", "state": "", "country": "ES", "coord": {"lon": -1.85, "lat": 38.98333}}, {"id": 2522259, "name": "Alaior", "state": "", "country": "ES", "coord": {"lon": 4.14039, "lat": 39.93034}}, {"id": 2522260, "name": "Alatoz", "state": "", "country": "ES", "coord": {"lon": -1.36098, "lat": 39.094952}}, {"id": 2522261, "name": "Alar\u00f3", "state": "", "country": "ES", "coord": {"lon": 2.79181, "lat": 39.704411}}, {"id": 2522265, "name": "Alarc\u00f3n", "state": "", "country": "ES", "coord": {"lon": -2.08333, "lat": 39.549999}}, {"id": 2522267, "name": "Alan\u00eds", "state": "", "country": "ES", "coord": {"lon": -5.71667, "lat": 38.033329}}, {"id": 2522268, "name": "Alange", "state": "", "country": "ES", "coord": {"lon": -6.24574, "lat": 38.784939}}, {"id": 2522284, "name": "Alamillo", "state": "", "country": "ES", "coord": {"lon": -4.79008, "lat": 38.678421}}, {"id": 2522286, "name": "Alamedilla", "state": "", "country": "ES", "coord": {"lon": -3.24241, "lat": 37.582321}}, {"id": 2522291, "name": "Alameda", "state": "", "country": "ES", "coord": {"lon": -4.6586, "lat": 37.208698}}, {"id": 2522293, "name": "Alajer\u00f3", "state": "", "country": "ES", "coord": {"lon": -17.24073, "lat": 28.06205}}, {"id": 2522294, "name": "Al\u00e1jar", "state": "", "country": "ES", "coord": {"lon": -6.66536, "lat": 37.874081}}, {"id": 2522297, "name": "Alaqu\u00e0s", "state": "", "country": "ES", "coord": {"lon": -0.461, "lat": 39.455681}}, {"id": 2522299, "name": "Ajofr\u00edn", "state": "", "country": "ES", "coord": {"lon": -3.9822, "lat": 39.71088}}, {"id": 2522312, "name": "Ahillones", "state": "", "country": "ES", "coord": {"lon": -5.85, "lat": 38.26667}}, {"id": 2522318, "name": "Agulo", "state": "", "country": "ES", "coord": {"lon": -17.196779, "lat": 28.18778}}, {"id": 2522319, "name": "Agullent", "state": "", "country": "ES", "coord": {"lon": -0.54833, "lat": 38.822731}}, {"id": 2522325, "name": "Ag\u00fcimes", "state": "", "country": "ES", "coord": {"lon": -15.44609, "lat": 27.90539}}, {"id": 2522333, "name": "\u00c1guilas", "state": "", "country": "ES", "coord": {"lon": -1.58289, "lat": 37.4063}}, {"id": 2522335, "name": "Aguilar", "state": "", "country": "ES", "coord": {"lon": -4.65717, "lat": 37.514759}}, {"id": 2522359, "name": "Agudo", "state": "", "country": "ES", "coord": {"lon": -4.87133, "lat": 38.981831}}, {"id": 2522366, "name": "Aig\u00fces", "state": "", "country": "ES", "coord": {"lon": -0.35, "lat": 38.5}}, {"id": 2522378, "name": "Aguamansa", "state": "", "country": "ES", "coord": {"lon": -16.49634, "lat": 28.358669}}, {"id": 2522381, "name": "Agua-Garc\u00eda", "state": "", "country": "ES", "coord": {"lon": -16.40765, "lat": 28.46386}}, {"id": 2522387, "name": "Aguadulce", "state": "", "country": "ES", "coord": {"lon": -4.99269, "lat": 37.252731}}, {"id": 2522388, "name": "Aguadulce", "state": "", "country": "ES", "coord": {"lon": -2.57235, "lat": 36.814091}}, {"id": 2522395, "name": "Agua Amarga", "state": "", "country": "ES", "coord": {"lon": -1.93434, "lat": 36.94001}}, {"id": 2522412, "name": "Agr\u00f3n", "state": "", "country": "ES", "coord": {"lon": -3.8287, "lat": 37.030231}}, {"id": 2522416, "name": "Agres", "state": "", "country": "ES", "coord": {"lon": -0.51667, "lat": 38.783329}}, {"id": 2522419, "name": "Agost", "state": "", "country": "ES", "coord": {"lon": -0.63836, "lat": 38.440029}}, {"id": 2522423, "name": "Agaete", "state": "", "country": "ES", "coord": {"lon": -15.69998, "lat": 28.100229}}, {"id": 2522425, "name": "Atzeneta d'Albaida", "state": "", "country": "ES", "coord": {"lon": -0.5, "lat": 38.833328}}, {"id": 2522427, "name": "Aduanas", "state": "", "country": "ES", "coord": {"lon": 0.18198, "lat": 38.796242}}, {"id": 2522428, "name": "Adsubia", "state": "", "country": "ES", "coord": {"lon": -0.15324, "lat": 38.84819}}, {"id": 2522430, "name": "Adra", "state": "", "country": "ES", "coord": {"lon": -3.02055, "lat": 36.749611}}, {"id": 2522432, "name": "Ador", "state": "", "country": "ES", "coord": {"lon": -0.22247, "lat": 38.918228}}, {"id": 2522437, "name": "Adeje", "state": "", "country": "ES", "coord": {"lon": -16.726, "lat": 28.122709}}, {"id": 2522438, "name": "Adamuz", "state": "", "country": "ES", "coord": {"lon": -4.52231, "lat": 38.026741}}, {"id": 2522446, "name": "Aceuchal", "state": "", "country": "ES", "coord": {"lon": -6.48636, "lat": 38.646271}}, {"id": 2522451, "name": "Acequias", "state": "", "country": "ES", "coord": {"lon": -3.53974, "lat": 36.967861}}, {"id": 2522460, "name": "Acedera", "state": "", "country": "ES", "coord": {"lon": -5.57384, "lat": 39.076778}}, {"id": 2522461, "name": "Aceca", "state": "", "country": "ES", "coord": {"lon": -3.85, "lat": 39.950001}}, {"id": 2522474, "name": "Alcal\u00e1 del R\u00edo", "state": "", "country": "ES", "coord": {"lon": -5.98185, "lat": 37.517799}}, {"id": 2522476, "name": "Abrucena", "state": "", "country": "ES", "coord": {"lon": -2.79711, "lat": 37.132259}}, {"id": 2522477, "name": "Abriojal", "state": "", "country": "ES", "coord": {"lon": -2.46775, "lat": 36.953979}}, {"id": 2522483, "name": "Abla", "state": "", "country": "ES", "coord": {"lon": -2.77808, "lat": 37.142448}}, {"id": 2522486, "name": "Abertura", "state": "", "country": "ES", "coord": {"lon": -5.81394, "lat": 39.243519}}, {"id": 2522488, "name": "Aben\u00f3jar", "state": "", "country": "ES", "coord": {"lon": -4.35702, "lat": 38.880322}}, {"id": 2522490, "name": "Abengibre", "state": "", "country": "ES", "coord": {"lon": -1.53333, "lat": 39.216671}}, {"id": 2522496, "name": "Abdet", "state": "", "country": "ES", "coord": {"lon": -0.25726, "lat": 38.694221}}, {"id": 2522499, "name": "Abar\u00e1n", "state": "", "country": "ES", "coord": {"lon": -1.39907, "lat": 38.205509}}, {"id": 2522505, "name": "Abanilla", "state": "", "country": "ES", "coord": {"lon": -1.04152, "lat": 38.205379}}, {"id": 2522677, "name": "Zumpano", "state": "", "country": "IT", "coord": {"lon": 16.292089, "lat": 39.31089}}, {"id": 2522683, "name": "Zerfaliu", "state": "", "country": "IT", "coord": {"lon": 8.70889, "lat": 39.958611}}, {"id": 2522685, "name": "Zeddiani", "state": "", "country": "IT", "coord": {"lon": 8.59528, "lat": 39.990829}}, {"id": 2522691, "name": "Zambrone", "state": "", "country": "IT", "coord": {"lon": 15.99009, "lat": 38.699181}}, {"id": 2522692, "name": "Zagarise", "state": "", "country": "IT", "coord": {"lon": 16.6632, "lat": 38.999191}}, {"id": 2522696, "name": "Zafferana Etnea", "state": "", "country": "IT", "coord": {"lon": 15.10799, "lat": 37.682159}}, {"id": 2522699, "name": "Zaccanopoli", "state": "", "country": "IT", "coord": {"lon": 15.92979, "lat": 38.66478}},