[{"id": 6535412, "name": "Pertusio", "state": "", "country": "IT", "coord": {"lon": 7.64152, "lat": 45.355652}}, {"id": 6535413, "name": "Piobesi Torinese", "state": "", "country": "IT", "coord": {"lon": 7.61012, "lat": 44.932941}}, {"id": 6535414, "name": "Piscina", "state": "", "country": "IT", "coord": {"lon": 7.42532, "lat": 44.918739}}, {"id": 6535415, "name": "Piverone", "state": "", "country": "IT", "coord": {"lon": 8.00572, "lat": 45.446259}}, {"id": 6535416, "name": "Porte", "state": "", "country": "IT", "coord": {"lon": 7.26982, "lat": 44.887138}}, {"id": 6535417, "name": "Rivarossa", "state": "", "country": "IT", "coord": {"lon": 7.71482, "lat": 45.251652}}, {"id": 6535418, "name": "Roletto", "state": "", "country": "IT", "coord": {"lon": 7.33232, "lat": 44.924438}}, {"id": 6535419, "name": "Ror\u00e0", "state": "", "country": "IT", "coord": {"lon": 7.19902, "lat": 44.792141}}, {"id": 6535420, "name": "Rosta", "state": "", "country": "IT", "coord": {"lon": 7.46512, "lat": 45.06794}}, {"id": 6535421, "name": "Rueglio", "state": "", "country": "IT", "coord": {"lon": 7.75462, "lat": 45.468262}}, {"id": 6535422, "name": "San Carlo Canavese", "state": "", "country": "IT", "coord": {"lon": 7.60572, "lat": 45.244549}}, {"id": 6535423, "name": "San Colombano Belmonte", "state": "", "country": "IT", "coord": {"lon": 7.62102, "lat": 45.382252}}, {"id": 6535424, "name": "Strambinello", "state": "", "country": "IT", "coord": {"lon": 7.76992, "lat": 45.423061}}, {"id": 6535425, "name": "Usseaux", "state": "", "country": "IT", "coord": {"lon": 7.02851, "lat": 45.048939}}, {"id": 6535426, "name": "Vallo Torinese", "state": "", "country": "IT", "coord": {"lon": 7.49632, "lat": 45.223549}}, {"id": 6535427, "name": "Villanova Canavese", "state": "", "country": "IT", "coord": {"lon": 7.55212, "lat": 45.243549}}, {"id": 6535428, "name": "Vische", "state": "", "country": "IT", "coord": {"lon": 7.94482, "lat": 45.335659}}, {"id": 6535429, "name": "Asigliano Vercellese", "state": "", "country": "IT", "coord": {"lon": 8.40853, "lat": 45.261459}}, {"id": 6535430, "name": "Caresanablot", "state": "", "country": "IT", "coord": {"lon": 8.39203, "lat": 45.357361}}, {"id": 6535431, "name": "San Giacomo Vercellese", "state": "", "country": "IT", "coord": {"lon": 8.32673, "lat": 45.498161}}, {"id": 6535432, "name": "Cervatto", "state": "", "country": "IT", "coord": {"lon": 8.16232, "lat": 45.882969}}, {"id": 6535433, "name": "Rassa", "state": "", "country": "IT", "coord": {"lon": 8.01208, "lat": 45.768211}}, {"id": 6535434, "name": "Riva Valdobbia", "state": "", "country": "IT", "coord": {"lon": 7.95661, "lat": 45.830971}}, {"id": 6535435, "name": "Scopa", "state": "", "country": "IT", "coord": {"lon": 8.11402, "lat": 45.792969}}, {"id": 6535436, "name": "Vocca", "state": "", "country": "IT", "coord": {"lon": 8.1958, "lat": 45.832691}}, {"id": 6535437, "name": "Barengo", "state": "", "country": "IT", "coord": {"lon": 8.51403, "lat": 45.57597}}, {"id": 6535438, "name": "Boca", "state": "", "country": "IT", "coord": {"lon": 8.40873, "lat": 45.67897}}, {"id": 6535439, "name": "Casalbeltrame", "state": "", "country": "IT", "coord": {"lon": 8.46653, "lat": 45.438061}}, {"id": 6535440, "name": "Cavaglietto", "state": "", "country": "IT", "coord": {"lon": 8.50213, "lat": 45.602169}}, {"id": 6535441, "name": "Cavaglio D'Agogna", "state": "", "country": "IT", "coord": {"lon": 8.48613, "lat": 45.613171}}, {"id": 6535442, "name": "Cureggio", "state": "", "country": "IT", "coord": {"lon": 8.45973, "lat": 45.67487}}, {"id": 6535443, "name": "Dormelletto", "state": "", "country": "IT", "coord": {"lon": 8.56663, "lat": 45.736271}}, {"id": 6535444, "name": "Gargallo", "state": "", "country": "IT", "coord": {"lon": 8.42532, "lat": 45.728771}}, {"id": 6535445, "name": "Maggiora", "state": "", "country": "IT", "coord": {"lon": 8.42233, "lat": 45.689369}}, {"id": 6535446, "name": "Mandello Vitta", "state": "", "country": "IT", "coord": {"lon": 8.45983, "lat": 45.495659}}, {"id": 6535447, "name": "Miasino", "state": "", "country": "IT", "coord": {"lon": 8.42972, "lat": 45.801971}}, {"id": 6535448, "name": "Nibbiola", "state": "", "country": "IT", "coord": {"lon": 8.65674, "lat": 45.37236}}, {"id": 6535449, "name": "Pisano", "state": "", "country": "IT", "coord": {"lon": 8.50763, "lat": 45.79277}}, {"id": 6535450, "name": "Alto", "state": "", "country": "IT", "coord": {"lon": 8.00215, "lat": 44.108631}}, {"id": 6535451, "name": "Baldissero d'Alba", "state": "", "country": "IT", "coord": {"lon": 7.90863, "lat": 44.761841}}, {"id": 6535452, "name": "Barolo", "state": "", "country": "IT", "coord": {"lon": 7.94284, "lat": 44.610939}}, {"id": 6535453, "name": "Battifollo", "state": "", "country": "IT", "coord": {"lon": 8.01094, "lat": 44.319832}}, {"id": 6535454, "name": "Canosio", "state": "", "country": "IT", "coord": {"lon": 7.08272, "lat": 44.45583}}, {"id": 6535455, "name": "Castelletto Stura", "state": "", "country": "IT", "coord": {"lon": 7.63923, "lat": 44.443829}}, {"id": 6535456, "name": "Castelnuovo di Ceva", "state": "", "country": "IT", "coord": {"lon": 8.12894, "lat": 44.353642}}, {"id": 6535457, "name": "Cavallerleone", "state": "", "country": "IT", "coord": {"lon": 7.66393, "lat": 44.740139}}, {"id": 6535458, "name": "Cerreto Langhe", "state": "", "country": "IT", "coord": {"lon": 8.09794, "lat": 44.574841}}, {"id": 6535459, "name": "Cervasca", "state": "", "country": "IT", "coord": {"lon": 7.47123, "lat": 44.380932}}, {"id": 6535460, "name": "Clavesana", "state": "", "country": "IT", "coord": {"lon": 7.91084, "lat": 44.483341}}, {"id": 6535461, "name": "Cossano Belbo", "state": "", "country": "IT", "coord": {"lon": 8.19864, "lat": 44.668839}}, {"id": 6535462, "name": "Farigliano", "state": "", "country": "IT", "coord": {"lon": 7.91424, "lat": 44.512039}}, {"id": 6535463, "name": "Frabosa Sottana", "state": "", "country": "IT", "coord": {"lon": 7.79754, "lat": 44.30233}}, {"id": 6535464, "name": "Guarene", "state": "", "country": "IT", "coord": {"lon": 8.03514, "lat": 44.74004}}, {"id": 6535465, "name": "Igliano", "state": "", "country": "IT", "coord": {"lon": 8.01334, "lat": 44.44294}}, {"id": 6535466, "name": "Lagnasco", "state": "", "country": "IT", "coord": {"lon": 7.55483, "lat": 44.625038}}, {"id": 6535467, "name": "Lequio Berria", "state": "", "country": "IT", "coord": {"lon": 8.09814, "lat": 44.605839}}, {"id": 6535468, "name": "Macra", "state": "", "country": "IT", "coord": {"lon": 7.17952, "lat": 44.50013}}, {"id": 6535469, "name": "Marmora", "state": "", "country": "IT", "coord": {"lon": 7.09402, "lat": 44.458328}}, {"id": 6535470, "name": "Marsaglia", "state": "", "country": "IT", "coord": {"lon": 7.97994, "lat": 44.452839}}, {"id": 6535471, "name": "Monasterolo di Savigliano", "state": "", "country": "IT", "coord": {"lon": 7.61953, "lat": 44.68634}}, {"id": 6535472, "name": "Montaldo Roero", "state": "", "country": "IT", "coord": {"lon": 7.92483, "lat": 44.768341}}, {"id": 6535473, "name": "Montanera", "state": "", "country": "IT", "coord": {"lon": 7.66563, "lat": 44.462231}}, {"id": 6535474, "name": "Neviglie", "state": "", "country": "IT", "coord": {"lon": 8.11684, "lat": 44.69194}}, {"id": 6535475, "name": "Oncino", "state": "", "country": "IT", "coord": {"lon": 7.19032, "lat": 44.67683}}, {"id": 6535476, "name": "Pagno", "state": "", "country": "IT", "coord": {"lon": 7.42572, "lat": 44.611729}}, {"id": 6535477, "name": "Pezzolo Valle Uzzone", "state": "", "country": "IT", "coord": {"lon": 8.19394, "lat": 44.538738}}, {"id": 6535478, "name": "Piozzo", "state": "", "country": "IT", "coord": {"lon": 7.89254, "lat": 44.51384}}, {"id": 6535479, "name": "Priocca", "state": "", "country": "IT", "coord": {"lon": 8.06424, "lat": 44.78624}}, {"id": 6535480, "name": "Prunetto", "state": "", "country": "IT", "coord": {"lon": 8.14374, "lat": 44.488941}}, {"id": 6535481, "name": "Rifreddo", "state": "", "country": "IT", "coord": {"lon": 7.34642, "lat": 44.65073}}, {"id": 6535482, "name": "Roaschia", "state": "", "country": "IT", "coord": {"lon": 7.45573, "lat": 44.270229}}, {"id": 6535483, "name": "Roburent", "state": "", "country": "IT", "coord": {"lon": 7.89224, "lat": 44.306332}}, {"id": 6535484, "name": "Rocca Cigli\u00e8", "state": "", "country": "IT", "coord": {"lon": 7.95094, "lat": 44.44524}}, {"id": 6535485, "name": "Roccasparvera", "state": "", "country": "IT", "coord": {"lon": 7.44153, "lat": 44.342129}}, {"id": 6535486, "name": "Sale San Giovanni", "state": "", "country": "IT", "coord": {"lon": 8.07794, "lat": 44.399139}}, {"id": 6535487, "name": "Santo Stefano Roero", "state": "", "country": "IT", "coord": {"lon": 7.94093, "lat": 44.788441}}, {"id": 6535488, "name": "Serralunga d'Alba", "state": "", "country": "IT", "coord": {"lon": 7.99944, "lat": 44.610039}}, {"id": 6535489, "name": "Somano", "state": "", "country": "IT", "coord": {"lon": 8.00784, "lat": 44.535339}}, {"id": 6535490, "name": "Torresina", "state": "", "country": "IT", "coord": {"lon": 8.03674, "lat": 44.43364}}, {"id": 6535491, "name": "Treiso", "state": "", "country": "IT", "coord": {"lon": 8.08814, "lat": 44.689739}}, {"id": 6535492, "name": "Trezzo Tinella", "state": "", "country": "IT", "coord": {"lon": 8.10754, "lat": 44.67704}}, {"id": 6535493, "name": "Valmala", "state": "", "country": "IT", "coord": {"lon": 7.34602, "lat": 44.544231}}, {"id": 6535494, "name": "Vicoforte", "state": "", "country": "IT", "coord": {"lon": 7.86264, "lat": 44.36393}}, {"id": 6535495, "name": "Villanova Solaro", "state": "", "country": "IT", "coord": {"lon": 7.57443, "lat": 44.729939}}, {"id": 6535496, "name": "Vottignasco", "state": "", "country": "IT", "coord": {"lon": 7.57913, "lat": 44.564129}}, {"id": 6535497, "name": "Aramengo", "state": "", "country": "IT", "coord": {"lon": 8.00003, "lat": 45.100849}}, {"id": 6535498, "name": "Azzano d'Asti", "state": "", "country": "IT", "coord": {"lon": 8.26684, "lat": 44.873451}}, {"id": 6535499, "name": "Buttigliera d'Asti", "state": "", "country": "IT", "coord": {"lon": 7.95103, "lat": 45.021751}}, {"id": 6535500, "name": "Calosso", "state": "", "country": "IT", "coord": {"lon": 8.22714, "lat": 44.739941}}, {"id": 6535501, "name": "Castelnuovo Belbo", "state": "", "country": "IT", "coord": {"lon": 8.41004, "lat": 44.802151}}, {"id": 6535502, "name": "Castel Rocchero", "state": "", "country": "IT", "coord": {"lon": 8.41534, "lat": 44.718349}}, {"id": 6535503, "name": "Celle Enomondo", "state": "", "country": "IT", "coord": {"lon": 8.12374, "lat": 44.85685}}, {"id": 6535504, "name": "Cerreto d'Asti", "state": "", "country": "IT", "coord": {"lon": 8.03513, "lat": 45.052151}}, {"id": 6535505, "name": "Cerro Tanaro", "state": "", "country": "IT", "coord": {"lon": 8.35874, "lat": 44.873348}}, {"id": 6535506, "name": "Chiusano d'Asti", "state": "", "country": "IT", "coord": {"lon": 8.11853, "lat": 44.986649}}, {"id": 6535507, "name": "Frinco", "state": "", "country": "IT", "coord": {"lon": 8.17193, "lat": 45.004051}}, {"id": 6535508, "name": "Grana", "state": "", "country": "IT", "coord": {"lon": 8.29944, "lat": 44.998348}}, {"id": 6535509, "name": "Loazzolo", "state": "", "country": "IT", "coord": {"lon": 8.25844, "lat": 44.669041}}, {"id": 6535510, "name": "Moasca", "state": "", "country": "IT", "coord": {"lon": 8.27834, "lat": 44.76355}}, {"id": 6535511, "name": "Moransengo", "state": "", "country": "IT", "coord": {"lon": 8.02523, "lat": 45.114849}}, {"id": 6535512, "name": "Olmo Gentile", "state": "", "country": "IT", "coord": {"lon": 8.24694, "lat": 44.585739}}, {"id": 6535513, "name": "Penango", "state": "", "country": "IT", "coord": {"lon": 8.25174, "lat": 45.032951}}, {"id": 6535514, "name": "Pino d'Asti", "state": "", "country": "IT", "coord": {"lon": 7.98623, "lat": 45.057449}}, {"id": 6535515, "name": "Portacomaro", "state": "", "country": "IT", "coord": {"lon": 8.25804, "lat": 44.95665}}, {"id": 6535516, "name": "Revigliasco d'Asti", "state": "", "country": "IT", "coord": {"lon": 8.16044, "lat": 44.857552}}, {"id": 6535517, "name": "Roccaverano", "state": "", "country": "IT", "coord": {"lon": 8.27214, "lat": 44.592239}}, {"id": 6535518, "name": "Rocchetta Palafea", "state": "", "country": "IT", "coord": {"lon": 8.34534, "lat": 44.707439}}, {"id": 6535519, "name": "Rocchetta Tanaro", "state": "", "country": "IT", "coord": {"lon": 8.34564, "lat": 44.85865}}, {"id": 6535520, "name": "San Giorgio Scarampi", "state": "", "country": "IT", "coord": {"lon": 8.24244, "lat": 44.610939}}, {"id": 6535521, "name": "San Marzano Oliveto", "state": "", "country": "IT", "coord": {"lon": 8.29534, "lat": 44.754452}}, {"id": 6535522, "name": "Scurzolengo", "state": "", "country": "IT", "coord": {"lon": 8.27914, "lat": 44.964851}}, {"id": 6535523, "name": "Sessame", "state": "", "country": "IT", "coord": {"lon": 8.33684, "lat": 44.670639}}, {"id": 6535524, "name": "Settime", "state": "", "country": "IT", "coord": {"lon": 8.11433, "lat": 44.96175}}, {"id": 6535525, "name": "Tonengo", "state": "", "country": "IT", "coord": {"lon": 8.00213, "lat": 45.117649}}, {"id": 6535526, "name": "Viale", "state": "", "country": "IT", "coord": {"lon": 8.04993, "lat": 45.000149}}, {"id": 6535527, "name": "Vigliano d'Asti", "state": "", "country": "IT", "coord": {"lon": 8.22914, "lat": 44.834049}}, {"id": 6535528, "name": "Albera Ligure", "state": "", "country": "IT", "coord": {"lon": 9.06616, "lat": 44.702351}}, {"id": 6535529, "name": "Alzano Scrivia", "state": "", "country": "IT", "coord": {"lon": 8.88065, "lat": 45.018059}}, {"id": 6535530, "name": "Basaluzzo", "state": "", "country": "IT", "coord": {"lon": 8.70485, "lat": 44.768848}}, {"id": 6535531, "name": "Camagna Monferrato", "state": "", "country": "IT", "coord": {"lon": 8.42974, "lat": 45.017651}}, {"id": 6535532, "name": "Carbonara Scrivia", "state": "", "country": "IT", "coord": {"lon": 8.86975, "lat": 44.849152}}, {"id": 6535533, "name": "Carentino", "state": "", "country": "IT", "coord": {"lon": 8.47134, "lat": 44.82885}}, {"id": 6535534, "name": "Carrega Ligure", "state": "", "country": "IT", "coord": {"lon": 9.17564, "lat": 44.61879}}, {"id": 6535535, "name": "Cartosio", "state": "", "country": "IT", "coord": {"lon": 8.42065, "lat": 44.59024}}, {"id": 6535536, "name": "Castellania", "state": "", "country": "IT", "coord": {"lon": 8.93035, "lat": 44.79845}}, {"id": 6535537, "name": "Castelletto d'Erro", "state": "", "country": "IT", "coord": {"lon": 8.39364, "lat": 44.62624}}, {"id": 6535538, "name": "Castelletto d'Orba", "state": "", "country": "IT", "coord": {"lon": 8.70395, "lat": 44.684551}}, {"id": 6535539, "name": "Castelletto Monferrato", "state": "", "country": "IT", "coord": {"lon": 8.56454, "lat": 44.981152}}, {"id": 6535540, "name": "Cavatore", "state": "", "country": "IT", "coord": {"lon": 8.45425, "lat": 44.630341}}, {"id": 6535541, "name": "Cerreto Grue", "state": "", "country": "IT", "coord": {"lon": 8.93035, "lat": 44.842548}}, {"id": 6535542, "name": "Denice", "state": "", "country": "IT", "coord": {"lon": 8.33314, "lat": 44.598839}}, {"id": 6535543, "name": "Dernice", "state": "", "country": "IT", "coord": {"lon": 9.05036, "lat": 44.766548}}, {"id": 6535544, "name": "Garbagna", "state": "", "country": "IT", "coord": {"lon": 8.99786, "lat": 44.780449}}, {"id": 6535545, "name": "Gremiasco", "state": "", "country": "IT", "coord": {"lon": 9.10686, "lat": 44.796249}}, {"id": 6535546, "name": "Grognardo", "state": "", "country": "IT", "coord": {"lon": 8.49265, "lat": 44.630341}}, {"id": 6535547, "name": "Melazzo", "state": "", "country": "IT", "coord": {"lon": 8.42495, "lat": 44.64394}}, {"id": 6535548, "name": "Merana", "state": "", "country": "IT", "coord": {"lon": 8.29824, "lat": 44.518841}}, {"id": 6535549, "name": "Monleale", "state": "", "country": "IT", "coord": {"lon": 8.97395, "lat": 44.884361}}, {"id": 6535550, "name": "Montaldo Bormida", "state": "", "country": "IT", "coord": {"lon": 8.58785, "lat": 44.682652}}, {"id": 6535551, "name": "Montecastello", "state": "", "country": "IT", "coord": {"lon": 8.68575, "lat": 44.949451}}, {"id": 6535552, "name": "Mornese", "state": "", "country": "IT", "coord": {"lon": 8.75615, "lat": 44.639252}}, {"id": 6535553, "name": "Ispani", "state": "", "country": "IT", "coord": {"lon": 15.55827, "lat": 40.087299}}, {"id": 6535554, "name": "Pareto", "state": "", "country": "IT", "coord": {"lon": 8.38185, "lat": 44.516441}}, {"id": 6535555, "name": "Parodi Ligure", "state": "", "country": "IT", "coord": {"lon": 8.75865, "lat": 44.66975}}, {"id": 6535556, "name": "Pasturana", "state": "", "country": "IT", "coord": {"lon": 8.74925, "lat": 44.750851}}, {"id": 6535557, "name": "Prasco", "state": "", "country": "IT", "coord": {"lon": 8.55195, "lat": 44.63924}}, {"id": 6535558, "name": "Crevoladossola", "state": "", "country": "IT", "coord": {"lon": 8.29742, "lat": 46.148579}}, {"id": 6535559, "name": "Germagno", "state": "", "country": "IT", "coord": {"lon": 8.38772, "lat": 45.89257}}, {"id": 6535560, "name": "Loreglia", "state": "", "country": "IT", "coord": {"lon": 8.37132, "lat": 45.906872}}, {"id": 6535561, "name": "Romallo", "state": "", "country": "IT", "coord": {"lon": 11.06617, "lat": 46.397209}}, {"id": 6535562, "name": "Samone", "state": "", "country": "IT", "coord": {"lon": 11.52259, "lat": 46.081612}}, {"id": 6535563, "name": "San Lorenzo in Banale", "state": "", "country": "IT", "coord": {"lon": 10.90847, "lat": 46.076599}}, {"id": 6535564, "name": "Scurelle", "state": "", "country": "IT", "coord": {"lon": 11.50569, "lat": 46.06451}}, {"id": 6535565, "name": "Spera", "state": "", "country": "IT", "coord": {"lon": 11.50899, "lat": 46.070309}}, {"id": 6535566, "name": "Spiazzo", "state": "", "country": "IT", "coord": {"lon": 10.73937, "lat": 46.1036}}, {"id": 6535567, "name": "Strembo", "state": "", "country": "IT", "coord": {"lon": 10.75087, "lat": 46.1203}}, {"id": 6535568, "name": "Telve di Sopra", "state": "", "country": "IT", "coord": {"lon": 11.47179, "lat": 46.071308}}, {"id": 6535569, "name": "Terres", "state": "", "country": "IT", "coord": {"lon": 11.02307, "lat": 46.30991}}, {"id": 6535570, "name": "Valda", "state": "", "country": "IT", "coord": {"lon": 11.26488, "lat": 46.207211}}, {"id": 6535571, "name": "Villa Rendena", "state": "", "country": "IT", "coord": {"lon": 10.71107, "lat": 46.061699}}, {"id": 6535572, "name": "Caldiero", "state": "", "country": "IT", "coord": {"lon": 11.17739, "lat": 45.414391}}, {"id": 6535573, "name": "Cazzano di Tramigna", "state": "", "country": "IT", "coord": {"lon": 11.20289, "lat": 45.473091}}, {"id": 6535574, "name": "Isola Rizza", "state": "", "country": "IT", "coord": {"lon": 11.199, "lat": 45.292278}}, {"id": 6535575, "name": "Mezzane di Sotto", "state": "", "country": "IT", "coord": {"lon": 11.12729, "lat": 45.481991}}, {"id": 6535576, "name": "Roverchiara", "state": "", "country": "IT", "coord": {"lon": 11.2451, "lat": 45.267979}}, {"id": 6535577, "name": "San Pietro di Morubio", "state": "", "country": "IT", "coord": {"lon": 11.227, "lat": 45.242481}}, {"id": 6535578, "name": "Sorg\u00e0", "state": "", "country": "IT", "coord": {"lon": 10.97989, "lat": 45.21328}}, {"id": 6535579, "name": "Velo Veronese", "state": "", "country": "IT", "coord": {"lon": 11.09519, "lat": 45.606689}}, {"id": 6535580, "name": "Cartigliano", "state": "", "country": "IT", "coord": {"lon": 11.6956, "lat": 45.713001}}, {"id": 6535581, "name": "Gambellara", "state": "", "country": "IT", "coord": {"lon": 11.3401, "lat": 45.459789}}, {"id": 6535582, "name": "Gambugliano", "state": "", "country": "IT", "coord": {"lon": 11.4386, "lat": 45.58799}}, {"id": 6535583, "name": "Laghi", "state": "", "country": "IT", "coord": {"lon": 11.27249, "lat": 45.824501}}, {"id": 6535584, "name": "Nogarole Vicentino", "state": "", "country": "IT", "coord": {"lon": 11.28829, "lat": 45.560188}}, {"id": 6535585, "name": "Rotzo", "state": "", "country": "IT", "coord": {"lon": 11.39619, "lat": 45.8619}}, {"id": 6535586, "name": "San Germano dei Berici", "state": "", "country": "IT", "coord": {"lon": 11.4713, "lat": 45.401791}}, {"id": 6535587, "name": "Sovizzo", "state": "", "country": "IT", "coord": {"lon": 11.4461, "lat": 45.526691}}, {"id": 6535588, "name": "Zugliano", "state": "", "country": "IT", "coord": {"lon": 11.524, "lat": 45.729801}}, {"id": 6535589, "name": "Rocca Pietore", "state": "", "country": "IT", "coord": {"lon": 11.97679, "lat": 46.433922}}, {"id": 6535590, "name": "Tambre", "state": "", "country": "IT", "coord": {"lon": 12.41941, "lat": 46.12632}}, {"id": 6535591, "name": "Boara Pisani", "state": "", "country": "IT", "coord": {"lon": 11.78271, "lat": 45.108082}}, {"id": 6535592, "name": "Cervarese Santa Croce", "state": "", "country": "IT", "coord": {"lon": 11.6879, "lat": 45.424389}}, {"id": 6535593, "name": "Masi", "state": "", "country": "IT", "coord": {"lon": 11.4892, "lat": 45.108879}}, {"id": 6535594, "name": "San Giorgio delle Pertiche", "state": "", "country": "IT", "coord": {"lon": 11.89401, "lat": 45.541}}, {"id": 6535595, "name": "Bagnolo di Po", "state": "", "country": "IT", "coord": {"lon": 11.50091, "lat": 45.01548}}, {"id": 6535596, "name": "Canda", "state": "", "country": "IT", "coord": {"lon": 11.50331, "lat": 45.036079}}, {"id": 6535597, "name": "Majano", "state": "", "country": "IT", "coord": {"lon": 13.06162, "lat": 46.187519}}, {"id": 6535598, "name": "Treppo Carnico", "state": "", "country": "IT", "coord": {"lon": 13.04292, "lat": 46.53323}}, {"id": 6535599, "name": "Farra d'Isonzo", "state": "", "country": "IT", "coord": {"lon": 13.51654, "lat": 45.90802}}, {"id": 6535600, "name": "San Pietro in Cerro", "state": "", "country": "IT", "coord": {"lon": 9.94987, "lat": 45.02137}}, {"id": 6535601, "name": "Zerba", "state": "", "country": "IT", "coord": {"lon": 9.28716, "lat": 44.666149}}, {"id": 6535602, "name": "San Possidonio", "state": "", "country": "IT", "coord": {"lon": 11.0013, "lat": 44.893768}}, {"id": 6535603, "name": "Predappio", "state": "", "country": "IT", "coord": {"lon": 11.98413, "lat": 44.103161}}, {"id": 6535604, "name": "Cartoceto", "state": "", "country": "IT", "coord": {"lon": 12.88346, "lat": 43.765659}}, {"id": 6535605, "name": "Mercatino Conca", "state": "", "country": "IT", "coord": {"lon": 12.49115, "lat": 43.870159}}, {"id": 6535606, "name": "Monte Porzio", "state": "", "country": "IT", "coord": {"lon": 13.04686, "lat": 43.691158}}, {"id": 6535607, "name": "Serrungarina", "state": "", "country": "IT", "coord": {"lon": 12.87486, "lat": 43.746658}}, {"id": 6535608, "name": "Barbara", "state": "", "country": "IT", "coord": {"lon": 13.02736, "lat": 43.58036}}, {"id": 6535609, "name": "Castelleone di Suasa", "state": "", "country": "IT", "coord": {"lon": 12.97796, "lat": 43.608158}}, {"id": 6535610, "name": "Poggio San Marcello", "state": "", "country": "IT", "coord": {"lon": 13.07367, "lat": 43.511162}}, {"id": 6535611, "name": "Force", "state": "", "country": "IT", "coord": {"lon": 13.48768, "lat": 42.960949}}, {"id": 6535612, "name": "Monteleone di Fermo", "state": "", "country": "IT", "coord": {"lon": 13.52948, "lat": 43.047852}}, {"id": 6535613, "name": "Filattiera", "state": "", "country": "IT", "coord": {"lon": 9.93308, "lat": 44.330051}}, {"id": 6535614, "name": "Careggine", "state": "", "country": "IT", "coord": {"lon": 10.3254, "lat": 44.119949}}, {"id": 6535615, "name": "Fosciandora", "state": "", "country": "IT", "coord": {"lon": 10.4585, "lat": 44.114948}}, {"id": 6535616, "name": "Vergemoli", "state": "", "country": "IT", "coord": {"lon": 10.3848, "lat": 44.05135}}, {"id": 6535617, "name": "Villa Collemandina", "state": "", "country": "IT", "coord": {"lon": 10.3976, "lat": 44.15855}}, {"id": 6535618, "name": "Orciano Pisano", "state": "", "country": "IT", "coord": {"lon": 10.51151, "lat": 43.494438}}, {"id": 6535619, "name": "Semproniano", "state": "", "country": "IT", "coord": {"lon": 11.54134, "lat": 42.729229}}, {"id": 6535620, "name": "Lisciano Niccone", "state": "", "country": "IT", "coord": {"lon": 12.14305, "lat": 43.246841}}, {"id": 6535621, "name": "Villa San Giovanni in Tuscia", "state": "", "country": "IT", "coord": {"lon": 12.05346, "lat": 42.27882}}, {"id": 6535622, "name": "Montenero Sabino", "state": "", "country": "IT", "coord": {"lon": 12.81358, "lat": 42.281231}}, {"id": 6535623, "name": "Campodimele", "state": "", "country": "IT", "coord": {"lon": 13.53081, "lat": 41.388222}}, {"id": 6535624, "name": "Torre Caietani", "state": "", "country": "IT", "coord": {"lon": 13.2652, "lat": 41.78672}}, {"id": 6535625, "name": "Trivigliano", "state": "", "country": "IT", "coord": {"lon": 13.2723, "lat": 41.775719}}, {"id": 6535626, "name": "Carinaro", "state": "", "country": "IT", "coord": {"lon": 14.21963, "lat": 40.98291}}, {"id": 6535627, "name": "Castello del Matese", "state": "", "country": "IT", "coord": {"lon": 14.37773, "lat": 41.366718}}, {"id": 6535628, "name": "Curti", "state": "", "country": "IT", "coord": {"lon": 14.27393, "lat": 41.07291}}, {"id": 6535629, "name": "Piana di Monte Verna", "state": "", "country": "IT", "coord": {"lon": 14.33373, "lat": 41.167122}}, {"id": 6535630, "name": "Villa di Briano", "state": "", "country": "IT", "coord": {"lon": 14.16073, "lat": 41.000011}}, {"id": 6535631, "name": "Falciano del Massico", "state": "", "country": "IT", "coord": {"lon": 13.94812, "lat": 41.162708}}, {"id": 6535632, "name": "Casapesenna", "state": "", "country": "IT", "coord": {"lon": 14.13613, "lat": 40.991508}}, {"id": 6535633, "name": "Calvi", "state": "", "country": "IT", "coord": {"lon": 14.86524, "lat": 41.071621}}, {"id": 6535634, "name": "San Nazzaro", "state": "", "country": "IT", "coord": {"lon": 14.85724, "lat": 41.05172}}, {"id": 6535635, "name": "San Nicola Manfredi", "state": "", "country": "IT", "coord": {"lon": 14.82494, "lat": 41.07412}}, {"id": 6535636, "name": "Carbonara di Nola", "state": "", "country": "IT", "coord": {"lon": 14.57884, "lat": 40.874409}}, {"id": 6535637, "name": "Massa di Somma", "state": "", "country": "IT", "coord": {"lon": 14.37513, "lat": 40.845509}}, {"id": 6535638, "name": "Montella", "state": "", "country": "IT", "coord": {"lon": 15.01785, "lat": 40.843719}}, {"id": 6535639, "name": "Pago del Vallo di Lauro", "state": "", "country": "IT", "coord": {"lon": 14.60764, "lat": 40.897209}}, {"id": 6535640, "name": "Roccabascerana", "state": "", "country": "IT", "coord": {"lon": 14.71684, "lat": 41.018421}}, {"id": 6535641, "name": "Tufo", "state": "", "country": "IT", "coord": {"lon": 14.81784, "lat": 41.012619}}, {"id": 6535642, "name": "Vallesaccarda", "state": "", "country": "IT", "coord": {"lon": 15.25205, "lat": 41.063122}}, {"id": 6535643, "name": "Felitto", "state": "", "country": "IT", "coord": {"lon": 15.24306, "lat": 40.373508}}, {"id": 6535644, "name": "Bugnara", "state": "", "country": "IT", "coord": {"lon": 13.86141, "lat": 42.02383}}, {"id": 6535645, "name": "Morino", "state": "", "country": "IT", "coord": {"lon": 13.457, "lat": 41.864422}}, {"id": 6535646, "name": "Rivisondoli", "state": "", "country": "IT", "coord": {"lon": 14.06671, "lat": 41.870232}}, {"id": 6535647, "name": "Castel Castagna", "state": "", "country": "IT", "coord": {"lon": 13.7164, "lat": 42.542938}}, {"id": 6535648, "name": "Roccamorice", "state": "", "country": "IT", "coord": {"lon": 14.02531, "lat": 42.212742}}, {"id": 6535650, "name": "Palmoli", "state": "", "country": "IT", "coord": {"lon": 14.58142, "lat": 41.939442}}, {"id": 6535651, "name": "Rocca San Giovanni", "state": "", "country": "IT", "coord": {"lon": 14.46162, "lat": 42.24604}}, {"id": 6535652, "name": "Castro", "state": "", "country": "IT", "coord": {"lon": 18.42573, "lat": 40.007019}}, {"id": 6535653, "name": "Gagliato", "state": "", "country": "IT", "coord": {"lon": 16.4606, "lat": 38.675781}}, {"id": 6535654, "name": "Settingiano", "state": "", "country": "IT", "coord": {"lon": 16.513901, "lat": 38.911388}}, {"id": 6535655, "name": "Campo Calabro", "state": "", "country": "IT", "coord": {"lon": 15.65919, "lat": 38.216068}}, {"id": 6535656, "name": "Maropati", "state": "", "country": "IT", "coord": {"lon": 16.0975, "lat": 38.44178}}, {"id": 6535657, "name": "Oppido Mamertina", "state": "", "country": "IT", "coord": {"lon": 15.9839, "lat": 38.293369}}, {"id": 6535658, "name": "Riace", "state": "", "country": "IT", "coord": {"lon": 16.481211, "lat": 38.418282}}, {"id": 6535659, "name": "San Pietro di Carid\u00e0", "state": "", "country": "IT", "coord": {"lon": 16.1353, "lat": 38.523682}}, {"id": 6535660, "name": "Sant'Agata del Bianco", "state": "", "country": "IT", "coord": {"lon": 16.0816, "lat": 38.093071}}, {"id": 6535661, "name": "Buseto Palizzolo", "state": "", "country": "IT", "coord": {"lon": 12.71743, "lat": 38.02594}}, {"id": 6535662, "name": "Trappeto", "state": "", "country": "IT", "coord": {"lon": 13.03794, "lat": 38.068748}}, {"id": 6535663, "name": "Blufi", "state": "", "country": "IT", "coord": {"lon": 14.07296, "lat": 37.752048}}, {"id": 6535664, "name": "Al\u00ec Terme", "state": "", "country": "IT", "coord": {"lon": 15.42269, "lat": 38.005058}}, {"id": 6535665, "name": "Graniti", "state": "", "country": "IT", "coord": {"lon": 15.22459, "lat": 37.889858}}, {"id": 6535666, "name": "Limina", "state": "", "country": "IT", "coord": {"lon": 15.27119, "lat": 37.940762}}, {"id": 6535667, "name": "Pace del Mela", "state": "", "country": "IT", "coord": {"lon": 15.30628, "lat": 38.17997}}, {"id": 6535668, "name": "Rometta", "state": "", "country": "IT", "coord": {"lon": 15.41429, "lat": 38.170071}}, {"id": 6535670, "name": "Esporlatu", "state": "", "country": "IT", "coord": {"lon": 8.98983, "lat": 40.38456}}, {"id": 6535671, "name": "Viddalba", "state": "", "country": "IT", "coord": {"lon": 8.89452, "lat": 40.916969}}, {"id": 6535672, "name": "Golfo Aranci", "state": "", "country": "IT", "coord": {"lon": 9.61453, "lat": 41.006481}}, {"id": 6535673, "name": "Budoni", "state": "", "country": "IT", "coord": {"lon": 9.70774, "lat": 40.702572}}, {"id": 6535674, "name": "Villanova Tulo", "state": "", "country": "IT", "coord": {"lon": 9.21424, "lat": 39.779949}}, {"id": 6535675, "name": "Ollastra", "state": "", "country": "IT", "coord": {"lon": 8.73423, "lat": 39.950951}}, {"id": 6535676, "name": "Casapinta", "state": "", "country": "IT", "coord": {"lon": 8.19592, "lat": 45.615662}}, {"id": 6535677, "name": "Castelletto Cervo", "state": "", "country": "IT", "coord": {"lon": 8.22542, "lat": 45.521358}}, {"id": 6535678, "name": "Dorzano", "state": "", "country": "IT", "coord": {"lon": 8.09852, "lat": 45.42606}}, {"id": 6535679, "name": "Gifflenga", "state": "", "country": "IT", "coord": {"lon": 8.23223, "lat": 45.493061}}, {"id": 6535680, "name": "Miagliano", "state": "", "country": "IT", "coord": {"lon": 8.04472, "lat": 45.613461}}, {"id": 6535681, "name": "Muzzano", "state": "", "country": "IT", "coord": {"lon": 7.98892, "lat": 45.56076}}, {"id": 6535682, "name": "Ponderano", "state": "", "country": "IT", "coord": {"lon": 8.05592, "lat": 45.53846}}, {"id": 6535683, "name": "Quaregna", "state": "", "country": "IT", "coord": {"lon": 8.16372, "lat": 45.581161}}, {"id": 6535684, "name": "Roppolo", "state": "", "country": "IT", "coord": {"lon": 8.06972, "lat": 45.420559}}, {"id": 6535685, "name": "Rosazza", "state": "", "country": "IT", "coord": {"lon": 7.97712, "lat": 45.675758}}, {"id": 6535686, "name": "Ternengo", "state": "", "country": "IT", "coord": {"lon": 8.11372, "lat": 45.588959}}, {"id": 6535687, "name": "Viverone", "state": "", "country": "IT", "coord": {"lon": 8.04942, "lat": 45.427261}}, {"id": 6535688, "name": "Zubiena", "state": "", "country": "IT", "coord": {"lon": 7.99552, "lat": 45.492661}}, {"id": 6535689, "name": "Zumaglia", "state": "", "country": "IT", "coord": {"lon": 8.08942, "lat": 45.593861}}, {"id": 6535690, "name": "Barzago", "state": "", "country": "IT", "coord": {"lon": 9.31424, "lat": 45.755482}}, {"id": 6535691, "name": "Barzio", "state": "", "country": "IT", "coord": {"lon": 9.46694, "lat": 45.943481}}, {"id": 6535692, "name": "Cassina Valsassina", "state": "", "country": "IT", "coord": {"lon": 9.47894, "lat": 45.932079}}, {"id": 6535693, "name": "Cernusco Lombardone", "state": "", "country": "IT", "coord": {"lon": 9.39925, "lat": 45.69088}}, {"id": 6535694, "name": "Cesana Brianza", "state": "", "country": "IT", "coord": {"lon": 9.29954, "lat": 45.81678}}, {"id": 6535695, "name": "Crandola Valsassina", "state": "", "country": "IT", "coord": {"lon": 9.37914, "lat": 46.023289}}, {"id": 6535696, "name": "Cremella", "state": "", "country": "IT", "coord": {"lon": 9.30064, "lat": 45.738579}}, {"id": 6535697, "name": "Dolzago", "state": "", "country": "IT", "coord": {"lon": 9.33934, "lat": 45.766979}}, {"id": 6535698, "name": "Ello", "state": "", "country": "IT", "coord": {"lon": 9.36534, "lat": 45.785679}}, {"id": 6535699, "name": "Introzzo", "state": "", "country": "IT", "coord": {"lon": 9.34094, "lat": 46.081188}}, {"id": 6535700, "name": "Margno", "state": "", "country": "IT", "coord": {"lon": 9.38164, "lat": 46.030991}}, {"id": 6535701, "name": "Montevecchia", "state": "", "country": "IT", "coord": {"lon": 9.38085, "lat": 45.705479}}, {"id": 6535702, "name": "Primaluna", "state": "", "country": "IT", "coord": {"lon": 9.43764, "lat": 45.983791}}, {"id": 6535703, "name": "Sirone", "state": "", "country": "IT", "coord": {"lon": 9.32214, "lat": 45.772678}}, {"id": 6535704, "name": "Vendrogno", "state": "", "country": "IT", "coord": {"lon": 9.32944, "lat": 46.034389}}, {"id": 6535705, "name": "Vestreno", "state": "", "country": "IT", "coord": {"lon": 9.32484, "lat": 46.08329}}, {"id": 6535706, "name": "Vigan\u00f2", "state": "", "country": "IT", "coord": {"lon": 9.32494, "lat": 45.724682}}, {"id": 6535707, "name": "Abbadia Cerreto", "state": "", "country": "IT", "coord": {"lon": 9.59416, "lat": 45.312168}}, {"id": 6535708, "name": "Borgo San Giovanni", "state": "", "country": "IT", "coord": {"lon": 9.43496, "lat": 45.27787}}, {"id": 6535709, "name": "Caselle Landi", "state": "", "country": "IT", "coord": {"lon": 9.79557, "lat": 45.10257}}, {"id": 6535710, "name": "Cornovecchio", "state": "", "country": "IT", "coord": {"lon": 9.79937, "lat": 45.136669}}, {"id": 6535711, "name": "Galgagnano", "state": "", "country": "IT", "coord": {"lon": 9.44536, "lat": 45.357971}}, {"id": 6535712, "name": "Livraga", "state": "", "country": "IT", "coord": {"lon": 9.54646, "lat": 45.192268}}, {"id": 6535713, "name": "Maccastorna", "state": "", "country": "IT", "coord": {"lon": 9.85457, "lat": 45.146671}}, {"id": 6535714, "name": "Marudo", "state": "", "country": "IT", "coord": {"lon": 9.37716, "lat": 45.252972}}, {"id": 6535715, "name": "Massalengo-Motta Vigana", "state": "", "country": "IT", "coord": {"lon": 9.49016, "lat": 45.264969}}, {"id": 6535716, "name": "Merlino", "state": "", "country": "IT", "coord": {"lon": 9.42985, "lat": 45.433369}}, {"id": 6535717, "name": "Mulazzano", "state": "", "country": "IT", "coord": {"lon": 9.39765, "lat": 45.372372}}, {"id": 6535718, "name": "Salerano sul Lambro", "state": "", "country": "IT", "coord": {"lon": 9.38516, "lat": 45.29657}}, {"id": 6535719, "name": "San Rocco al Porto", "state": "", "country": "IT", "coord": {"lon": 9.69716, "lat": 45.08197}}, {"id": 6535720, "name": "Santo Stefano Lodigiano", "state": "", "country": "IT", "coord": {"lon": 9.73527, "lat": 45.118568}}, {"id": 6535721, "name": "Somaglia", "state": "", "country": "IT", "coord": {"lon": 9.63346, "lat": 45.149471}}, {"id": 6535722, "name": "Mondaino", "state": "", "country": "IT", "coord": {"lon": 12.66845, "lat": 43.85796}}, {"id": 6535723, "name": "Monte Colombo", "state": "", "country": "IT", "coord": {"lon": 12.55235, "lat": 43.920158}}, {"id": 6535724, "name": "Brognaturo", "state": "", "country": "IT", "coord": {"lon": 16.3414, "lat": 38.60128}}, {"id": 6535725, "name": "Joppolo", "state": "", "country": "IT", "coord": {"lon": 15.89709, "lat": 38.583382}}, {"id": 6535726, "name": "Zungri", "state": "", "country": "IT", "coord": {"lon": 15.98409, "lat": 38.656681}}, {"id": 6535727, "name": "Bee", "state": "", "country": "IT", "coord": {"lon": 8.57542, "lat": 45.96328}}, {"id": 6535728, "name": "Caprezzo", "state": "", "country": "IT", "coord": {"lon": 8.56282, "lat": 45.981979}}, {"id": 6535729, "name": "Ceppo Morelli", "state": "", "country": "IT", "coord": {"lon": 8.06688, "lat": 45.971142}}, {"id": 6535730, "name": "Cossogno", "state": "", "country": "IT", "coord": {"lon": 8.50962, "lat": 45.964081}}, {"id": 6535731, "name": "Gurro", "state": "", "country": "IT", "coord": {"lon": 8.56772, "lat": 46.08498}}, {"id": 6535732, "name": "Intragna", "state": "", "country": "IT", "coord": {"lon": 8.57392, "lat": 45.994678}}, {"id": 6535733, "name": "Massiola", "state": "", "country": "IT", "coord": {"lon": 8.32012, "lat": 45.912472}}, {"id": 6535734, "name": "Montecrestese", "state": "", "country": "IT", "coord": {"lon": 8.32622, "lat": 46.164478}}, {"id": 6535735, "name": "Nonio", "state": "", "country": "IT", "coord": {"lon": 8.37752, "lat": 45.845772}}, {"id": 6535736, "name": "Premia", "state": "", "country": "IT", "coord": {"lon": 8.32781, "lat": 46.262981}}, {"id": 6535737, "name": "Toceno", "state": "", "country": "IT", "coord": {"lon": 8.46902, "lat": 46.14468}}, {"id": 6535738, "name": "Trasquera", "state": "", "country": "IT", "coord": {"lon": 8.21271, "lat": 46.213379}}, {"id": 6535739, "name": "Trontano", "state": "", "country": "IT", "coord": {"lon": 8.33322, "lat": 46.122478}}, {"id": 6535740, "name": "Zuni", "state": "", "country": "IT", "coord": {"lon": 14.13082, "lat": 41.21722}}, {"id": 6535741, "name": "Letino", "state": "", "country": "IT", "coord": {"lon": 14.25542, "lat": 41.453018}}, {"id": 6535742, "name": "Pastorano", "state": "", "country": "IT", "coord": {"lon": 14.19822, "lat": 41.18082}}, {"id": 6535743, "name": "Coreglia Ligure", "state": "", "country": "IT", "coord": {"lon": 9.26097, "lat": 44.387749}}, {"id": 6535744, "name": "Casciago", "state": "", "country": "IT", "coord": {"lon": 8.78333, "lat": 45.832481}}, {"id": 6535745, "name": "Cassano Valcuvia", "state": "", "country": "IT", "coord": {"lon": 8.76843, "lat": 45.932381}}, {"id": 6535746, "name": "Bene Lario", "state": "", "country": "IT", "coord": {"lon": 9.18414, "lat": 46.02898}}, {"id": 6535747, "name": "Binago", "state": "", "country": "IT", "coord": {"lon": 8.92234, "lat": 45.782181}}, {"id": 6535748, "name": "Cabiate", "state": "", "country": "IT", "coord": {"lon": 9.17374, "lat": 45.674179}}, {"id": 6535749, "name": "Cagno", "state": "", "country": "IT", "coord": {"lon": 8.91734, "lat": 45.811081}}, {"id": 6535750, "name": "Ramponio Verna", "state": "", "country": "IT", "coord": {"lon": 9.06633, "lat": 45.996979}}, {"id": 6535751, "name": "Rodero", "state": "", "country": "IT", "coord": {"lon": 8.91523, "lat": 45.823978}}, {"id": 6535752, "name": "Ronago", "state": "", "country": "IT", "coord": {"lon": 8.98364, "lat": 45.832279}}, {"id": 6535753, "name": "San Fedele Intelvi", "state": "", "country": "IT", "coord": {"lon": 9.08074, "lat": 45.967682}}, {"id": 6535754, "name": "Senna Comasco", "state": "", "country": "IT", "coord": {"lon": 9.11104, "lat": 45.762981}}, {"id": 6535755, "name": "Sorico", "state": "", "country": "IT", "coord": {"lon": 9.38404, "lat": 46.172588}}, {"id": 6535756, "name": "Tavernerio", "state": "", "country": "IT", "coord": {"lon": 9.14054, "lat": 45.800678}}, {"id": 6535757, "name": "Turate", "state": "", "country": "IT", "coord": {"lon": 9.00424, "lat": 45.657269}}, {"id": 6535758, "name": "Valmorea", "state": "", "country": "IT", "coord": {"lon": 8.93064, "lat": 45.815182}}, {"id": 6535759, "name": "Vercana", "state": "", "country": "IT", "coord": {"lon": 9.33514, "lat": 46.159489}}, {"id": 6535760, "name": "Zelbio", "state": "", "country": "IT", "coord": {"lon": 9.18054, "lat": 45.904579}}, {"id": 6535761, "name": "Andalo Valtellino", "state": "", "country": "IT", "coord": {"lon": 9.47384, "lat": 46.13599}}, {"id": 6535762, "name": "Caiolo", "state": "", "country": "IT", "coord": {"lon": 9.81455, "lat": 46.14999}}, {"id": 6535763, "name": "Civo", "state": "", "country": "IT", "coord": {"lon": 9.56064, "lat": 46.15419}}, {"id": 6535764, "name": "Colorina", "state": "", "country": "IT", "coord": {"lon": 9.72935, "lat": 46.15369}}, {"id": 6535765, "name": "Lanzada", "state": "", "country": "IT", "coord": {"lon": 9.86925, "lat": 46.269299}}, {"id": 6535766, "name": "Lovero", "state": "", "country": "IT", "coord": {"lon": 10.22856, "lat": 46.2314}}, {"id": 6535767, "name": "Noviglio", "state": "", "country": "IT", "coord": {"lon": 9.05215, "lat": 45.35907}}, {"id": 6535768, "name": "Caponago", "state": "", "country": "IT", "coord": {"lon": 9.37585, "lat": 45.566479}}, {"id": 6535769, "name": "Cerro al Lambro", "state": "", "country": "IT", "coord": {"lon": 9.33905, "lat": 45.329971}}, {"id": 6535770, "name": "Cusago", "state": "", "country": "IT", "coord": {"lon": 9.03744, "lat": 45.44997}}, {"id": 6535771, "name": "Blello", "state": "", "country": "IT", "coord": {"lon": 9.57105, "lat": 45.83778}}, {"id": 6535772, "name": "Pregnana Milanese", "state": "", "country": "IT", "coord": {"lon": 9.00704, "lat": 45.515968}}, {"id": 6535773, "name": "Bracca", "state": "", "country": "IT", "coord": {"lon": 9.70875, "lat": 45.823582}}, {"id": 6535774, "name": "Branzi", "state": "", "country": "IT", "coord": {"lon": 9.75935, "lat": 46.002491}}, {"id": 6535775, "name": "Brembate di Sopra", "state": "", "country": "IT", "coord": {"lon": 9.57945, "lat": 45.716679}}, {"id": 6535776, "name": "Castel Rozzone", "state": "", "country": "IT", "coord": {"lon": 9.61986, "lat": 45.55228}}, {"id": 6535777, "name": "Torre Pallavicina", "state": "", "country": "IT", "coord": {"lon": 9.87706, "lat": 45.446381}}, {"id": 6535778, "name": "Onore", "state": "", "country": "IT", "coord": {"lon": 10.01076, "lat": 45.89159}}, {"id": 6535779, "name": "Osio Sopra", "state": "", "country": "IT", "coord": {"lon": 9.58465, "lat": 45.629082}}, {"id": 6535780, "name": "Pagazzano", "state": "", "country": "IT", "coord": {"lon": 9.67116, "lat": 45.534279}}, {"id": 6535781, "name": "Paladina", "state": "", "country": "IT", "coord": {"lon": 9.60585, "lat": 45.730679}}, {"id": 6535783, "name": "Pontirolo Nuovo", "state": "", "country": "IT", "coord": {"lon": 9.56935, "lat": 45.56918}}, {"id": 6535784, "name": "Pradalunga", "state": "", "country": "IT", "coord": {"lon": 9.78226, "lat": 45.74588}}, {"id": 6535785, "name": "Ranica", "state": "", "country": "IT", "coord": {"lon": 9.71335, "lat": 45.723282}}, {"id": 6535786, "name": "Solza", "state": "", "country": "IT", "coord": {"lon": 9.49075, "lat": 45.67868}}, {"id": 6535787, "name": "Azzano Mella", "state": "", "country": "IT", "coord": {"lon": 10.11717, "lat": 45.454578}}, {"id": 6535788, "name": "Ono San Pietro", "state": "", "country": "IT", "coord": {"lon": 10.32836, "lat": 46.016899}}, {"id": 6535789, "name": "Paitone", "state": "", "country": "IT", "coord": {"lon": 10.40227, "lat": 45.552078}}, {"id": 6535790, "name": "Cecima", "state": "", "country": "IT", "coord": {"lon": 9.08036, "lat": 44.850658}}, {"id": 6535791, "name": "Ceranova", "state": "", "country": "IT", "coord": {"lon": 9.24315, "lat": 45.260269}}, {"id": 6535792, "name": "Ceretto Lomellina", "state": "", "country": "IT", "coord": {"lon": 8.67244, "lat": 45.244961}}, {"id": 6535793, "name": "Cigognola", "state": "", "country": "IT", "coord": {"lon": 9.24486, "lat": 45.032761}}, {"id": 6535794, "name": "Cura Carpignano", "state": "", "country": "IT", "coord": {"lon": 9.25565, "lat": 45.21246}}, {"id": 6535795, "name": "Galliavola", "state": "", "country": "IT", "coord": {"lon": 8.81885, "lat": 45.097561}}, {"id": 6535796, "name": "Ruino", "state": "", "country": "IT", "coord": {"lon": 9.27478, "lat": 44.927261}}, {"id": 6535797, "name": "Pizzale", "state": "", "country": "IT", "coord": {"lon": 9.04995, "lat": 45.038559}}, {"id": 6535798, "name": "Rea", "state": "", "country": "IT", "coord": {"lon": 9.15465, "lat": 45.113361}}, {"id": 6535799, "name": "Imer", "state": "", "country": "IT", "coord": {"lon": 11.78919, "lat": 46.149311}}, {"id": 6535800, "name": "Ivano-Fracena", "state": "", "country": "IT", "coord": {"lon": 11.52939, "lat": 46.057308}}, {"id": 6535801, "name": "Nave San Rocco", "state": "", "country": "IT", "coord": {"lon": 11.10508, "lat": 46.167709}}, {"id": 6535803, "name": "Pomarolo", "state": "", "country": "IT", "coord": {"lon": 11.04308, "lat": 45.928101}}, {"id": 6535804, "name": "Praso", "state": "", "country": "IT", "coord": {"lon": 10.63627, "lat": 45.950001}}, {"id": 6535805, "name": "Prezzo", "state": "", "country": "IT", "coord": {"lon": 10.63297, "lat": 45.9347}}, {"id": 6535806, "name": "Banchette", "state": "", "country": "IT", "coord": {"lon": 7.85632, "lat": 45.45356}}, {"id": 6535807, "name": "Barone Canavese", "state": "", "country": "IT", "coord": {"lon": 7.87342, "lat": 45.32576}}, {"id": 6535808, "name": "Lombriasco", "state": "", "country": "IT", "coord": {"lon": 7.63592, "lat": 44.840939}}, {"id": 6535809, "name": "Lusernetta", "state": "", "country": "IT", "coord": {"lon": 7.24672, "lat": 44.803139}}, {"id": 6535810, "name": "Maglione", "state": "", "country": "IT", "coord": {"lon": 8.01332, "lat": 45.346661}}, {"id": 6535811, "name": "Marentino", "state": "", "country": "IT", "coord": {"lon": 7.87703, "lat": 45.055149}}, {"id": 6535812, "name": "Meana di Susa", "state": "", "country": "IT", "coord": {"lon": 7.06471, "lat": 45.12204}}, {"id": 6535813, "name": "Mezzenile", "state": "", "country": "IT", "coord": {"lon": 7.39561, "lat": 45.294849}}, {"id": 6535814, "name": "Osasco", "state": "", "country": "IT", "coord": {"lon": 7.34302, "lat": 44.849442}}, {"id": 6535815, "name": "Osasio", "state": "", "country": "IT", "coord": {"lon": 7.60802, "lat": 44.871441}}, {"id": 6535816, "name": "San Pietro Val Lemina", "state": "", "country": "IT", "coord": {"lon": 7.31092, "lat": 44.90654}}, {"id": 6535817, "name": "San Sebastiano da Po", "state": "", "country": "IT", "coord": {"lon": 7.95723, "lat": 45.167549}}, {"id": 6535818, "name": "San Secondo di Pinerolo", "state": "", "country": "IT", "coord": {"lon": 7.29842, "lat": 44.86644}}, {"id": 6535819, "name": "Torrazza Piemonte", "state": "", "country": "IT", "coord": {"lon": 7.97673, "lat": 45.215351}}, {"id": 6535820, "name": "Torre Canavese", "state": "", "country": "IT", "coord": {"lon": 7.75982, "lat": 45.392059}}, {"id": 6535821, "name": "Trausella", "state": "", "country": "IT", "coord": {"lon": 7.76312, "lat": 45.48996}}, {"id": 6535822, "name": "Vaie", "state": "", "country": "IT", "coord": {"lon": 7.28941, "lat": 45.102341}}, {"id": 6535823, "name": "Varisella", "state": "", "country": "IT", "coord": {"lon": 7.48382, "lat": 45.208351}}, {"id": 6535824, "name": "Vialfr\u00e8", "state": "", "country": "IT", "coord": {"lon": 7.81822, "lat": 45.38076}}, {"id": 6535825, "name": "Vidracco", "state": "", "country": "IT", "coord": {"lon": 7.75742, "lat": 45.43066}}, {"id": 6535826, "name": "Villarbasse", "state": "", "country": "IT", "coord": {"lon": 7.46842, "lat": 45.045139}}, {"id": 6535827, "name": "Villar Dora", "state": "", "country": "IT", "coord": {"lon": 7.38352, "lat": 45.114651}}, {"id": 6535828, "name": "Civiasco", "state": "", "country": "IT", "coord": {"lon": 8.29386, "lat": 45.807861}}, {"id": 6535829, "name": "Guardabosone", "state": "", "country": "IT", "coord": {"lon": 8.24932, "lat": 45.70187}}, {"id": 6535830, "name": "Moncrivello", "state": "", "country": "IT", "coord": {"lon": 7.99552, "lat": 45.332359}}, {"id": 6535831, "name": "Garbagna Novarese", "state": "", "country": "IT", "coord": {"lon": 8.66124, "lat": 45.38876}}, {"id": 6535832, "name": "Gattico", "state": "", "country": "IT", "coord": {"lon": 8.52003, "lat": 45.707169}}, {"id": 6535833, "name": "Massino Visconti", "state": "", "country": "IT", "coord": {"lon": 8.54133, "lat": 45.824169}}, {"id": 6535834, "name": "Nebbiuno", "state": "", "country": "IT", "coord": {"lon": 8.52713, "lat": 45.80357}}, {"id": 6535835, "name": "Oleggio Castello", "state": "", "country": "IT", "coord": {"lon": 8.52713, "lat": 45.748871}}, {"id": 6535836, "name": "Pettenasco", "state": "", "country": "IT", "coord": {"lon": 8.40702, "lat": 45.81657}}, {"id": 6535837, "name": "Arguello", "state": "", "country": "IT", "coord": {"lon": 8.11084, "lat": 44.582741}}, {"id": 6535838, "name": "Barbaresco", "state": "", "country": "IT", "coord": {"lon": 8.08194, "lat": 44.72324}}, {"id": 6535839, "name": "Bastia Mondov\u00ec", "state": "", "country": "IT", "coord": {"lon": 7.89444, "lat": 44.44194}}, {"id": 6535840, "name": "Bergolo", "state": "", "country": "IT", "coord": {"lon": 8.18314, "lat": 44.54784}}, {"id": 6535841, "name": "Bernezzo", "state": "", "country": "IT", "coord": {"lon": 7.43633, "lat": 44.38533}}, {"id": 6535842, "name": "Bonvicino", "state": "", "country": "IT", "coord": {"lon": 8.01754, "lat": 44.50354}}, {"id": 6535843, "name": "Bosia", "state": "", "country": "IT", "coord": {"lon": 8.14734, "lat": 44.60244}}, {"id": 6535844, "name": "Brondello", "state": "", "country": "IT", "coord": {"lon": 7.40592, "lat": 44.600731}}, {"id": 6535845, "name": "Camo", "state": "", "country": "IT", "coord": {"lon": 8.19434, "lat": 44.695042}}, {"id": 6535846, "name": "Caramagna Piemonte", "state": "", "country": "IT", "coord": {"lon": 7.73943, "lat": 44.782242}}, {"id": 6535847, "name": "Card\u00e8", "state": "", "country": "IT", "coord": {"lon": 7.47762, "lat": 44.744438}}, {"id": 6535848, "name": "Castellar", "state": "", "country": "IT", "coord": {"lon": 7.43742, "lat": 44.621231}}, {"id": 6535849, "name": "Castellinaldo", "state": "", "country": "IT", "coord": {"lon": 8.02974, "lat": 44.774841}}, {"id": 6535850, "name": "Castellino Tanaro", "state": "", "country": "IT", "coord": {"lon": 7.98124, "lat": 44.427841}}, {"id": 6535851, "name": "Castiglione Falletto", "state": "", "country": "IT", "coord": {"lon": 7.97534, "lat": 44.62254}}, {"id": 6535852, "name": "Castiglione Tinella", "state": "", "country": "IT", "coord": {"lon": 8.19014, "lat": 44.725342}}, {"id": 6535853, "name": "Grinzane Cavour", "state": "", "country": "IT", "coord": {"lon": 7.99504, "lat": 44.653339}}, {"id": 6535854, "name": "Ceresole Alba", "state": "", "country": "IT", "coord": {"lon": 7.82243, "lat": 44.79974}}, {"id": 6535855, "name": "Cigli\u00e8", "state": "", "country": "IT", "coord": {"lon": 7.92654, "lat": 44.436539}}, {"id": 6535856, "name": "Cissone", "state": "", "country": "IT", "coord": {"lon": 8.03044, "lat": 44.563141}}, {"id": 6535857, "name": "Corneliano d'Alba", "state": "", "country": "IT", "coord": {"lon": 7.95723, "lat": 44.736141}}, {"id": 6535858, "name": "Faule", "state": "", "country": "IT", "coord": {"lon": 7.58512, "lat": 44.80624}}, {"id": 6535859, "name": "Feisoglio", "state": "", "country": "IT", "coord": {"lon": 8.10494, "lat": 44.543739}}, {"id": 6535860, "name": "Gottasecca", "state": "", "country": "IT", "coord": {"lon": 8.16754, "lat": 44.46014}}, {"id": 6535861, "name": "Govone", "state": "", "country": "IT", "coord": {"lon": 8.09404, "lat": 44.80444}}, {"id": 6535862, "name": "Isasca", "state": "", "country": "IT", "coord": {"lon": 7.38162, "lat": 44.587631}}, {"id": 6535863, "name": "Lequio Tanaro", "state": "", "country": "IT", "coord": {"lon": 7.88214, "lat": 44.55994}}, {"id": 6535864, "name": "Lisio", "state": "", "country": "IT", "coord": {"lon": 7.97874, "lat": 44.307129}}, {"id": 6535865, "name": "Mosso", "state": "", "country": "IT", "coord": {"lon": 8.13762, "lat": 45.65007}}, {"id": 6535866, "name": "Spadola", "state": "", "country": "IT", "coord": {"lon": 16.337, "lat": 38.603779}}, {"id": 6535867, "name": "Cavagnolo", "state": "", "country": "IT", "coord": {"lon": 8.04903, "lat": 45.151749}}, {"id": 6535868, "name": "Scena - Schenna", "state": "", "country": "IT", "coord": {"lon": 11.18627, "lat": 46.690121}}, {"id": 6535871, "name": "Toscolano-Maderno", "state": "", "country": "IT", "coord": {"lon": 10.60838, "lat": 45.634491}}, {"id": 6535883, "name": "Cocquio-Trevisago", "state": "", "country": "IT", "coord": {"lon": 8.68823, "lat": 45.862881}}, {"id": 6535887, "name": "Bressanone", "state": "", "country": "IT", "coord": {"lon": 11.65638, "lat": 46.70892}}, {"id": 6535893, "name": "Chiusa", "state": "", "country": "IT", "coord": {"lon": 11.57198, "lat": 46.642521}}, {"id": 6535904, "name": "Lana - Lana", "state": "", "country": "IT", "coord": {"lon": 11.15587, "lat": 46.612419}}, {"id": 6535921, "name": "Prato allo Stelvio - Prad am Stilfser Joch", "state": "", "country": "IT", "coord": {"lon": 10.59136, "lat": 46.619011}}, {"id": 6535928, "name": "Sarentino", "state": "", "country": "IT", "coord": {"lon": 11.35577, "lat": 46.64352}}, {"id": 6535930, "name": "Silandro", "state": "", "country": "IT", "coord": {"lon": 10.77116, "lat": 46.628422}}, {"id": 6535934, "name": "Terlano", "state": "", "country": "IT", "coord": {"lon": 11.24537, "lat": 46.532421}}, {"id": 6535935, "name": "Tesimo", "state": "", "country": "IT", "coord": {"lon": 11.16937, "lat": 46.565418}}, {"id": 6535947, "name": "Bellaria-Igea Marina", "state": "", "country": "IT", "coord": {"lon": 12.46934, "lat": 44.138569}}, {"id": 6535953, "name": "Bolzano", "state": "", "country": "IT", "coord": {"lon": 11.33358, "lat": 46.492722}}, {"id": 6535956, "name": "Laives", "state": "", "country": "IT", "coord": {"lon": 11.33478, "lat": 46.42281}}, {"id": 6535957, "name": "Merano", "state": "", "country": "IT", "coord": {"lon": 11.16127, "lat": 46.668121}}, {"id": 6535962, "name": "Cavallino-Treporti", "state": "", "country": "IT", "coord": {"lon": 12.56192, "lat": 45.481602}}, {"id": 6535967, "name": "Badia", "state": "", "country": "IT", "coord": {"lon": 11.89349, "lat": 46.610119}}, {"id": 6535968, "name": "Brunico", "state": "", "country": "IT", "coord": {"lon": 11.93638, "lat": 46.79583}}, {"id": 6535982, "name": "Termeno sulla strada del vino", "state": "", "country": "IT", "coord": {"lon": 11.24228, "lat": 46.341511}}, {"id": 6535984, "name": "Vipiteno", "state": "", "country": "IT", "coord": {"lon": 11.43007, "lat": 46.892529}}, {"id": 6535985, "name": "Montecatini-Terme", "state": "", "country": "IT", "coord": {"lon": 10.77361, "lat": 43.883549}}, {"id": 6535987, "name": "Appiano sulla strada del vino", "state": "", "country": "IT", "coord": {"lon": 11.26178, "lat": 46.45472}}, {"id": 6536001, "name": "Saint-Christophe", "state": "", "country": "IT", "coord": {"lon": 7.3472, "lat": 45.754059}}, {"id": 6536003, "name": "Saint-Nicolas", "state": "", "country": "IT", "coord": {"lon": 7.1667, "lat": 45.71656}}, {"id": 6536009, "name": "Cornedo all'Isarco", "state": "", "country": "IT", "coord": {"lon": 11.39218, "lat": 46.493519}}, {"id": 6536015, "name": "Renon", "state": "", "country": "IT", "coord": {"lon": 11.45728, "lat": 46.541519}}, {"id": 6536017, "name": "San Martino in Badia - St. Martin in Thurn", "state": "", "country": "IT", "coord": {"lon": 11.89809, "lat": 46.68153}}, {"id": 6536018, "name": "Tirolo", "state": "", "country": "IT", "coord": {"lon": 11.15427, "lat": 46.691021}}, {"id": 6536030, "name": "Pont-Canavese", "state": "", "country": "IT", "coord": {"lon": 7.59621, "lat": 45.422859}}, {"id": 6536041, "name": "Canelli", "state": "", "country": "IT", "coord": {"lon": 8.29244, "lat": 44.721539}}, {"id": 6536045, "name": "San Maurizio Canavese", "state": "", "country": "IT", "coord": {"lon": 7.63052, "lat": 45.217049}}, {"id": 6536051, "name": "Villar Focchiardo", "state": "", "country": "IT", "coord": {"lon": 7.23841, "lat": 45.112438}}, {"id": 6536054, "name": "Casale Monferrato", "state": "", "country": "IT", "coord": {"lon": 8.45714, "lat": 45.133362}}, {"id": 6536055, "name": "Casalnoceto", "state": "", "country": "IT", "coord": {"lon": 8.98215, "lat": 44.913059}}, {"id": 6536071, "name": "Cipressa", "state": "", "country": "IT", "coord": {"lon": 7.93225, "lat": 43.852921}}, {"id": 6536080, "name": "Cairo Montenotte", "state": "", "country": "IT", "coord": {"lon": 8.27455, "lat": 44.403141}}, {"id": 6536083, "name": "Loano", "state": "", "country": "IT", "coord": {"lon": 8.25125, "lat": 44.13303}}, {"id": 6536089, "name": "Varazze", "state": "", "country": "IT", "coord": {"lon": 8.57405, "lat": 44.359539}}, {"id": 6536090, "name": "Bargagli", "state": "", "country": "IT", "coord": {"lon": 9.09176, "lat": 44.44725}}, {"id": 6536092, "name": "Chiavari", "state": "", "country": "IT", "coord": {"lon": 9.32197, "lat": 44.320141}}, {"id": 6536098, "name": "Montoggio", "state": "", "country": "IT", "coord": {"lon": 9.04816, "lat": 44.517448}}, {"id": 6536102, "name": "Sori", "state": "", "country": "IT", "coord": {"lon": 9.10696, "lat": 44.369839}}, {"id": 6536113, "name": "Mariano Comense", "state": "", "country": "IT", "coord": {"lon": 9.17974, "lat": 45.692081}}, {"id": 6536130, "name": "Valganna", "state": "", "country": "IT", "coord": {"lon": 8.82333, "lat": 45.902279}}, {"id": 6536135, "name": "Besate", "state": "", "country": "IT", "coord": {"lon": 8.96964, "lat": 45.312962}}, {"id": 6536152, "name": "San Pellegrino Terme", "state": "", "country": "IT", "coord": {"lon": 9.66455, "lat": 45.838379}}, {"id": 6536153, "name": "Seriate", "state": "", "country": "IT", "coord": {"lon": 9.72286, "lat": 45.68338}}, {"id": 6536160, "name": "Treviglio", "state": "", "country": "IT", "coord": {"lon": 9.58946, "lat": 45.523781}}, {"id": 6536172, "name": "Chiari", "state": "", "country": "IT", "coord": {"lon": 9.93036, "lat": 45.535881}}, {"id": 6536176, "name": "Desenzano del Garda", "state": "", "country": "IT", "coord": {"lon": 10.53398, "lat": 45.467979}}, {"id": 6536179, "name": "Ghedi", "state": "", "country": "IT", "coord": {"lon": 10.27927, "lat": 45.401081}}, {"id": 6536181, "name": "San Genesio ed Uniti", "state": "", "country": "IT", "coord": {"lon": 9.17855, "lat": 45.23476}}, {"id": 6536211, "name": "Caldogno", "state": "", "country": "IT", "coord": {"lon": 11.5028, "lat": 45.6078}}, {"id": 6536214, "name": "Borca di Cadore", "state": "", "country": "IT", "coord": {"lon": 12.2196, "lat": 46.43642}}, {"id": 6536221, "name": "Spinea", "state": "", "country": "IT", "coord": {"lon": 12.16251, "lat": 45.488701}}, {"id": 6536223, "name": "Rodigo", "state": "", "country": "IT", "coord": {"lon": 10.62498, "lat": 45.199581}}, {"id": 6536224, "name": "Roverbella", "state": "", "country": "IT", "coord": {"lon": 10.76879, "lat": 45.268082}}, {"id": 6536242, "name": "Pergine Valsugana", "state": "", "country": "IT", "coord": {"lon": 11.23798, "lat": 46.064999}}, {"id": 6536259, "name": "Fogliano Redipuglia", "state": "", "country": "IT", "coord": {"lon": 13.48084, "lat": 45.866718}}, {"id": 6536261, "name": "Bussolengo", "state": "", "country": "IT", "coord": {"lon": 10.85058, "lat": 45.469189}}, {"id": 6536265, "name": "Peschiera del Garda", "state": "", "country": "IT", "coord": {"lon": 10.68908, "lat": 45.437778}}, {"id": 6536267, "name": "Fiorano Modenese", "state": "", "country": "IT", "coord": {"lon": 10.8218, "lat": 44.535961}}, {"id": 6536269, "name": "Casier", "state": "", "country": "IT", "coord": {"lon": 12.29331, "lat": 45.642101}}, {"id": 6536272, "name": "Feltre", "state": "", "country": "IT", "coord": {"lon": 11.907, "lat": 46.02351}}, {"id": 6536278, "name": "San Lazzaro di Savena", "state": "", "country": "IT", "coord": {"lon": 11.41401, "lat": 44.46777}}, {"id": 6536280, "name": "Montebelluna", "state": "", "country": "IT", "coord": {"lon": 12.04871, "lat": 45.778}}, {"id": 6536282, "name": "Pieve di Soligo", "state": "", "country": "IT", "coord": {"lon": 12.17451, "lat": 45.896709}}, {"id": 6536291, "name": "Marcon", "state": "", "country": "IT", "coord": {"lon": 12.29832, "lat": 45.5606}}, {"id": 6536292, "name": "San Michele al Tagliamento", "state": "", "country": "IT", "coord": {"lon": 12.99323, "lat": 45.767609}}, {"id": 6536298, "name": "Drenchia", "state": "", "country": "IT", "coord": {"lon": 13.63584, "lat": 46.183929}}, {"id": 6536307, "name": "Chiusaforte", "state": "", "country": "IT", "coord": {"lon": 13.30902, "lat": 46.408329}}, {"id": 6536328, "name": "Ronchi dei Legionari", "state": "", "country": "IT", "coord": {"lon": 13.50424, "lat": 45.82832}}, {"id": 6536329, "name": "Savogna d'Isonzo", "state": "", "country": "IT", "coord": {"lon": 13.57474, "lat": 45.906422}}, {"id": 6536332, "name": "Borgonovo Val Tidone", "state": "", "country": "IT", "coord": {"lon": 9.44346, "lat": 45.014359}}, {"id": 6536348, "name": "Gattatico", "state": "", "country": "IT", "coord": {"lon": 10.44339, "lat": 44.796169}}, {"id": 6536352, "name": "Crognaleto", "state": "", "country": "IT", "coord": {"lon": 13.48959, "lat": 42.58794}}, {"id": 6536379, "name": "Vairano Patenora", "state": "", "country": "IT", "coord": {"lon": 14.13112, "lat": 41.337021}}, {"id": 6536382, "name": "Livinallongo del Col di Lana", "state": "", "country": "IT", "coord": {"lon": 11.95399, "lat": 46.481621}}, {"id": 6536393, "name": "Saviore dell'Adamello", "state": "", "country": "IT", "coord": {"lon": 10.39966, "lat": 46.080502}}, {"id": 6536401, "name": "Castellana Grotte", "state": "", "country": "IT", "coord": {"lon": 17.165501, "lat": 40.886429}}, {"id": 6536402, "name": "Stalett\u00ec", "state": "", "country": "IT", "coord": {"lon": 16.5376, "lat": 38.76548}}, {"id": 6536414, "name": "Valmadrera", "state": "", "country": "IT", "coord": {"lon": 9.35824, "lat": 45.846279}}, {"id": 6536421, "name": "Paesana", "state": "", "country": "IT", "coord": {"lon": 7.27342, "lat": 44.687229}}, {"id": 6536440, "name": "Novi Ligure", "state": "", "country": "IT", "coord": {"lon": 8.78955, "lat": 44.760849}}, {"id": 6536452, "name": "Tortona", "state": "", "country": "IT", "coord": {"lon": 8.86455, "lat": 44.893349}}, {"id": 6536460, "name": "Gressan", "state": "", "country": "IT", "coord": {"lon": 7.2869, "lat": 45.720661}}, {"id": 6536462, "name": "Morgex", "state": "", "country": "IT", "coord": {"lon": 7.037, "lat": 45.756962}}, {"id": 6536473, "name": "Lerici", "state": "", "country": "IT", "coord": {"lon": 9.91469, "lat": 44.07444}}, {"id": 6536482, "name": "Castelseprio", "state": "", "country": "IT", "coord": {"lon": 8.86264, "lat": 45.715969}}, {"id": 6536483, "name": "Castronno", "state": "", "country": "IT", "coord": {"lon": 8.81283, "lat": 45.74567}}, {"id": 6536496, "name": "Fino Mornasco", "state": "", "country": "IT", "coord": {"lon": 9.04764, "lat": 45.742882}}, {"id": 6536498, "name": "Lomazzo", "state": "", "country": "IT", "coord": {"lon": 9.03434, "lat": 45.699181}}, {"id": 6536502, "name": "Castano Primo", "state": "", "country": "IT", "coord": {"lon": 8.77544, "lat": 45.55357}}, {"id": 6536503, "name": "Cinisello Balsamo", "state": "", "country": "IT", "coord": {"lon": 9.22185, "lat": 45.557072}}, {"id": 6536505, "name": "Cologno Monzese", "state": "", "country": "IT", "coord": {"lon": 9.27635, "lat": 45.535671}}, {"id": 6536506, "name": "Cormano", "state": "", "country": "IT", "coord": {"lon": 9.17094, "lat": 45.53957}}, {"id": 6536507, "name": "Cornaredo", "state": "", "country": "IT", "coord": {"lon": 9.02614, "lat": 45.496971}}, {"id": 6536509, "name": "Corsico", "state": "", "country": "IT", "coord": {"lon": 9.11539, "lat": 45.4305}}, {"id": 6536510, "name": "Dairago", "state": "", "country": "IT", "coord": {"lon": 8.86324, "lat": 45.567169}}, {"id": 6536513, "name": "Lacchiarella", "state": "", "country": "IT", "coord": {"lon": 9.13905, "lat": 45.324268}}, {"id": 6536515, "name": "Magenta", "state": "", "country": "IT", "coord": {"lon": 8.88264, "lat": 45.464569}}, {"id": 6536517, "name": "Novate Milanese", "state": "", "country": "IT", "coord": {"lon": 9.13474, "lat": 45.530972}}, {"id": 6536518, "name": "Parabiago", "state": "", "country": "IT", "coord": {"lon": 8.94564, "lat": 45.55497}}, {"id": 6536520, "name": "San Giuliano Milanese", "state": "", "country": "IT", "coord": {"lon": 9.29185, "lat": 45.394272}}, {"id": 6536522, "name": "Sesto San Giovanni", "state": "", "country": "IT", "coord": {"lon": 9.24175, "lat": 45.539371}}, {"id": 6536523, "name": "Trezzano sul Naviglio", "state": "", "country": "IT", "coord": {"lon": 9.06644, "lat": 45.423069}}, {"id": 6536527, "name": "Baranzate", "state": "", "country": "IT", "coord": {"lon": 9.11724, "lat": 45.527168}}, {"id": 6536539, "name": "Curno", "state": "", "country": "IT", "coord": {"lon": 9.60705, "lat": 45.68898}}, {"id": 6536541, "name": "Dalmine", "state": "", "country": "IT", "coord": {"lon": 9.60395, "lat": 45.649281}}, {"id": 6536548, "name": "Lovere", "state": "", "country": "IT", "coord": {"lon": 10.06896, "lat": 45.811691}}, {"id": 6536549, "name": "San Giovanni Bianco", "state": "", "country": "IT", "coord": {"lon": 9.65345, "lat": 45.873878}}, {"id": 6536551, "name": "Castenedolo", "state": "", "country": "IT", "coord": {"lon": 10.29567, "lat": 45.469479}}, {"id": 6536557, "name": "Garlasco", "state": "", "country": "IT", "coord": {"lon": 8.92375, "lat": 45.197361}}, {"id": 6536562, "name": "Mezzana Bigli", "state": "", "country": "IT", "coord": {"lon": 8.84845, "lat": 45.05986}}, {"id": 6536564, "name": "Mortara", "state": "", "country": "IT", "coord": {"lon": 8.73554, "lat": 45.247261}}, {"id": 6536605, "name": "Valeggio sul Mincio", "state": "", "country": "IT", "coord": {"lon": 10.73668, "lat": 45.35228}}, {"id": 6536607, "name": "Villafranca di Verona", "state": "", "country": "IT", "coord": {"lon": 10.84019, "lat": 45.352379}}, {"id": 6536612, "name": "Arzignano", "state": "", "country": "IT", "coord": {"lon": 11.33859, "lat": 45.519291}}, {"id": 6536617, "name": "Castelgomberto", "state": "", "country": "IT", "coord": {"lon": 11.39569, "lat": 45.584888}}, {"id": 6536627, "name": "Salcedo", "state": "", "country": "IT", "coord": {"lon": 11.5672, "lat": 45.757702}}, {"id": 6536633, "name": "Alleghe", "state": "", "country": "IT", "coord": {"lon": 12.02469, "lat": 46.407219}}, {"id": 6536637, "name": "Caerano di San Marco", "state": "", "country": "IT", "coord": {"lon": 12.0028, "lat": 45.785198}}, {"id": 6536647, "name": "San Biagio di Callalta", "state": "", "country": "IT", "coord": {"lon": 12.38052, "lat": 45.685799}}, {"id": 6536651, "name": "Susegana", "state": "", "country": "IT", "coord": {"lon": 12.25351, "lat": 45.856209}}, {"id": 6536661, "name": "Santa Maria di Sala", "state": "", "country": "IT", "coord": {"lon": 12.03531, "lat": 45.507999}}, {"id": 6536662, "name": "San Stino di Livenza", "state": "", "country": "IT", "coord": {"lon": 12.68232, "lat": 45.729912}}, {"id": 6536694, "name": "Tarcento", "state": "", "country": "IT", "coord": {"lon": 13.21392, "lat": 46.214321}}, {"id": 6536698, "name": "Cormons", "state": "", "country": "IT", "coord": {"lon": 13.46534, "lat": 45.956921}}, {"id": 6536701, "name": "Rolo", "state": "", "country": "IT", "coord": {"lon": 10.8602, "lat": 44.88567}}, {"id": 6536705, "name": "Corniglio", "state": "", "country": "IT", "coord": {"lon": 10.09008, "lat": 44.474258}}, {"id": 6536709, "name": "Sala Baganza", "state": "", "country": "IT", "coord": {"lon": 10.23178, "lat": 44.720261}}, {"id": 6536710, "name": "Salsomaggiore Terme", "state": "", "country": "IT", "coord": {"lon": 9.97958, "lat": 44.814758}}, {"id": 6536720, "name": "Ramiseto", "state": "", "country": "IT", "coord": {"lon": 10.27719, "lat": 44.412159}}, {"id": 6536728, "name": "Pavullo nel Frignano", "state": "", "country": "IT", "coord": {"lon": 10.835, "lat": 44.331459}}, {"id": 6536732, "name": "San Felice sul Panaro", "state": "", "country": "IT", "coord": {"lon": 11.1426, "lat": 44.833172}}, {"id": 6536733, "name": "Sassuolo", "state": "", "country": "IT", "coord": {"lon": 10.7847, "lat": 44.550861}}, {"id": 6536735, "name": "Soliera", "state": "", "country": "IT", "coord": {"lon": 10.9263, "lat": 44.737968}}, {"id": 6536746, "name": "Argenta", "state": "", "country": "IT", "coord": {"lon": 11.83562, "lat": 44.61237}}, {"id": 6536752, "name": "Fusignano", "state": "", "country": "IT", "coord": {"lon": 11.95713, "lat": 44.465069}}, {"id": 6536754, "name": "Bertinoro", "state": "", "country": "IT", "coord": {"lon": 12.13424, "lat": 44.148659}}, {"id": 6536779, "name": "Osimo", "state": "", "country": "IT", "coord": {"lon": 13.48748, "lat": 43.482761}}, {"id": 6536781, "name": "Senigallia", "state": "", "country": "IT", "coord": {"lon": 13.21667, "lat": 43.709259}}, {"id": 6536785, "name": "Camerino", "state": "", "country": "IT", "coord": {"lon": 13.06917, "lat": 43.139851}}, {"id": 6536788, "name": "Monte San Giusto", "state": "", "country": "IT", "coord": {"lon": 13.59528, "lat": 43.23576}}, {"id": 6536790, "name": "Porto Recanati", "state": "", "country": "IT", "coord": {"lon": 13.66128, "lat": 43.436459}}, {"id": 6536796, "name": "Arquata del Tronto", "state": "", "country": "IT", "coord": {"lon": 13.29628, "lat": 42.77264}}, {"id": 6536798, "name": "Monsampolo del Tronto", "state": "", "country": "IT", "coord": {"lon": 13.79389, "lat": 42.89695}}, {"id": 6536802, "name": "Porto San Giorgio", "state": "", "country": "IT", "coord": {"lon": 13.79339, "lat": 43.182659}}, {"id": 6536808, "name": "Fivizzano", "state": "", "country": "IT", "coord": {"lon": 10.12599, "lat": 44.23835}}, {"id": 6536810, "name": "Borgo a Mozzano", "state": "", "country": "IT", "coord": {"lon": 10.5457, "lat": 43.978951}}, {"id": 6536813, "name": "Massarosa", "state": "", "country": "IT", "coord": {"lon": 10.3397, "lat": 43.867641}}, {"id": 6536815, "name": "Pescaglia", "state": "", "country": "IT", "coord": {"lon": 10.4111, "lat": 43.966251}}, {"id": 6536819, "name": "Bagno a Ripoli", "state": "", "country": "IT", "coord": {"lon": 11.32252, "lat": 43.751148}}, {"id": 6536820, "name": "Campi Bisenzio", "state": "", "country": "IT", "coord": {"lon": 11.13242, "lat": 43.824551}}, {"id": 6536825, "name": "Reggello", "state": "", "country": "IT", "coord": {"lon": 11.52933, "lat": 43.680149}}, {"id": 6536833, "name": "Calcinaia", "state": "", "country": "IT", "coord": {"lon": 10.61821, "lat": 43.68354}}, {"id": 6536839, "name": "Pontedera", "state": "", "country": "IT", "coord": {"lon": 10.63171, "lat": 43.66164}}, {"id": 6536841, "name": "Badia Tedalda", "state": "", "country": "IT", "coord": {"lon": 12.18644, "lat": 43.70726}}, {"id": 6536842, "name": "Cortona", "state": "", "country": "IT", "coord": {"lon": 11.98705, "lat": 43.27454}}, {"id": 6536846, "name": "San Giovanni Valdarno", "state": "", "country": "IT", "coord": {"lon": 11.53183, "lat": 43.56345}}, {"id": 6536853, "name": "Poggibonsi", "state": "", "country": "IT", "coord": {"lon": 11.14562, "lat": 43.472439}}, {"id": 6536856, "name": "Sovicille", "state": "", "country": "IT", "coord": {"lon": 11.22623, "lat": 43.28054}}, {"id": 6536858, "name": "Castiglione della Pescaia", "state": "", "country": "IT", "coord": {"lon": 10.88013, "lat": 42.764721}}, {"id": 6536859, "name": "Manciano", "state": "", "country": "IT", "coord": {"lon": 11.51625, "lat": 42.587921}}, {"id": 6536870, "name": "Corciano", "state": "", "country": "IT", "coord": {"lon": 12.28736, "lat": 43.12904}}, {"id": 6536871, "name": "Deruta", "state": "", "country": "IT", "coord": {"lon": 12.41506, "lat": 42.980438}}, {"id": 6536873, "name": "Gualdo Tadino", "state": "", "country": "IT", "coord": {"lon": 12.78096, "lat": 43.231651}}, {"id": 6536874, "name": "Marsciano", "state": "", "country": "IT", "coord": {"lon": 12.33586, "lat": 42.905941}}, {"id": 6536878, "name": "Panicale", "state": "", "country": "IT", "coord": {"lon": 12.09935, "lat": 43.029541}}, {"id": 6536879, "name": "Piegaro", "state": "", "country": "IT", "coord": {"lon": 12.08345, "lat": 42.966942}}, {"id": 6536883, "name": "Todi", "state": "", "country": "IT", "coord": {"lon": 12.40456, "lat": 42.779942}}, {"id": 6536887, "name": "Baschi", "state": "", "country": "IT", "coord": {"lon": 12.21796, "lat": 42.672829}}, {"id": 6536909, "name": "Tarquinia", "state": "", "country": "IT", "coord": {"lon": 11.75526, "lat": 42.248219}}, {"id": 6536911, "name": "Tuscania", "state": "", "country": "IT", "coord": {"lon": 11.87116, "lat": 42.42062}}, {"id": 6536921, "name": "Forano", "state": "", "country": "IT", "coord": {"lon": 12.58977, "lat": 42.301231}}, {"id": 6536922, "name": "Frasso Sabino", "state": "", "country": "IT", "coord": {"lon": 12.80558, "lat": 42.229832}}, {"id": 6536945, "name": "Civitavecchia", "state": "", "country": "IT", "coord": {"lon": 11.80706, "lat": 42.093121}}, {"id": 6536948, "name": "Formello", "state": "", "country": "IT", "coord": {"lon": 12.40027, "lat": 42.08252}}, {"id": 6536951, "name": "Grottaferrata", "state": "", "country": "IT", "coord": {"lon": 12.67568, "lat": 41.783619}}, {"id": 6536956, "name": "Olevano Romano", "state": "", "country": "IT", "coord": {"lon": 13.03309, "lat": 41.860619}}, {"id": 6536957, "name": "Palestrina", "state": "", "country": "IT", "coord": {"lon": 12.88899, "lat": 41.835522}}, {"id": 6536960, "name": "Pomezia", "state": "", "country": "IT", "coord": {"lon": 12.50518, "lat": 41.667011}}, {"id": 6536972, "name": "Monte San Biagio", "state": "", "country": "IT", "coord": {"lon": 13.3522, "lat": 41.352509}}, {"id": 6536976, "name": "Sermoneta", "state": "", "country": "IT", "coord": {"lon": 12.98489, "lat": 41.549309}}, {"id": 6536997, "name": "Sora", "state": "", "country": "IT", "coord": {"lon": 13.6141, "lat": 41.715721}}, {"id": 6537000, "name": "Veroli", "state": "", "country": "IT", "coord": {"lon": 13.4177, "lat": 41.69112}}, {"id": 6537011, "name": "Baldissero Torinese", "state": "", "country": "IT", "coord": {"lon": 7.81162, "lat": 45.067951}}, {"id": 6537016, "name": "Alpignano", "state": "", "country": "IT", "coord": {"lon": 7.52662, "lat": 45.101952}}, {"id": 6537032, "name": "La Thuile", "state": "", "country": "IT", "coord": {"lon": 6.95099, "lat": 45.713661}}, {"id": 6537055, "name": "Spotorno", "state": "", "country": "IT", "coord": {"lon": 8.41405, "lat": 44.228531}}, {"id": 6537063, "name": "Rapallo", "state": "", "country": "IT", "coord": {"lon": 9.22967, "lat": 44.351139}}, {"id": 6537075, "name": "Busto Arsizio", "state": "", "country": "IT", "coord": {"lon": 8.84274, "lat": 45.612171}}, {"id": 6537076, "name": "Cavaria con Premezzo", "state": "", "country": "IT", "coord": {"lon": 8.80143, "lat": 45.693371}}, {"id": 6537078, "name": "Gallarate", "state": "", "country": "IT", "coord": {"lon": 8.79034, "lat": 45.663971}}, {"id": 6537080, "name": "Induno Olona", "state": "", "country": "IT", "coord": {"lon": 8.83663, "lat": 45.84798}}, {"id": 6537085, "name": "Samarate", "state": "", "country": "IT", "coord": {"lon": 8.78344, "lat": 45.62537}}, {"id": 6537086, "name": "Saronno", "state": "", "country": "IT", "coord": {"lon": 9.03464, "lat": 45.627869}}, {"id": 6537088, "name": "Somma Lombardo", "state": "", "country": "IT", "coord": {"lon": 8.70873, "lat": 45.682968}}, {"id": 6537089, "name": "Tradate", "state": "", "country": "IT", "coord": {"lon": 8.90764, "lat": 45.710972}}, {"id": 6537103, "name": "Rasura", "state": "", "country": "IT", "coord": {"lon": 9.55274, "lat": 46.10059}}, {"id": 6537105, "name": "Sondalo", "state": "", "country": "IT", "coord": {"lon": 10.32476, "lat": 46.330101}}, {"id": 6537111, "name": "Bollate", "state": "", "country": "IT", "coord": {"lon": 9.12054, "lat": 45.546471}}, {"id": 6537112, "name": "Brugherio", "state": "", "country": "IT", "coord": {"lon": 9.29405, "lat": 45.55727}}, {"id": 6537115, "name": "Cusano Milanino", "state": "", "country": "IT", "coord": {"lon": 9.18344, "lat": 45.55307}}, {"id": 6537117, "name": "Gorgonzola", "state": "", "country": "IT", "coord": {"lon": 9.40465, "lat": 45.53157}}, {"id": 6537118, "name": "Legnano", "state": "", "country": "IT", "coord": {"lon": 8.90784, "lat": 45.59597}}, {"id": 6537121, "name": "Melzo", "state": "", "country": "IT", "coord": {"lon": 9.42525, "lat": 45.50127}}, {"id": 6537122, "name": "Monza", "state": "", "country": "IT", "coord": {"lon": 9.27485, "lat": 45.582481}}, {"id": 6537124, "name": "Nova Milanese", "state": "", "country": "IT", "coord": {"lon": 9.19954, "lat": 45.59037}}, {"id": 6537128, "name": "Pantigliate", "state": "", "country": "IT", "coord": {"lon": 9.35355, "lat": 45.436771}}, {"id": 6537131, "name": "San Donato Milanese", "state": "", "country": "IT", "coord": {"lon": 9.27165, "lat": 45.418072}}, {"id": 6537133, "name": "Senago", "state": "", "country": "IT", "coord": {"lon": 9.12454, "lat": 45.576271}}, {"id": 6537134, "name": "Seregno", "state": "", "country": "IT", "coord": {"lon": 9.20034, "lat": 45.652382}}, {"id": 6537135, "name": "Trezzo sull'Adda", "state": "", "country": "IT", "coord": {"lon": 9.51995, "lat": 45.602982}}, {"id": 6537140, "name": "Vimercate", "state": "", "country": "IT", "coord": {"lon": 9.36705, "lat": 45.611881}}, {"id": 6537150, "name": "Cologno al Serio", "state": "", "country": "IT", "coord": {"lon": 9.70876, "lat": 45.582081}}, {"id": 6537155, "name": "Romano di Lombardia", "state": "", "country": "IT", "coord": {"lon": 9.74836, "lat": 45.524578}}, {"id": 6537163, "name": "Breno", "state": "", "country": "IT", "coord": {"lon": 10.30476, "lat": 45.95779}}, {"id": 6537174, "name": "Montichiari", "state": "", "country": "IT", "coord": {"lon": 10.39068, "lat": 45.41518}}, {"id": 6537196, "name": "Menconico", "state": "", "country": "IT", "coord": {"lon": 9.27946, "lat": 44.796558}}, {"id": 6537231, "name": "Castel Goffredo", "state": "", "country": "IT", "coord": {"lon": 10.47538, "lat": 45.29858}}, {"id": 6537232, "name": "Castiglione delle Stiviere", "state": "", "country": "IT", "coord": {"lon": 10.48528, "lat": 45.390579}}, {"id": 6537242, "name": "Andalo", "state": "", "country": "IT", "coord": {"lon": 11.00408, "lat": 46.1651}}, {"id": 6537243, "name": "Avio", "state": "", "country": "IT", "coord": {"lon": 10.93718, "lat": 45.733791}}, {"id": 6537265, "name": "Carmagnola", "state": "", "country": "IT", "coord": {"lon": 7.71803, "lat": 44.847038}}, {"id": 6537276, "name": "Grugliasco", "state": "", "country": "IT", "coord": {"lon": 7.57762, "lat": 45.06805}}, {"id": 6537287, "name": "Sangano", "state": "", "country": "IT", "coord": {"lon": 7.44812, "lat": 45.026138}}, {"id": 6537293, "name": "Bellinzago Novarese", "state": "", "country": "IT", "coord": {"lon": 8.64323, "lat": 45.568771}}, {"id": 6537302, "name": "Fara Novarese", "state": "", "country": "IT", "coord": {"lon": 8.45863, "lat": 45.551769}}, {"id": 6537305, "name": "Trecate", "state": "", "country": "IT", "coord": {"lon": 8.73684, "lat": 45.434769}}, {"id": 6537309, "name": "San Potito Sannitico", "state": "", "country": "IT", "coord": {"lon": 14.39213, "lat": 41.33852}}, {"id": 6537337, "name": "Acerra", "state": "", "country": "IT", "coord": {"lon": 14.37623, "lat": 40.95071}}, {"id": 6537341, "name": "Frattaminore", "state": "", "country": "IT", "coord": {"lon": 14.27273, "lat": 40.955509}}, {"id": 6537342, "name": "Grumo Nevano", "state": "", "country": "IT", "coord": {"lon": 14.25983, "lat": 40.935909}}, {"id": 6537344, "name": "Marano di Napoli", "state": "", "country": "IT", "coord": {"lon": 14.19053, "lat": 40.89761}}, {"id": 6537345, "name": "Palma Campania", "state": "", "country": "IT", "coord": {"lon": 14.54874, "lat": 40.86491}}, {"id": 6537346, "name": "Qualiano", "state": "", "country": "IT", "coord": {"lon": 14.15013, "lat": 40.922611}}, {"id": 6537348, "name": "San Giorgio a Cremano", "state": "", "country": "IT", "coord": {"lon": 14.33763, "lat": 40.830711}}, {"id": 6537349, "name": "San Giuseppe Vesuviano", "state": "", "country": "IT", "coord": {"lon": 14.50444, "lat": 40.829811}}, {"id": 6537351, "name": "Somma Vesuviana", "state": "", "country": "IT", "coord": {"lon": 14.43613, "lat": 40.871609}}, {"id": 6537352, "name": "Striano", "state": "", "country": "IT", "coord": {"lon": 14.57654, "lat": 40.81591}}, {"id": 6537353, "name": "Tufino", "state": "", "country": "IT", "coord": {"lon": 14.56594, "lat": 40.954109}}, {"id": 6537396, "name": "Mercato San Severino", "state": "", "country": "IT", "coord": {"lon": 14.75694, "lat": 40.781212}}, {"id": 6537398, "name": "Montecorice", "state": "", "country": "IT", "coord": {"lon": 14.98615, "lat": 40.234901}}, {"id": 6537410, "name": "Roccagloriosa", "state": "", "country": "IT", "coord": {"lon": 15.43557, "lat": 40.106998}}, {"id": 6537413, "name": "San Giovanni a Piro", "state": "", "country": "IT", "coord": {"lon": 15.45097, "lat": 40.050301}}, {"id": 6537421, "name": "Teggiano", "state": "", "country": "IT", "coord": {"lon": 15.54046, "lat": 40.379211}}, {"id": 6537424, "name": "Vallo della Lucania", "state": "", "country": "IT", "coord": {"lon": 15.26576, "lat": 40.229698}}, {"id": 6537438, "name": "Pizzoli", "state": "", "country": "IT", "coord": {"lon": 13.31169, "lat": 42.43214}}, {"id": 6537480, "name": "Francavilla al Mare", "state": "", "country": "IT", "coord": {"lon": 14.28701, "lat": 42.420639}}, {"id": 6537494, "name": "San Salvo", "state": "", "country": "IT", "coord": {"lon": 14.72722, "lat": 42.043339}}, {"id": 6537535, "name": "Carpino", "state": "", "country": "IT", "coord": {"lon": 15.85615, "lat": 41.844238}}, {"id": 6537538, "name": "Lucera", "state": "", "country": "IT", "coord": {"lon": 15.33505, "lat": 41.508228}}, {"id": 6537541, "name": "Orsara di Puglia", "state": "", "country": "IT", "coord": {"lon": 15.26445, "lat": 41.281631}}, {"id": 6537546, "name": "Barletta", "state": "", "country": "IT", "coord": {"lon": 16.29077, "lat": 41.311829}}, {"id": 6537548, "name": "Corato", "state": "", "country": "IT", "coord": {"lon": 16.41387, "lat": 41.145531}}, {"id": 6537549, "name": "Gioia del Colle", "state": "", "country": "IT", "coord": {"lon": 16.92359, "lat": 40.79673}}, {"id": 6537550, "name": "Giovinazzo", "state": "", "country": "IT", "coord": {"lon": 16.667379, "lat": 41.186432}}, {"id": 6537553, "name": "Molfetta", "state": "", "country": "IT", "coord": {"lon": 16.597481, "lat": 41.20023}}, {"id": 6537554, "name": "Noicattaro", "state": "", "country": "IT", "coord": {"lon": 16.98959, "lat": 41.033829}}, {"id": 6537555, "name": "Palo del Colle", "state": "", "country": "IT", "coord": {"lon": 16.700781, "lat": 41.057529}}, {"id": 6537556, "name": "Polignano a Mare", "state": "", "country": "IT", "coord": {"lon": 17.215891, "lat": 40.99593}}, {"id": 6537557, "name": "Ruvo di Puglia", "state": "", "country": "IT", "coord": {"lon": 16.48778, "lat": 41.113628}}, {"id": 6537559, "name": "Santeramo in Colle", "state": "", "country": "IT", "coord": {"lon": 16.755289, "lat": 40.79303}}, {"id": 6537560, "name": "Spinazzola", "state": "", "country": "IT", "coord": {"lon": 16.09157, "lat": 40.967129}}, {"id": 6537561, "name": "Castellaneta", "state": "", "country": "IT", "coord": {"lon": 16.93689, "lat": 40.62722}}, {"id": 6537562, "name": "Crispiano", "state": "", "country": "IT", "coord": {"lon": 17.2356, "lat": 40.600128}}, {"id": 6537563, "name": "Grottaglie", "state": "", "country": "IT", "coord": {"lon": 17.433701, "lat": 40.53923}}, {"id": 6537564, "name": "Massafra", "state": "", "country": "IT", "coord": {"lon": 17.117001, "lat": 40.588821}}, {"id": 6537566, "name": "Mottola", "state": "", "country": "IT", "coord": {"lon": 17.037201, "lat": 40.633221}}, {"id": 6537567, "name": "Palagiano", "state": "", "country": "IT", "coord": {"lon": 17.037399, "lat": 40.57822}}, {"id": 6537571, "name": "Sava", "state": "", "country": "IT", "coord": {"lon": 17.558411, "lat": 40.403419}}, {"id": 6537572, "name": "Ceglie Messapica", "state": "", "country": "IT", "coord": {"lon": 17.515499, "lat": 40.643929}}, {"id": 6537575, "name": "Latiano", "state": "", "country": "IT", "coord": {"lon": 17.72051, "lat": 40.552929}}, {"id": 6537581, "name": "Alliste", "state": "", "country": "IT", "coord": {"lon": 18.088831, "lat": 39.94862}}, {"id": 6537585, "name": "Carpignano Salentino", "state": "", "country": "IT", "coord": {"lon": 18.338329, "lat": 40.196918}}, {"id": 6537587, "name": "Corsano", "state": "", "country": "IT", "coord": {"lon": 18.369329, "lat": 39.889221}}, {"id": 6537588, "name": "Galatone", "state": "", "country": "IT", "coord": {"lon": 18.070419, "lat": 40.142921}}, {"id": 6537595, "name": "Ruffano", "state": "", "country": "IT", "coord": {"lon": 18.246429, "lat": 39.982922}}, {"id": 6537598, "name": "Squinzano", "state": "", "country": "IT", "coord": {"lon": 18.041821, "lat": 40.436531}}, {"id": 6537618, "name": "Filiano", "state": "", "country": "IT", "coord": {"lon": 15.70616, "lat": 40.810719}}, {"id": 6537619, "name": "Genzano di Lucania", "state": "", "country": "IT", "coord": {"lon": 16.030769, "lat": 40.847919}}, {"id": 6537624, "name": "Melfi", "state": "", "country": "IT", "coord": {"lon": 15.65136, "lat": 40.996521}}, {"id": 6537626, "name": "Muro Lucano", "state": "", "country": "IT", "coord": {"lon": 15.48576, "lat": 40.752522}}, {"id": 6537651, "name": "Pisticci", "state": "", "country": "IT", "coord": {"lon": 16.556789, "lat": 40.390621}}, {"id": 6537653, "name": "Tricarico", "state": "", "country": "IT", "coord": {"lon": 16.146481, "lat": 40.617619}}, {"id": 6537667, "name": "Fiumefreddo Bruzio", "state": "", "country": "IT", "coord": {"lon": 16.06959, "lat": 39.23439}}, {"id": 6537671, "name": "Luzzi", "state": "", "country": "IT", "coord": {"lon": 16.28829, "lat": 39.446098}}, {"id": 6537675, "name": "Mangone", "state": "", "country": "IT", "coord": {"lon": 16.332001, "lat": 39.205589}}, {"id": 6537687, "name": "San Lucido", "state": "", "country": "IT", "coord": {"lon": 16.050791, "lat": 39.308891}}, {"id": 6537689, "name": "Santa Domenica Talao", "state": "", "country": "IT", "coord": {"lon": 15.85458, "lat": 39.8195}}, {"id": 6537695, "name": "Gasperina", "state": "", "country": "IT", "coord": {"lon": 16.5061, "lat": 38.740879}}, {"id": 6537696, "name": "Guardavalle", "state": "", "country": "IT", "coord": {"lon": 16.50351, "lat": 38.504978}}, {"id": 6537718, "name": "Plat\u00ec", "state": "", "country": "IT", "coord": {"lon": 16.046499, "lat": 38.219971}}, {"id": 6537726, "name": "Stilo", "state": "", "country": "IT", "coord": {"lon": 16.46841, "lat": 38.477081}}, {"id": 6537727, "name": "Taurianova", "state": "", "country": "IT", "coord": {"lon": 16.0109, "lat": 38.35627}}, {"id": 6537730, "name": "Paceco", "state": "", "country": "IT", "coord": {"lon": 12.55663, "lat": 37.978741}}, {"id": 6537731, "name": "Salemi", "state": "", "country": "IT", "coord": {"lon": 12.80564, "lat": 37.823139}}, {"id": 6537733, "name": "Alia", "state": "", "country": "IT", "coord": {"lon": 13.71386, "lat": 37.779949}}, {"id": 6537734, "name": "Altofonte", "state": "", "country": "IT", "coord": {"lon": 13.29624, "lat": 38.042049}}, {"id": 6537735, "name": "Bagheria", "state": "", "country": "IT", "coord": {"lon": 13.50935, "lat": 38.07935}}, {"id": 6537738, "name": "Campofelice di Roccella", "state": "", "country": "IT", "coord": {"lon": 13.88536, "lat": 37.99015}}, {"id": 6537740, "name": "Cefal\u00f9", "state": "", "country": "IT", "coord": {"lon": 14.01036, "lat": 38.031551}}, {"id": 6537743, "name": "Cinisi", "state": "", "country": "IT", "coord": {"lon": 13.10734, "lat": 38.156151}}, {"id": 6537745, "name": "Corleone", "state": "", "country": "IT", "coord": {"lon": 13.29935, "lat": 37.816639}}, {"id": 6537749, "name": "Partinico", "state": "", "country": "IT", "coord": {"lon": 13.12004, "lat": 38.043949}}, {"id": 6537751, "name": "Santa Cristina Gela", "state": "", "country": "IT", "coord": {"lon": 13.32815, "lat": 37.984249}}, {"id": 6537752, "name": "Terrasini", "state": "", "country": "IT", "coord": {"lon": 13.08444, "lat": 38.14595}}, {"id": 6537754, "name": "Barcellona Pozzo di Gotto", "state": "", "country": "IT", "coord": {"lon": 15.21048, "lat": 38.14756}}, {"id": 6537767, "name": "Naso", "state": "", "country": "IT", "coord": {"lon": 14.78688, "lat": 38.123058}}, {"id": 6537771, "name": "Santa Lucia del Mela", "state": "", "country": "IT", "coord": {"lon": 15.28228, "lat": 38.142761}}, {"id": 6537773, "name": "Taormina", "state": "", "country": "IT", "coord": {"lon": 15.28699, "lat": 37.852058}}, {"id": 6537775, "name": "Alessandria della Rocca", "state": "", "country": "IT", "coord": {"lon": 13.45335, "lat": 37.566441}}, {"id": 6537776, "name": "Cammarata", "state": "", "country": "IT", "coord": {"lon": 13.63146, "lat": 37.62994}}, {"id": 6537780, "name": "Menfi", "state": "", "country": "IT", "coord": {"lon": 12.96784, "lat": 37.60664}}, {"id": 6537787, "name": "Butera", "state": "", "country": "IT", "coord": {"lon": 14.18367, "lat": 37.19104}}, {"id": 6537797, "name": "Piazza Armerina", "state": "", "country": "IT", "coord": {"lon": 14.36717, "lat": 37.385948}}, {"id": 6537801, "name": "Aci Castello", "state": "", "country": "IT", "coord": {"lon": 15.13459, "lat": 37.55825}}, {"id": 6537802, "name": "Aci Catena", "state": "", "country": "IT", "coord": {"lon": 15.14019, "lat": 37.595959}}, {"id": 6537803, "name": "Aci Sant'Antonio", "state": "", "country": "IT", "coord": {"lon": 15.12019, "lat": 37.606159}}, {"id": 6537804, "name": "Adrano", "state": "", "country": "IT", "coord": {"lon": 14.83478, "lat": 37.661751}}, {"id": 6537807, "name": "Nicolosi", "state": "", "country": "IT", "coord": {"lon": 15.02549, "lat": 37.615952}}, {"id": 6537811, "name": "Scordia", "state": "", "country": "IT", "coord": {"lon": 14.84078, "lat": 37.29805}}, {"id": 6537812, "name": "Trecastagni", "state": "", "country": "IT", "coord": {"lon": 15.07799, "lat": 37.618561}}, {"id": 6537813, "name": "Chiaramonte Gulfi", "state": "", "country": "IT", "coord": {"lon": 14.70128, "lat": 37.031342}}, {"id": 6537816, "name": "Scicli", "state": "", "country": "IT", "coord": {"lon": 14.70139, "lat": 36.790241}}, {"id": 6537818, "name": "Buscemi", "state": "", "country": "IT", "coord": {"lon": 14.88389, "lat": 37.086842}}, {"id": 6537821, "name": "Alghero", "state": "", "country": "IT", "coord": {"lon": 8.32111, "lat": 40.556862}}, {"id": 6537833, "name": "Ossi", "state": "", "country": "IT", "coord": {"lon": 8.59171, "lat": 40.674858}}, {"id": 6537844, "name": "Uri", "state": "", "country": "IT", "coord": {"lon": 8.48541, "lat": 40.639462}}, {"id": 6537885, "name": "Villagrande Strisaili", "state": "", "country": "IT", "coord": {"lon": 9.50754, "lat": 39.961262}}, {"id": 6537887, "name": "Armungia", "state": "", "country": "IT", "coord": {"lon": 9.38185, "lat": 39.52174}}, {"id": 6537888, "name": "Assemini", "state": "", "country": "IT", "coord": {"lon": 9.00154, "lat": 39.291538}}, {"id": 6537892, "name": "Capoterra", "state": "", "country": "IT", "coord": {"lon": 8.97184, "lat": 39.176338}}, {"id": 6537895, "name": "Dolianova", "state": "", "country": "IT", "coord": {"lon": 9.17864, "lat": 39.378239}}, {"id": 6537908, "name": "San Sperate", "state": "", "country": "IT", "coord": {"lon": 9.00674, "lat": 39.358742}}, {"id": 6537912, "name": "Selargius", "state": "", "country": "IT", "coord": {"lon": 9.16755, "lat": 39.256641}}, {"id": 6537929, "name": "Cordenons", "state": "", "country": "IT", "coord": {"lon": 12.69492, "lat": 45.98362}}, {"id": 6537935, "name": "Roveredo in Piano", "state": "", "country": "IT", "coord": {"lon": 12.62232, "lat": 46.008919}}, {"id": 6537957, "name": "Scapoli", "state": "", "country": "IT", "coord": {"lon": 14.05872, "lat": 41.61552}}, {"id": 6538004, "name": "Galbiate", "state": "", "country": "IT", "coord": {"lon": 9.37804, "lat": 45.816181}}, {"id": 6538016, "name": "Montescudo", "state": "", "country": "IT", "coord": {"lon": 12.54295, "lat": 43.91946}}, {"id": 6538018, "name": "Poggio a Caiano", "state": "", "country": "IT", "coord": {"lon": 11.05072, "lat": 43.813648}}, {"id": 6538021, "name": "Strongoli", "state": "", "country": "IT", "coord": {"lon": 17.054411, "lat": 39.266499}}, {"id": 6538025, "name": "Filadelfia", "state": "", "country": "IT", "coord": {"lon": 16.292, "lat": 38.784679}}, {"id": 6538035, "name": "Santa Maria Maggiore", "state": "", "country": "IT", "coord": {"lon": 8.46232, "lat": 46.135078}}, {"id": 6538038, "name": "Beinasco", "state": "", "country": "IT", "coord": {"lon": 7.58392, "lat": 45.02314}}, {"id": 6538049, "name": "Castellamonte", "state": "", "country": "IT", "coord": {"lon": 7.71212, "lat": 45.381962}}, {"id": 6538052, "name": "Chivasso", "state": "", "country": "IT", "coord": {"lon": 7.88722, "lat": 45.18935}}, {"id": 6538053, "name": "Collegno", "state": "", "country": "IT", "coord": {"lon": 7.57242, "lat": 45.077549}}, {"id": 6538058, "name": "Favria", "state": "", "country": "IT", "coord": {"lon": 7.69062, "lat": 45.33115}}, {"id": 6538064, "name": "Moncalieri", "state": "", "country": "IT", "coord": {"lon": 7.69032, "lat": 44.99625}}, {"id": 6538065, "name": "Monserrato", "state": "", "country": "IT", "coord": {"lon": 9.14704, "lat": 39.259941}}, {"id": 6538073, "name": "Piossasco", "state": "", "country": "IT", "coord": {"lon": 7.46372, "lat": 44.99054}}, {"id": 6538077, "name": "Rivalta di Torino", "state": "", "country": "IT", "coord": {"lon": 7.51842, "lat": 45.034039}}, {"id": 6538120, "name": "Trino", "state": "", "country": "IT", "coord": {"lon": 8.29613, "lat": 45.192059}}, {"id": 6538124, "name": "Borgomanero", "state": "", "country": "IT", "coord": {"lon": 8.45813, "lat": 45.70237}}, {"id": 6538141, "name": "Beinette", "state": "", "country": "IT", "coord": {"lon": 7.64673, "lat": 44.36483}}, {"id": 6538144, "name": "Bra", "state": "", "country": "IT", "coord": {"lon": 7.85563, "lat": 44.703041}}, {"id": 6538153, "name": "Gorzegno", "state": "", "country": "IT", "coord": {"lon": 8.13514, "lat": 44.51284}}, {"id": 6538164, "name": "Vernante", "state": "", "country": "IT", "coord": {"lon": 7.53383, "lat": 44.245029}}, {"id": 6538175, "name": "Costigliole d'Asti", "state": "", "country": "IT", "coord": {"lon": 8.18094, "lat": 44.783939}}, {"id": 6538185, "name": "Acqui Terme", "state": "", "country": "IT", "coord": {"lon": 8.46755, "lat": 44.67514}}, {"id": 6538190, "name": "Cassano Spinola", "state": "", "country": "IT", "coord": {"lon": 8.86505, "lat": 44.766949}}, {"id": 6538223, "name": "Terlago", "state": "", "country": "IT", "coord": {"lon": 11.04578, "lat": 46.0975}}, {"id": 6538252, "name": "Bassano del Grappa", "state": "", "country": "IT", "coord": {"lon": 11.7357, "lat": 45.767601}}, {"id": 6538267, "name": "Rossano Veneto", "state": "", "country": "IT", "coord": {"lon": 11.806, "lat": 45.705799}}, {"id": 6538270, "name": "Schio", "state": "", "country": "IT", "coord": {"lon": 11.35739, "lat": 45.712399}}, {"id": 6538275, "name": "Cortina d'Ampezzo", "state": "", "country": "IT", "coord": {"lon": 12.13769, "lat": 46.538422}}, {"id": 6538280, "name": "La Valle Agordina", "state": "", "country": "IT", "coord": {"lon": 12.065, "lat": 46.280418}}, {"id": 6538288, "name": "Sedico", "state": "", "country": "IT", "coord": {"lon": 12.0954, "lat": 46.108212}}, {"id": 6538293, "name": "Carbonera", "state": "", "country": "IT", "coord": {"lon": 12.28441, "lat": 45.683601}}, {"id": 6538297, "name": "Conegliano", "state": "", "country": "IT", "coord": {"lon": 12.30391, "lat": 45.887112}}, {"id": 6538298, "name": "Fregona", "state": "", "country": "IT", "coord": {"lon": 12.34011, "lat": 46.00341}}, {"id": 6538302, "name": "Moriago della Battaglia", "state": "", "country": "IT", "coord": {"lon": 12.1036, "lat": 45.866611}}, {"id": 6538303, "name": "Motta di Livenza", "state": "", "country": "IT", "coord": {"lon": 12.60772, "lat": 45.776611}}, {"id": 6538309, "name": "Sarmede", "state": "", "country": "IT", "coord": {"lon": 12.38421, "lat": 45.976711}}, {"id": 6538312, "name": "Vittorio Veneto", "state": "", "country": "IT", "coord": {"lon": 12.30001, "lat": 45.972809}}, {"id": 6538315, "name": "Martellago", "state": "", "country": "IT", "coord": {"lon": 12.16071, "lat": 45.544201}}, {"id": 6538317, "name": "Mirano", "state": "", "country": "IT", "coord": {"lon": 12.11091, "lat": 45.491699}}, {"id": 6538320, "name": "Quarto d'Altino", "state": "", "country": "IT", "coord": {"lon": 12.37172, "lat": 45.577702}}, {"id": 6538322, "name": "San Don\u00e0 di Piave", "state": "", "country": "IT", "coord": {"lon": 12.56442, "lat": 45.635502}}, {"id": 6538323, "name": "Scorz\u00e8", "state": "", "country": "IT", "coord": {"lon": 12.10991, "lat": 45.569}}, {"id": 6538325, "name": "Albignasego", "state": "", "country": "IT", "coord": {"lon": 11.86721, "lat": 45.347488}}, {"id": 6538345, "name": "Tombolo", "state": "", "country": "IT", "coord": {"lon": 11.8254, "lat": 45.6395}}, {"id": 6538353, "name": "Lendinara", "state": "", "country": "IT", "coord": {"lon": 11.59971, "lat": 45.084278}}, {"id": 6538362, "name": "Campoformido", "state": "", "country": "IT", "coord": {"lon": 13.16243, "lat": 46.019321}}, {"id": 6538364, "name": "Cividale del Friuli", "state": "", "country": "IT", "coord": {"lon": 13.43403, "lat": 46.089619}}, {"id": 6538374, "name": "Martignacco", "state": "", "country": "IT", "coord": {"lon": 13.13682, "lat": 46.097919}}, {"id": 6538382, "name": "Pasian di Prato", "state": "", "country": "IT", "coord": {"lon": 13.19283, "lat": 46.048119}}, {"id": 6538395, "name": "Taipana", "state": "", "country": "IT", "coord": {"lon": 13.34093, "lat": 46.248531}}, {"id": 6538406, "name": "San Pier d'Isonzo", "state": "", "country": "IT", "coord": {"lon": 13.46014, "lat": 45.84692}}, {"id": 6538411, "name": "Carpaneto Piacentino", "state": "", "country": "IT", "coord": {"lon": 9.78927, "lat": 44.91526}}, {"id": 6538418, "name": "Albareto", "state": "", "country": "IT", "coord": {"lon": 9.69998, "lat": 44.446548}}, {"id": 6538421, "name": "Colorno", "state": "", "country": "IT", "coord": {"lon": 10.37678, "lat": 44.92627}}, {"id": 6538422, "name": "Felino", "state": "", "country": "IT", "coord": {"lon": 10.24108, "lat": 44.695759}}, {"id": 6538424, "name": "Langhirano", "state": "", "country": "IT", "coord": {"lon": 10.26559, "lat": 44.612659}}, {"id": 6538425, "name": "Montechiarugolo", "state": "", "country": "IT", "coord": {"lon": 10.42219, "lat": 44.69326}}, {"id": 6538426, "name": "Neviano degli Arduini", "state": "", "country": "IT", "coord": {"lon": 10.31569, "lat": 44.582359}}, {"id": 6538437, "name": "Carpineti", "state": "", "country": "IT", "coord": {"lon": 10.51969, "lat": 44.455959}}, {"id": 6538439, "name": "Castellarano", "state": "", "country": "IT", "coord": {"lon": 10.7329, "lat": 44.513062}}, {"id": 6538441, "name": "Guastalla", "state": "", "country": "IT", "coord": {"lon": 10.66089, "lat": 44.91317}}, {"id": 6538442, "name": "Montecchio Emilia", "state": "", "country": "IT", "coord": {"lon": 10.44709, "lat": 44.701359}}, {"id": 6538445, "name": "Sant'Ilario d'Enza", "state": "", "country": "IT", "coord": {"lon": 10.44809, "lat": 44.762459}}, {"id": 6538448, "name": "Bomporto", "state": "", "country": "IT", "coord": {"lon": 11.0384, "lat": 44.729771}}, {"id": 6538449, "name": "Camposanto", "state": "", "country": "IT", "coord": {"lon": 11.1429, "lat": 44.786968}}, {"id": 6538450, "name": "Carpi", "state": "", "country": "IT", "coord": {"lon": 10.8777, "lat": 44.782372}}, {"id": 6538451, "name": "Castelvetro di Modena", "state": "", "country": "IT", "coord": {"lon": 10.9464, "lat": 44.50576}}, {"id": 6538453, "name": "Formigine", "state": "", "country": "IT", "coord": {"lon": 10.847, "lat": 44.57296}}, {"id": 6538456, "name": "Mirandola", "state": "", "country": "IT", "coord": {"lon": 11.0662, "lat": 44.886768}}, {"id": 6538467, "name": "Castel San Pietro Terme", "state": "", "country": "IT", "coord": {"lon": 11.58482, "lat": 44.398571}}, {"id": 6538473, "name": "Pieve di Cento", "state": "", "country": "IT", "coord": {"lon": 11.30761, "lat": 44.712269}}, {"id": 6538475, "name": "San Giovanni in Persiceto", "state": "", "country": "IT", "coord": {"lon": 11.18411, "lat": 44.639969}}, {"id": 6538477, "name": "Sasso Marconi", "state": "", "country": "IT", "coord": {"lon": 11.24951, "lat": 44.39946}}, {"id": 6538479, "name": "Codigoro", "state": "", "country": "IT", "coord": {"lon": 12.10952, "lat": 44.831581}},