[{"id": 2161032, "name": "Korweinguboora", "state": "", "country": "AU", "coord": {"lon": 144.133331, "lat": -37.450001}}, {"id": 2161033, "name": "Korumburra South", "state": "", "country": "AU", "coord": {"lon": 145.850006, "lat": -38.466671}}, {"id": 2161034, "name": "Korumburra", "state": "", "country": "AU", "coord": {"lon": 145.816666, "lat": -38.433331}}, {"id": 2161047, "name": "Koroit", "state": "", "country": "AU", "coord": {"lon": 142.366669, "lat": -38.299999}}, {"id": 2161072, "name": "Kootingal", "state": "", "country": "AU", "coord": {"lon": 151.050003, "lat": -31.066669}}, {"id": 2161081, "name": "Kooroocheang", "state": "", "country": "AU", "coord": {"lon": 144.033325, "lat": -37.283329}}, {"id": 2161083, "name": "Koornalla", "state": "", "country": "AU", "coord": {"lon": 146.533325, "lat": -38.316669}}, {"id": 2161085, "name": "Koorlong", "state": "", "country": "AU", "coord": {"lon": 142.083328, "lat": -34.283329}}, {"id": 2161095, "name": "Koorawatha", "state": "", "country": "AU", "coord": {"lon": 148.550003, "lat": -34.033329}}, {"id": 2161097, "name": "Kooralgin", "state": "", "country": "AU", "coord": {"lon": 151.949997, "lat": -26.933331}}, {"id": 2161099, "name": "Koorainghat", "state": "", "country": "AU", "coord": {"lon": 152.483337, "lat": -31.98333}}, {"id": 2161105, "name": "Koonya", "state": "", "country": "AU", "coord": {"lon": 147.850006, "lat": -43.049999}}, {"id": 2161106, "name": "Koonwarra", "state": "", "country": "AU", "coord": {"lon": 145.949997, "lat": -38.549999}}, {"id": 2161108, "name": "Koonorigan", "state": "", "country": "AU", "coord": {"lon": 153.233337, "lat": -28.683331}}, {"id": 2161113, "name": "Koondrook", "state": "", "country": "AU", "coord": {"lon": 144.116669, "lat": -35.650002}}, {"id": 2161151, "name": "Konongwootong", "state": "", "country": "AU", "coord": {"lon": 141.683334, "lat": -37.533329}}, {"id": 2161152, "name": "Kongwak", "state": "", "country": "AU", "coord": {"lon": 145.699997, "lat": -38.51667}}, {"id": 2161163, "name": "Kolora", "state": "", "country": "AU", "coord": {"lon": 142.916672, "lat": -38.133331}}, {"id": 2161177, "name": "Kolan", "state": "", "country": "AU", "coord": {"lon": 152.083328, "lat": -24.9}}, {"id": 2161185, "name": "Kogarah", "state": "", "country": "AU", "coord": {"lon": 151.116669, "lat": -33.98333}}, {"id": 2161187, "name": "Kogan", "state": "", "country": "AU", "coord": {"lon": 150.766663, "lat": -27.033331}}, {"id": 2161189, "name": "Koetong", "state": "", "country": "AU", "coord": {"lon": 147.5, "lat": -36.150002}}, {"id": 2161198, "name": "Koah", "state": "", "country": "AU", "coord": {"lon": 145.516663, "lat": -16.83333}}, {"id": 2161202, "name": "Knorrit Flat", "state": "", "country": "AU", "coord": {"lon": 152.083328, "lat": -31.816669}}, {"id": 2161204, "name": "Knockrow", "state": "", "country": "AU", "coord": {"lon": 153.533325, "lat": -28.76667}}, {"id": 2161234, "name": "Klori", "state": "", "country": "AU", "coord": {"lon": 150.783325, "lat": -30.83333}}, {"id": 2161235, "name": "Kleinton", "state": "", "country": "AU", "coord": {"lon": 151.949997, "lat": -27.433331}}, {"id": 2161251, "name": "Kirribilli", "state": "", "country": "AU", "coord": {"lon": 151.216675, "lat": -33.849998}}, {"id": 2161261, "name": "Kirkstall", "state": "", "country": "AU", "coord": {"lon": 142.316666, "lat": -38.26667}}, {"id": 2161279, "name": "Kioloa", "state": "", "country": "AU", "coord": {"lon": 150.383331, "lat": -35.549999}}, {"id": 2161291, "name": "Kin Kin", "state": "", "country": "AU", "coord": {"lon": 152.883331, "lat": -26.26667}}, {"id": 2161303, "name": "Kingswood", "state": "", "country": "AU", "coord": {"lon": 150.75, "lat": -33.75}}, {"id": 2161305, "name": "Kingsvale", "state": "", "country": "AU", "coord": {"lon": 148.316666, "lat": -34.433331}}, {"id": 2161309, "name": "Kingston Beach", "state": "", "country": "AU", "coord": {"lon": 147.316666, "lat": -42.98333}}, {"id": 2161311, "name": "Kingston", "state": "", "country": "AU", "coord": {"lon": 147.316666, "lat": -42.966671}}, {"id": 2161313, "name": "Kingston", "state": "", "country": "AU", "coord": {"lon": 140.350006, "lat": -34.23333}}, {"id": 2161314, "name": "Kingston", "state": "", "country": "NF", "coord": {"lon": 167.966278, "lat": -29.05459}}, {"id": 2161315, "name": "Kingston", "state": "", "country": "AU", "coord": {"lon": 153.116669, "lat": -27.66667}}, {"id": 2161318, "name": "Kingsthorpe", "state": "", "country": "AU", "coord": {"lon": 151.833328, "lat": -27.466669}}, {"id": 2161320, "name": "Kings Plains", "state": "", "country": "AU", "coord": {"lon": 149.333328, "lat": -33.5}}, {"id": 2161335, "name": "Kingscliff", "state": "", "country": "AU", "coord": {"lon": 153.566666, "lat": -28.26667}}, {"id": 2161348, "name": "Kingower", "state": "", "country": "AU", "coord": {"lon": 143.75, "lat": -36.616669}}, {"id": 2161351, "name": "Kinglake West", "state": "", "country": "AU", "coord": {"lon": 145.233337, "lat": -37.466671}}, {"id": 2161352, "name": "Kinglake East", "state": "", "country": "AU", "coord": {"lon": 145.350006, "lat": -37.51667}}, {"id": 2161353, "name": "Kinglake Central", "state": "", "country": "AU", "coord": {"lon": 145.300003, "lat": -37.5}}, {"id": 2161376, "name": "Kingaroy", "state": "", "country": "AU", "coord": {"lon": 151.833328, "lat": -26.533331}}, {"id": 2161387, "name": "Kindred", "state": "", "country": "AU", "coord": {"lon": 146.233337, "lat": -41.25}}, {"id": 2161390, "name": "Kincumber South", "state": "", "country": "AU", "coord": {"lon": 151.383331, "lat": -33.48333}}, {"id": 2161392, "name": "Kincumber", "state": "", "country": "AU", "coord": {"lon": 151.416672, "lat": -33.48333}}, {"id": 2161399, "name": "Kinbombi", "state": "", "country": "AU", "coord": {"lon": 152.116669, "lat": -26.200001}}, {"id": 2161404, "name": "Kimberley", "state": "", "country": "AU", "coord": {"lon": 146.516663, "lat": -41.400002}}, {"id": 2161408, "name": "Kilsyth", "state": "", "country": "AU", "coord": {"lon": 145.316666, "lat": -37.799999}}, {"id": 2161414, "name": "Kilmore East", "state": "", "country": "AU", "coord": {"lon": 144.983337, "lat": -37.299999}}, {"id": 2161415, "name": "Kilmore", "state": "", "country": "AU", "coord": {"lon": 144.949997, "lat": -37.299999}}, {"id": 2161418, "name": "Kilmany", "state": "", "country": "AU", "coord": {"lon": 146.899994, "lat": -38.099998}}, {"id": 2161421, "name": "Killingworth", "state": "", "country": "AU", "coord": {"lon": 151.566666, "lat": -32.933331}}, {"id": 2161427, "name": "Killawarra", "state": "", "country": "AU", "coord": {"lon": 146.25, "lat": -36.25}}, {"id": 2161428, "name": "Killawarra", "state": "", "country": "AU", "coord": {"lon": 152.300003, "lat": -31.883329}}, {"id": 2161441, "name": "Killarney", "state": "", "country": "AU", "coord": {"lon": 152.300003, "lat": -28.33333}}, {"id": 2161451, "name": "Killabakh Creek", "state": "", "country": "AU", "coord": {"lon": 152.399994, "lat": -31.73333}}, {"id": 2161452, "name": "Kilkivan", "state": "", "country": "AU", "coord": {"lon": 152.233337, "lat": -26.08333}}, {"id": 2161466, "name": "Kilcunda", "state": "", "country": "AU", "coord": {"lon": 145.483337, "lat": -38.549999}}, {"id": 2161470, "name": "Kilcoy", "state": "", "country": "AU", "coord": {"lon": 152.550003, "lat": -26.950001}}, {"id": 2161473, "name": "Killcare", "state": "", "country": "AU", "coord": {"lon": 151.366669, "lat": -33.51667}}, {"id": 2161484, "name": "Kiewa", "state": "", "country": "AU", "coord": {"lon": 147.016663, "lat": -36.26667}}, {"id": 2161509, "name": "Kianga", "state": "", "country": "AU", "coord": {"lon": 150.116669, "lat": -36.183331}}, {"id": 2161515, "name": "Kiama", "state": "", "country": "AU", "coord": {"lon": 150.866669, "lat": -34.683331}}, {"id": 2161517, "name": "Kialla West", "state": "", "country": "AU", "coord": {"lon": 145.383331, "lat": -36.633331}}, {"id": 2161518, "name": "Kialla East", "state": "", "country": "AU", "coord": {"lon": 145.533325, "lat": -36.450001}}, {"id": 2161522, "name": "Kiah", "state": "", "country": "AU", "coord": {"lon": 149.866669, "lat": -37.150002}}, {"id": 2161529, "name": "Khancoban", "state": "", "country": "AU", "coord": {"lon": 148.083328, "lat": -36.200001}}, {"id": 2161532, "name": "Keysborough", "state": "", "country": "AU", "coord": {"lon": 145.173843, "lat": -37.991161}}, {"id": 2161546, "name": "Kettering", "state": "", "country": "AU", "coord": {"lon": 147.266663, "lat": -43.116669}}, {"id": 2161557, "name": "Kerry", "state": "", "country": "AU", "coord": {"lon": 153.016663, "lat": -28.1}}, {"id": 2161561, "name": "Kerrs Creek", "state": "", "country": "AU", "coord": {"lon": 149.100006, "lat": -33.049999}}, {"id": 2161573, "name": "Kerrabee", "state": "", "country": "AU", "coord": {"lon": 150.300003, "lat": -32.416672}}, {"id": 2161575, "name": "Kernot", "state": "", "country": "AU", "coord": {"lon": 145.600006, "lat": -38.433331}}, {"id": 2161582, "name": "Kergunyah", "state": "", "country": "AU", "coord": {"lon": 147.050003, "lat": -36.383331}}, {"id": 2161587, "name": "Kerang", "state": "", "country": "AU", "coord": {"lon": 143.916672, "lat": -35.73333}}, {"id": 2161589, "name": "Keppel Sands", "state": "", "country": "AU", "coord": {"lon": 150.783325, "lat": -23.35}}, {"id": 2161596, "name": "Kentville", "state": "", "country": "AU", "coord": {"lon": 152.433334, "lat": -27.48333}}, {"id": 2161599, "name": "Kentucky", "state": "", "country": "AU", "coord": {"lon": 151.449997, "lat": -30.76667}}, {"id": 2161602, "name": "Kenthurst", "state": "", "country": "AU", "coord": {"lon": 151, "lat": -33.666672}}, {"id": 2161608, "name": "Kensington", "state": "", "country": "AU", "coord": {"lon": 151.216675, "lat": -33.916672}}, {"id": 2161613, "name": "Kennington", "state": "", "country": "AU", "coord": {"lon": 144.300003, "lat": -36.783329}}, {"id": 2161622, "name": "Kennedys Creek", "state": "", "country": "AU", "coord": {"lon": 143.25, "lat": -38.599998}}, {"id": 2161639, "name": "Kennedy", "state": "", "country": "AU", "coord": {"lon": 145.966675, "lat": -18.200001}}, {"id": 2161650, "name": "Kenilworth", "state": "", "country": "AU", "coord": {"lon": 152.733337, "lat": -26.58333}}, {"id": 2161654, "name": "Kendall", "state": "", "country": "AU", "coord": {"lon": 152.699997, "lat": -31.633329}}, {"id": 2161656, "name": "Kempton", "state": "", "country": "AU", "coord": {"lon": 147.199997, "lat": -42.51667}}, {"id": 2161658, "name": "Kempsey", "state": "", "country": "AU", "coord": {"lon": 152.833328, "lat": -31.08333}}, {"id": 2161672, "name": "Kelvin", "state": "", "country": "AU", "coord": {"lon": 150.333328, "lat": -30.816669}}, {"id": 2161678, "name": "Kelso", "state": "", "country": "AU", "coord": {"lon": 149.600006, "lat": -33.416672}}, {"id": 2161684, "name": "Kellys Plains", "state": "", "country": "AU", "coord": {"lon": 151.633331, "lat": -30.58333}}, {"id": 2161708, "name": "Kellevie", "state": "", "country": "AU", "coord": {"lon": 147.800003, "lat": -42.76667}}, {"id": 2161713, "name": "Keith Hall", "state": "", "country": "AU", "coord": {"lon": 153.533325, "lat": -28.9}}, {"id": 2161714, "name": "Keith", "state": "", "country": "AU", "coord": {"lon": 140.350006, "lat": -36.099998}}, {"id": 2161715, "name": "Keiraville", "state": "", "country": "AU", "coord": {"lon": 150.866669, "lat": -34.416672}}, {"id": 2161719, "name": "Keilor", "state": "", "country": "AU", "coord": {"lon": 144.833328, "lat": -37.716671}}, {"id": 2161732, "name": "Keera", "state": "", "country": "AU", "coord": {"lon": 150.783325, "lat": -29.98333}}, {"id": 2161734, "name": "Keepit", "state": "", "country": "AU", "coord": {"lon": 150.516663, "lat": -30.83333}}, {"id": 2161737, "name": "Keely", "state": "", "country": "AU", "coord": {"lon": 144.25, "lat": -35.849998}}, {"id": 2161762, "name": "Kawungan", "state": "", "country": "AU", "coord": {"lon": 152.833328, "lat": -25.299999}}, {"id": 2161764, "name": "Kawarren", "state": "", "country": "AU", "coord": {"lon": 143.583328, "lat": -38.48333}}, {"id": 2161771, "name": "Katunga", "state": "", "country": "AU", "coord": {"lon": 145.466675, "lat": -36.01667}}, {"id": 2161776, "name": "Katoomba", "state": "", "country": "AU", "coord": {"lon": 150.307388, "lat": -33.719769}}, {"id": 2161793, "name": "Katandra", "state": "", "country": "AU", "coord": {"lon": 145.616669, "lat": -36.23333}}, {"id": 2161795, "name": "Katamatite", "state": "", "country": "AU", "coord": {"lon": 145.699997, "lat": -36.083328}}, {"id": 2161798, "name": "Karumba", "state": "", "country": "AU", "coord": {"lon": 140.833328, "lat": -17.48333}}, {"id": 2161802, "name": "Kars Springs", "state": "", "country": "AU", "coord": {"lon": 150.566666, "lat": -31.9}}, {"id": 2161810, "name": "Karrabin", "state": "", "country": "AU", "coord": {"lon": 152.716675, "lat": -27.6}}, {"id": 2161817, "name": "Karoola", "state": "", "country": "AU", "coord": {"lon": 147.149994, "lat": -41.25}}, {"id": 2161825, "name": "Karnak", "state": "", "country": "AU", "coord": {"lon": 141.5, "lat": -36.866669}}, {"id": 2161832, "name": "Karimba", "state": "", "country": "AU", "coord": {"lon": 145.25, "lat": -36.133331}}, {"id": 2161837, "name": "Kardella South", "state": "", "country": "AU", "coord": {"lon": 145.883331, "lat": -38.450001}}, {"id": 2161838, "name": "Kardella", "state": "", "country": "AU", "coord": {"lon": 145.866669, "lat": -38.416672}}, {"id": 2161842, "name": "Karara", "state": "", "country": "AU", "coord": {"lon": 151.566666, "lat": -28.200001}}, {"id": 2161845, "name": "Karangi", "state": "", "country": "AU", "coord": {"lon": 153.050003, "lat": -30.26667}}, {"id": 2161858, "name": "Kaoota", "state": "", "country": "AU", "coord": {"lon": 147.183334, "lat": -43.01667}}, {"id": 2161863, "name": "Kanwal", "state": "", "country": "AU", "coord": {"lon": 151.491776, "lat": -33.25391}}, {"id": 2161864, "name": "Kanumbra", "state": "", "country": "AU", "coord": {"lon": 145.666672, "lat": -37.049999}}, {"id": 2161868, "name": "Kaniva", "state": "", "country": "AU", "coord": {"lon": 141.25, "lat": -36.383331}}, {"id": 2161873, "name": "Kangiara", "state": "", "country": "AU", "coord": {"lon": 148.75, "lat": -34.599998}}, {"id": 2161876, "name": "Kangaroo Valley", "state": "", "country": "AU", "coord": {"lon": 150.533325, "lat": -34.73333}}, {"id": 2161903, "name": "Kangaroo Flat", "state": "", "country": "AU", "coord": {"lon": 144.25, "lat": -36.799999}}, {"id": 2161932, "name": "Kangaloon", "state": "", "country": "AU", "coord": {"lon": 150.533325, "lat": -34.549999}}, {"id": 2161935, "name": "Kandos", "state": "", "country": "AU", "coord": {"lon": 149.966675, "lat": -32.849998}}, {"id": 2161941, "name": "Kandanga", "state": "", "country": "AU", "coord": {"lon": 152.666672, "lat": -26.383329}}, {"id": 2161942, "name": "Kancoona", "state": "", "country": "AU", "coord": {"lon": 146.983337, "lat": -36.583328}}, {"id": 2161954, "name": "Kanagulk", "state": "", "country": "AU", "coord": {"lon": 141.866669, "lat": -37.133331}}, {"id": 2161969, "name": "Kamarooka", "state": "", "country": "AU", "coord": {"lon": 144.333328, "lat": -36.466671}}, {"id": 2161970, "name": "Kamarah", "state": "", "country": "AU", "coord": {"lon": 146.766663, "lat": -34.333328}}, {"id": 2161974, "name": "Kalpowar", "state": "", "country": "AU", "coord": {"lon": 151.300003, "lat": -24.700001}}, {"id": 2161976, "name": "Kalorama", "state": "", "country": "AU", "coord": {"lon": 145.366669, "lat": -37.816669}}, {"id": 2161984, "name": "Kallista", "state": "", "country": "AU", "coord": {"lon": 145.366669, "lat": -37.883331}}, {"id": 2161986, "name": "Kalkite", "state": "", "country": "AU", "coord": {"lon": 148.633331, "lat": -36.333328}}, {"id": 2161990, "name": "Kalkallo", "state": "", "country": "AU", "coord": {"lon": 144.949997, "lat": -37.533329}}, {"id": 2162002, "name": "Kalbar", "state": "", "country": "AU", "coord": {"lon": 152.616669, "lat": -27.933331}}, {"id": 2162005, "name": "Kalapa", "state": "", "country": "AU", "coord": {"lon": 150.266663, "lat": -23.51667}}, {"id": 2162006, "name": "Kalangadoo", "state": "", "country": "AU", "coord": {"lon": 140.699997, "lat": -37.566669}}, {"id": 2162019, "name": "Kairi", "state": "", "country": "AU", "coord": {"lon": 145.550003, "lat": -17.216669}}, {"id": 2162021, "name": "Kaimkillenbun", "state": "", "country": "AU", "coord": {"lon": 151.433334, "lat": -27.066669}}, {"id": 2162025, "name": "Kahibah", "state": "", "country": "AU", "coord": {"lon": 151.716675, "lat": -32.966671}}, {"id": 2162033, "name": "Kabra", "state": "", "country": "AU", "coord": {"lon": 150.399994, "lat": -23.466669}}, {"id": 2162046, "name": "Jung", "state": "", "country": "AU", "coord": {"lon": 142.366669, "lat": -36.616669}}, {"id": 2162049, "name": "Junee Reefs", "state": "", "country": "AU", "coord": {"lon": 147.616669, "lat": -34.73333}}, {"id": 2162052, "name": "Junee", "state": "", "country": "AU", "coord": {"lon": 147.583328, "lat": -34.883331}}, {"id": 2162054, "name": "Jundah", "state": "", "country": "AU", "coord": {"lon": 143.066666, "lat": -24.83333}}, {"id": 2162056, "name": "Junction View", "state": "", "country": "AU", "coord": {"lon": 152.183334, "lat": -27.799999}}, {"id": 2162077, "name": "Junabee", "state": "", "country": "AU", "coord": {"lon": 152.133331, "lat": -28.25}}, {"id": 2162084, "name": "Jumbunna", "state": "", "country": "AU", "coord": {"lon": 145.766663, "lat": -38.466671}}, {"id": 2162085, "name": "Jumbuk", "state": "", "country": "AU", "coord": {"lon": 146.466675, "lat": -38.416672}}, {"id": 2162098, "name": "Julia Creek", "state": "", "country": "AU", "coord": {"lon": 141.733337, "lat": -20.65}}, {"id": 2162101, "name": "Julatten", "state": "", "country": "AU", "coord": {"lon": 145.350006, "lat": -16.616671}}, {"id": 2162119, "name": "Judbury", "state": "", "country": "AU", "coord": {"lon": 146.916672, "lat": -43}}, {"id": 2162151, "name": "Josephville", "state": "", "country": "AU", "coord": {"lon": 152.933334, "lat": -28.033331}}, {"id": 2162187, "name": "Jondaryan", "state": "", "country": "AU", "coord": {"lon": 151.600006, "lat": -27.366671}}, {"id": 2162199, "name": "Johns River", "state": "", "country": "AU", "coord": {"lon": 152.699997, "lat": -31.75}}, {"id": 2162200, "name": "Johnsonville", "state": "", "country": "AU", "coord": {"lon": 147.800003, "lat": -37.816669}}, {"id": 2162222, "name": "Johanna", "state": "", "country": "AU", "coord": {"lon": 143.366669, "lat": -38.75}}, {"id": 2162228, "name": "Joel South", "state": "", "country": "AU", "coord": {"lon": 143.066666, "lat": -37.133331}}, {"id": 2162229, "name": "Joel Joel", "state": "", "country": "AU", "coord": {"lon": 142.983337, "lat": -37.01667}}, {"id": 2162239, "name": "Joanna", "state": "", "country": "AU", "coord": {"lon": 140.833328, "lat": -37.099998}}, {"id": 2162247, "name": "Jingellic", "state": "", "country": "AU", "coord": {"lon": 147.683334, "lat": -35.933331}}, {"id": 2162249, "name": "Jindivick", "state": "", "country": "AU", "coord": {"lon": 145.899994, "lat": -38.033329}}, {"id": 2162250, "name": "Jindera", "state": "", "country": "AU", "coord": {"lon": 146.899994, "lat": -35.950001}}, {"id": 2162255, "name": "Jindabyne", "state": "", "country": "AU", "coord": {"lon": 148.633331, "lat": -36.416672}}, {"id": 2162260, "name": "Jimna", "state": "", "country": "AU", "coord": {"lon": 152.466675, "lat": -26.66667}}, {"id": 2162276, "name": "Jimboomba", "state": "", "country": "AU", "coord": {"lon": 153.033325, "lat": -27.83333}}, {"id": 2162281, "name": "Jilliby", "state": "", "country": "AU", "coord": {"lon": 151.41684, "lat": -33.226051}}, {"id": 2162287, "name": "Jiggi", "state": "", "country": "AU", "coord": {"lon": 153.183334, "lat": -28.683331}}, {"id": 2162322, "name": "Jervis Bay Village", "state": "", "country": "AU", "coord": {"lon": 150.699997, "lat": -35.133331}}, {"id": 2162330, "name": "Jerseyville", "state": "", "country": "AU", "coord": {"lon": 153.033325, "lat": -30.91667}}, {"id": 2162332, "name": "Jerrys Plains", "state": "", "country": "AU", "coord": {"lon": 150.916672, "lat": -32.5}}, {"id": 2162341, "name": "Jerrawangala", "state": "", "country": "AU", "coord": {"lon": 150.483337, "lat": -35.116669}}, {"id": 2162342, "name": "Jerrawa", "state": "", "country": "AU", "coord": {"lon": 149.083328, "lat": -34.783329}}, {"id": 2162351, "name": "Jerilderie", "state": "", "country": "AU", "coord": {"lon": 145.733337, "lat": -35.366669}}, {"id": 2162354, "name": "Jericho", "state": "", "country": "AU", "coord": {"lon": 147.283325, "lat": -42.383331}}, {"id": 2162355, "name": "Jericho", "state": "", "country": "AU", "coord": {"lon": 146.133331, "lat": -23.6}}, {"id": 2162359, "name": "Jerangle", "state": "", "country": "AU", "coord": {"lon": 149.366669, "lat": -35.866669}}, {"id": 2162360, "name": "Jeparit", "state": "", "country": "AU", "coord": {"lon": 141.983337, "lat": -36.150002}}, {"id": 2162362, "name": "Jeogla", "state": "", "country": "AU", "coord": {"lon": 152.116669, "lat": -30.566669}}, {"id": 2162367, "name": "Jennings", "state": "", "country": "AU", "coord": {"lon": 151.933334, "lat": -28.933331}}, {"id": 2162369, "name": "Jembatcumbene", "state": "", "country": "AU", "coord": {"lon": 149.783325, "lat": -35.533329}}, {"id": 2162385, "name": "Jeetho", "state": "", "country": "AU", "coord": {"lon": 145.716675, "lat": -38.383331}}, {"id": 2162387, "name": "Jeeralang Junction", "state": "", "country": "AU", "coord": {"lon": 146.416672, "lat": -38.333328}}, {"id": 2162389, "name": "Jeeralang", "state": "", "country": "AU", "coord": {"lon": 146.466675, "lat": -38.400002}}, {"id": 2162402, "name": "Jaspers Brush", "state": "", "country": "AU", "coord": {"lon": 150.666672, "lat": -34.816669}}, {"id": 2162407, "name": "Jarklin", "state": "", "country": "AU", "coord": {"lon": 143.966675, "lat": -36.26667}}, {"id": 2162419, "name": "Jannali", "state": "", "country": "AU", "coord": {"lon": 151.066666, "lat": -34.01667}}, {"id": 2162433, "name": "Jandowae", "state": "", "country": "AU", "coord": {"lon": 151.100006, "lat": -26.783331}}, {"id": 2162434, "name": "Jancourt", "state": "", "country": "AU", "coord": {"lon": 143.100006, "lat": -38.366669}}, {"id": 2162440, "name": "Jamieson", "state": "", "country": "AU", "coord": {"lon": 146.133331, "lat": -37.316669}}, {"id": 2162445, "name": "Jambin", "state": "", "country": "AU", "coord": {"lon": 150.366669, "lat": -24.216669}}, {"id": 2162446, "name": "Jamberoo", "state": "", "country": "AU", "coord": {"lon": 150.783325, "lat": -34.650002}}, {"id": 2162488, "name": "Jackson", "state": "", "country": "AU", "coord": {"lon": 149.616669, "lat": -26.65}}, {"id": 2162513, "name": "Jackeys Marsh", "state": "", "country": "AU", "coord": {"lon": 146.649994, "lat": -41.666672}}, {"id": 2162532, "name": "Jabuk", "state": "", "country": "AU", "coord": {"lon": 140.066666, "lat": -35.400002}}, {"id": 2162542, "name": "Iveragh", "state": "", "country": "AU", "coord": {"lon": 151.449997, "lat": -24.133329}}, {"id": 2162577, "name": "Isisford", "state": "", "country": "AU", "coord": {"lon": 144.433334, "lat": -24.26667}}, {"id": 2162583, "name": "Isabella", "state": "", "country": "AU", "coord": {"lon": 149.666672, "lat": -33.950001}}, {"id": 2162586, "name": "Irymple", "state": "", "country": "AU", "coord": {"lon": 142.166672, "lat": -34.25}}, {"id": 2162591, "name": "Irvinebank", "state": "", "country": "AU", "coord": {"lon": 145.216675, "lat": -17.433331}}, {"id": 2162592, "name": "Irrewillipe", "state": "", "country": "AU", "coord": {"lon": 143.416672, "lat": -38.400002}}, {"id": 2162614, "name": "Ironmungie", "state": "", "country": "AU", "coord": {"lon": 148.933334, "lat": -36.583328}}, {"id": 2162644, "name": "Ipswich", "state": "", "country": "AU", "coord": {"lon": 152.766663, "lat": -27.616671}}, {"id": 2162648, "name": "Iona", "state": "", "country": "AU", "coord": {"lon": 145.683334, "lat": -38.133331}}, {"id": 2162650, "name": "Iogebyra", "state": "", "country": "AU", "coord": {"lon": 148.5, "lat": -36.650002}}, {"id": 2162658, "name": "Inverloch", "state": "", "country": "AU", "coord": {"lon": 145.716675, "lat": -38.633331}}, {"id": 2162659, "name": "Inverleigh", "state": "", "country": "AU", "coord": {"lon": 144.050003, "lat": -38.099998}}, {"id": 2162661, "name": "Invergordon", "state": "", "country": "AU", "coord": {"lon": 145.583328, "lat": -36.166672}}, {"id": 2162662, "name": "Inverell", "state": "", "country": "AU", "coord": {"lon": 151.116669, "lat": -29.783331}}, {"id": 2162671, "name": "Interlaken", "state": "", "country": "AU", "coord": {"lon": 147.183334, "lat": -42.150002}}, {"id": 2162679, "name": "Innot Hot Springs", "state": "", "country": "AU", "coord": {"lon": 145.25, "lat": -17.66667}}, {"id": 2162680, "name": "Innisplain", "state": "", "country": "AU", "coord": {"lon": 152.899994, "lat": -28.16667}}, {"id": 2162683, "name": "Innisfail", "state": "", "country": "AU", "coord": {"lon": 146.033325, "lat": -17.533331}}, {"id": 2162701, "name": "Innamincka", "state": "", "country": "AU", "coord": {"lon": 140.733337, "lat": -27.75}}, {"id": 2162715, "name": "Injune", "state": "", "country": "AU", "coord": {"lon": 148.566666, "lat": -25.85}}, {"id": 2162723, "name": "Inglewood", "state": "", "country": "AU", "coord": {"lon": 143.866669, "lat": -36.583328}}, {"id": 2162724, "name": "Inglewood", "state": "", "country": "AU", "coord": {"lon": 151.083328, "lat": -28.41667}}, {"id": 2162733, "name": "Ingleburn", "state": "", "country": "AU", "coord": {"lon": 150.866669, "lat": -34}}, {"id": 2162737, "name": "Ingham", "state": "", "country": "AU", "coord": {"lon": 146.166672, "lat": -18.65}}, {"id": 2162760, "name": "Imbil", "state": "", "country": "AU", "coord": {"lon": 152.683334, "lat": -26.450001}}, {"id": 2162764, "name": "Illowa", "state": "", "country": "AU", "coord": {"lon": 142.416672, "lat": -38.333328}}, {"id": 2162772, "name": "Illawarra", "state": "", "country": "AU", "coord": {"lon": 142.699997, "lat": -37.066669}}, {"id": 2162777, "name": "Illabo", "state": "", "country": "AU", "coord": {"lon": 147.75, "lat": -34.816669}}, {"id": 2162781, "name": "Ilfracombe", "state": "", "country": "AU", "coord": {"lon": 144.5, "lat": -23.5}}, {"id": 2162783, "name": "Ilbilbie", "state": "", "country": "AU", "coord": {"lon": 149.350006, "lat": -21.700001}}, {"id": 2162785, "name": "Ilarwill", "state": "", "country": "AU", "coord": {"lon": 153.183334, "lat": -29.48333}}, {"id": 2162856, "name": "Hurstville Grove", "state": "", "country": "AU", "coord": {"lon": 151.100006, "lat": -33.966671}}, {"id": 2162857, "name": "Hurstbridge", "state": "", "country": "AU", "coord": {"lon": 145.216675, "lat": -37.650002}}, {"id": 2162873, "name": "Huonville", "state": "", "country": "AU", "coord": {"lon": 147.033325, "lat": -43.033329}}, {"id": 2162881, "name": "Huonbrook", "state": "", "country": "AU", "coord": {"lon": 153.399994, "lat": -28.533331}}, {"id": 2162883, "name": "Huon", "state": "", "country": "AU", "coord": {"lon": 147.066666, "lat": -36.23333}}, {"id": 2162886, "name": "Huntly", "state": "", "country": "AU", "coord": {"lon": 144.333328, "lat": -36.666672}}, {"id": 2162890, "name": "Huntley", "state": "", "country": "AU", "coord": {"lon": 149.134293, "lat": -33.369499}}, {"id": 2162931, "name": "Humula", "state": "", "country": "AU", "coord": {"lon": 147.75, "lat": -35.48333}}, {"id": 2162949, "name": "Humevale", "state": "", "country": "AU", "coord": {"lon": 145.166672, "lat": -37.5}}, {"id": 2162976, "name": "Hughenden", "state": "", "country": "AU", "coord": {"lon": 144.199997, "lat": -20.85}}, {"id": 2162990, "name": "Howth", "state": "", "country": "AU", "coord": {"lon": 146.016663, "lat": -41.099998}}, {"id": 2162992, "name": "Howqua", "state": "", "country": "AU", "coord": {"lon": 146.116669, "lat": -37.23333}}, {"id": 2162994, "name": "Howlong", "state": "", "country": "AU", "coord": {"lon": 146.633331, "lat": -35.966671}}, {"id": 2163001, "name": "Howes Valley", "state": "", "country": "AU", "coord": {"lon": 150.866669, "lat": -32.833328}}, {"id": 2163003, "name": "Howes Creek", "state": "", "country": "AU", "coord": {"lon": 146, "lat": -37.166672}}, {"id": 2163017, "name": "Howard", "state": "", "country": "AU", "coord": {"lon": 152.566666, "lat": -25.316669}}, {"id": 2163037, "name": "Hotspur", "state": "", "country": "AU", "coord": {"lon": 141.566666, "lat": -37.933331}}, {"id": 2163046, "name": "Hoskinstown", "state": "", "country": "AU", "coord": {"lon": 149.449997, "lat": -35.416672}}, {"id": 2163051, "name": "Horton", "state": "", "country": "AU", "coord": {"lon": 150.433334, "lat": -30.133329}}, {"id": 2163052, "name": "Horton", "state": "", "country": "AU", "coord": {"lon": 152.316666, "lat": -25.23333}}, {"id": 2163055, "name": "Horsham", "state": "", "country": "AU", "coord": {"lon": 142.199997, "lat": -36.716671}}, {"id": 2163136, "name": "Hornsby Shire", "state": "", "country": "AU", "coord": {"lon": 151.109528, "lat": -33.583149}}, {"id": 2163137, "name": "Hornsby", "state": "", "country": "AU", "coord": {"lon": 151.099304, "lat": -33.702438}}, {"id": 2163154, "name": "Hordern Vale", "state": "", "country": "AU", "coord": {"lon": 143.516663, "lat": -38.783329}}, {"id": 2163168, "name": "Hopetoun", "state": "", "country": "AU", "coord": {"lon": 142.366669, "lat": -35.73333}}, {"id": 2163220, "name": "Homewood", "state": "", "country": "AU", "coord": {"lon": 145.333328, "lat": -37.200001}}, {"id": 2163226, "name": "Home Rule", "state": "", "country": "AU", "coord": {"lon": 149.633331, "lat": -32.416672}}, {"id": 2163231, "name": "Homeleigh", "state": "", "country": "AU", "coord": {"lon": 153.050003, "lat": -28.58333}}, {"id": 2163237, "name": "Home Hill", "state": "", "country": "AU", "coord": {"lon": 147.416672, "lat": -19.66667}}, {"id": 2163256, "name": "Homebush", "state": "", "country": "AU", "coord": {"lon": 151.083328, "lat": -33.866669}}, {"id": 2163264, "name": "Holwell", "state": "", "country": "AU", "coord": {"lon": 146.783325, "lat": -41.299999}}, {"id": 2163270, "name": "Holsworthy", "state": "", "country": "AU", "coord": {"lon": 150.966675, "lat": -33.98333}}, {"id": 2163272, "name": "Holroyd", "state": "", "country": "AU", "coord": {"lon": 150.949997, "lat": -33.833328}}, {"id": 2163300, "name": "Hollisdale", "state": "", "country": "AU", "coord": {"lon": 152.533325, "lat": -31.4}}, {"id": 2163306, "name": "Holgate", "state": "", "country": "AU", "coord": {"lon": 151.416672, "lat": -33.400002}}, {"id": 2163314, "name": "Holbrook", "state": "", "country": "AU", "coord": {"lon": 147.316666, "lat": -35.73333}}, {"id": 2163333, "name": "Hodgson", "state": "", "country": "AU", "coord": {"lon": 148.616669, "lat": -26.566669}}, {"id": 2163334, "name": "Hodgleigh", "state": "", "country": "AU", "coord": {"lon": 151.933334, "lat": -26.633329}}, {"id": 2163338, "name": "Hoddles Creek", "state": "", "country": "AU", "coord": {"lon": 145.583328, "lat": -37.833328}}, {"id": 2163341, "name": "Hockley", "state": "", "country": "AU", "coord": {"lon": 145.483337, "lat": -16.58333}}, {"id": 2163355, "name": "Hobart", "state": "", "country": "AU", "coord": {"lon": 147.329407, "lat": -42.87936}}, {"id": 2163362, "name": "Hivesville", "state": "", "country": "AU", "coord": {"lon": 151.683334, "lat": -26.183331}}, {"id": 2163365, "name": "Hirstglen", "state": "", "country": "AU", "coord": {"lon": 152.100006, "lat": -27.83333}}, {"id": 2163368, "name": "Hinton", "state": "", "country": "AU", "coord": {"lon": 151.649994, "lat": -32.716671}}, {"id": 2163383, "name": "Hillwood", "state": "", "country": "AU", "coord": {"lon": 147, "lat": -41.23333}}, {"id": 2163386, "name": "Hillview", "state": "", "country": "AU", "coord": {"lon": 152.366669, "lat": -31.98333}}, {"id": 2163395, "name": "Hill Top", "state": "", "country": "AU", "coord": {"lon": 150.483337, "lat": -34.349998}}, {"id": 2163398, "name": "Hillston", "state": "", "country": "AU", "coord": {"lon": 145.533325, "lat": -33.48333}}, {"id": 2163423, "name": "Hillgrove", "state": "", "country": "AU", "coord": {"lon": 151.899994, "lat": -30.566669}}, {"id": 2163429, "name": "Hilldene", "state": "", "country": "AU", "coord": {"lon": 145.066666, "lat": -37.033329}}, {"id": 2163430, "name": "Hilldale", "state": "", "country": "AU", "coord": {"lon": 151.649994, "lat": -32.5}}, {"id": 2163455, "name": "Highlands", "state": "", "country": "AU", "coord": {"lon": 145.399994, "lat": -37.099998}}, {"id": 2163473, "name": "Highcroft", "state": "", "country": "AU", "coord": {"lon": 147.800003, "lat": -43.133331}}, {"id": 2163474, "name": "Highclere", "state": "", "country": "AU", "coord": {"lon": 145.800003, "lat": -41.200001}}, {"id": 2163475, "name": "High Camp", "state": "", "country": "AU", "coord": {"lon": 144.899994, "lat": -37.183331}}, {"id": 2163491, "name": "Hickeys Creek", "state": "", "country": "AU", "coord": {"lon": 152.600006, "lat": -30.9}}, {"id": 2163498, "name": "Hibbard", "state": "", "country": "AU", "coord": {"lon": 152.866669, "lat": -31.433331}}, {"id": 2163504, "name": "Heywood", "state": "", "country": "AU", "coord": {"lon": 141.633331, "lat": -38.133331}}, {"id": 2163527, "name": "Hesket", "state": "", "country": "AU", "coord": {"lon": 144.649994, "lat": -37.349998}}, {"id": 2163540, "name": "Herons Creek", "state": "", "country": "AU", "coord": {"lon": 152.733337, "lat": -31.58333}}, {"id": 2163543, "name": "Hernani", "state": "", "country": "AU", "coord": {"lon": 152.399994, "lat": -30.283331}}, {"id": 2163549, "name": "Hermidale", "state": "", "country": "AU", "coord": {"lon": 146.716675, "lat": -31.549999}}, {"id": 2163558, "name": "Herberton", "state": "", "country": "AU", "coord": {"lon": 145.383331, "lat": -17.4}}, {"id": 2163570, "name": "Hepburn Springs", "state": "", "country": "AU", "coord": {"lon": 144.137878, "lat": -37.316319}}, {"id": 2163572, "name": "Hepburn", "state": "", "country": "AU", "coord": {"lon": 144.133331, "lat": -37.316669}}, {"id": 2163577, "name": "Henty", "state": "", "country": "AU", "coord": {"lon": 147.050003, "lat": -35.51667}}, {"id": 2163585, "name": "Henrietta", "state": "", "country": "AU", "coord": {"lon": 145.699997, "lat": -41.166672}}, {"id": 2163594, "name": "Herrdon", "state": "", "country": "AU", "coord": {"lon": 151.949997, "lat": -28.066669}}, {"id": 2163633, "name": "Helidon", "state": "", "country": "AU", "coord": {"lon": 152.133331, "lat": -27.549999}}, {"id": 2163641, "name": "Helensburgh", "state": "", "country": "AU", "coord": {"lon": 151, "lat": -34.183331}}, {"id": 2163654, "name": "Heidelberg", "state": "", "country": "AU", "coord": {"lon": 145.066666, "lat": -37.75}}, {"id": 2163665, "name": "Hedley", "state": "", "country": "AU", "coord": {"lon": 146.5, "lat": -38.633331}}, {"id": 2163669, "name": "Heddon Greta", "state": "", "country": "AU", "coord": {"lon": 151.516663, "lat": -32.799999}}, {"id": 2163675, "name": "Hebel", "state": "", "country": "AU", "coord": {"lon": 147.783325, "lat": -28.966669}}, {"id": 2163676, "name": "Hebden", "state": "", "country": "AU", "coord": {"lon": 151.066666, "lat": -32.383331}}, {"id": 2163684, "name": "Heathmont", "state": "", "country": "AU", "coord": {"lon": 145.25, "lat": -37.833328}}, {"id": 2163685, "name": "Heathmere", "state": "", "country": "AU", "coord": {"lon": 141.616669, "lat": -38.216671}}, {"id": 2163688, "name": "Heath Hill", "state": "", "country": "AU", "coord": {"lon": 145.699997, "lat": -38.25}}, {"id": 2163696, "name": "Heathcote", "state": "", "country": "AU", "coord": {"lon": 144.716675, "lat": -36.916672}}, {"id": 2163697, "name": "Heathcote", "state": "", "country": "AU", "coord": {"lon": 151.016663, "lat": -34.083328}}, {"id": 2163701, "name": "Healesville", "state": "", "country": "AU", "coord": {"lon": 145.516663, "lat": -37.650002}}, {"id": 2163713, "name": "Hazledean", "state": "", "country": "AU", "coord": {"lon": 148.949997, "lat": -21.383329}}, {"id": 2163716, "name": "Hazelwood", "state": "", "country": "AU", "coord": {"lon": 146.350006, "lat": -38.283329}}, {"id": 2163731, "name": "Hazelbrook", "state": "", "country": "AU", "coord": {"lon": 150.449997, "lat": -33.73333}}, {"id": 2163755, "name": "Haymarket", "state": "", "country": "AU", "coord": {"lon": 151.205261, "lat": -33.878681}}, {"id": 2163774, "name": "Hay", "state": "", "country": "AU", "coord": {"lon": 144.850006, "lat": -34.5}}, {"id": 2163782, "name": "Hawthorn", "state": "", "country": "AU", "coord": {"lon": 145.035797, "lat": -37.81992}}, {"id": 2163788, "name": "Hawks Nest", "state": "", "country": "AU", "coord": {"lon": 152.166672, "lat": -32.666672}}, {"id": 2163797, "name": "Hawkesdale", "state": "", "country": "AU", "coord": {"lon": 142.316666, "lat": -38.116669}}, {"id": 2163821, "name": "Hatton Vale", "state": "", "country": "AU", "coord": {"lon": 152.466675, "lat": -27.566669}}, {"id": 2163825, "name": "Hat Head", "state": "", "country": "AU", "coord": {"lon": 153.050003, "lat": -31.049999}}, {"id": 2163829, "name": "Hatfield", "state": "", "country": "AU", "coord": {"lon": 143.75, "lat": -33.866669}}, {"id": 2163837, "name": "Hastings", "state": "", "country": "AU", "coord": {"lon": 145.183334, "lat": -38.299999}}, {"id": 2163842, "name": "Harwood", "state": "", "country": "AU", "coord": {"lon": 153.233337, "lat": -29.41667}}, {"id": 2163861, "name": "Hartley", "state": "", "country": "AU", "coord": {"lon": 150.166672, "lat": -33.549999}}, {"id": 2163864, "name": "Harston", "state": "", "country": "AU", "coord": {"lon": 145.149994, "lat": -36.466671}}, {"id": 2163880, "name": "Harrisville", "state": "", "country": "AU", "coord": {"lon": 152.683334, "lat": -27.799999}}, {"id": 2163881, "name": "Harristown", "state": "", "country": "AU", "coord": {"lon": 151.933334, "lat": -27.58333}}, {"id": 2163895, "name": "Harrington", "state": "", "country": "AU", "coord": {"lon": 152.699997, "lat": -31.866671}}, {"id": 2163897, "name": "Harrietville", "state": "", "country": "AU", "coord": {"lon": 147.066666, "lat": -36.916672}}, {"id": 2163910, "name": "Harman", "state": "", "country": "AU", "coord": {"lon": 149.199997, "lat": -35.349998}}, {"id": 2163911, "name": "Harlin", "state": "", "country": "AU", "coord": {"lon": 152.350006, "lat": -26.98333}}, {"id": 2163914, "name": "Harlaxton", "state": "", "country": "AU", "coord": {"lon": 151.966675, "lat": -27.533331}}, {"id": 2163915, "name": "Harkaway", "state": "", "country": "AU", "coord": {"lon": 145.350006, "lat": -38}}, {"id": 2163916, "name": "Hargraves", "state": "", "country": "AU", "coord": {"lon": 149.449997, "lat": -32.783329}}, {"id": 2163942, "name": "Harcourt", "state": "", "country": "AU", "coord": {"lon": 144.25, "lat": -37}}, {"id": 2163953, "name": "Hanwood", "state": "", "country": "AU", "coord": {"lon": 146.033325, "lat": -34.333328}}, {"id": 2163954, "name": "Hansonville", "state": "", "country": "AU", "coord": {"lon": 146.300003, "lat": -36.599998}}, {"id": 2163972, "name": "Hannaford", "state": "", "country": "AU", "coord": {"lon": 150.066666, "lat": -27.33333}}, {"id": 2163981, "name": "Hanging Rock", "state": "", "country": "AU", "coord": {"lon": 151.199997, "lat": -31.48333}}, {"id": 2163990, "name": "Hampton Park", "state": "", "country": "AU", "coord": {"lon": 145.25, "lat": -38.033329}}, {"id": 2163996, "name": "Hampstead", "state": "", "country": "AU", "coord": {"lon": 152.733337, "lat": -27.700001}}, {"id": 2163998, "name": "Hampshire", "state": "", "country": "AU", "coord": {"lon": 145.783325, "lat": -41.26667}}, {"id": 2164025, "name": "Hamilton", "state": "", "country": "AU", "coord": {"lon": 142.022018, "lat": -37.744251}}, {"id": 2164034, "name": "Haly Creek", "state": "", "country": "AU", "coord": {"lon": 151.75, "lat": -26.683331}}, {"id": 2164036, "name": "Halton", "state": "", "country": "AU", "coord": {"lon": 151.516663, "lat": -32.316669}}, {"id": 2164042, "name": "Hallston", "state": "", "country": "AU", "coord": {"lon": 146.033325, "lat": -38.366669}}, {"id": 2164044, "name": "Halls Gap", "state": "", "country": "AU", "coord": {"lon": 142.519257, "lat": -37.139111}}, {"id": 2164054, "name": "Hallora", "state": "", "country": "AU", "coord": {"lon": 145.833328, "lat": -38.26667}}, {"id": 2164062, "name": "Hallam", "state": "", "country": "AU", "coord": {"lon": 145.266663, "lat": -38.01667}}, {"id": 2164102, "name": "Hagley", "state": "", "country": "AU", "coord": {"lon": 146.916672, "lat": -41.533329}}, {"id": 2164104, "name": "Hadspen", "state": "", "country": "AU", "coord": {"lon": 147.083328, "lat": -41.5}}, {"id": 2164111, "name": "Haden", "state": "", "country": "AU", "coord": {"lon": 151.883331, "lat": -27.216669}}, {"id": 2164117, "name": "Haddon", "state": "", "country": "AU", "coord": {"lon": 143.716675, "lat": -37.599998}}, {"id": 2164123, "name": "Haberfield", "state": "", "country": "AU", "coord": {"lon": 151.199997, "lat": -33.883331}}, {"id": 2164124, "name": "Habana", "state": "", "country": "AU", "coord": {"lon": 149.083328, "lat": -21.033331}}, {"id": 2164129, "name": "Gympie", "state": "", "country": "AU", "coord": {"lon": 152.664993, "lat": -26.189791}}, {"id": 2164132, "name": "Gymbowen", "state": "", "country": "AU", "coord": {"lon": 141.600006, "lat": -36.73333}}, {"id": 2164145, "name": "Gwabegar", "state": "", "country": "AU", "coord": {"lon": 148.983337, "lat": -30.616671}}, {"id": 2164149, "name": "Guyra", "state": "", "country": "AU", "coord": {"lon": 151.666672, "lat": -30.23333}}, {"id": 2164165, "name": "Gurrundah", "state": "", "country": "AU", "coord": {"lon": 149.399994, "lat": -34.666672}}, {"id": 2164175, "name": "Gurley", "state": "", "country": "AU", "coord": {"lon": 149.800003, "lat": -29.73333}}, {"id": 2164180, "name": "Gunyarra", "state": "", "country": "AU", "coord": {"lon": 148.566666, "lat": -20.51667}}, {"id": 2164186, "name": "Gunyah", "state": "", "country": "AU", "coord": {"lon": 146.316666, "lat": -38.533329}}, {"id": 2164191, "name": "Gunns Plains", "state": "", "country": "AU", "coord": {"lon": 146.050003, "lat": -41.283329}}, {"id": 2164196, "name": "Gunningbland", "state": "", "country": "AU", "coord": {"lon": 147.916672, "lat": -33.133331}}, {"id": 2164199, "name": "Gunning", "state": "", "country": "AU", "coord": {"lon": 149.266235, "lat": -34.78252}}, {"id": 2164206, "name": "Gunnedah", "state": "", "country": "AU", "coord": {"lon": 150.25, "lat": -30.98333}}, {"id": 2164224, "name": "Gungal", "state": "", "country": "AU", "coord": {"lon": 150.5, "lat": -32.26667}}, {"id": 2164229, "name": "Gundy", "state": "", "country": "AU", "coord": {"lon": 151, "lat": -32.01667}}, {"id": 2164231, "name": "Gundowring", "state": "", "country": "AU", "coord": {"lon": 147.050003, "lat": -36.433331}}, {"id": 2164236, "name": "Gundiah", "state": "", "country": "AU", "coord": {"lon": 152.550003, "lat": -25.83333}}, {"id": 2164238, "name": "Gunderman", "state": "", "country": "AU", "coord": {"lon": 151.066666, "lat": -33.450001}}, {"id": 2164247, "name": "Gundary", "state": "", "country": "AU", "coord": {"lon": 149.766663, "lat": -34.833328}}, {"id": 2164249, "name": "Gundaroo", "state": "", "country": "AU", "coord": {"lon": 149.25, "lat": -35.033329}}, {"id": 2164253, "name": "Gundagai", "state": "", "country": "AU", "coord": {"lon": 148.100006, "lat": -35.066669}}, {"id": 2164256, "name": "Gunbower", "state": "", "country": "AU", "coord": {"lon": 144.366669, "lat": -35.950001}}, {"id": 2164263, "name": "Gunalda", "state": "", "country": "AU", "coord": {"lon": 152.566666, "lat": -26}}, {"id": 2164276, "name": "Gum Scrub", "state": "", "country": "AU", "coord": {"lon": 152.733337, "lat": -31.299999}}, {"id": 2164282, "name": "Gumly Gumly", "state": "", "country": "AU", "coord": {"lon": 147.433334, "lat": -35.116669}}, {"id": 2164283, "name": "Gumlu", "state": "", "country": "AU", "coord": {"lon": 147.683334, "lat": -19.883329}}, {"id": 2164334, "name": "Gumble", "state": "", "country": "AU", "coord": {"lon": 148.649994, "lat": -33.083328}}, {"id": 2164337, "name": "Guluguba", "state": "", "country": "AU", "coord": {"lon": 150.050003, "lat": -26.26667}}, {"id": 2164352, "name": "Gulgong", "state": "", "country": "AU", "coord": {"lon": 149.533325, "lat": -32.366669}}, {"id": 2164359, "name": "Gulf Creek", "state": "", "country": "AU", "coord": {"lon": 150.699997, "lat": -30.183331}}, {"id": 2164385, "name": "Gruyere", "state": "", "country": "AU", "coord": {"lon": 145.449997, "lat": -37.73333}}, {"id": 2164395, "name": "Grovedale", "state": "", "country": "AU", "coord": {"lon": 144.350006, "lat": -38.200001}}, {"id": 2164401, "name": "Grosvenor", "state": "", "country": "AU", "coord": {"lon": 151.166672, "lat": -25.433331}}, {"id": 2164408, "name": "Grong Grong", "state": "", "country": "AU", "coord": {"lon": 146.800003, "lat": -34.75}}, {"id": 2164409, "name": "Grogan", "state": "", "country": "AU", "coord": {"lon": 147.800003, "lat": -34.316669}}, {"id": 2164422, "name": "Griffith", "state": "", "country": "AU", "coord": {"lon": 146.033325, "lat": -34.283329}}, {"id": 2164442, "name": "Grevillia", "state": "", "country": "AU", "coord": {"lon": 152.866669, "lat": -28.450001}}, {"id": 2164446, "name": "Gretna", "state": "", "country": "AU", "coord": {"lon": 146.933334, "lat": -42.683331}}, {"id": 2164447, "name": "Greta West", "state": "", "country": "AU", "coord": {"lon": 146.216675, "lat": -36.533329}}, {"id": 2164448, "name": "Greta South", "state": "", "country": "AU", "coord": {"lon": 146.25, "lat": -36.616669}}, {"id": 2164451, "name": "Greta", "state": "", "country": "AU", "coord": {"lon": 151.383331, "lat": -32.700001}}, {"id": 2164453, "name": "Gresford", "state": "", "country": "AU", "coord": {"lon": 151.566666, "lat": -32.433331}}, {"id": 2164457, "name": "Grenfell", "state": "", "country": "AU", "coord": {"lon": 148.166672, "lat": -33.900002}}, {"id": 2164460, "name": "Greigs Flat", "state": "", "country": "AU", "coord": {"lon": 149.850006, "lat": -36.98333}}, {"id": 2164485, "name": "Greenwich Park", "state": "", "country": "AU", "coord": {"lon": 149.933334, "lat": -34.566669}}, {"id": 2164487, "name": "Greenwell Point", "state": "", "country": "AU", "coord": {"lon": 150.733337, "lat": -34.900002}}, {"id": 2164491, "name": "Greenwald", "state": "", "country": "AU", "coord": {"lon": 141.366669, "lat": -37.966671}}, {"id": 2164495, "name": "Greenvale", "state": "", "country": "AU", "coord": {"lon": 144.866669, "lat": -37.633331}}, {"id": 2164514, "name": "Greens Creek", "state": "", "country": "AU", "coord": {"lon": 142.949997, "lat": -36.933331}}, {"id": 2164515, "name": "Greensborough", "state": "", "country": "AU", "coord": {"lon": 145.103027, "lat": -37.70462}}, {"id": 2164536, "name": "Greenmount", "state": "", "country": "AU", "coord": {"lon": 151.899994, "lat": -27.799999}}, {"id": 2164572, "name": "Green Hill", "state": "", "country": "AU", "coord": {"lon": 152.800003, "lat": -31.066669}}, {"id": 2164585, "name": "Greengrove", "state": "", "country": "AU", "coord": {"lon": 151.149994, "lat": -33.383331}}, {"id": 2164589, "name": "Greenethorpe", "state": "", "country": "AU", "coord": {"lon": 148.399994, "lat": -34}}, {"id": 2164590, "name": "Greendale", "state": "", "country": "AU", "coord": {"lon": 144.316666, "lat": -37.566669}}, {"id": 2164601, "name": "Greenbank", "state": "", "country": "AU", "coord": {"lon": 152.983337, "lat": -27.716669}}, {"id": 2164608, "name": "Great Western", "state": "", "country": "AU", "coord": {"lon": 142.850006, "lat": -37.150002}}, {"id": 2164633, "name": "Graytown", "state": "", "country": "AU", "coord": {"lon": 144.949997, "lat": -36.816669}}, {"id": 2164648, "name": "Gravesend", "state": "", "country": "AU", "coord": {"lon": 150.316666, "lat": -29.58333}}, {"id": 2164652, "name": "Gravelly Beach", "state": "", "country": "AU", "coord": {"lon": 146.983337, "lat": -41.299999}}, {"id": 2164658, "name": "Grattai", "state": "", "country": "AU", "coord": {"lon": 149.483337, "lat": -32.683331}}, {"id": 2164669, "name": "Grassy", "state": "", "country": "AU", "coord": {"lon": 144.050003, "lat": -40.049999}}, {"id": 2164684, "name": "Grassmere", "state": "", "country": "AU", "coord": {"lon": 142.533325, "lat": -38.283329}}, {"id": 2164688, "name": "Granya", "state": "", "country": "AU", "coord": {"lon": 147.316666, "lat": -36.116669}}, {"id": 2164691, "name": "Granville", "state": "", "country": "AU", "coord": {"lon": 151.016663, "lat": -33.833328}}, {"id": 2164700, "name": "Granton", "state": "", "country": "AU", "coord": {"lon": 147.227951, "lat": -42.751492}}, {"id": 2164702, "name": "Grantham", "state": "", "country": "AU", "coord": {"lon": 152.199997, "lat": -27.58333}}, {"id": 2164730, "name": "Grandchester", "state": "", "country": "AU", "coord": {"lon": 152.466675, "lat": -27.66667}}, {"id": 2164739, "name": "Graman", "state": "", "country": "AU", "coord": {"lon": 150.933334, "lat": -29.48333}}, {"id": 2164754, "name": "Grahams Creek", "state": "", "country": "AU", "coord": {"lon": 152.600006, "lat": -25.566669}}, {"id": 2164771, "name": "Grafton", "state": "", "country": "AU", "coord": {"lon": 152.933334, "lat": -29.683331}}, {"id": 2164784, "name": "Gracemere", "state": "", "country": "AU", "coord": {"lon": 150.449997, "lat": -23.433331}}, {"id": 2164789, "name": "Grabben Gullen", "state": "", "country": "AU", "coord": {"lon": 149.399994, "lat": -34.533329}}, {"id": 2164796, "name": "Gowrie Park", "state": "", "country": "AU", "coord": {"lon": 146.199997, "lat": -41.466671}}, {"id": 2164797, "name": "Gowrie Junction", "state": "", "country": "AU", "coord": {"lon": 151.883331, "lat": -27.48333}}, {"id": 2164809, "name": "Gowar East", "state": "", "country": "AU", "coord": {"lon": 143.416672, "lat": -36.549999}}, {"id": 2164814, "name": "Gowangardie", "state": "", "country": "AU", "coord": {"lon": 145.699997, "lat": -36.48333}}, {"id": 2164818, "name": "Cowan", "state": "", "country": "AU", "coord": {"lon": 149.366669, "lat": -33.183331}}, {"id": 2164827, "name": "Goulds Country", "state": "", "country": "AU", "coord": {"lon": 148.050003, "lat": -41.23333}}, {"id": 2164837, "name": "Goulburn", "state": "", "country": "AU", "coord": {"lon": 149.716675, "lat": -34.75}}, {"id": 2164843, "name": "Gostwyck", "state": "", "country": "AU", "coord": {"lon": 151.583328, "lat": -30.700001}}, {"id": 2164846, "name": "Goshen", "state": "", "country": "AU", "coord": {"lon": 148.083328, "lat": -41.25}}, {"id": 2164848, "name": "Gosford Shire", "state": "", "country": "AU", "coord": {"lon": 151.234543, "lat": -33.340302}}, {"id": 2164849, "name": "Gosford", "state": "", "country": "AU", "coord": {"lon": 151.350006, "lat": -33.433331}}, {"id": 2164854, "name": "Goroke", "state": "", "country": "AU", "coord": {"lon": 141.483337, "lat": -36.716671}}, {"id": 2164855, "name": "Gorokan", "state": "", "country": "AU", "coord": {"lon": 151.511337, "lat": -33.25742}}, {"id": 2164859, "name": "Gormandale", "state": "", "country": "AU", "coord": {"lon": 146.699997, "lat": -38.283329}}, {"id": 2164882, "name": "Gore", "state": "", "country": "AU", "coord": {"lon": 151.483337, "lat": -28.283331}}, {"id": 2164904, "name": "Gordon", "state": "", "country": "AU", "coord": {"lon": 152.716675, "lat": -29.299999}}, {"id": 2164909, "name": "Gorae West", "state": "", "country": "AU", "coord": {"lon": 141.483337, "lat": -38.25}}, {"id": 2164911, "name": "Gorae", "state": "", "country": "AU", "coord": {"lon": 141.550003, "lat": -38.23333}}, {"id": 2164916, "name": "Goovigen", "state": "", "country": "AU", "coord": {"lon": 150.283325, "lat": -24.15}}, {"id": 2164933, "name": "Gooroc", "state": "", "country": "AU", "coord": {"lon": 143.199997, "lat": -36.466671}}, {"id": 2164934, "name": "Goornong", "state": "", "country": "AU", "coord": {"lon": 144.5, "lat": -36.616669}}, {"id": 2164948, "name": "Goorambat", "state": "", "country": "AU", "coord": {"lon": 145.916672, "lat": -36.416672}}, {"id": 2164949, "name": "Gooramadda", "state": "", "country": "AU", "coord": {"lon": 146.550003, "lat": -36}}, {"id": 2164958, "name": "Goon Nure", "state": "", "country": "AU", "coord": {"lon": 147.649994, "lat": -37.950001}}, {"id": 2164965, "name": "Goonengerry", "state": "", "country": "AU", "coord": {"lon": 153.433334, "lat": -28.616671}}, {"id": 2164966, "name": "Goonellabah", "state": "", "country": "AU", "coord": {"lon": 153.316666, "lat": -28.816669}}, {"id": 2164972, "name": "Goondiwindi", "state": "", "country": "AU", "coord": {"lon": 150.316666, "lat": -28.549999}}, {"id": 2164975, "name": "Goondi", "state": "", "country": "AU", "coord": {"lon": 146, "lat": -17.51667}}, {"id": 2164988, "name": "Goomeri", "state": "", "country": "AU", "coord": {"lon": 152.066666, "lat": -26.183331}}, {"id": 2164989, "name": "Goomburra", "state": "", "country": "AU", "coord": {"lon": 152.133331, "lat": -28.049999}}, {"id": 2164990, "name": "Goombungee", "state": "", "country": "AU", "coord": {"lon": 151.699997, "lat": -27.316669}}, {"id": 2164995, "name": "Goombi", "state": "", "country": "AU", "coord": {"lon": 150.399994, "lat": -26.683331}}, {"id": 2165004, "name": "Gooloogong", "state": "", "country": "AU", "coord": {"lon": 148.433334, "lat": -33.616669}}, {"id": 2165005, "name": "Goolmangar", "state": "", "country": "AU", "coord": {"lon": 153.216675, "lat": -28.75}}, {"id": 2165007, "name": "Goolman", "state": "", "country": "AU", "coord": {"lon": 152.75, "lat": -27.73333}}, {"id": 2165009, "name": "Goolma", "state": "", "country": "AU", "coord": {"lon": 149.266663, "lat": -32.383331}}, {"id": 2165011, "name": "Goolgowi", "state": "", "country": "AU", "coord": {"lon": 145.683334, "lat": -33.966671}}, {"id": 2165017, "name": "Goodwood", "state": "", "country": "AU", "coord": {"lon": 152.416672, "lat": -25.15}}, {"id": 2165023, "name": "Goodooga", "state": "", "country": "AU", "coord": {"lon": 147.449997, "lat": -29.116671}}, {"id": 2165025, "name": "Goodna", "state": "", "country": "AU", "coord": {"lon": 152.899994, "lat": -27.616671}}, {"id": 2165030, "name": "Good Hope", "state": "", "country": "AU", "coord": {"lon": 148.816666, "lat": -34.916672}}, {"id": 2165032, "name": "Goodger", "state": "", "country": "AU", "coord": {"lon": 151.816666, "lat": -26.66667}}, {"id": 2165045, "name": "Gooburrum", "state": "", "country": "AU", "coord": {"lon": 152.316666, "lat": -24.85}}, {"id": 2165051, "name": "Goobang", "state": "", "country": "AU", "coord": {"lon": 148.25, "lat": -33.099998}}, {"id": 2165065, "name": "Gol Gol", "state": "", "country": "AU", "coord": {"lon": 142.216675, "lat": -34.183331}}, {"id": 2165073, "name": "Goldsborough", "state": "", "country": "AU", "coord": {"lon": 143.683334, "lat": -36.816669}}, {"id": 2165076, "name": "Golden Valley", "state": "", "country": "AU", "coord": {"lon": 146.716675, "lat": -41.633331}}, {"id": 2165087, "name": "Gold Coast", "state": "", "country": "AU", "coord": {"lon": 153.433334, "lat": -28}}, {"id": 2165089, "name": "Golconda", "state": "", "country": "AU", "coord": {"lon": 147.300003, "lat": -41.166672}}, {"id": 2165095, "name": "Gogango", "state": "", "country": "AU", "coord": {"lon": 150.033325, "lat": -23.66667}}, {"id": 2165099, "name": "Godfreys Creek", "state": "", "country": "AU", "coord": {"lon": 148.716675, "lat": -34.133331}}, {"id": 2165138, "name": "Gnotuk", "state": "", "country": "AU", "coord": {"lon": 143.116669, "lat": -38.216671}}, {"id": 2165140, "name": "Gnarwarre", "state": "", "country": "AU", "coord": {"lon": 144.149994, "lat": -38.166672}}, {"id": 2165153, "name": "Gloucester Shire", "state": "", "country": "AU", "coord": {"lon": 151.775986, "lat": -31.88789}}, {"id": 2165159, "name": "Gloucester", "state": "", "country": "AU", "coord": {"lon": 151.966675, "lat": -32}}, {"id": 2165166, "name": "Glenworth Valley", "state": "", "country": "AU", "coord": {"lon": 151.183334, "lat": -33.433331}}, {"id": 2165171, "name": "Glen Waverley", "state": "", "country": "AU", "coord": {"lon": 145.164764, "lat": -37.878109}}, {"id": 2165173, "name": "Glenview", "state": "", "country": "AU", "coord": {"lon": 153.016663, "lat": -26.76667}}, {"id": 2165186, "name": "Glen Ugie", "state": "", "country": "AU", "coord": {"lon": 153.016663, "lat": -29.783331}}, {"id": 2165200, "name": "Glenroy", "state": "", "country": "AU", "coord": {"lon": 144.933334, "lat": -37.700001}}, {"id": 2165207, "name": "Glenrowan", "state": "", "country": "AU", "coord": {"lon": 146.233337, "lat": -36.466671}}, {"id": 2165214, "name": "Glenreagh", "state": "", "country": "AU", "coord": {"lon": 152.966675, "lat": -30.049999}}, {"id": 2165216, "name": "Glenquarry", "state": "", "country": "AU", "coord": {"lon": 150.5, "lat": -34.533329}}, {"id": 2165223, "name": "Glenormiston North", "state": "", "country": "AU", "coord": {"lon": 142.983337, "lat": -38.150002}}, {"id": 2165225, "name": "Glenorie", "state": "", "country": "AU", "coord": {"lon": 151.016663, "lat": -33.599998}}, {"id": 2165227, "name": "Glenore Grove", "state": "", "country": "AU", "coord": {"lon": 152.399994, "lat": -27.533331}}, {"id": 2165229, "name": "Glenorchy", "state": "", "country": "AU", "coord": {"lon": 147.275925, "lat": -42.833431}}, {"id": 2165243, "name": "Glennies Creek", "state": "", "country": "AU", "coord": {"lon": 151.116669, "lat": -32.450001}}, {"id": 2165260, "name": "Glenmartin", "state": "", "country": "AU", "coord": {"lon": 151.816666, "lat": -32.566669}}, {"id": 2165263, "name": "Glenmaggie", "state": "", "country": "AU", "coord": {"lon": 146.75, "lat": -37.900002}}, {"id": 2165264, "name": "Glenlyon", "state": "", "country": "AU", "coord": {"lon": 144.25, "lat": -37.299999}}, {"id": 2165267, "name": "Glenlusk", "state": "", "country": "AU", "coord": {"lon": 147.199997, "lat": -42.816669}}, {"id": 2165279, "name": "Glenlee", "state": "", "country": "AU", "coord": {"lon": 141.850006, "lat": -36.216671}}, {"id": 2165287, "name": "Glenisla", "state": "", "country": "AU", "coord": {"lon": 142.166672, "lat": -37.23333}}, {"id": 2165291, "name": "Glen Innes", "state": "", "country": "AU", "coord": {"lon": 151.733337, "lat": -29.73333}}, {"id": 2165294, "name": "Gleniffer", "state": "", "country": "AU", "coord": {"lon": 152.883331, "lat": -30.383329}}, {"id": 2165295, "name": "Glen Huon", "state": "", "country": "AU", "coord": {"lon": 146.966675, "lat": -43.033329}}, {"id": 2165303, "name": "Glenhaven", "state": "", "country": "AU", "coord": {"lon": 151, "lat": -33.700001}}, {"id": 2165307, "name": "Glengower", "state": "", "country": "AU", "coord": {"lon": 143.883331, "lat": -37.216671}}, {"id": 2165317, "name": "Glengarry West", "state": "", "country": "AU", "coord": {"lon": 146.516663, "lat": -38.150002}}, {"id": 2165320, "name": "Glengarry", "state": "", "country": "AU", "coord": {"lon": 146.883331, "lat": -41.349998}}, {"id": 2165321, "name": "Glengarry", "state": "", "country": "AU", "coord": {"lon": 146.566666, "lat": -38.116669}}, {"id": 2165324, "name": "Glenfyne", "state": "", "country": "AU", "coord": {"lon": 142.983337, "lat": -38.400002}}, {"id": 2165325, "name": "Glen Forbes", "state": "", "country": "AU", "coord": {"lon": 145.533325, "lat": -38.450001}}, {"id": 2165326, "name": "Glenfield", "state": "", "country": "AU", "coord": {"lon": 150.899994, "lat": -33.966671}}, {"id": 2165331, "name": "Glenfern", "state": "", "country": "AU", "coord": {"lon": 147, "lat": -42.816669}}, {"id": 2165339, "name": "Glenella", "state": "", "country": "AU", "coord": {"lon": 149.149994, "lat": -21.116671}}, {"id": 2165352, "name": "Gleneagle", "state": "", "country": "AU", "coord": {"lon": 152.983337, "lat": -27.933331}}, {"id": 2165361, "name": "Glendon Brook", "state": "", "country": "AU", "coord": {"lon": 151.350006, "lat": -32.533329}}, {"id": 2165370, "name": "Glendaruel", "state": "", "country": "AU", "coord": {"lon": 143.716675, "lat": -37.349998}}, {"id": 2165380, "name": "Glen Creek", "state": "", "country": "AU", "coord": {"lon": 146.949997, "lat": -36.450001}}, {"id": 2165381, "name": "Glencoe West", "state": "", "country": "AU", "coord": {"lon": 140.583328, "lat": -37.666672}}, {"id": 2165386, "name": "Glencoe", "state": "", "country": "AU", "coord": {"lon": 151.716675, "lat": -29.933331}}, {"id": 2165399, "name": "Glenburn", "state": "", "country": "AU", "coord": {"lon": 145.416672, "lat": -37.416672}}, {"id": 2165403, "name": "Glenbrook", "state": "", "country": "AU", "coord": {"lon": 150.616669, "lat": -33.76667}}, {"id": 2165405, "name": "Glenbrae", "state": "", "country": "AU", "coord": {"lon": 143.566666, "lat": -37.349998}}, {"id": 2165417, "name": "Glenaroua", "state": "", "country": "AU", "coord": {"lon": 144.966675, "lat": -37.099998}}, {"id": 2165436, "name": "Glen Alice", "state": "", "country": "AU", "coord": {"lon": 150.216675, "lat": -33.049999}}, {"id": 2165442, "name": "Glenaladale", "state": "", "country": "AU", "coord": {"lon": 147.350006, "lat": -37.783329}}, {"id": 2165452, "name": "Glaziers Bay", "state": "", "country": "AU", "coord": {"lon": 147.050003, "lat": -43.133331}}, {"id": 2165455, "name": "Glastonbury", "state": "", "country": "AU", "coord": {"lon": 152.516663, "lat": -26.216669}}, {"id": 2165458, "name": "Glass House Mountains", "state": "", "country": "AU", "coord": {"lon": 152.966675, "lat": -26.9}}, {"id": 2165465, "name": "Glan Devon", "state": "", "country": "AU", "coord": {"lon": 152.016663, "lat": -26.6}}, {"id": 2165468, "name": "Glamorgan Vale", "state": "", "country": "AU", "coord": {"lon": 152.633331, "lat": -27.51667}}, {"id": 2165474, "name": "Gladysdale", "state": "", "country": "AU", "coord": {"lon": 145.649994, "lat": -37.799999}}, {"id": 2165478, "name": "Gladstone", "state": "", "country": "AU", "coord": {"lon": 151.25, "lat": -23.85}}, {"id": 2165488, "name": "Gisborne", "state": "", "country": "AU", "coord": {"lon": 144.583328, "lat": -37.48333}}, {"id": 2165489, "name": "Girvan", "state": "", "country": "AU", "coord": {"lon": 152.066666, "lat": -32.466671}}, {"id": 2165490, "name": "Giru", "state": "", "country": "AU", "coord": {"lon": 147.100006, "lat": -19.51667}}, {"id": 2165495, "name": "Girral", "state": "", "country": "AU", "coord": {"lon": 147.083328, "lat": -33.700001}}, {"id": 2165501, "name": "Girilambone", "state": "", "country": "AU", "coord": {"lon": 146.899994, "lat": -31.25}}, {"id": 2165529, "name": "Gin Gin", "state": "", "country": "AU", "coord": {"lon": 151.949997, "lat": -25}}, {"id": 2165543, "name": "Gindie", "state": "", "country": "AU", "coord": {"lon": 148.133331, "lat": -23.73333}}, {"id": 2165548, "name": "Gilston", "state": "", "country": "AU", "coord": {"lon": 153.300003, "lat": -28.033331}}, {"id": 2165596, "name": "Gilgandra", "state": "", "country": "AU", "coord": {"lon": 148.649994, "lat": -31.716669}}, {"id": 2165597, "name": "Gilgai", "state": "", "country": "AU", "coord": {"lon": 151.116669, "lat": -29.866671}}, {"id": 2165600, "name": "Gilderoy", "state": "", "country": "AU", "coord": {"lon": 145.716675, "lat": -37.866669}}, {"id": 2165617, "name": "Giffard", "state": "", "country": "AU", "coord": {"lon": 147.083328, "lat": -38.416672}}, {"id": 2165641, "name": "Gidginbung", "state": "", "country": "AU", "coord": {"lon": 147.466675, "lat": -34.333328}}, {"id": 2165679, "name": "Ghinni Ghinni", "state": "", "country": "AU", "coord": {"lon": 152.566666, "lat": -31.883329}}, {"id": 2165684, "name": "Gheringhap", "state": "", "country": "AU", "coord": {"lon": 144.233337, "lat": -38.083328}}, {"id": 2165686, "name": "Gheerulla", "state": "", "country": "AU", "coord": {"lon": 152.766663, "lat": -26.566669}}, {"id": 2165688, "name": "Geurie", "state": "", "country": "AU", "coord": {"lon": 148.833328, "lat": -32.400002}}, {"id": 2165692, "name": "Gerringong", "state": "", "country": "AU", "coord": {"lon": 150.850006, "lat": -34.75}}, {"id": 2165697, "name": "Gerogery", "state": "", "country": "AU", "coord": {"lon": 147, "lat": -35.833328}}, {"id": 2165707, "name": "Geranium", "state": "", "country": "AU", "coord": {"lon": 140.166672, "lat": -35.383331}}, {"id": 2165708, "name": "Gerang Gerung", "state": "", "country": "AU", "coord": {"lon": 141.899994, "lat": -36.366669}}, {"id": 2165710, "name": "Gerangamete", "state": "", "country": "AU", "coord": {"lon": 143.733337, "lat": -38.450001}}, {"id": 2165716, "name": "Georgica", "state": "", "country": "AU", "coord": {"lon": 153.166672, "lat": -28.66667}}, {"id": 2165718, "name": "George Town", "state": "", "country": "AU", "coord": {"lon": 146.833328, "lat": -41.099998}}, {"id": 2165719, "name": "Georgetown", "state": "", "country": "AU", "coord": {"lon": 143.533325, "lat": -18.299999}}, {"id": 2165724, "name": "Georges Plains", "state": "", "country": "AU", "coord": {"lon": 149.533325, "lat": -33.5}}, {"id": 2165758, "name": "Genoa", "state": "", "country": "AU", "coord": {"lon": 149.583328, "lat": -37.48333}}, {"id": 2165771, "name": "Gembrook", "state": "", "country": "AU", "coord": {"lon": 145.550003, "lat": -37.950001}}, {"id": 2165782, "name": "Gellibrand", "state": "", "country": "AU", "coord": {"lon": 143.533325, "lat": -38.51667}}, {"id": 2165785, "name": "Gelantipy", "state": "", "country": "AU", "coord": {"lon": 148.283325, "lat": -37.183331}}, {"id": 2165790, "name": "Geham", "state": "", "country": "AU", "coord": {"lon": 152.016663, "lat": -27.4}}, {"id": 2165791, "name": "Geeveston", "state": "", "country": "AU", "coord": {"lon": 146.925491, "lat": -43.163368}}, {"id": 2165796, "name": "Geelong West", "state": "", "country": "AU", "coord": {"lon": 144.350006, "lat": -38.133331}}, {"id": 2165798, "name": "Geelong", "state": "", "country": "AU", "coord": {"lon": 144.360687, "lat": -38.14711}}, {"id": 2165818, "name": "Gayndah", "state": "", "country": "AU", "coord": {"lon": 151.600006, "lat": -25.633329}}, {"id": 2165828, "name": "Gatton", "state": "", "country": "AU", "coord": {"lon": 152.283325, "lat": -27.549999}}, {"id": 2165835, "name": "Garvoc", "state": "", "country": "AU", "coord": {"lon": 142.833328, "lat": -38.299999}}, {"id": 2165863, "name": "Garibaldi", "state": "", "country": "AU", "coord": {"lon": 143.883331, "lat": -37.73333}}, {"id": 2165864, "name": "Gargett", "state": "", "country": "AU", "coord": {"lon": 148.75, "lat": -21.16667}}, {"id": 2165870, "name": "Garema", "state": "", "country": "AU", "coord": {"lon": 147.933334, "lat": -33.549999}}, {"id": 2165872, "name": "Gardners Bay", "state": "", "country": "AU", "coord": {"lon": 147.183334, "lat": -43.183331}}, {"id": 2165890, "name": "Garden Island Creek", "state": "", "country": "AU", "coord": {"lon": 147.166672, "lat": -43.25}}, {"id": 2165905, "name": "Garah", "state": "", "country": "AU", "coord": {"lon": 149.633331, "lat": -29.066669}}, {"id": 2165906, "name": "Gapstead", "state": "", "country": "AU", "coord": {"lon": 146.683334, "lat": -36.51667}}, {"id": 2165929, "name": "Ganmain", "state": "", "country": "AU", "coord": {"lon": 147.033325, "lat": -34.799999}}, {"id": 2165947, "name": "Galston", "state": "", "country": "AU", "coord": {"lon": 151.050003, "lat": -33.650002}}, {"id": 2165950, "name": "Galong", "state": "", "country": "AU", "coord": {"lon": 148.550003, "lat": -34.599998}}, {"id": 2165973, "name": "Gulargambone", "state": "", "country": "AU", "coord": {"lon": 148.466675, "lat": -31.33333}}, {"id": 2165983, "name": "Gainsborough", "state": "", "country": "AU", "coord": {"lon": 145.966675, "lat": -38.23333}}, {"id": 2165990, "name": "Gaeta", "state": "", "country": "AU", "coord": {"lon": 151.600006, "lat": -24.83333}}, {"id": 2165995, "name": "Fyshwick", "state": "", "country": "AU", "coord": {"lon": 149.166672, "lat": -35.333328}}, {"id": 2165997, "name": "Fyansford", "state": "", "country": "AU", "coord": {"lon": 144.316666, "lat": -38.133331}}, {"id": 2166006, "name": "Furracabad", "state": "", "country": "AU", "coord": {"lon": 151.666672, "lat": -29.783331}}, {"id": 2166008, "name": "Furner", "state": "", "country": "AU", "coord": {"lon": 140.333328, "lat": -37.416672}}, {"id": 2166016, "name": "Fumina South", "state": "", "country": "AU", "coord": {"lon": 146.116669, "lat": -37.950001}}, {"id": 2166017, "name": "Fumina", "state": "", "country": "AU", "coord": {"lon": 146.100006, "lat": -37.883331}}, {"id": 2166025, "name": "Fullerton", "state": "", "country": "AU", "coord": {"lon": 149.550003, "lat": -34.23333}}, {"id": 2166034, "name": "Fulham", "state": "", "country": "AU", "coord": {"lon": 146.983337, "lat": -38.099998}}, {"id": 2166040, "name": "Fryerstown", "state": "", "country": "AU", "coord": {"lon": 144.25, "lat": -37.133331}}, {"id": 2166051, "name": "Frogmore", "state": "", "country": "AU", "coord": {"lon": 148.850006, "lat": -34.26667}}, {"id": 2166080, "name": "Freshwater Creek", "state": "", "country": "AU", "coord": {"lon": 144.283325, "lat": -38.26667}}, {"id": 2166105, "name": "Freestone", "state": "", "country": "AU", "coord": {"lon": 152.133331, "lat": -28.133329}}, {"id": 2166109, "name": "Freeburgh", "state": "", "country": "AU", "coord": {"lon": 147.033325, "lat": -36.783329}}, {"id": 2166113, "name": "Frederickton", "state": "", "country": "AU", "coord": {"lon": 152.866669, "lat": -31.033331}}, {"id": 2166143, "name": "Frankston East", "state": "", "country": "AU", "coord": {"lon": 145.133331, "lat": -38.133331}}, {"id": 2166144, "name": "Frankston", "state": "", "country": "AU", "coord": {"lon": 145.116669, "lat": -38.133331}}, {"id": 2166160, "name": "Franklin", "state": "", "country": "AU", "coord": {"lon": 147, "lat": -43.083328}}, {"id": 2166166, "name": "Frankford", "state": "", "country": "AU", "coord": {"lon": 146.766663, "lat": -41.333328}}, {"id": 2166173, "name": "Frances", "state": "", "country": "AU", "coord": {"lon": 140.966675, "lat": -36.716671}}, {"id": 2166176, "name": "Framlingham", "state": "", "country": "AU", "coord": {"lon": 142.716675, "lat": -38.23333}}, {"id": 2166184, "name": "Foxhow", "state": "", "country": "AU", "coord": {"lon": 143.466675, "lat": -38.049999}}, {"id": 2166186, "name": "Foxground", "state": "", "country": "AU", "coord": {"lon": 150.766663, "lat": -34.716671}}, {"id": 2166267, "name": "Fosterton", "state": "", "country": "AU", "coord": {"lon": 151.75, "lat": -32.333328}}, {"id": 2166291, "name": "Forth", "state": "", "country": "AU", "coord": {"lon": 146.25, "lat": -41.200001}}, {"id": 2166309, "name": "Forster", "state": "", "country": "AU", "coord": {"lon": 152.516663, "lat": -32.166672}}, {"id": 2166311, "name": "Forsayth", "state": "", "country": "AU", "coord": {"lon": 143.616669, "lat": -18.58333}}, {"id": 2166324, "name": "Forge Creek", "state": "", "country": "AU", "coord": {"lon": 147.633331, "lat": -37.900002}}, {"id": 2166335, "name": "Forest Hill", "state": "", "country": "AU", "coord": {"lon": 147.466675, "lat": -35.150002}}, {"id": 2166344, "name": "Forester", "state": "", "country": "AU", "coord": {"lon": 147.666672, "lat": -41.083328}}, {"id": 2166356, "name": "Fordsdale", "state": "", "country": "AU", "coord": {"lon": 152.127686, "lat": -27.70937}}, {"id": 2166363, "name": "Forcett", "state": "", "country": "AU", "coord": {"lon": 147.633331, "lat": -42.799999}}, {"id": 2166368, "name": "Forbes", "state": "", "country": "AU", "coord": {"lon": 148.016663, "lat": -33.383331}}, {"id": 2166370, "name": "Footscray", "state": "", "country": "AU", "coord": {"lon": 144.899994, "lat": -37.799999}}, {"id": 2166389, "name": "Flynn", "state": "", "country": "AU", "coord": {"lon": 146.683334, "lat": -38.166672}}, {"id": 2166404, "name": "Flowery Gully", "state": "", "country": "AU", "coord": {"lon": 146.816666, "lat": -41.25}}, {"id": 2166408, "name": "Flowerdale", "state": "", "country": "AU", "coord": {"lon": 145.683334, "lat": -40.98333}}, {"id": 2166409, "name": "Flowerdale", "state": "", "country": "AU", "coord": {"lon": 145.333328, "lat": -37.333328}}, {"id": 2166453, "name": "Flinders", "state": "", "country": "AU", "coord": {"lon": 145.016663, "lat": -38.466671}}, {"id": 2166456, "name": "Fleurbaix", "state": "", "country": "AU", "coord": {"lon": 151.916672, "lat": -28.533331}}, {"id": 2166517, "name": "Flagstone Creek", "state": "", "country": "AU", "coord": {"lon": 152.116669, "lat": -27.616671}}, {"id": 2166583, "name": "Fitzroy Falls", "state": "", "country": "AU", "coord": {"lon": 150.483337, "lat": -34.650002}}, {"id": 2166584, "name": "Fitzroy", "state": "", "country": "AU", "coord": {"lon": 144.983337, "lat": -37.783329}}, {"id": 2166590, "name": "Fitzgerald", "state": "", "country": "AU", "coord": {"lon": 146.633331, "lat": -42.75}}, {"id": 2166609, "name": "Fish Point", "state": "", "country": "AU", "coord": {"lon": 143.716675, "lat": -35.433331}}, {"id": 2166652, "name": "Fish Creek", "state": "", "country": "AU", "coord": {"lon": 146.083328, "lat": -38.683331}}, {"id": 2166675, "name": "Finley", "state": "", "country": "AU", "coord": {"lon": 145.583328, "lat": -35.633331}}, {"id": 2166689, "name": "Fingal", "state": "", "country": "AU", "coord": {"lon": 147.966675, "lat": -41.633331}}, {"id": 2166693, "name": "Finch Hatton", "state": "", "country": "AU", "coord": {"lon": 148.633331, "lat": -21.15}}, {"id": 2166725, "name": "Fifield", "state": "", "country": "AU", "coord": {"lon": 147.466675, "lat": -32.799999}}, {"id": 2166739, "name": "Fiddletown", "state": "", "country": "AU", "coord": {"lon": 151.050003, "lat": -33.599998}}, {"id": 2166742, "name": "Ferodale", "state": "", "country": "AU", "coord": {"lon": 151.850006, "lat": -32.73333}}, {"id": 2166745, "name": "Ferny Creek", "state": "", "country": "AU", "coord": {"lon": 145.333328, "lat": -37.883331}}, {"id": 2166746, "name": "Fernvale", "state": "", "country": "AU", "coord": {"lon": 152.649994, "lat": -27.450001}}, {"id": 2166752, "name": "Fernshaw", "state": "", "country": "AU", "coord": {"lon": 145.633331, "lat": -37.599998}}, {"id": 2166753, "name": "Fernmount", "state": "", "country": "AU", "coord": {"lon": 152.933334, "lat": -30.466669}}, {"id": 2166754, "name": "Fernleigh", "state": "", "country": "AU", "coord": {"lon": 153.5, "lat": -28.76667}}, {"id": 2166759, "name": "Fernihurst", "state": "", "country": "AU", "coord": {"lon": 143.866669, "lat": -36.25}}, {"id": 2166761, "name": "Fern Hill", "state": "", "country": "AU", "coord": {"lon": 144.399994, "lat": -37.366669}}, {"id": 2166772, "name": "Fernbank", "state": "", "country": "AU", "coord": {"lon": 147.316666, "lat": -37.866669}}, {"id": 2166793, "name": "Fentons Creek", "state": "", "country": "AU", "coord": {"lon": 143.533325, "lat": -36.566669}}, {"id": 2166794, "name": "Fentonbury", "state": "", "country": "AU", "coord": {"lon": 146.766663, "lat": -42.650002}}, {"id": 2166814, "name": "Federal", "state": "", "country": "AU", "coord": {"lon": 153.449997, "lat": -28.65}}, {"id": 2166819, "name": "Fawkner", "state": "", "country": "AU", "coord": {"lon": 144.966675, "lat": -37.716671}}, {"id": 2166826, "name": "Faulconbridge", "state": "", "country": "AU", "coord": {"lon": 150.533325, "lat": -33.700001}}, {"id": 2166832, "name": "Fassifern Valley", "state": "", "country": "AU", "coord": {"lon": 152.600006, "lat": -27.966669}}, {"id": 2166833, "name": "Fassifern", "state": "", "country": "AU", "coord": {"lon": 151.583328, "lat": -32.98333}}, {"id": 2166849, "name": "Farnborough", "state": "", "country": "AU", "coord": {"lon": 150.733337, "lat": -23.08333}}, {"id": 2166852, "name": "Farmeadow", "state": "", "country": "AU", "coord": {"lon": 150.716675, "lat": -34.816669}}, {"id": 2166856, "name": "Farley", "state": "", "country": "AU", "coord": {"lon": 151.516663, "lat": -32.73333}}, {"id": 2166857, "name": "Farleigh", "state": "", "country": "AU", "coord": {"lon": 149.100006, "lat": -21.1}}, {"id": 2166869, "name": "Faraday", "state": "", "country": "AU", "coord": {"lon": 144.300003, "lat": -37.049999}}, {"id": 2166893, "name": "Falls Creek", "state": "", "country": "AU", "coord": {"lon": 150.600006, "lat": -34.966671}}, {"id": 2166910, "name": "Fairyland", "state": "", "country": "AU", "coord": {"lon": 145.649994, "lat": -16.816669}}, {"id": 2166911, "name": "Fairy Hill", "state": "", "country": "AU", "coord": {"lon": 153.016663, "lat": -28.76667}}, {"id": 2166949, "name": "Fairhaven", "state": "", "country": "AU", "coord": {"lon": 145.283325, "lat": -38.349998}}, {"id": 2166965, "name": "Failford", "state": "", "country": "AU", "coord": {"lon": 152.449997, "lat": -32.099998}}, {"id": 2166978, "name": "Exton", "state": "", "country": "AU", "coord": {"lon": 146.75, "lat": -41.51667}}, {"id": 2167004, "name": "Ewingsdale", "state": "", "country": "AU", "coord": {"lon": 153.550003, "lat": -28.633329}}, {"id": 2167020, "name": "Everton", "state": "", "country": "AU", "coord": {"lon": 146.550003, "lat": -36.416672}}, {"id": 2167023, "name": "Eversley", "state": "", "country": "AU", "coord": {"lon": 143.166672, "lat": -37.200001}}, {"id": 2167026, "name": "Evergreen", "state": "", "country": "AU", "coord": {"lon": 145.816666, "lat": -38.700001}}, {"id": 2167041, "name": "Evelyn", "state": "", "country": "AU", "coord": {"lon": 145.449997, "lat": -17.5}}, {"id": 2167050, "name": "Evans Head", "state": "", "country": "AU", "coord": {"lon": 153.433334, "lat": -29.116671}}, {"id": 2167051, "name": "Evansford", "state": "", "country": "AU", "coord": {"lon": 143.633331, "lat": -37.25}}, {"id": 2167056, "name": "Evandale", "state": "", "country": "AU", "coord": {"lon": 147.233337, "lat": -41.583328}}, {"id": 2167065, "name": "Euston", "state": "", "country": "AU", "coord": {"lon": 142.733337, "lat": -34.566669}}, {"id": 2167073, "name": "Eurongilly", "state": "", "country": "AU", "coord": {"lon": 147.766663, "lat": -34.950001}}, {"id": 2167084, "name": "Eurobodalla", "state": "", "country": "AU", "coord": {"lon": 149.966675, "lat": -36.133331}}, {"id": 2167085, "name": "Eurobin", "state": "", "country": "AU", "coord": {"lon": 146.866669, "lat": -36.633331}}, {"id": 2167087, "name": "Euroa", "state": "", "country": "AU", "coord": {"lon": 145.566666, "lat": -36.75}}, {"id": 2167115, "name": "Euramo", "state": "", "country": "AU", "coord": {"lon": 145.933334, "lat": -18}}, {"id": 2167125, "name": "Eungella", "state": "", "country": "AU", "coord": {"lon": 153.316666, "lat": -28.35}}, {"id": 2167126, "name": "Eungella", "state": "", "country": "AU", "coord": {"lon": 148.483337, "lat": -21.133329}}, {"id": 2167129, "name": "Eungai Creek", "state": "", "country": "AU", "coord": {"lon": 152.883331, "lat": -30.83333}}, {"id": 2167133, "name": "Eumungerie", "state": "", "country": "AU", "coord": {"lon": 148.616669, "lat": -31.950001}}, {"id": 2167134, "name": "Eumundi", "state": "", "country": "AU", "coord": {"lon": 152.949997, "lat": -26.48333}}, {"id": 2167145, "name": "Eulomogo", "state": "", "country": "AU", "coord": {"lon": 148.683334, "lat": -32.26667}}, {"id": 2167148, "name": "Eulo", "state": "", "country": "AU", "coord": {"lon": 145.050003, "lat": -28.16667}}, {"id": 2167153, "name": "Euleilah", "state": "", "country": "AU", "coord": {"lon": 151.866669, "lat": -24.450001}}, {"id": 2167160, "name": "Eugowra", "state": "", "country": "AU", "coord": {"lon": 148.371384, "lat": -33.427299}}, {"id": 2167164, "name": "Eudlo", "state": "", "country": "AU", "coord": {"lon": 152.966675, "lat": -26.73333}}, {"id": 2167173, "name": "Euabalong West", "state": "", "country": "AU", "coord": {"lon": 146.399994, "lat": -33.066669}}, {"id": 2167174, "name": "Euabalong", "state": "", "country": "AU", "coord": {"lon": 146.483337, "lat": -33.116669}}, {"id": 2167179, "name": "Ettrick", "state": "", "country": "AU", "coord": {"lon": 152.916672, "lat": -28.66667}}, {"id": 2167183, "name": "Ettalong Beach", "state": "", "country": "AU", "coord": {"lon": 151.333328, "lat": -33.51667}}, {"id": 2167185, "name": "Ettalong", "state": "", "country": "AU", "coord": {"lon": 151.350006, "lat": -33.51667}}, {"id": 2167190, "name": "Eton", "state": "", "country": "AU", "coord": {"lon": 148.966675, "lat": -21.26667}}, {"id": 2167192, "name": "Etna Creek", "state": "", "country": "AU", "coord": {"lon": 150.466675, "lat": -23.216669}}, {"id": 2167204, "name": "Essington", "state": "", "country": "AU", "coord": {"lon": 149.716675, "lat": -33.700001}}, {"id": 2167224, "name": "Eskdale", "state": "", "country": "AU", "coord": {"lon": 147.233337, "lat": -36.466671}}, {"id": 2167230, "name": "Esk", "state": "", "country": "AU", "coord": {"lon": 152.416672, "lat": -27.23333}}, {"id": 2167233, "name": "Eschol", "state": "", "country": "AU", "coord": {"lon": 148.649994, "lat": -32.333328}}, {"id": 2167246, "name": "Eromanga", "state": "", "country": "AU", "coord": {"lon": 143.266663, "lat": -26.66667}}, {"id": 2167263, "name": "Erina", "state": "", "country": "AU", "coord": {"lon": 151.383331, "lat": -33.433331}}, {"id": 2167266, "name": "Erica", "state": "", "country": "AU", "coord": {"lon": 146.366669, "lat": -37.98333}}, {"id": 2167271, "name": "Eraring", "state": "", "country": "AU", "coord": {"lon": 151.533325, "lat": -33.083328}}, {"id": 2167275, "name": "Epsom", "state": "", "country": "AU", "coord": {"lon": 144.316666, "lat": -36.716671}}, {"id": 2167278, "name": "Epping", "state": "", "country": "AU", "coord": {"lon": 147.366669, "lat": -41.76667}}, {"id": 2167279, "name": "Epping", "state": "", "country": "AU", "coord": {"lon": 145.033325, "lat": -37.650002}}, {"id": 2167280, "name": "Epping", "state": "", "country": "AU", "coord": {"lon": 151.081833, "lat": -33.772709}}, {"id": 2167281, "name": "Eppalock", "state": "", "country": "AU", "coord": {"lon": 144.416672, "lat": -36.833328}}, {"id": 2167289, "name": "Ensay", "state": "", "country": "AU", "coord": {"lon": 147.833328, "lat": -37.383331}}, {"id": 2167312, "name": "Engadine", "state": "", "country": "AU", "coord": {"lon": 151.016663, "lat": -34.066669}}, {"id": 2167326, "name": "Emu Vale", "state": "", "country": "AU", "coord": {"lon": 152.25, "lat": -28.23333}}, {"id": 2167330, "name": "Emu Plains", "state": "", "country": "AU", "coord": {"lon": 150.666672, "lat": -33.75}}, {"id": 2167333, "name": "Emu Park", "state": "", "country": "AU", "coord": {"lon": 150.816666, "lat": -23.25}}, {"id": 2167379, "name": "Emu Creek", "state": "", "country": "AU", "coord": {"lon": 144.350006, "lat": -36.833328}}, {"id": 2167387, "name": "Emu", "state": "", "country": "AU", "coord": {"lon": 143.466675, "lat": -36.73333}}, {"id": 2167390, "name": "Empire Vale", "state": "", "country": "AU", "coord": {"lon": 153.5, "lat": -28.91667}}, {"id": 2167391, "name": "Empire Bay", "state": "", "country": "AU", "coord": {"lon": 151.366669, "lat": -33.5}}, {"id": 2167404, "name": "Emmaville", "state": "", "country": "AU", "coord": {"lon": 151.600006, "lat": -29.450001}}, {"id": 2167410, "name": "Emita", "state": "", "country": "AU", "coord": {"lon": 147.899994, "lat": -40}}, {"id": 2167418, "name": "Emerald Hill", "state": "", "country": "AU", "coord": {"lon": 150.083328, "lat": -30.883329}}, {"id": 2167425, "name": "Emerald", "state": "", "country": "AU", "coord": {"lon": 145.433334, "lat": -37.933331}}, {"id": 2167426, "name": "Emerald", "state": "", "country": "AU", "coord": {"lon": 148.166672, "lat": -23.533331}}, {"id": 2167434, "name": "Elwood East", "state": "", "country": "AU", "coord": {"lon": 145, "lat": -37.883331}}, {"id": 2167444, "name": "Eltham North", "state": "", "country": "AU", "coord": {"lon": 145.149994, "lat": -37.700001}}, {"id": 2167445, "name": "Eltham", "state": "", "country": "AU", "coord": {"lon": 145.149994, "lat": -37.73333}}, {"id": 2167450, "name": "Elsmore", "state": "", "country": "AU", "coord": {"lon": 151.266663, "lat": -29.816669}}, {"id": 2167462, "name": "Elphinstone", "state": "", "country": "AU", "coord": {"lon": 144.333328, "lat": -37.099998}}, {"id": 2167467, "name": "Elong Elong", "state": "", "country": "AU", "coord": {"lon": 149.033325, "lat": -32.116669}}, {"id": 2167476, "name": "Elmore", "state": "", "country": "AU", "coord": {"lon": 144.600006, "lat": -36.5}}, {"id": 2167478, "name": "Elmhurst", "state": "", "country": "AU", "coord": {"lon": 143.25, "lat": -37.166672}}, {"id": 2167495, "name": "Elliott", "state": "", "country": "AU", "coord": {"lon": 145.783325, "lat": -41.116669}}, {"id": 2167496, "name": "Elliott", "state": "", "country": "AU", "coord": {"lon": 152.383331, "lat": -24.966669}}, {"id": 2167502, "name": "Ellinbank", "state": "", "country": "AU", "coord": {"lon": 145.933334, "lat": -38.23333}}, {"id": 2167503, "name": "Elliminyt", "state": "", "country": "AU", "coord": {"lon": 143.583328, "lat": -38.349998}}, {"id": 2167508, "name": "Ellerston", "state": "", "country": "AU", "coord": {"lon": 151.316666, "lat": -31.816669}}, {"id": 2167510, "name": "Ellerslie", "state": "", "country": "AU", "coord": {"lon": 142.699997, "lat": -38.150002}}, {"id": 2167515, "name": "Ellendale", "state": "", "country": "AU", "coord": {"lon": 146.716675, "lat": -42.616669}}, {"id": 2167519, "name": "Ellenborough", "state": "", "country": "AU", "coord": {"lon": 152.466675, "lat": -31.450001}}, {"id": 2167523, "name": "Ellangowan", "state": "", "country": "AU", "coord": {"lon": 153.066666, "lat": -29.033331}}, {"id": 2167524, "name": "Ellangowan", "state": "", "country": "AU", "coord": {"lon": 151.733337, "lat": -27.933331}}, {"id": 2167562, "name": "Elingamite North", "state": "", "country": "AU", "coord": {"lon": 143.016663, "lat": -38.349998}}, {"id": 2167566, "name": "Elimbah", "state": "", "country": "AU", "coord": {"lon": 152.949997, "lat": -27.01667}}, {"id": 2167584, "name": "Electrona", "state": "", "country": "AU", "coord": {"lon": 147.233337, "lat": -43.049999}}, {"id": 2167591, "name": "Eldorado", "state": "", "country": "AU", "coord": {"lon": 146.516663, "lat": -36.299999}}, {"id": 2167618, "name": "El Arish", "state": "", "country": "AU", "coord": {"lon": 146, "lat": -17.816669}}, {"id": 2167625, "name": "Elaine", "state": "", "country": "AU", "coord": {"lon": 144.033325, "lat": -37.783329}}, {"id": 2167626, "name": "Ekibin", "state": "", "country": "AU", "coord": {"lon": 153.033325, "lat": -27.51667}}, {"id": 2167629, "name": "Einasleigh", "state": "", "country": "AU", "coord": {"lon": 144.100006, "lat": -18.51667}}, {"id": 2167636, "name": "Eildon", "state": "", "country": "AU", "coord": {"lon": 145.916672, "lat": -37.23333}}, {"id": 2167651, "name": "Eight Mile Plains", "state": "", "country": "AU", "coord": {"lon": 153.100006, "lat": -27.58333}}, {"id": 2167693, "name": "Eidsvold", "state": "", "country": "AU", "coord": {"lon": 151.133331, "lat": -25.366671}}, {"id": 2167699, "name": "Eglinton", "state": "", "country": "AU", "coord": {"lon": 149.546539, "lat": -33.377312}}, {"id": 2167707, "name": "Eganstown", "state": "", "country": "AU", "coord": {"lon": 144.083328, "lat": -37.366669}}, {"id": 2167751, "name": "Edithvale", "state": "", "country": "AU", "coord": {"lon": 145.109741, "lat": -38.037239}}, {"id": 2167754, "name": "Edith Creek", "state": "", "country": "AU", "coord": {"lon": 145.100006, "lat": -40.966671}}, {"id": 2167758, "name": "Edith", "state": "", "country": "AU", "coord": {"lon": 149.916672, "lat": -33.799999}}, {"id": 2167767, "name": "Edgeroi", "state": "", "country": "AU", "coord": {"lon": 149.800003, "lat": -30.1}}, {"id": 2167771, "name": "Edge Hill", "state": "", "country": "AU", "coord": {"lon": 145.75, "lat": -16.9}}, {"id": 2167776, "name": "Edgecombe", "state": "", "country": "AU", "coord": {"lon": 144.433334, "lat": -37.183331}}, {"id": 2167791, "name": "Eden Park", "state": "", "country": "AU", "coord": {"lon": 145.083328, "lat": -37.48333}}, {"id": 2167794, "name": "Edenhope", "state": "", "country": "AU", "coord": {"lon": 141.300003, "lat": -37.049999}}, {"id": 2167799, "name": "Eden", "state": "", "country": "AU", "coord": {"lon": 149.899994, "lat": -37.066669}}, {"id": 2167806, "name": "Eddington", "state": "", "country": "AU", "coord": {"lon": 143.850006, "lat": -36.883331}}, {"id": 2167813, "name": "Ecklin South", "state": "", "country": "AU", "coord": {"lon": 142.916672, "lat": -38.400002}}, {"id": 2167817, "name": "Echuca", "state": "", "country": "AU", "coord": {"lon": 144.75, "lat": -36.133331}}, {"id": 2167826, "name": "Eccleston", "state": "", "country": "AU", "coord": {"lon": 151.5, "lat": -32.25}}, {"id": 2167829, "name": "Ebor", "state": "", "country": "AU", "coord": {"lon": 152.350006, "lat": -30.4}}, {"id": 2167832, "name": "Ebenezer", "state": "", "country": "AU", "coord": {"lon": 152.633331, "lat": -27.683331}}, {"id": 2167833, "name": "Ebden", "state": "", "country": "AU", "coord": {"lon": 147.033325, "lat": -36.150002}}, {"id": 2167834, "name": "Ebbw Vale", "state": "", "country": "AU", "coord": {"lon": 152.816666, "lat": -27.6}}, {"id": 2167837, "name": "Eatonsville", "state": "", "country": "AU", "coord": {"lon": 152.833328, "lat": -29.633329}}, {"id": 2167840, "name": "Eastwood", "state": "", "country": "AU", "coord": {"lon": 151.083328, "lat": -33.799999}}, {"id": 2167869, "name": "East Maitland", "state": "", "country": "AU", "coord": {"lon": 151.583328, "lat": -32.75}}, {"id": 2167879, "name": "East Hills", "state": "", "country": "AU", "coord": {"lon": 150.983337, "lat": -33.966671}}, {"id": 2167880, "name": "East Guyong", "state": "", "country": "AU", "coord": {"lon": 149.283325, "lat": -33.416672}}, {"id": 2167882, "name": "East Gosford", "state": "", "country": "AU", "coord": {"lon": 151.350006, "lat": -33.433331}}, {"id": 2167939, "name": "East Barron", "state": "", "country": "AU", "coord": {"lon": 145.533325, "lat": -17.316669}}, {"id": 2167943, "name": "East Ballina", "state": "", "country": "AU", "coord": {"lon": 153.583328, "lat": -28.866671}}, {"id": 2167949, "name": "Earlwood", "state": "", "country": "AU", "coord": {"lon": 151.100006, "lat": -33.950001}}, {"id": 2167951, "name": "Earlston", "state": "", "country": "AU", "coord": {"lon": 145.666672, "lat": -36.549999}}, {"id": 2167962, "name": "Eagle Point", "state": "", "country": "AU", "coord": {"lon": 147.683334, "lat": -37.900002}}, {"id": 2167966, "name": "Eagle Heights", "state": "", "country": "AU", "coord": {"lon": 153.199997, "lat": -27.933331}}, {"id": 2167973, "name": "Eaglehawk", "state": "", "country": "AU", "coord": {"lon": 144.25, "lat": -36.73333}}, {"id": 2167983, "name": "Eagleby", "state": "", "country": "AU", "coord": {"lon": 153.216675, "lat": -27.683331}}, {"id": 2168000, "name": "Dyers Crossing", "state": "", "country": "AU", "coord": {"lon": 152.300003, "lat": -32.099998}}, {"id": 2168017, "name": "Durren Durren", "state": "", "country": "AU", "coord": {"lon": 151.399994, "lat": -33.200001}}, {"id": 2168021, "name": "Durong", "state": "", "country": "AU", "coord": {"lon": 151.25, "lat": -26.33333}}, {"id": 2168026, "name": "Duri", "state": "", "country": "AU", "coord": {"lon": 150.816666, "lat": -31.216669}}, {"id": 2168028, "name": "Durham Ox", "state": "", "country": "AU", "coord": {"lon": 143.916672, "lat": -36.133331}}, {"id": 2168029, "name": "Durham Lead", "state": "", "country": "AU", "coord": {"lon": 143.883331, "lat": -37.700001}}, {"id": 2168038, "name": "Duranbah", "state": "", "country": "AU", "coord": {"lon": 153.533325, "lat": -28.316669}}, {"id": 2168041, "name": "Dural", "state": "", "country": "AU", "coord": {"lon": 151.016663, "lat": -33.683331}}, {"id": 2168050, "name": "Dunwich", "state": "", "country": "AU", "coord": {"lon": 153.399994, "lat": -27.5}}, {"id": 2168052, "name": "Duntroon", "state": "", "country": "AU", "coord": {"lon": 149.166672, "lat": -35.299999}}, {"id": 2168065, "name": "Dunorlan", "state": "", "country": "AU", "coord": {"lon": 146.550003, "lat": -41.48333}}, {"id": 2168066, "name": "Dunoon", "state": "", "country": "AU", "coord": {"lon": 153.333328, "lat": -28.683331}}, {"id": 2168068, "name": "Dunolly", "state": "", "country": "AU", "coord": {"lon": 143.733337, "lat": -36.849998}}, {"id": 2168070, "name": "Dunnstown", "state": "", "country": "AU", "coord": {"lon": 143.983337, "lat": -37.599998}}, {"id": 2168087, "name": "Dunmore", "state": "", "country": "AU", "coord": {"lon": 150.850006, "lat": -34.599998}}, {"id": 2168093, "name": "Dunluce", "state": "", "country": "AU", "coord": {"lon": 143.600006, "lat": -36.900002}}, {"id": 2168101, "name": "Dunkeld", "state": "", "country": "AU", "coord": {"lon": 142.350006, "lat": -37.650002}}, {"id": 2168110, "name": "Dungowan", "state": "", "country": "AU", "coord": {"lon": 151.100006, "lat": -31.216669}}, {"id": 2168112, "name": "Dungog", "state": "", "country": "AU", "coord": {"lon": 151.766663, "lat": -32.416672}}, {"id": 2168119, "name": "Dungay", "state": "", "country": "AU", "coord": {"lon": 153.366669, "lat": -28.283331}}, {"id": 2168128, "name": "Dunedoo", "state": "", "country": "AU", "coord": {"lon": 149.399994, "lat": -32.01667}}, {"id": 2168159, "name": "Duncans Creek", "state": "", "country": "AU", "coord": {"lon": 151.199997, "lat": -31.366671}}, {"id": 2168164, "name": "Dunbogan", "state": "", "country": "AU", "coord": {"lon": 152.816666, "lat": -31.65}}, {"id": 2168174, "name": "Dunalley", "state": "", "country": "AU", "coord": {"lon": 147.806946, "lat": -42.888611}}, {"id": 2168175, "name": "Dunach", "state": "", "country": "AU", "coord": {"lon": 143.716675, "lat": -37.216671}}, {"id": 2168182, "name": "Dumbleton", "state": "", "country": "AU", "coord": {"lon": 149.100006, "lat": -21.133329}}, {"id": 2168188, "name": "Dumbalk", "state": "", "country": "AU", "coord": {"lon": 146.083328, "lat": -38.533329}}, {"id": 2168198, "name": "Dululu", "state": "", "country": "AU", "coord": {"lon": 150.25, "lat": -23.85}}, {"id": 2168215, "name": "Dulacca", "state": "", "country": "AU", "coord": {"lon": 149.75, "lat": -26.65}}, {"id": 2168224, "name": "Dugandan", "state": "", "country": "AU", "coord": {"lon": 152.683334, "lat": -28.01667}}, {"id": 2168255, "name": "Ducklo", "state": "", "country": "AU", "coord": {"lon": 151.016663, "lat": -27.25}}, {"id": 2168273, "name": "Duckenfield", "state": "", "country": "AU", "coord": {"lon": 151.683334, "lat": -32.73333}}, {"id": 2168303, "name": "Dubbo Municipality", "state": "", "country": "AU", "coord": {"lon": 148.695724, "lat": -32.269798}}, {"id": 2168305, "name": "Dubbo", "state": "", "country": "AU", "coord": {"lon": 148.616669, "lat": -32.25}}, {"id": 2168306, "name": "Duaringa", "state": "", "country": "AU", "coord": {"lon": 149.666672, "lat": -23.73333}}, {"id": 2168309, "name": "Drysdale", "state": "", "country": "AU", "coord": {"lon": 144.566666, "lat": -38.166672}}, {"id": 2168358, "name": "Drummond", "state": "", "country": "AU", "coord": {"lon": 144.333328, "lat": -37.23333}}, {"id": 2168365, "name": "Drumborg", "state": "", "country": "AU", "coord": {"lon": 141.600006, "lat": -38.083328}}, {"id": 2168366, "name": "Drumanure", "state": "", "country": "AU", "coord": {"lon": 145.5, "lat": -36.133331}}, {"id": 2168370, "name": "Drouin West", "state": "", "country": "AU", "coord": {"lon": 145.866669, "lat": -38.099998}}, {"id": 2168371, "name": "Drouin South", "state": "", "country": "AU", "coord": {"lon": 145.833328, "lat": -38.166672}}, {"id": 2168372, "name": "Drouin", "state": "", "country": "AU", "coord": {"lon": 145.850006, "lat": -38.133331}}, {"id": 2168385, "name": "Dromedary", "state": "", "country": "AU", "coord": {"lon": 147.166672, "lat": -42.73333}}, {"id": 2168392, "name": "Drillham", "state": "", "country": "AU", "coord": {"lon": 149.983337, "lat": -26.65}}, {"id": 2168402, "name": "Dreeite", "state": "", "country": "AU", "coord": {"lon": 143.516663, "lat": -38.183331}}, {"id": 2168405, "name": "Drayton", "state": "", "country": "AU", "coord": {"lon": 151.916672, "lat": -27.58333}}, {"id": 2168415, "name": "Drake", "state": "", "country": "AU", "coord": {"lon": 152.399994, "lat": -28.933331}}, {"id": 2168419, "name": "Doyles Creek", "state": "", "country": "AU", "coord": {"lon": 150.783325, "lat": -32.533329}}, {"id": 2168424, "name": "Dows Creek", "state": "", "country": "AU", "coord": {"lon": 148.783325, "lat": -21.1}}, {"id": 2168459, "name": "Douglas Park", "state": "", "country": "AU", "coord": {"lon": 150.716675, "lat": -34.183331}}, {"id": 2168487, "name": "Doubtful Creek", "state": "", "country": "AU", "coord": {"lon": 152.916672, "lat": -28.76667}}, {"id": 2168532, "name": "Dorroughby", "state": "", "country": "AU", "coord": {"lon": 153.350006, "lat": -28.66667}}, {"id": 2168534, "name": "Dorrigo", "state": "", "country": "AU", "coord": {"lon": 152.699997, "lat": -30.33333}}, {"id": 2168537, "name": "Doreen", "state": "", "country": "AU", "coord": {"lon": 145.149994, "lat": -37.599998}}, {"id": 2168546, "name": "Dora Creek", "state": "", "country": "AU", "coord": {"lon": 151.5, "lat": -33.083328}}, {"id": 2168554, "name": "Dooralong", "state": "", "country": "AU", "coord": {"lon": 151.350006, "lat": -33.183331}}, {"id": 2168556, "name": "Doonside", "state": "", "country": "AU", "coord": {"lon": 150.866669, "lat": -33.76667}}, {"id": 2168566, "name": "Doon Doon", "state": "", "country": "AU", "coord": {"lon": 153.300003, "lat": -28.51667}}, {"id": 2168574, "name": "Dookie", "state": "", "country": "AU", "coord": {"lon": 145.699997, "lat": -36.333328}}, {"id": 2168577, "name": "Dooen", "state": "", "country": "AU", "coord": {"lon": 142.283325, "lat": -36.666672}}, {"id": 2168579, "name": "Donvale", "state": "", "country": "AU", "coord": {"lon": 145.174881, "lat": -37.789101}}, {"id": 2168607, "name": "Doncaster", "state": "", "country": "AU", "coord": {"lon": 145.123734, "lat": -37.78828}}, {"id": 2168620, "name": "Donald", "state": "", "country": "AU", "coord": {"lon": 143, "lat": -36.366669}}, {"id": 2168670, "name": "Docker", "state": "", "country": "AU", "coord": {"lon": 146.383331, "lat": -36.51667}}, {"id": 2168676, "name": "Dobie", "state": "", "country": "AU", "coord": {"lon": 143.033325, "lat": -37.316669}}, {"id": 2168680, "name": "Djuan", "state": "", "country": "AU", "coord": {"lon": 151.983337, "lat": -27.116671}}, {"id": 2168685, "name": "Dixons Creek", "state": "", "country": "AU", "coord": {"lon": 145.416672, "lat": -37.599998}}, {"id": 2168690, "name": "Dixie", "state": "", "country": "AU", "coord": {"lon": 142.933334, "lat": -38.299999}}, {"id": 2168726, "name": "Dirranbandi", "state": "", "country": "AU", "coord": {"lon": 148.233337, "lat": -28.58333}}, {"id": 2168765, "name": "Dinmore", "state": "", "country": "AU", "coord": {"lon": 152.833328, "lat": -27.6}}, {"id": 2168768, "name": "Dingwall", "state": "", "country": "AU", "coord": {"lon": 143.850006, "lat": -35.799999}}, {"id": 2168806, "name": "Dingo", "state": "", "country": "AU", "coord": {"lon": 149.333328, "lat": -23.65}}, {"id": 2168807, "name": "Dingley Village", "state": "", "country": "AU", "coord": {"lon": 145.134201, "lat": -37.9827}}, {"id": 2168819, "name": "Dimbulah", "state": "", "country": "AU", "coord": {"lon": 145.116669, "lat": -17.15}}, {"id": 2168820, "name": "Dimboola", "state": "", "country": "AU", "coord": {"lon": 142.050003, "lat": -36.466671}}, {"id": 2168822, "name": "Dilston", "state": "", "country": "AU", "coord": {"lon": 147.083328, "lat": -41.333328}}, {"id": 2168839, "name": "Dilkoon", "state": "", "country": "AU", "coord": {"lon": 152.983337, "lat": -29.5}}, {"id": 2168849, "name": "Dignams Creek", "state": "", "country": "AU", "coord": {"lon": 149.966675, "lat": -36.349998}}, {"id": 2168854, "name": "Diggers Rest", "state": "", "country": "AU", "coord": {"lon": 144.733337, "lat": -37.633331}}, {"id": 2168859, "name": "Digby", "state": "", "country": "AU", "coord": {"lon": 141.533325, "lat": -37.799999}}, {"id": 2168866, "name": "Didcot", "state": "", "country": "AU", "coord": {"lon": 151.866669, "lat": -25.48333}}, {"id": 2168919, "name": "Diamond Creek", "state": "", "country": "AU", "coord": {"lon": 145.149994, "lat": -37.666672}}, {"id": 2168943, "name": "Devonport", "state": "", "country": "AU", "coord": {"lon": 146.350006, "lat": -41.166672}}, {"id": 2168945, "name": "Devon Meadows", "state": "", "country": "AU", "coord": {"lon": 145.300003, "lat": -38.166672}}, {"id": 2168977, "name": "Devereux Creek", "state": "", "country": "AU", "coord": {"lon": 148.916672, "lat": -21.116671}},