[{"id": 2892623, "name": "Kartzow", "state": "", "country": "DE", "coord": {"lon": 12.98333, "lat": 52.5}}, {"id": 2892625, "name": "Kartzfehn", "state": "", "country": "DE", "coord": {"lon": 8.03333, "lat": 53.01667}}, {"id": 2892642, "name": "Karthan", "state": "", "country": "DE", "coord": {"lon": 11.93793, "lat": 52.993809}}, {"id": 2892647, "name": "Karst\u00e4dt", "state": "", "country": "DE", "coord": {"lon": 11.48333, "lat": 53.283329}}, {"id": 2892648, "name": "Karst\u00e4dt", "state": "", "country": "DE", "coord": {"lon": 11.75, "lat": 53.150002}}, {"id": 2892652, "name": "Karsdorf", "state": "", "country": "DE", "coord": {"lon": 11.65, "lat": 51.283329}}, {"id": 2892654, "name": "Karschelt", "state": "", "country": "DE", "coord": {"lon": 6.15, "lat": 50.066669}}, {"id": 2892657, "name": "Karschau", "state": "", "country": "DE", "coord": {"lon": 9.88333, "lat": 54.616669}}, {"id": 2892658, "name": "Karsbach", "state": "", "country": "DE", "coord": {"lon": 9.78333, "lat": 50.049999}}, {"id": 2892659, "name": "Karsau", "state": "", "country": "DE", "coord": {"lon": 7.8, "lat": 47.583328}}, {"id": 2892661, "name": "Karritz", "state": "", "country": "DE", "coord": {"lon": 11.46667, "lat": 52.650002}}, {"id": 2892668, "name": "Karrenzin", "state": "", "country": "DE", "coord": {"lon": 11.8, "lat": 53.333328}}, {"id": 2892705, "name": "Karow", "state": "", "country": "DE", "coord": {"lon": 13.48117, "lat": 52.609039}}, {"id": 2892709, "name": "Karow", "state": "", "country": "DE", "coord": {"lon": 12.25782, "lat": 53.537659}}, {"id": 2892711, "name": "Karolinenkoog", "state": "", "country": "DE", "coord": {"lon": 8.96667, "lat": 54.283329}}, {"id": 2892714, "name": "Karolinenh\u00f6he", "state": "", "country": "DE", "coord": {"lon": 13.16667, "lat": 52.51667}}, {"id": 2892748, "name": "Karnin", "state": "", "country": "DE", "coord": {"lon": 12.79058, "lat": 54.301899}}, {"id": 2892750, "name": "Karnin", "state": "", "country": "DE", "coord": {"lon": 11.56667, "lat": 53.683331}}, {"id": 2892774, "name": "Karlum", "state": "", "country": "DE", "coord": {"lon": 8.96667, "lat": 54.833328}}, {"id": 2892779, "name": "Karlsthal", "state": "", "country": "DE", "coord": {"lon": 7.46667, "lat": 51.049999}}, {"id": 2892781, "name": "Karlstein", "state": "", "country": "DE", "coord": {"lon": 12.85, "lat": 47.716671}}, {"id": 2892786, "name": "Karlstadt", "state": "", "country": "DE", "coord": {"lon": 9.77222, "lat": 49.960281}}, {"id": 2892791, "name": "Landkreis Karlsruhe", "state": "", "country": "DE", "coord": {"lon": 8.53139, "lat": 49.07972}}, {"id": 2892794, "name": "Karlsruhe", "state": "", "country": "DE", "coord": {"lon": 8.38583, "lat": 49.004719}}, {"id": 2892796, "name": "Karlsruh", "state": "", "country": "DE", "coord": {"lon": 13.10789, "lat": 52.703949}}, {"id": 2892808, "name": "Karlskron", "state": "", "country": "DE", "coord": {"lon": 11.41667, "lat": 48.683331}}, {"id": 2892810, "name": "Karlshuld", "state": "", "country": "DE", "coord": {"lon": 11.3, "lat": 48.683331}}, {"id": 2892811, "name": "Karlshorst", "state": "", "country": "DE", "coord": {"lon": 13.53185, "lat": 52.484192}}, {"id": 2892863, "name": "Karlshausen", "state": "", "country": "DE", "coord": {"lon": 6.23333, "lat": 50.01667}}, {"id": 2892865, "name": "Karlshagen", "state": "", "country": "DE", "coord": {"lon": 13.83333, "lat": 54.116669}}, {"id": 2892867, "name": "Bad Karlshafen", "state": "", "country": "DE", "coord": {"lon": 9.45477, "lat": 51.642632}}, {"id": 2892874, "name": "Karlsfeld", "state": "", "country": "DE", "coord": {"lon": 11.46667, "lat": 48.216671}}, {"id": 2892879, "name": "Karlsdorf", "state": "", "country": "DE", "coord": {"lon": 11.8, "lat": 50.799999}}, {"id": 2892887, "name": "Karlsburg", "state": "", "country": "DE", "coord": {"lon": 13.61667, "lat": 53.966671}}, {"id": 2892913, "name": "Karlsbach", "state": "", "country": "DE", "coord": {"lon": 12.81667, "lat": 47.849998}}, {"id": 2892916, "name": "Kreisfreie Stadt Chemnitz", "state": "", "country": "DE", "coord": {"lon": 12.93611, "lat": 50.83194}}, {"id": 2892933, "name": "Karlburg", "state": "", "country": "DE", "coord": {"lon": 9.75889, "lat": 49.979172}}, {"id": 2892940, "name": "Karl", "state": "", "country": "DE", "coord": {"lon": 6.8, "lat": 50.049999}}, {"id": 2892945, "name": "Karken", "state": "", "country": "DE", "coord": {"lon": 6.06667, "lat": 51.099998}}, {"id": 2892951, "name": "Kargow", "state": "", "country": "DE", "coord": {"lon": 12.75, "lat": 53.5}}, {"id": 2892959, "name": "Karft", "state": "", "country": "DE", "coord": {"lon": 11.04298, "lat": 53.538471}}, {"id": 2892961, "name": "Karenz", "state": "", "country": "DE", "coord": {"lon": 11.35, "lat": 53.23333}}, {"id": 2892974, "name": "Karby", "state": "", "country": "DE", "coord": {"lon": 9.96667, "lat": 54.616669}}, {"id": 2892980, "name": "Karben", "state": "", "country": "DE", "coord": {"lon": 8.77155, "lat": 50.23019}}, {"id": 2892986, "name": "Karbach", "state": "", "country": "DE", "coord": {"lon": 7.61667, "lat": 50.150002}}, {"id": 2892988, "name": "Karbach", "state": "", "country": "DE", "coord": {"lon": 9.63889, "lat": 49.8675}}, {"id": 2892996, "name": "Kapsweyer", "state": "", "country": "DE", "coord": {"lon": 8.02167, "lat": 49.043892}}, {"id": 2893012, "name": "Kappersberg", "state": "", "country": "DE", "coord": {"lon": 10.66667, "lat": 49.51667}}, {"id": 2893022, "name": "Kappelrodeck", "state": "", "country": "DE", "coord": {"lon": 8.11692, "lat": 48.59182}}, {"id": 2893023, "name": "Kappeln", "state": "", "country": "DE", "coord": {"lon": 9.9313, "lat": 54.661221}}, {"id": 2893024, "name": "Kappeln", "state": "", "country": "DE", "coord": {"lon": 7.56667, "lat": 49.683331}}, {"id": 2893054, "name": "Kappel", "state": "", "country": "DE", "coord": {"lon": 7.36667, "lat": 50}}, {"id": 2893087, "name": "Kapfing", "state": "", "country": "DE", "coord": {"lon": 12.11667, "lat": 48.450001}}, {"id": 2893098, "name": "Kapfenhardt", "state": "", "country": "DE", "coord": {"lon": 8.68333, "lat": 48.799999}}, {"id": 2893102, "name": "Kapfelberg", "state": "", "country": "DE", "coord": {"lon": 11.98333, "lat": 48.933331}}, {"id": 2893112, "name": "Kaperich", "state": "", "country": "DE", "coord": {"lon": 7.03333, "lat": 50.25}}, {"id": 2893132, "name": "Kapellen-Drusweiler", "state": "", "country": "DE", "coord": {"lon": 8.03111, "lat": 49.101669}}, {"id": 2893133, "name": "Kapellendorf", "state": "", "country": "DE", "coord": {"lon": 11.4687, "lat": 50.97464}}, {"id": 2893159, "name": "Kapelle", "state": "", "country": "DE", "coord": {"lon": 6.48333, "lat": 51.25}}, {"id": 2893175, "name": "Kanzem", "state": "", "country": "DE", "coord": {"lon": 6.56667, "lat": 49.666672}}, {"id": 2893186, "name": "Kanzach", "state": "", "country": "DE", "coord": {"lon": 9.55888, "lat": 48.077961}}, {"id": 2893212, "name": "Kannawurf", "state": "", "country": "DE", "coord": {"lon": 11.13333, "lat": 51.26667}}, {"id": 2893214, "name": "Kankelau", "state": "", "country": "DE", "coord": {"lon": 10.56667, "lat": 53.549999}}, {"id": 2893234, "name": "K\u00e4ndler", "state": "", "country": "DE", "coord": {"lon": 12.78333, "lat": 50.849998}}, {"id": 2893237, "name": "Kandern", "state": "", "country": "DE", "coord": {"lon": 7.66667, "lat": 47.716671}}, {"id": 2893244, "name": "Kandel", "state": "", "country": "DE", "coord": {"lon": 8.18417, "lat": 49.089169}}, {"id": 2893255, "name": "Kamsdorf", "state": "", "country": "DE", "coord": {"lon": 11.43333, "lat": 50.650002}}, {"id": 2893264, "name": "Kamp-Lintfort", "state": "", "country": "DE", "coord": {"lon": 6.53333, "lat": 51.5}}, {"id": 2893303, "name": "Kampe", "state": "", "country": "DE", "coord": {"lon": 7.83333, "lat": 53.083328}}, {"id": 2893307, "name": "Kamp-Bornhofen", "state": "", "country": "DE", "coord": {"lon": 7.61667, "lat": 50.216671}}, {"id": 2893311, "name": "Kamp", "state": "", "country": "DE", "coord": {"lon": 7.78333, "lat": 50.933331}}, {"id": 2893322, "name": "Kamminke", "state": "", "country": "DE", "coord": {"lon": 14.2, "lat": 53.866669}}, {"id": 2893328, "name": "Kammerstein", "state": "", "country": "DE", "coord": {"lon": 10.97277, "lat": 49.293171}}, {"id": 2893354, "name": "Kammerland", "state": "", "country": "DE", "coord": {"lon": 9.55459, "lat": 53.795231}}, {"id": 2893378, "name": "Kammerforst", "state": "", "country": "DE", "coord": {"lon": 10.41667, "lat": 51.133331}}, {"id": 2893379, "name": "Kammerforst", "state": "", "country": "DE", "coord": {"lon": 7.68333, "lat": 50.450001}}, {"id": 2893395, "name": "Kammerberg", "state": "", "country": "DE", "coord": {"lon": 11.51667, "lat": 48.366669}}, {"id": 2893406, "name": "Kammer", "state": "", "country": "DE", "coord": {"lon": 12.3134, "lat": 48.00322}}, {"id": 2893414, "name": "Kamm", "state": "", "country": "DE", "coord": {"lon": 13.21667, "lat": 48.549999}}, {"id": 2893422, "name": "Kamerun", "state": "", "country": "DE", "coord": {"lon": 12.76667, "lat": 51.25}}, {"id": 2893430, "name": "Kamern", "state": "", "country": "DE", "coord": {"lon": 12.11251, "lat": 52.748501}}, {"id": 2893433, "name": "K\u00e4meritz", "state": "", "country": "DE", "coord": {"lon": 11.96667, "lat": 51.950001}}, {"id": 2893437, "name": "Kamenz", "state": "", "country": "DE", "coord": {"lon": 14.09374, "lat": 51.267979}}, {"id": 2893438, "name": "Kamen", "state": "", "country": "DE", "coord": {"lon": 7.66667, "lat": 51.599998}}, {"id": 2893443, "name": "Kambs", "state": "", "country": "DE", "coord": {"lon": 12.56667, "lat": 53.316669}}, {"id": 2893453, "name": "Kalzendorf", "state": "", "country": "DE", "coord": {"lon": 11.68333, "lat": 51.299999}}, {"id": 2893477, "name": "Kal\u00fcbbe", "state": "", "country": "DE", "coord": {"lon": 10.28333, "lat": 54.116669}}, {"id": 2893480, "name": "Kaltwasser", "state": "", "country": "DE", "coord": {"lon": 14.95, "lat": 51.26667}}, {"id": 2893483, "name": "Kaltohmfeld", "state": "", "country": "DE", "coord": {"lon": 10.39925, "lat": 51.456039}}, {"id": 2893488, "name": "Kalthof", "state": "", "country": "DE", "coord": {"lon": 7.66667, "lat": 51.433331}}, {"id": 2893516, "name": "Kaltenwestheim", "state": "", "country": "DE", "coord": {"lon": 10.11667, "lat": 50.599998}}, {"id": 2893524, "name": "Kaltensundheim", "state": "", "country": "DE", "coord": {"lon": 10.16667, "lat": 50.616669}}, {"id": 2893526, "name": "Kaltenstein", "state": "", "country": "DE", "coord": {"lon": 13.53333, "lat": 48.73333}}, {"id": 2893529, "name": "Kaltensondheim", "state": "", "country": "DE", "coord": {"lon": 10.08854, "lat": 49.729469}}, {"id": 2893534, "name": "Kaltennordheim", "state": "", "country": "DE", "coord": {"lon": 10.16667, "lat": 50.633331}}, {"id": 2893538, "name": "Kaltenmark", "state": "", "country": "DE", "coord": {"lon": 11.95, "lat": 51.616669}}, {"id": 2893542, "name": "Kaltenlengsfeld", "state": "", "country": "DE", "coord": {"lon": 10.2, "lat": 50.650002}}, {"id": 2893544, "name": "Kaltenkirchen", "state": "", "country": "DE", "coord": {"lon": 9.96667, "lat": 53.833328}}, {"id": 2893546, "name": "Kaltenholzhausen", "state": "", "country": "DE", "coord": {"lon": 8.1, "lat": 50.299999}}, {"id": 2893550, "name": "Kaltenhof", "state": "", "country": "DE", "coord": {"lon": 10.98333, "lat": 53.916672}}, {"id": 2893560, "name": "Kaltenherberg", "state": "", "country": "DE", "coord": {"lon": 10.86667, "lat": 50.083328}}, {"id": 2893568, "name": "Kaltenhausen", "state": "", "country": "DE", "coord": {"lon": 10.16667, "lat": 49.866669}}, {"id": 2893572, "name": "Kaltenengers", "state": "", "country": "DE", "coord": {"lon": 7.55, "lat": 50.416672}}, {"id": 2893622, "name": "Kaltenborn", "state": "", "country": "DE", "coord": {"lon": 7.01667, "lat": 50.400002}}, {"id": 2893646, "name": "Kaltenbach", "state": "", "country": "DE", "coord": {"lon": 7.44804, "lat": 50.971859}}, {"id": 2893647, "name": "Kaltenbach", "state": "", "country": "DE", "coord": {"lon": 7.75, "lat": 49.200001}}, {"id": 2893693, "name": "Kalt", "state": "", "country": "DE", "coord": {"lon": 7.39466, "lat": 50.267288}}, {"id": 2893702, "name": "Kalrath", "state": "", "country": "DE", "coord": {"lon": 6.45, "lat": 50.98333}}, {"id": 2893713, "name": "Kalme", "state": "", "country": "DE", "coord": {"lon": 10.65, "lat": 52.083328}}, {"id": 2893716, "name": "Kallstadt", "state": "", "country": "DE", "coord": {"lon": 8.73333, "lat": 49.549999}}, {"id": 2893717, "name": "Kallstadt", "state": "", "country": "DE", "coord": {"lon": 8.17611, "lat": 49.490829}}, {"id": 2893721, "name": "Kallm\u00fcnz", "state": "", "country": "DE", "coord": {"lon": 11.96667, "lat": 49.150002}}, {"id": 2893723, "name": "Kallmerode", "state": "", "country": "DE", "coord": {"lon": 10.3, "lat": 51.349998}}, {"id": 2893738, "name": "Kallenhardt", "state": "", "country": "DE", "coord": {"lon": 8.41667, "lat": 51.450001}}, {"id": 2893754, "name": "Kallehne", "state": "", "country": "DE", "coord": {"lon": 11.38333, "lat": 52.799999}}, {"id": 2893762, "name": "Kall", "state": "", "country": "DE", "coord": {"lon": 6.55, "lat": 50.549999}}, {"id": 2893767, "name": "Kalkum", "state": "", "country": "DE", "coord": {"lon": 6.78646, "lat": 51.312271}}, {"id": 2893775, "name": "Kalkreuth", "state": "", "country": "DE", "coord": {"lon": 13.63333, "lat": 51.283329}}, {"id": 2893779, "name": "Kalkofen", "state": "", "country": "DE", "coord": {"lon": 7.83333, "lat": 49.73333}}, {"id": 2893792, "name": "Kalkhorst", "state": "", "country": "DE", "coord": {"lon": 11.04469, "lat": 53.970119}}, {"id": 2893807, "name": "Kalkgraben", "state": "", "country": "DE", "coord": {"lon": 11.85, "lat": 47.75}}, {"id": 2893837, "name": "Kalkar", "state": "", "country": "DE", "coord": {"lon": 6.3, "lat": 51.73333}}, {"id": 2893841, "name": "Kalk", "state": "", "country": "DE", "coord": {"lon": 7.00327, "lat": 50.942421}}, {"id": 2893859, "name": "Kalenborn", "state": "", "country": "DE", "coord": {"lon": 7, "lat": 50.549999}}, {"id": 2893860, "name": "Kalenborn", "state": "", "country": "DE", "coord": {"lon": 7.08333, "lat": 50.26667}}, {"id": 2893865, "name": "Kalenberg", "state": "", "country": "DE", "coord": {"lon": 6.6, "lat": 50.566669}}, {"id": 2893868, "name": "Kalefeld", "state": "", "country": "DE", "coord": {"lon": 10.03333, "lat": 51.799999}}, {"id": 2893881, "name": "Kalchreuth", "state": "", "country": "DE", "coord": {"lon": 11.13333, "lat": 49.566669}}, {"id": 2893884, "name": "Kalbsrieth", "state": "", "country": "DE", "coord": {"lon": 11.33333, "lat": 51.349998}}, {"id": 2893907, "name": "K\u00e4lberfeld", "state": "", "country": "DE", "coord": {"lon": 10.46667, "lat": 50.950001}}, {"id": 2893909, "name": "K\u00e4lberbronn", "state": "", "country": "DE", "coord": {"lon": 8.48333, "lat": 48.533329}}, {"id": 2893938, "name": "Kalbe", "state": "", "country": "DE", "coord": {"lon": 9.55, "lat": 53.299999}}, {"id": 2893939, "name": "Kalbe", "state": "", "country": "DE", "coord": {"lon": 11.4, "lat": 52.650002}}, {"id": 2893942, "name": "Kalbach", "state": "", "country": "DE", "coord": {"lon": 8.6471, "lat": 50.187012}}, {"id": 2893951, "name": "Kakerbeck", "state": "", "country": "DE", "coord": {"lon": 9.43333, "lat": 53.416672}}, {"id": 2893952, "name": "Kakerbeck", "state": "", "country": "DE", "coord": {"lon": 10.75, "lat": 52.700001}}, {"id": 2893954, "name": "Kakenstorf", "state": "", "country": "DE", "coord": {"lon": 9.76667, "lat": 53.316669}}, {"id": 2893962, "name": "Kakau", "state": "", "country": "DE", "coord": {"lon": 10.77827, "lat": 52.868919}}, {"id": 2893963, "name": "Kakau", "state": "", "country": "DE", "coord": {"lon": 12.43333, "lat": 51.799999}}, {"id": 2893978, "name": "Kaisten", "state": "", "country": "DE", "coord": {"lon": 10.05438, "lat": 50.043468}}, {"id": 2893983, "name": "Kaisheim", "state": "", "country": "DE", "coord": {"lon": 10.8, "lat": 48.76667}}, {"id": 2893993, "name": "Kaiserswerth", "state": "", "country": "DE", "coord": {"lon": 6.73624, "lat": 51.301472}}, {"id": 2894002, "name": "Landkreis Kaiserslautern", "state": "", "country": "DE", "coord": {"lon": 7.71861, "lat": 49.451939}}, {"id": 2894003, "name": "Kaiserslautern", "state": "", "country": "DE", "coord": {"lon": 7.75, "lat": 49.450001}}, {"id": 2894006, "name": "Kaisershagen", "state": "", "country": "DE", "coord": {"lon": 10.48333, "lat": 51.26667}}, {"id": 2894007, "name": "Kaisersesch", "state": "", "country": "DE", "coord": {"lon": 7.15, "lat": 50.23333}}, {"id": 2894014, "name": "Kaisersbach", "state": "", "country": "DE", "coord": {"lon": 9.63898, "lat": 48.930229}}, {"id": 2894023, "name": "Kaiseringen", "state": "", "country": "DE", "coord": {"lon": 9.09629, "lat": 48.157799}}, {"id": 2894048, "name": "Kaisborstel", "state": "", "country": "DE", "coord": {"lon": 9.48116, "lat": 54.013672}}, {"id": 2894060, "name": "Kainsbach", "state": "", "country": "DE", "coord": {"lon": 11.4832, "lat": 49.47036}}, {"id": 2894081, "name": "Kail", "state": "", "country": "DE", "coord": {"lon": 7.23333, "lat": 50.183331}}, {"id": 2894082, "name": "Kaikenried", "state": "", "country": "DE", "coord": {"lon": 13.03333, "lat": 49.01667}}, {"id": 2894085, "name": "Kaifenheim", "state": "", "country": "DE", "coord": {"lon": 7.22643, "lat": 50.24501}}, {"id": 2894091, "name": "Kaider", "state": "", "country": "DE", "coord": {"lon": 11.07257, "lat": 50.055908}}, {"id": 2894094, "name": "Kaichen", "state": "", "country": "DE", "coord": {"lon": 8.83333, "lat": 50.25}}, {"id": 2894095, "name": "Kaibitz", "state": "", "country": "DE", "coord": {"lon": 11.88333, "lat": 49.849998}}, {"id": 2894113, "name": "Kahnsdorf", "state": "", "country": "DE", "coord": {"lon": 14, "lat": 51.816669}}, {"id": 2894136, "name": "Kahlheckerhof", "state": "", "country": "DE", "coord": {"lon": 7.81667, "lat": 49.583328}}, {"id": 2894181, "name": "Kahlenberg", "state": "", "country": "DE", "coord": {"lon": 11.06667, "lat": 52.616669}}, {"id": 2894245, "name": "Kahl am Main", "state": "", "country": "DE", "coord": {"lon": 9.00553, "lat": 50.069809}}, {"id": 2894247, "name": "Kahla", "state": "", "country": "DE", "coord": {"lon": 11.58333, "lat": 50.799999}}, {"id": 2894250, "name": "K\u00e4gsdorf", "state": "", "country": "DE", "coord": {"lon": 11.68333, "lat": 54.133331}}, {"id": 2894253, "name": "Kagers", "state": "", "country": "DE", "coord": {"lon": 12.56667, "lat": 48.883331}}, {"id": 2894273, "name": "Kager", "state": "", "country": "DE", "coord": {"lon": 12.03333, "lat": 49.033329}}, {"id": 2894335, "name": "Kadenbach", "state": "", "country": "DE", "coord": {"lon": 7.73333, "lat": 50.383331}}, {"id": 2894338, "name": "Kaden", "state": "", "country": "DE", "coord": {"lon": 7.9, "lat": 50.549999}}, {"id": 2894339, "name": "Kadeltshofen", "state": "", "country": "DE", "coord": {"lon": 10.15085, "lat": 48.380539}}, {"id": 2894341, "name": "Kadelburg", "state": "", "country": "DE", "coord": {"lon": 8.3, "lat": 47.616669}}, {"id": 2894342, "name": "Kade", "state": "", "country": "DE", "coord": {"lon": 12.26667, "lat": 52.383331}}, {"id": 2894349, "name": "Kachstedt", "state": "", "country": "DE", "coord": {"lon": 11.26667, "lat": 51.383331}}, {"id": 2894364, "name": "Kabelitz", "state": "", "country": "DE", "coord": {"lon": 12.05, "lat": 52.549999}}, {"id": 2894366, "name": "Kabelhorst", "state": "", "country": "DE", "coord": {"lon": 10.91667, "lat": 54.216671}}, {"id": 2894375, "name": "Kaarst", "state": "", "country": "DE", "coord": {"lon": 6.61667, "lat": 51.23333}}, {"id": 2894382, "name": "Kaakstedt", "state": "", "country": "DE", "coord": {"lon": 13.77411, "lat": 53.174099}}, {"id": 2894384, "name": "Kaaks", "state": "", "country": "DE", "coord": {"lon": 9.46962, "lat": 53.99004}}, {"id": 2894390, "name": "J\u00fctzenbach", "state": "", "country": "DE", "coord": {"lon": 10.37968, "lat": 51.525509}}, {"id": 2894393, "name": "J\u00fctrichau", "state": "", "country": "DE", "coord": {"lon": 12.11667, "lat": 51.933331}}, {"id": 2894394, "name": "J\u00fcterbog", "state": "", "country": "DE", "coord": {"lon": 13.08333, "lat": 51.98333}}, {"id": 2894409, "name": "J\u00fcrgenstorf", "state": "", "country": "DE", "coord": {"lon": 12.9, "lat": 53.666672}}, {"id": 2894415, "name": "J\u00fcrgenshagen", "state": "", "country": "DE", "coord": {"lon": 11.89665, "lat": 53.95417}}, {"id": 2894456, "name": "J\u00fcnkerath", "state": "", "country": "DE", "coord": {"lon": 6.58333, "lat": 50.333328}}, {"id": 2894476, "name": "Jungingen", "state": "", "country": "DE", "coord": {"lon": 9.05, "lat": 48.333328}}, {"id": 2894545, "name": "Juliusburg", "state": "", "country": "DE", "coord": {"lon": 10.5, "lat": 53.416672}}, {"id": 2894553, "name": "J\u00fclich", "state": "", "country": "DE", "coord": {"lon": 6.36667, "lat": 50.933331}}, {"id": 2894566, "name": "Julbach", "state": "", "country": "DE", "coord": {"lon": 12.96667, "lat": 48.25}}, {"id": 2894569, "name": "Juist", "state": "", "country": "DE", "coord": {"lon": 7, "lat": 53.683331}}, {"id": 2894575, "name": "J\u00fchnsdorf", "state": "", "country": "DE", "coord": {"lon": 13.38333, "lat": 52.299999}}, {"id": 2894576, "name": "J\u00fchnde", "state": "", "country": "DE", "coord": {"lon": 9.8, "lat": 51.466671}}, {"id": 2894577, "name": "Juhlschau", "state": "", "country": "DE", "coord": {"lon": 9.46667, "lat": 54.716671}}, {"id": 2894581, "name": "Jugenheim", "state": "", "country": "DE", "coord": {"lon": 8.085, "lat": 49.895}}, {"id": 2894604, "name": "J\u00fcdendorf", "state": "", "country": "DE", "coord": {"lon": 11.7, "lat": 51.316669}}, {"id": 2894617, "name": "Judenbach", "state": "", "country": "DE", "coord": {"lon": 11.21667, "lat": 50.400002}}, {"id": 2894620, "name": "Jucken", "state": "", "country": "DE", "coord": {"lon": 6.23333, "lat": 50.049999}}, {"id": 2894621, "name": "J\u00fcckelberg", "state": "", "country": "DE", "coord": {"lon": 12.63333, "lat": 50.933331}}, {"id": 2894625, "name": "J\u00fcchsen", "state": "", "country": "DE", "coord": {"lon": 10.48333, "lat": 50.48333}}, {"id": 2894627, "name": "Juchh\u00f6h", "state": "", "country": "DE", "coord": {"lon": 12.21667, "lat": 50.450001}}, {"id": 2894637, "name": "J\u00fcchen", "state": "", "country": "DE", "coord": {"lon": 6.5, "lat": 51.099998}}, {"id": 2894644, "name": "J\u00fcbek", "state": "", "country": "DE", "coord": {"lon": 9.4, "lat": 54.549999}}, {"id": 2894646, "name": "J\u00fcbar", "state": "", "country": "DE", "coord": {"lon": 10.91667, "lat": 52.700001}}, {"id": 2894667, "name": "Jossa", "state": "", "country": "DE", "coord": {"lon": 9.6, "lat": 50.23333}}, {"id": 2894697, "name": "J\u00f6rsensm\u00fchle", "state": "", "country": "DE", "coord": {"lon": 7.33333, "lat": 51.066669}}, {"id": 2894699, "name": "J\u00f6rl", "state": "", "country": "DE", "coord": {"lon": 9.3, "lat": 54.599998}}, {"id": 2894702, "name": "Jork", "state": "", "country": "DE", "coord": {"lon": 9.68333, "lat": 53.533329}}, {"id": 2894707, "name": "J\u00f6rdenstorf", "state": "", "country": "DE", "coord": {"lon": 12.61667, "lat": 53.883331}}, {"id": 2894724, "name": "Jonaswalde", "state": "", "country": "DE", "coord": {"lon": 12.3, "lat": 50.833328}}, {"id": 2894734, "name": "Joldelund", "state": "", "country": "DE", "coord": {"lon": 9.13333, "lat": 54.650002}}, {"id": 2894737, "name": "J\u00f6hstadt", "state": "", "country": "DE", "coord": {"lon": 13.1, "lat": 50.51667}}, {"id": 2894754, "name": "Johannis-Vorstadt", "state": "", "country": "DE", "coord": {"lon": 11.46667, "lat": 51.75}}, {"id": 2894760, "name": "Johannisthal", "state": "", "country": "DE", "coord": {"lon": 11.16667, "lat": 49.549999}}, {"id": 2894771, "name": "Johanniskirchen", "state": "", "country": "DE", "coord": {"lon": 12.95, "lat": 48.533329}}, {"id": 2894791, "name": "Johannisberg", "state": "", "country": "DE", "coord": {"lon": 7.98333, "lat": 50}}, {"id": 2894792, "name": "Johannisberg", "state": "", "country": "DE", "coord": {"lon": 11.36667, "lat": 47.75}}, {"id": 2894814, "name": "Johanngeorgenstadt", "state": "", "country": "DE", "coord": {"lon": 12.73333, "lat": 50.433331}}, {"id": 2894833, "name": "Johannesberg", "state": "", "country": "DE", "coord": {"lon": 9.13333, "lat": 50.033329}}, {"id": 2894847, "name": "Johannashall", "state": "", "country": "DE", "coord": {"lon": 11.78333, "lat": 51.583328}}, {"id": 2894851, "name": "Joditz", "state": "", "country": "DE", "coord": {"lon": 11.83777, "lat": 50.371471}}, {"id": 2894855, "name": "Jockgrim", "state": "", "country": "DE", "coord": {"lon": 8.26778, "lat": 49.098888}}, {"id": 2894869, "name": "Jochenstein", "state": "", "country": "DE", "coord": {"lon": 13.71667, "lat": 48.51667}}, {"id": 2894884, "name": "Joachimsthal", "state": "", "country": "DE", "coord": {"lon": 13.74493, "lat": 52.97945}}, {"id": 2894897, "name": "Jever", "state": "", "country": "DE", "coord": {"lon": 7.9, "lat": 53.583328}}, {"id": 2894899, "name": "Jevenstedt", "state": "", "country": "DE", "coord": {"lon": 9.66667, "lat": 54.23333}}, {"id": 2894907, "name": "Jetzendorf", "state": "", "country": "DE", "coord": {"lon": 11.41667, "lat": 48.433331}}, {"id": 2894924, "name": "Jettenbach", "state": "", "country": "DE", "coord": {"lon": 7.55, "lat": 49.533329}}, {"id": 2894926, "name": "Jettenbach", "state": "", "country": "DE", "coord": {"lon": 12.38333, "lat": 48.166672}}, {"id": 2894931, "name": "Jetsch", "state": "", "country": "DE", "coord": {"lon": 13.65, "lat": 51.916672}}, {"id": 2894943, "name": "Jesuborn", "state": "", "country": "DE", "coord": {"lon": 11.01667, "lat": 50.666672}}, {"id": 2894944, "name": "Jestetten", "state": "", "country": "DE", "coord": {"lon": 8.56667, "lat": 47.650002}}, {"id": 2894945, "name": "Jesteburg", "state": "", "country": "DE", "coord": {"lon": 9.96667, "lat": 53.299999}}, {"id": 2894948, "name": "Je\u00dfnitz", "state": "", "country": "DE", "coord": {"lon": 12.3, "lat": 51.683331}}, {"id": 2894958, "name": "Jessenitz", "state": "", "country": "DE", "coord": {"lon": 11.08744, "lat": 53.26963}}, {"id": 2894962, "name": "Jessen", "state": "", "country": "DE", "coord": {"lon": 12.95, "lat": 51.783329}}, {"id": 2894970, "name": "Jesewitz", "state": "", "country": "DE", "coord": {"lon": 12.56312, "lat": 51.42276}}, {"id": 2894977, "name": "Jesenwang", "state": "", "country": "DE", "coord": {"lon": 11.13333, "lat": 48.166672}}, {"id": 2894979, "name": "Jesendorf", "state": "", "country": "DE", "coord": {"lon": 11.6, "lat": 53.799999}}, {"id": 2894981, "name": "Jesch\u00fctz", "state": "", "country": "DE", "coord": {"lon": 14.46667, "lat": 51.23333}}, {"id": 2894982, "name": "Jesberg", "state": "", "country": "DE", "coord": {"lon": 9.15, "lat": 51}}, {"id": 2894988, "name": "Jerxheim", "state": "", "country": "DE", "coord": {"lon": 10.89844, "lat": 52.081718}}, {"id": 2894996, "name": "Jersleben", "state": "", "country": "DE", "coord": {"lon": 11.58333, "lat": 52.25}}, {"id": 2894998, "name": "Jersbek", "state": "", "country": "DE", "coord": {"lon": 10.21667, "lat": 53.73333}}, {"id": 2895000, "name": "Jerrishoe", "state": "", "country": "DE", "coord": {"lon": 9.36667, "lat": 54.650002}}, {"id": 2895008, "name": "Jerichow", "state": "", "country": "DE", "coord": {"lon": 12.03333, "lat": 52.5}}, {"id": 2895015, "name": "Jerchel", "state": "", "country": "DE", "coord": {"lon": 11.3209, "lat": 52.468349}}, {"id": 2895029, "name": "Jenkwitz", "state": "", "country": "DE", "coord": {"lon": 14.48333, "lat": 51.166672}}, {"id": 2895034, "name": "Jengen", "state": "", "country": "DE", "coord": {"lon": 10.72575, "lat": 47.99934}}, {"id": 2895035, "name": "Jenfeld", "state": "", "country": "DE", "coord": {"lon": 10.13611, "lat": 53.57222}}, {"id": 2895040, "name": "Jenal\u00f6bnitz", "state": "", "country": "DE", "coord": {"lon": 11.7, "lat": 50.950001}}, {"id": 2895044, "name": "Jena", "state": "", "country": "DE", "coord": {"lon": 11.58333, "lat": 50.933331}}, {"id": 2895046, "name": "Jemmeritz", "state": "", "country": "DE", "coord": {"lon": 11.25, "lat": 52.633331}}, {"id": 2895051, "name": "Jemgum", "state": "", "country": "DE", "coord": {"lon": 7.38333, "lat": 53.26667}}, {"id": 2895053, "name": "Jembke", "state": "", "country": "DE", "coord": {"lon": 10.76667, "lat": 52.5}}, {"id": 2895055, "name": "Jelpke", "state": "", "country": "DE", "coord": {"lon": 10.65, "lat": 52.383331}}, {"id": 2895056, "name": "Jelmstorf", "state": "", "country": "DE", "coord": {"lon": 10.52237, "lat": 53.101318}}, {"id": 2895062, "name": "Jeinsen", "state": "", "country": "DE", "coord": {"lon": 9.79277, "lat": 52.216969}}, {"id": 2895072, "name": "Jeggeleben", "state": "", "country": "DE", "coord": {"lon": 11.3, "lat": 52.76667}}, {"id": 2895074, "name": "Jeggau", "state": "", "country": "DE", "coord": {"lon": 11.2, "lat": 52.533329}}, {"id": 2895090, "name": "Jedesheim", "state": "", "country": "DE", "coord": {"lon": 10.11051, "lat": 48.200989}}, {"id": 2895104, "name": "Jeddeloh Eins", "state": "", "country": "DE", "coord": {"lon": 8.03333, "lat": 53.116669}}, {"id": 2895106, "name": "Jeckenbach", "state": "", "country": "DE", "coord": {"lon": 7.6, "lat": 49.716671}}, {"id": 2895112, "name": "Jeber-Bergfrieden", "state": "", "country": "DE", "coord": {"lon": 12.35, "lat": 51.98333}}, {"id": 2895117, "name": "J\u00e4venitz", "state": "", "country": "DE", "coord": {"lon": 11.5, "lat": 52.533329}}, {"id": 2895131, "name": "Jatznick", "state": "", "country": "DE", "coord": {"lon": 13.93333, "lat": 53.599998}}, {"id": 2895139, "name": "Jasnitz", "state": "", "country": "DE", "coord": {"lon": 11.36667, "lat": 53.400002}}, {"id": 2895148, "name": "Jarzt", "state": "", "country": "DE", "coord": {"lon": 11.56311, "lat": 48.362068}}, {"id": 2895155, "name": "Jarplund", "state": "", "country": "DE", "coord": {"lon": 9.41667, "lat": 54.73333}}, {"id": 2895158, "name": "Jarnsen", "state": "", "country": "DE", "coord": {"lon": 10.3, "lat": 52.650002}}, {"id": 2895161, "name": "Jarmshagen", "state": "", "country": "DE", "coord": {"lon": 13.25578, "lat": 54.11356}}, {"id": 2895162, "name": "Jarmen", "state": "", "country": "DE", "coord": {"lon": 13.34032, "lat": 53.923851}}, {"id": 2895174, "name": "Jardelund", "state": "", "country": "DE", "coord": {"lon": 9.2, "lat": 54.833328}}, {"id": 2895177, "name": "Jarchau", "state": "", "country": "DE", "coord": {"lon": 11.89579, "lat": 52.65535}}, {"id": 2895187, "name": "J\u00e4nschwalde Ost", "state": "", "country": "DE", "coord": {"lon": 14.54287, "lat": 51.87466}}, {"id": 2895189, "name": "J\u00e4nschwalde", "state": "", "country": "DE", "coord": {"lon": 14.49813, "lat": 51.860661}}, {"id": 2895192, "name": "Jannowitz", "state": "", "country": "DE", "coord": {"lon": 13.85127, "lat": 51.399471}}, {"id": 2895193, "name": "Jannowitz", "state": "", "country": "DE", "coord": {"lon": 14.31667, "lat": 51.183331}}, {"id": 2895200, "name": "Janneby", "state": "", "country": "DE", "coord": {"lon": 9.3, "lat": 54.633331}}, {"id": 2895212, "name": "J\u00e4nickendorf", "state": "", "country": "DE", "coord": {"lon": 13.25, "lat": 52.049999}}, {"id": 2895213, "name": "Jandelsbrunn", "state": "", "country": "DE", "coord": {"lon": 13.7, "lat": 48.73333}}, {"id": 2895221, "name": "Jamlitz", "state": "", "country": "DE", "coord": {"lon": 14.36667, "lat": 52}}, {"id": 2895222, "name": "J\u00e4mlitz", "state": "", "country": "DE", "coord": {"lon": 14.66667, "lat": 51.566669}}, {"id": 2895223, "name": "Jamitzow", "state": "", "country": "DE", "coord": {"lon": 13.86667, "lat": 53.916672}}, {"id": 2895226, "name": "Jameln", "state": "", "country": "DE", "coord": {"lon": 11.08333, "lat": 53.049999}}, {"id": 2895233, "name": "Jakobw\u00fcllesheim", "state": "", "country": "DE", "coord": {"lon": 6.56667, "lat": 50.76667}}, {"id": 2895234, "name": "Jakobsweiler", "state": "", "country": "DE", "coord": {"lon": 7.95, "lat": 49.616669}}, {"id": 2895235, "name": "Jakobsthal", "state": "", "country": "DE", "coord": {"lon": 9.31667, "lat": 50.049999}}, {"id": 2895246, "name": "Jakobsdorf", "state": "", "country": "DE", "coord": {"lon": 12.93333, "lat": 54.23333}}, {"id": 2895248, "name": "Jacobsdorf", "state": "", "country": "DE", "coord": {"lon": 14.35, "lat": 52.333328}}, {"id": 2895269, "name": "Jahrstedt", "state": "", "country": "DE", "coord": {"lon": 10.97672, "lat": 52.56007}}, {"id": 2895271, "name": "Jahrsdorf", "state": "", "country": "DE", "coord": {"lon": 9.63333, "lat": 54.066669}}, {"id": 2895283, "name": "Jahnsfelde", "state": "", "country": "DE", "coord": {"lon": 14.23333, "lat": 52.51667}}, {"id": 2895284, "name": "Jahnsdorf", "state": "", "country": "DE", "coord": {"lon": 12.85, "lat": 50.75}}, {"id": 2895285, "name": "Jahnsdorf", "state": "", "country": "DE", "coord": {"lon": 13.18333, "lat": 50.716671}}, {"id": 2895293, "name": "Jahnberge", "state": "", "country": "DE", "coord": {"lon": 12.71101, "lat": 52.72163}}, {"id": 2895304, "name": "Jagstzell", "state": "", "country": "DE", "coord": {"lon": 10.09751, "lat": 49.030548}}, {"id": 2895309, "name": "Jagsthausen", "state": "", "country": "DE", "coord": {"lon": 9.46833, "lat": 49.310558}}, {"id": 2895310, "name": "Jagsthausen", "state": "", "country": "DE", "coord": {"lon": 10.17199, "lat": 48.89922}}, {"id": 2895311, "name": "Jagstfeld", "state": "", "country": "DE", "coord": {"lon": 9.19472, "lat": 49.236111}}, {"id": 2895344, "name": "J\u00e4gershof", "state": "", "country": "DE", "coord": {"lon": 13.01667, "lat": 49.299999}}, {"id": 2895347, "name": "J\u00e4gersfreude", "state": "", "country": "DE", "coord": {"lon": 7, "lat": 49.26667}}, {"id": 2895349, "name": "J\u00e4gersdorf", "state": "", "country": "DE", "coord": {"lon": 11.68333, "lat": 48.466671}}, {"id": 2895445, "name": "Jagel", "state": "", "country": "DE", "coord": {"lon": 9.53759, "lat": 54.45652}}, {"id": 2895448, "name": "Jagdshof", "state": "", "country": "DE", "coord": {"lon": 11.23333, "lat": 50.366669}}, {"id": 2895474, "name": "Jaderberg", "state": "", "country": "DE", "coord": {"lon": 8.18717, "lat": 53.338249}}, {"id": 2895502, "name": "Jackerath", "state": "", "country": "DE", "coord": {"lon": 6.45, "lat": 51.033329}}, {"id": 2895515, "name": "Jachenhausen", "state": "", "country": "DE", "coord": {"lon": 11.7, "lat": 48.98333}}, {"id": 2895517, "name": "Jachenau", "state": "", "country": "DE", "coord": {"lon": 11.43381, "lat": 47.60574}}, {"id": 2895524, "name": "Jabel", "state": "", "country": "DE", "coord": {"lon": 12.55, "lat": 53.549999}}, {"id": 2895525, "name": "Jabel", "state": "", "country": "DE", "coord": {"lon": 12.44253, "lat": 53.16983}}, {"id": 2895528, "name": "Jabach", "state": "", "country": "DE", "coord": {"lon": 6.9, "lat": 49.400002}}, {"id": 2895529, "name": "Iznang", "state": "", "country": "DE", "coord": {"lon": 8.96012, "lat": 47.71542}}, {"id": 2895536, "name": "Ivenrode", "state": "", "country": "DE", "coord": {"lon": 11.23129, "lat": 52.272781}}, {"id": 2895545, "name": "Ivenack", "state": "", "country": "DE", "coord": {"lon": 12.96667, "lat": 53.716671}}, {"id": 2895546, "name": "Iven", "state": "", "country": "DE", "coord": {"lon": 13.43333, "lat": 53.799999}}, {"id": 2895549, "name": "Itzw\u00f6rden", "state": "", "country": "DE", "coord": {"lon": 9.08333, "lat": 53.799999}}, {"id": 2895552, "name": "Itzstedt", "state": "", "country": "DE", "coord": {"lon": 10.16667, "lat": 53.816669}}, {"id": 2895553, "name": "Itzlishofen", "state": "", "country": "DE", "coord": {"lon": 10.66667, "lat": 48.26667}}, {"id": 2895569, "name": "Itzehoe", "state": "", "country": "DE", "coord": {"lon": 9.51529, "lat": 53.92099}}, {"id": 2895574, "name": "Ittlingen", "state": "", "country": "DE", "coord": {"lon": 8.93083, "lat": 49.19083}}, {"id": 2895582, "name": "Itterbeck", "state": "", "country": "DE", "coord": {"lon": 6.8, "lat": 52.5}}, {"id": 2895587, "name": "Itter", "state": "", "country": "DE", "coord": {"lon": 6.81667, "lat": 51.166672}}, {"id": 2895594, "name": "Ittenbach", "state": "", "country": "DE", "coord": {"lon": 7.26667, "lat": 50.683331}}, {"id": 2895598, "name": "Ittel", "state": "", "country": "DE", "coord": {"lon": 6.6, "lat": 49.866669}}, {"id": 2895610, "name": "Istha", "state": "", "country": "DE", "coord": {"lon": 9.2292, "lat": 51.30476}}, {"id": 2895612, "name": "Isterbies", "state": "", "country": "DE", "coord": {"lon": 12.11667, "lat": 52.083328}}, {"id": 2895617, "name": "Issum", "state": "", "country": "DE", "coord": {"lon": 6.43333, "lat": 51.533329}}, {"id": 2895618, "name": "Issing", "state": "", "country": "DE", "coord": {"lon": 10.95, "lat": 47.950001}}, {"id": 2895619, "name": "Issigau", "state": "", "country": "DE", "coord": {"lon": 11.7207, "lat": 50.375252}}, {"id": 2895622, "name": "Issersheilingen", "state": "", "country": "DE", "coord": {"lon": 10.65, "lat": 51.200001}}, {"id": 2895623, "name": "Isseroda", "state": "", "country": "DE", "coord": {"lon": 11.21667, "lat": 50.966671}}, {"id": 2895624, "name": "Issendorf", "state": "", "country": "DE", "coord": {"lon": 9.51667, "lat": 53.48333}}, {"id": 2895628, "name": "Isselhorst", "state": "", "country": "DE", "coord": {"lon": 8.41667, "lat": 51.950001}}, {"id": 2895630, "name": "Isselburg", "state": "", "country": "DE", "coord": {"lon": 6.46667, "lat": 51.833328}}, {"id": 2895631, "name": "Isselbach", "state": "", "country": "DE", "coord": {"lon": 7.9, "lat": 50.400002}}, {"id": 2895632, "name": "Issel", "state": "", "country": "DE", "coord": {"lon": 6.73659, "lat": 49.818878}}, {"id": 2895636, "name": "Ispringen", "state": "", "country": "DE", "coord": {"lon": 8.66667, "lat": 48.916672}}, {"id": 2895638, "name": "Isny", "state": "", "country": "DE", "coord": {"lon": 10.03333, "lat": 47.700001}}, {"id": 2895643, "name": "Ismaning", "state": "", "country": "DE", "coord": {"lon": 11.68333, "lat": 48.23333}}, {"id": 2895659, "name": "Isert", "state": "", "country": "DE", "coord": {"lon": 7.7, "lat": 50.73333}}, {"id": 2895664, "name": "Isernhagen Farster Bauerschaft", "state": "", "country": "DE", "coord": {"lon": 9.83333, "lat": 52.466671}}, {"id": 2895668, "name": "Iserlohnerheide", "state": "", "country": "DE", "coord": {"lon": 7.68713, "lat": 51.4002}}, {"id": 2895669, "name": "Iserlohn", "state": "", "country": "DE", "coord": {"lon": 7.7, "lat": 51.366669}}, {"id": 2895683, "name": "Isenhagen", "state": "", "country": "DE", "coord": {"lon": 10.61667, "lat": 52.73333}}, {"id": 2895688, "name": "Isenb\u00fcttel", "state": "", "country": "DE", "coord": {"lon": 10.58333, "lat": 52.433331}}, {"id": 2895689, "name": "Isenburg", "state": "", "country": "DE", "coord": {"lon": 7.6, "lat": 50.48333}}, {"id": 2895702, "name": "Isen", "state": "", "country": "DE", "coord": {"lon": 12.05672, "lat": 48.212029}}, {"id": 2895731, "name": "Irxleben", "state": "", "country": "DE", "coord": {"lon": 11.48333, "lat": 52.166672}}, {"id": 2895737, "name": "Irsingen", "state": "", "country": "DE", "coord": {"lon": 10.63333, "lat": 48.033329}}, {"id": 2895744, "name": "Irsee", "state": "", "country": "DE", "coord": {"lon": 10.56667, "lat": 47.900002}}, {"id": 2895746, "name": "Irsching", "state": "", "country": "DE", "coord": {"lon": 11.58333, "lat": 48.76667}}, {"id": 2895749, "name": "Irschenhausen", "state": "", "country": "DE", "coord": {"lon": 11.43333, "lat": 47.966671}}, {"id": 2895751, "name": "Irschenberg", "state": "", "country": "DE", "coord": {"lon": 11.91667, "lat": 47.833328}}, {"id": 2895753, "name": "Irschen", "state": "", "country": "DE", "coord": {"lon": 12.38333, "lat": 47.816669}}, {"id": 2895755, "name": "Irsch", "state": "", "country": "DE", "coord": {"lon": 6.69806, "lat": 49.7262}}, {"id": 2895756, "name": "Irsch", "state": "", "country": "DE", "coord": {"lon": 6.6, "lat": 49.599998}}, {"id": 2895764, "name": "Irrhausen", "state": "", "country": "DE", "coord": {"lon": 6.2, "lat": 50.066669}}, {"id": 2895768, "name": "Irndorf", "state": "", "country": "DE", "coord": {"lon": 8.96667, "lat": 48.066669}}, {"id": 2895771, "name": "Irrel", "state": "", "country": "DE", "coord": {"lon": 6.46667, "lat": 49.849998}}, {"id": 2895785, "name": "Irmtraut", "state": "", "country": "DE", "coord": {"lon": 8.06667, "lat": 50.549999}}, {"id": 2895789, "name": "Irmenseul", "state": "", "country": "DE", "coord": {"lon": 9.95, "lat": 51.98333}}, {"id": 2895791, "name": "Irmenach", "state": "", "country": "DE", "coord": {"lon": 7.18333, "lat": 49.933331}}, {"id": 2895792, "name": "Irmelshausen", "state": "", "country": "DE", "coord": {"lon": 10.46667, "lat": 50.366669}}, {"id": 2895811, "name": "Irlerhof", "state": "", "country": "DE", "coord": {"lon": 7.1, "lat": 51.083328}}, {"id": 2895823, "name": "Irlbach", "state": "", "country": "DE", "coord": {"lon": 12.75, "lat": 48.849998}}, {"id": 2895849, "name": "Irfersgr\u00fcn", "state": "", "country": "DE", "coord": {"lon": 12.43333, "lat": 50.616669}}, {"id": 2895854, "name": "Irchenrieth", "state": "", "country": "DE", "coord": {"lon": 12.23333, "lat": 49.616669}}, {"id": 2895861, "name": "Ipthausen", "state": "", "country": "DE", "coord": {"lon": 10.48333, "lat": 50.299999}}, {"id": 2895863, "name": "Ipsheim", "state": "", "country": "DE", "coord": {"lon": 10.48333, "lat": 49.533329}}, {"id": 2895870, "name": "Ippesheim", "state": "", "country": "DE", "coord": {"lon": 10.22552, "lat": 49.602139}}, {"id": 2895875, "name": "Ippenschied", "state": "", "country": "DE", "coord": {"lon": 7.63333, "lat": 49.866669}}, {"id": 2895882, "name": "Iphofen", "state": "", "country": "DE", "coord": {"lon": 10.26037, "lat": 49.702389}}, {"id": 2895886, "name": "Inzlingen", "state": "", "country": "DE", "coord": {"lon": 7.7, "lat": 47.583328}}, {"id": 2895889, "name": "Inzing", "state": "", "country": "DE", "coord": {"lon": 13.40281, "lat": 48.40522}}, {"id": 2895891, "name": "Inzigkofen", "state": "", "country": "DE", "coord": {"lon": 9.17998, "lat": 48.070339}}, {"id": 2895894, "name": "Inzenham", "state": "", "country": "DE", "coord": {"lon": 12.22838, "lat": 47.880692}}, {"id": 2895898, "name": "Inzell", "state": "", "country": "DE", "coord": {"lon": 12.75, "lat": 47.76667}}, {"id": 2895903, "name": "Intschede", "state": "", "country": "DE", "coord": {"lon": 9.13333, "lat": 52.966671}}, {"id": 2895908, "name": "Insul", "state": "", "country": "DE", "coord": {"lon": 6.91667, "lat": 50.433331}}, {"id": 2895910, "name": "Insingen", "state": "", "country": "DE", "coord": {"lon": 10.16667, "lat": 49.299999}}, {"id": 2895913, "name": "Insheim", "state": "", "country": "DE", "coord": {"lon": 8.14722, "lat": 49.158058}}, {"id": 2895926, "name": "Insel", "state": "", "country": "DE", "coord": {"lon": 11.75, "lat": 52.566669}}, {"id": 2895936, "name": "Inningen", "state": "", "country": "DE", "coord": {"lon": 10.86084, "lat": 48.312481}}, {"id": 2895937, "name": "Inning am Holz", "state": "", "country": "DE", "coord": {"lon": 12.08333, "lat": 48.349998}}, {"id": 2895938, "name": "Inning am Ammersee", "state": "", "country": "DE", "coord": {"lon": 11.15232, "lat": 48.076359}}, {"id": 2895939, "name": "Innien", "state": "", "country": "DE", "coord": {"lon": 9.8, "lat": 54.083328}}, {"id": 2895946, "name": "Innernzell", "state": "", "country": "DE", "coord": {"lon": 13.27539, "lat": 48.851501}}, {"id": 2895966, "name": "Inneberg", "state": "", "country": "DE", "coord": {"lon": 10.30346, "lat": 48.096539}}, {"id": 2895971, "name": "Inkofen", "state": "", "country": "DE", "coord": {"lon": 11.86667, "lat": 48.466671}}, {"id": 2895986, "name": "Ingstetten", "state": "", "country": "DE", "coord": {"lon": 9.64428, "lat": 48.397869}}, {"id": 2895988, "name": "Ingramsdorf", "state": "", "country": "DE", "coord": {"lon": 12.26667, "lat": 50.900002}}, {"id": 2895992, "name": "Ingolstadt", "state": "", "country": "DE", "coord": {"lon": 11.43333, "lat": 48.76667}}, {"id": 2895993, "name": "Ingoldingen", "state": "", "country": "DE", "coord": {"lon": 9.74195, "lat": 48.02552}}, {"id": 2895995, "name": "Ingersleben", "state": "", "country": "DE", "coord": {"lon": 10.93333, "lat": 50.916672}}, {"id": 2895997, "name": "Ingersheim", "state": "", "country": "DE", "coord": {"lon": 10.07489, "lat": 49.12315}}, {"id": 2896005, "name": "Ingenried", "state": "", "country": "DE", "coord": {"lon": 10.78333, "lat": 47.816669}}, {"id": 2896007, "name": "Ingenheim", "state": "", "country": "DE", "coord": {"lon": 8.08139, "lat": 49.134998}}, {"id": 2896011, "name": "Ingendorf", "state": "", "country": "DE", "coord": {"lon": 6.45, "lat": 49.933331}}, {"id": 2896016, "name": "Ingelheim-Nord", "state": "", "country": "DE", "coord": {"lon": 8.02367, "lat": 49.991081}}, {"id": 2896018, "name": "Ingelheimerhof", "state": "", "country": "DE", "coord": {"lon": 9.01667, "lat": 49.316669}}, {"id": 2896020, "name": "Ingelheim am Rhein", "state": "", "country": "DE", "coord": {"lon": 8.07361, "lat": 49.98056}}, {"id": 2896021, "name": "Ingelfingen", "state": "", "country": "DE", "coord": {"lon": 9.65123, "lat": 49.301029}}, {"id": 2896023, "name": "Ingeleben", "state": "", "country": "DE", "coord": {"lon": 10.87337, "lat": 52.106609}}, {"id": 2896120, "name": "Inden", "state": "", "country": "DE", "coord": {"lon": 6.36667, "lat": 50.866669}}, {"id": 2896127, "name": "Inchenhofen", "state": "", "country": "DE", "coord": {"lon": 11.11667, "lat": 48.51667}}, {"id": 2896145, "name": "Im Vieh", "state": "", "country": "DE", "coord": {"lon": 7.98333, "lat": 53.133331}}, {"id": 2896156, "name": "Imsweiler", "state": "", "country": "DE", "coord": {"lon": 7.8, "lat": 49.599998}}, {"id": 2896157, "name": "Imsum", "state": "", "country": "DE", "coord": {"lon": 8.53758, "lat": 53.611198}}, {"id": 2896189, "name": "Imsbach", "state": "", "country": "DE", "coord": {"lon": 7.88333, "lat": 49.583328}}, {"id": 2896208, "name": "Impflingen", "state": "", "country": "DE", "coord": {"lon": 8.11306, "lat": 49.16222}}, {"id": 2896212, "name": "Impekoven", "state": "", "country": "DE", "coord": {"lon": 7.01667, "lat": 50.716671}}, {"id": 2896237, "name": "Immichenhain", "state": "", "country": "DE", "coord": {"lon": 9.35, "lat": 50.799999}}, {"id": 2896239, "name": "Immesheim", "state": "", "country": "DE", "coord": {"lon": 8.10528, "lat": 49.636391}}, {"id": 2896242, "name": "Immert", "state": "", "country": "DE", "coord": {"lon": 7.01667, "lat": 49.76667}}, {"id": 2896253, "name": "Immerath", "state": "", "country": "DE", "coord": {"lon": 6.95, "lat": 50.133331}}, {"id": 2896259, "name": "Immenstedt", "state": "", "country": "DE", "coord": {"lon": 9.14948, "lat": 54.5383}}, {"id": 2896260, "name": "Immenstedt", "state": "", "country": "DE", "coord": {"lon": 9.3, "lat": 54.183331}}, {"id": 2896261, "name": "Immenstadt im Allg\u00e4u", "state": "", "country": "DE", "coord": {"lon": 10.21394, "lat": 47.559959}}, {"id": 2896263, "name": "Immenstaad am Bodensee", "state": "", "country": "DE", "coord": {"lon": 9.36667, "lat": 47.666672}}, {"id": 2896268, "name": "Immensen", "state": "", "country": "DE", "coord": {"lon": 9.9, "lat": 51.783329}}, {"id": 2896269, "name": "Immenrode", "state": "", "country": "DE", "coord": {"lon": 10.48285, "lat": 51.958439}}, {"id": 2896273, "name": "Immenreuth", "state": "", "country": "DE", "coord": {"lon": 11.86667, "lat": 49.900002}}, {"id": 2896279, "name": "Immenhausen", "state": "", "country": "DE", "coord": {"lon": 9.48017, "lat": 51.427631}}, {"id": 2896285, "name": "Immendorf", "state": "", "country": "DE", "coord": {"lon": 6.95, "lat": 50.849998}}, {"id": 2896288, "name": "Immendingen", "state": "", "country": "DE", "coord": {"lon": 8.73333, "lat": 47.933331}}, {"id": 2896298, "name": "Immeldorf", "state": "", "country": "DE", "coord": {"lon": 10.71667, "lat": 49.26667}}, {"id": 2896299, "name": "Immelborn", "state": "", "country": "DE", "coord": {"lon": 10.28333, "lat": 50.799999}}, {"id": 2896401, "name": "Imelsbach", "state": "", "country": "DE", "coord": {"lon": 7.08333, "lat": 51.099998}}, {"id": 2896465, "name": "Ilzham", "state": "", "country": "DE", "coord": {"lon": 12.38333, "lat": 48}}, {"id": 2896468, "name": "Ilvesheim", "state": "", "country": "DE", "coord": {"lon": 8.5674, "lat": 49.474041}}, {"id": 2896470, "name": "Ilverich", "state": "", "country": "DE", "coord": {"lon": 6.7, "lat": 51.26667}}, {"id": 2896474, "name": "Ilten", "state": "", "country": "DE", "coord": {"lon": 9.93333, "lat": 52.349998}}, {"id": 2896476, "name": "Ilshofen", "state": "", "country": "DE", "coord": {"lon": 9.91889, "lat": 49.169998}}, {"id": 2896477, "name": "Ilsfeld", "state": "", "country": "DE", "coord": {"lon": 9.24598, "lat": 49.055481}}, {"id": 2896483, "name": "Ilsenburg", "state": "", "country": "DE", "coord": {"lon": 10.68333, "lat": 51.866669}}, {"id": 2896495, "name": "Ilse", "state": "", "country": "DE", "coord": {"lon": 9.05, "lat": 52.400002}}, {"id": 2896503, "name": "Ilmspan", "state": "", "country": "DE", "coord": {"lon": 9.79167, "lat": 49.666389}}, {"id": 2896506, "name": "Ilmm\u00fcnster", "state": "", "country": "DE", "coord": {"lon": 11.5, "lat": 48.48333}}, {"id": 2896508, "name": "Ilmendorf", "state": "", "country": "DE", "coord": {"lon": 11.61667, "lat": 48.73333}}, {"id": 2896514, "name": "Ilmenau", "state": "", "country": "DE", "coord": {"lon": 10.9, "lat": 50.683331}}, {"id": 2896523, "name": "Illschwang", "state": "", "country": "DE", "coord": {"lon": 11.68333, "lat": 49.450001}}, {"id": 2896530, "name": "Illmensee", "state": "", "country": "DE", "coord": {"lon": 9.38333, "lat": 47.866669}}, {"id": 2896533, "name": "Illkofen", "state": "", "country": "DE", "coord": {"lon": 12.3, "lat": 49.01667}}, {"id": 2896536, "name": "Illingheim", "state": "", "country": "DE", "coord": {"lon": 7.95, "lat": 51.299999}}, {"id": 2896538, "name": "Illingen", "state": "", "country": "DE", "coord": {"lon": 7.05, "lat": 49.366669}}, {"id": 2896539, "name": "Illingen", "state": "", "country": "DE", "coord": {"lon": 8.91667, "lat": 48.950001}}, {"id": 2896543, "name": "Illesheim", "state": "", "country": "DE", "coord": {"lon": 10.38333, "lat": 49.466671}}, {"id": 2896545, "name": "Illerzell", "state": "", "country": "DE", "coord": {"lon": 10.05524, "lat": 48.296101}}, {"id": 2896546, "name": "Illertissen", "state": "", "country": "DE", "coord": {"lon": 10.10347, "lat": 48.223358}}, {"id": 2896547, "name": "Illerrieden", "state": "", "country": "DE", "coord": {"lon": 10.05155, "lat": 48.270168}}, {"id": 2896548, "name": "Illerich", "state": "", "country": "DE", "coord": {"lon": 7.18333, "lat": 50.200001}}, {"id": 2896555, "name": "Illerbeuren", "state": "", "country": "DE", "coord": {"lon": 10.12652, "lat": 47.901611}}, {"id": 2896565, "name": "Illemad", "state": "", "country": "DE", "coord": {"lon": 10.76667, "lat": 48.633331}}, {"id": 2896592, "name": "Ilfeld", "state": "", "country": "DE", "coord": {"lon": 10.78333, "lat": 51.583328}}, {"id": 2896594, "name": "Ildehausen", "state": "", "country": "DE", "coord": {"lon": 10.13333, "lat": 51.849998}}, {"id": 2896599, "name": "Ilbesheim", "state": "", "country": "DE", "coord": {"lon": 8.07528, "lat": 49.689999}}, {"id": 2896600, "name": "Ilbesheim", "state": "", "country": "DE", "coord": {"lon": 8.055, "lat": 49.182499}}, {"id": 2896601, "name": "Ilbeshausen", "state": "", "country": "DE", "coord": {"lon": 9.31667, "lat": 50.51667}}, {"id": 2896602, "name": "Ilberstedt", "state": "", "country": "DE", "coord": {"lon": 11.66667, "lat": 51.799999}}, {"id": 2896603, "name": "Ilbersdorf", "state": "", "country": "DE", "coord": {"lon": 11.8, "lat": 51.700001}}, {"id": 2896607, "name": "Ilbenstadt", "state": "", "country": "DE", "coord": {"lon": 8.8, "lat": 50.283329}}, {"id": 2896611, "name": "Ikendorf", "state": "", "country": "DE", "coord": {"lon": 12.26667, "lat": 54.066669}}, {"id": 2896613, "name": "Ihrlerstein", "state": "", "country": "DE", "coord": {"lon": 11.86667, "lat": 48.933331}}, {"id": 2896614, "name": "Ihrlerstein", "state": "", "country": "DE", "coord": {"lon": 11.86667, "lat": 48.916672}}, {"id": 2896615, "name": "Ihringshausen", "state": "", "country": "DE", "coord": {"lon": 9.52669, "lat": 51.351631}}, {"id": 2896616, "name": "Ihringen", "state": "", "country": "DE", "coord": {"lon": 7.65, "lat": 48.049999}}, {"id": 2896622, "name": "Ihren", "state": "", "country": "DE", "coord": {"lon": 6.2, "lat": 50.216671}}, {"id": 2896629, "name": "Ihne", "state": "", "country": "DE", "coord": {"lon": 7.78333, "lat": 51.099998}}, {"id": 2896634, "name": "Ihme", "state": "", "country": "DE", "coord": {"lon": 9.6714, "lat": 52.29924}}, {"id": 2896639, "name": "Ihlowerfehn", "state": "", "country": "DE", "coord": {"lon": 7.43333, "lat": 53.400002}}, {"id": 2896643, "name": "Ihlow", "state": "", "country": "DE", "coord": {"lon": 13.33333, "lat": 51.883331}}, {"id": 2896648, "name": "Ihlienworth", "state": "", "country": "DE", "coord": {"lon": 8.91667, "lat": 53.73333}}, {"id": 2896650, "name": "Ihlewitz", "state": "", "country": "DE", "coord": {"lon": 11.68333, "lat": 51.650002}}, {"id": 2896652, "name": "Ihlenfeld", "state": "", "country": "DE", "coord": {"lon": 13.33333, "lat": 53.583328}}, {"id": 2896659, "name": "Ihlbrock", "state": "", "country": "DE", "coord": {"lon": 8.47406, "lat": 52.663158}}, {"id": 2896665, "name": "Jheringsfehn", "state": "", "country": "DE", "coord": {"lon": 7.53333, "lat": 53.316669}}, {"id": 2896677, "name": "Iggingen", "state": "", "country": "DE", "coord": {"lon": 9.87894, "lat": 48.831669}}, {"id": 2896679, "name": "Iggensbach", "state": "", "country": "DE", "coord": {"lon": 13.13333, "lat": 48.73333}}, {"id": 2896686, "name": "Iggelbach", "state": "", "country": "DE", "coord": {"lon": 7.91667, "lat": 49.333328}}, {"id": 2896687, "name": "Igersheim", "state": "", "country": "DE", "coord": {"lon": 9.81694, "lat": 49.494438}}, {"id": 2896689, "name": "Igensdorf", "state": "", "country": "DE", "coord": {"lon": 11.23137, "lat": 49.623219}}, {"id": 2896690, "name": "Igenhausen", "state": "", "country": "DE", "coord": {"lon": 11.05, "lat": 48.466671}}, {"id": 2896721, "name": "Igel", "state": "", "country": "DE", "coord": {"lon": 6.55, "lat": 49.716671}}, {"id": 2896724, "name": "Ifta", "state": "", "country": "DE", "coord": {"lon": 10.18333, "lat": 51.066669}}, {"id": 2896727, "name": "Iffezheim", "state": "", "country": "DE", "coord": {"lon": 8.1431, "lat": 48.821671}}, {"id": 2896731, "name": "Iffeldorf", "state": "", "country": "DE", "coord": {"lon": 11.31667, "lat": 47.76667}}, {"id": 2896736, "name": "Idstein", "state": "", "country": "DE", "coord": {"lon": 8.26667, "lat": 50.23333}}, {"id": 2896739, "name": "Idstedt", "state": "", "country": "DE", "coord": {"lon": 9.51667, "lat": 54.583328}}, {"id": 2896742, "name": "Idesheim", "state": "", "country": "DE", "coord": {"lon": 6.56667, "lat": 49.883331}}, {"id": 2896745, "name": "Idenheim", "state": "", "country": "DE", "coord": {"lon": 6.56667, "lat": 49.900002}}, {"id": 2896747, "name": "Iden", "state": "", "country": "DE", "coord": {"lon": 11.91296, "lat": 52.779819}}, {"id": 2896748, "name": "Idelberg", "state": "", "country": "DE", "coord": {"lon": 7.71667, "lat": 50.716671}}, {"id": 2896753, "name": "Idar-Oberstein", "state": "", "country": "DE", "coord": {"lon": 7.3, "lat": 49.700001}}, {"id": 2896757, "name": "Idar", "state": "", "country": "DE", "coord": {"lon": 7.3, "lat": 49.716671}}, {"id": 2896761, "name": "Icking", "state": "", "country": "DE", "coord": {"lon": 11.43333, "lat": 47.950001}}, {"id": 2896765, "name": "Icker", "state": "", "country": "DE", "coord": {"lon": 8.11667, "lat": 52.349998}}, {"id": 2896768, "name": "Ichtershausen", "state": "", "country": "DE", "coord": {"lon": 10.96667, "lat": 50.883331}}, {"id": 2896772, "name": "Ichstedt", "state": "", "country": "DE", "coord": {"lon": 11.2, "lat": 51.383331}}, {"id": 2896776, "name": "Ichenhausen", "state": "", "country": "DE", "coord": {"lon": 10.30706, "lat": 48.371189}}, {"id": 2896782, "name": "Ibra", "state": "", "country": "DE", "coord": {"lon": 9.48333, "lat": 50.816669}}, {"id": 2896789, "name": "Ibersheim", "state": "", "country": "DE", "coord": {"lon": 8.39972, "lat": 49.721668}}, {"id": 2896805, "name": "Iber", "state": "", "country": "DE", "coord": {"lon": 9.88333, "lat": 51.73333}}, {"id": 2896817, "name": "Ibbenb\u00fcren", "state": "", "country": "DE", "coord": {"lon": 7.73333, "lat": 52.26667}}, {"id": 2896823, "name": "Ibach", "state": "", "country": "DE", "coord": {"lon": 8.06667, "lat": 47.73333}}, {"id": 2896834, "name": "Huy-Neinstedt", "state": "", "country": "DE", "coord": {"lon": 10.91667, "lat": 51.966671}}, {"id": 2896843, "name": "Huxelort", "state": "", "country": "DE", "coord": {"lon": 8.06667, "lat": 52.400002}}, {"id": 2896852, "name": "H\u00fcven", "state": "", "country": "DE", "coord": {"lon": 7.51667, "lat": 52.783329}}, {"id": 2896855, "name": "Hutzfeld", "state": "", "country": "DE", "coord": {"lon": 10.46667, "lat": 54.099998}}, {"id": 2896861, "name": "H\u00fctzel", "state": "", "country": "DE", "coord": {"lon": 10.02686, "lat": 53.096352}}, {"id": 2896869, "name": "H\u00fcttstadl", "state": "", "country": "DE", "coord": {"lon": 11.83777, "lat": 49.9786}}, {"id": 2896877, "name": "H\u00fcttlingen", "state": "", "country": "DE", "coord": {"lon": 10.10064, "lat": 48.892658}}, {"id": 2896882, "name": "H\u00fcttisheim", "state": "", "country": "DE", "coord": {"lon": 9.94246, "lat": 48.279652}}, {"id": 2896898, "name": "Hutthurm", "state": "", "country": "DE", "coord": {"lon": 13.48333, "lat": 48.666672}}, {"id": 2896906, "name": "H\u00fctterscheid", "state": "", "country": "DE", "coord": {"lon": 6.38333, "lat": 50}}, {"id": 2896915, "name": "H\u00fcttenwohld", "state": "", "country": "DE", "coord": {"lon": 10.13333, "lat": 54.116669}}, {"id": 2896918, "name": "H\u00fcttenthal", "state": "", "country": "DE", "coord": {"lon": 8.94056, "lat": 49.62167}}, {"id": 2896933, "name": "H\u00fcttenrode", "state": "", "country": "DE", "coord": {"lon": 10.9, "lat": 51.76667}}, {"id": 2896976, "name": "H\u00fcttenges\u00e4\u00df", "state": "", "country": "DE", "coord": {"lon": 9.05, "lat": 50.216671}}, {"id": 2896977, "name": "H\u00fcttenfeld", "state": "", "country": "DE", "coord": {"lon": 8.58861, "lat": 49.59639}}, {"id": 2897020, "name": "H\u00fctten", "state": "", "country": "DE", "coord": {"lon": 9.71667, "lat": 54.433331}}, {"id": 2897021, "name": "H\u00fctten", "state": "", "country": "DE", "coord": {"lon": 9.6, "lat": 54.133331}}, {"id": 2897028, "name": "H\u00fctten", "state": "", "country": "DE", "coord": {"lon": 6.25, "lat": 50.01667}}, {"id": 2897054, "name": "H\u00fcttblek", "state": "", "country": "DE", "coord": {"lon": 10.06667, "lat": 53.833328}}, {"id": 2897063, "name": "H\u00fctschenhausen", "state": "", "country": "DE", "coord": {"lon": 7.48333, "lat": 49.416672}}, {"id": 2897132, "name": "Husum", "state": "", "country": "DE", "coord": {"lon": 9.05239, "lat": 54.485802}}, {"id": 2897136, "name": "Husum", "state": "", "country": "DE", "coord": {"lon": 9.25, "lat": 52.566669}}, {"id": 2897164, "name": "Hussen", "state": "", "country": "DE", "coord": {"lon": 7.43333, "lat": 50.683331}}, {"id": 2897180, "name": "Husen", "state": "", "country": "DE", "coord": {"lon": 7.5961, "lat": 51.55912}}, {"id": 2897200, "name": "Husby", "state": "", "country": "DE", "coord": {"lon": 9.58333, "lat": 54.76667}}, {"id": 2897201, "name": "H\u00fcsby", "state": "", "country": "DE", "coord": {"lon": 9.48333, "lat": 54.5}}, {"id": 2897211, "name": "H\u00fcrup", "state": "", "country": "DE", "coord": {"lon": 9.53333, "lat": 54.75}}, {"id": 2897216, "name": "H\u00fcrth", "state": "", "country": "DE", "coord": {"lon": 6.86761, "lat": 50.870789}}, {"id": 2897219, "name": "Hurtgenwald", "state": "", "country": "DE", "coord": {"lon": 6.36667, "lat": 50.716671}}, {"id": 2897222, "name": "H\u00fcrtgen", "state": "", "country": "DE", "coord": {"lon": 6.38333, "lat": 50.716671}}, {"id": 2897245, "name": "Hurlach", "state": "", "country": "DE", "coord": {"lon": 10.81667, "lat": 48.116669}}, {"id": 2897262, "name": "Huppert", "state": "", "country": "DE", "coord": {"lon": 8, "lat": 50.200001}}, {"id": 2897263, "name": "Hupperath", "state": "", "country": "DE", "coord": {"lon": 6.83333, "lat": 50}}, {"id": 2897276, "name": "H\u00fcpede", "state": "", "country": "DE", "coord": {"lon": 9.73372, "lat": 52.243938}}, {"id": 2897281, "name": "Hunzel", "state": "", "country": "DE", "coord": {"lon": 7.83333, "lat": 50.25}}, {"id": 2897283, "name": "H\u00fcnxe", "state": "", "country": "DE", "coord": {"lon": 6.78333, "lat": 51.650002}}, {"id": 2897287, "name": "Huntlosen", "state": "", "country": "DE", "coord": {"lon": 8.28333, "lat": 52.98333}}, {"id": 2897294, "name": "Hunteburg", "state": "", "country": "DE", "coord": {"lon": 8.28333, "lat": 52.433331}}, {"id": 2897307, "name": "H\u00fcnshoven", "state": "", "country": "DE", "coord": {"lon": 6.11667, "lat": 50.966671}}, {"id": 2897316, "name": "Hunoldstal", "state": "", "country": "DE", "coord": {"lon": 8.46667, "lat": 50.299999}}, {"id": 2897318, "name": "H\u00fcnningen", "state": "", "country": "DE", "coord": {"lon": 7.93333, "lat": 51.5}}, {"id": 2897385, "name": "Hungerberg", "state": "", "country": "DE", "coord": {"lon": 8.08333, "lat": 48.533329}}, {"id": 2897428, "name": "Hungenroth", "state": "", "country": "DE", "coord": {"lon": 7.6, "lat": 50.133331}}, {"id": 2897431, "name": "Hungen", "state": "", "country": "DE", "coord": {"lon": 8.89326, "lat": 50.473679}}, {"id": 2897436, "name": "H\u00fcnfeld", "state": "", "country": "DE", "coord": {"lon": 9.76727, "lat": 50.679661}}, {"id": 2897442, "name": "H\u00fcnerberg", "state": "", "country": "DE", "coord": {"lon": 8.55, "lat": 48.666672}}, {"id": 2897495, "name": "Hundsm\u00fchlen", "state": "", "country": "DE", "coord": {"lon": 8.18333, "lat": 53.099998}}, {"id": 2897504, "name": "Hundsh\u00fcbel", "state": "", "country": "DE", "coord": {"lon": 12.56667, "lat": 50.549999}}, {"id": 2897514, "name": "Hundsgr\u00fcn", "state": "", "country": "DE", "coord": {"lon": 12.20229, "lat": 50.366821}}, {"id": 2897518, "name": "Hundsdorf", "state": "", "country": "DE", "coord": {"lon": 7.71667, "lat": 50.466671}}, {"id": 2897555, "name": "Hundsbach", "state": "", "country": "DE", "coord": {"lon": 7.55, "lat": 49.716671}}, {"id": 2897556, "name": "Hundsbach", "state": "", "country": "DE", "coord": {"lon": 8.26667, "lat": 48.616669}}, {"id": 2897557, "name": "Hundsangen", "state": "", "country": "DE", "coord": {"lon": 7.98333, "lat": 50.450001}}, {"id": 2897559, "name": "Hundorf", "state": "", "country": "DE", "coord": {"lon": 11.43359, "lat": 53.70311}}, {"id": 2897563, "name": "Hundisburg", "state": "", "country": "DE", "coord": {"lon": 11.39952, "lat": 52.24662}}, {"id": 2897564, "name": "Hunding", "state": "", "country": "DE", "coord": {"lon": 13.17681, "lat": 48.84227}}, {"id": 2897572, "name": "Hundhaupten", "state": "", "country": "DE", "coord": {"lon": 11.98333, "lat": 50.833328}}, {"id": 2897583, "name": "Hundeshagen", "state": "", "country": "DE", "coord": {"lon": 10.28333, "lat": 51.433331}}, {"id": 2897587, "name": "Hundertmorgen", "state": "", "country": "DE", "coord": {"lon": 8.86667, "lat": 49.799999}}, {"id": 2897593, "name": "Hunderdorf", "state": "", "country": "DE", "coord": {"lon": 12.66667, "lat": 48.900002}}, {"id": 2897594, "name": "Hunderdorf", "state": "", "country": "DE", "coord": {"lon": 12.73333, "lat": 48.950001}}, {"id": 2897601, "name": "Hundeluft", "state": "", "country": "DE", "coord": {"lon": 12.35, "lat": 51.966671}}, {"id": 2897635, "name": "Humptrup", "state": "", "country": "DE", "coord": {"lon": 8.86667, "lat": 54.866669}}, {"id": 2897639, "name": "H\u00fcmpfershausen", "state": "", "country": "DE", "coord": {"lon": 10.23333, "lat": 50.666672}}, {"id": 2897643, "name": "Hummetroth", "state": "", "country": "DE", "coord": {"lon": 8.93778, "lat": 49.779171}}, {"id": 2897656, "name": "Hummerbruch", "state": "", "country": "DE", "coord": {"lon": 9.12981, "lat": 52.050751}}, {"id": 2897673, "name": "Hummelshain", "state": "", "country": "DE", "coord": {"lon": 11.63333, "lat": 50.76667}}, {"id": 2897674, "name": "Hummelsb\u00fcttel", "state": "", "country": "DE", "coord": {"lon": 10.04149, "lat": 53.647732}}, {"id": 2897692, "name": "Hummelfeld", "state": "", "country": "DE", "coord": {"lon": 9.71667, "lat": 54.466671}}, {"id": 2897715, "name": "H\u00fcmmel", "state": "", "country": "DE", "coord": {"lon": 6.78333, "lat": 50.466671}}, {"id": 2897756, "name": "Hultrop", "state": "", "country": "DE", "coord": {"lon": 8.05, "lat": 51.650002}}, {"id": 2897770, "name": "H\u00fclsing", "state": "", "country": "DE", "coord": {"lon": 8.51667, "lat": 53.633331}}, {"id": 2897777, "name": "H\u00fclshof", "state": "", "country": "DE", "coord": {"lon": 8.48462, "lat": 50.77837}}, {"id": 2897800, "name": "H\u00fclsede", "state": "", "country": "DE", "coord": {"lon": 9.36147, "lat": 52.249512}}, {"id": 2897801, "name": "H\u00fclseburg", "state": "", "country": "DE", "coord": {"lon": 11.19452, "lat": 53.513031}}, {"id": 2897844, "name": "H\u00fcllhorst", "state": "", "country": "DE", "coord": {"lon": 8.66667, "lat": 52.283329}}, {"id": 2897875, "name": "Huldsessen", "state": "", "country": "DE", "coord": {"lon": 12.7, "lat": 48.400002}}, {"id": 2897879, "name": "H\u00fclben", "state": "", "country": "DE", "coord": {"lon": 9.4079, "lat": 48.519821}}, {"id": 2897881, "name": "Huje", "state": "", "country": "DE", "coord": {"lon": 9.43441, "lat": 53.97723}}, {"id": 2897883, "name": "Huisheim", "state": "", "country": "DE", "coord": {"lon": 10.7, "lat": 48.833328}}, {"id": 2897905, "name": "H\u00fchnernest", "state": "", "country": "DE", "coord": {"lon": 6.1, "lat": 50.833328}}, {"id": 2897925, "name": "H\u00fchnerhof", "state": "", "country": "DE", "coord": {"lon": 7.65, "lat": 49.75}}, {"id": 2897983, "name": "Hugsweier", "state": "", "country": "DE", "coord": {"lon": 7.83333, "lat": 48.366669}}, {"id": 2897986, "name": "Hugoldsdorf", "state": "", "country": "DE", "coord": {"lon": 12.75367, "lat": 54.149521}}, {"id": 2897991, "name": "Huglfing", "state": "", "country": "DE", "coord": {"lon": 11.16667, "lat": 47.76667}}, {"id": 2898004, "name": "H\u00fcgelsheim", "state": "", "country": "DE", "coord": {"lon": 8.11667, "lat": 48.799999}}, {"id": 2898028, "name": "H\u00fcfingen", "state": "", "country": "DE", "coord": {"lon": 8.48831, "lat": 47.92543}}, {"id": 2898031, "name": "H\u00fcffler", "state": "", "country": "DE", "coord": {"lon": 7.38333, "lat": 49.5}}, {"id": 2898033, "name": "H\u00fcffenhardt", "state": "", "country": "DE", "coord": {"lon": 9.08167, "lat": 49.291939}}, {"id": 2898036, "name": "H\u00fcffelsheim", "state": "", "country": "DE", "coord": {"lon": 7.8, "lat": 49.816669}}, {"id": 2898076, "name": "Hude", "state": "", "country": "DE", "coord": {"lon": 9.21667, "lat": 54.383331}}, {"id": 2898077, "name": "Hude", "state": "", "country": "DE", "coord": {"lon": 10.45, "lat": 53.816669}}, {"id": 2898079, "name": "Hude", "state": "", "country": "DE", "coord": {"lon": 8.46667, "lat": 53.116669}}, {"id": 2898081, "name": "Huede", "state": "", "country": "DE", "coord": {"lon": 8.35, "lat": 52.48333}}, {"id": 2898087, "name": "H\u00fcddessum", "state": "", "country": "DE", "coord": {"lon": 10.03807, "lat": 52.203499}}, {"id": 2898090, "name": "Huckstorf", "state": "", "country": "DE", "coord": {"lon": 12.1, "lat": 53.98333}}, {"id": 2898094, "name": "Huckingen", "state": "", "country": "DE", "coord": {"lon": 6.71667, "lat": 51.366669}}, {"id": 2898098, "name": "H\u00fcckeswagen", "state": "", "country": "DE", "coord": {"lon": 7.35, "lat": 51.150002}}, {"id": 2898108, "name": "Huckelriede", "state": "", "country": "DE", "coord": {"lon": 8.81275, "lat": 53.056068}}, {"id": 2898111, "name": "H\u00fcckelhoven", "state": "", "country": "DE", "coord": {"lon": 6.21667, "lat": 51.049999}}, {"id": 2898124, "name": "Huchem-Stammeln", "state": "", "country": "DE", "coord": {"lon": 6.45224, "lat": 50.852989}}, {"id": 2898127, "name": "H\u00fccheln", "state": "", "country": "DE", "coord": {"lon": 6.31667, "lat": 50.816669}}, {"id": 2898129, "name": "H\u00fcchel", "state": "", "country": "DE", "coord": {"lon": 7.34839, "lat": 50.731892}}, {"id": 2898135, "name": "H\u00fcbschental", "state": "", "country": "DE", "coord": {"lon": 8.15, "lat": 48.049999}}, {"id": 2898149, "name": "H\u00fcblingen", "state": "", "country": "DE", "coord": {"lon": 8.08333, "lat": 50.566669}}, {"id": 2898151, "name": "H\u00fcbingen", "state": "", "country": "DE", "coord": {"lon": 7.83333, "lat": 50.366669}}, {"id": 2898155, "name": "Hubing", "state": "", "country": "DE", "coord": {"lon": 12.86714, "lat": 48.870869}}, {"id": 2898200, "name": "H\u00fcbenthal", "state": "", "country": "DE", "coord": {"lon": 9.81667, "lat": 51.383331}}, {"id": 2898232, "name": "Hub", "state": "", "country": "DE", "coord": {"lon": 11.88333, "lat": 49.799999}}, {"id": 2898238, "name": "Hub", "state": "", "country": "DE", "coord": {"lon": 12.45, "lat": 48.400002}}, {"id": 2898248, "name": "Hub", "state": "", "country": "DE", "coord": {"lon": 11.89579, "lat": 47.920109}}, {"id": 2898299, "name": "Hoym", "state": "", "country": "DE", "coord": {"lon": 11.31244, "lat": 51.782921}}, {"id": 2898304, "name": "Hoyerswerda", "state": "", "country": "DE", "coord": {"lon": 14.25, "lat": 51.433331}}, {"id": 2898308, "name": "Hoyershausen", "state": "", "country": "DE", "coord": {"lon": 9.75346, "lat": 52.01886}}, {"id": 2898309, "name": "Hoyersdorf", "state": "", "country": "DE", "coord": {"lon": 12.18333, "lat": 51.73333}}, {"id": 2898312, "name": "Hoyerhagen", "state": "", "country": "DE", "coord": {"lon": 9.08333, "lat": 52.833328}}, {"id": 2898316, "name": "Hoya", "state": "", "country": "DE", "coord": {"lon": 9.15, "lat": 52.799999}}, {"id": 2898321, "name": "H\u00f6xter", "state": "", "country": "DE", "coord": {"lon": 9.38155, "lat": 51.775009}}, {"id": 2898325, "name": "Hoxel", "state": "", "country": "DE", "coord": {"lon": 7.1, "lat": 49.76667}}, {"id": 2898341, "name": "Hovestadt", "state": "", "country": "DE", "coord": {"lon": 8.15, "lat": 51.666672}}, {"id": 2898350, "name": "H\u00f6ver", "state": "", "country": "DE", "coord": {"lon": 9.88333, "lat": 52.349998}}, {"id": 2898360, "name": "Hoven", "state": "", "country": "DE", "coord": {"lon": 6.65, "lat": 50.683331}}, {"id": 2898364, "name": "H\u00f6velhof", "state": "", "country": "DE", "coord": {"lon": 8.65, "lat": 51.816669}}, {"id": 2898372, "name": "H\u00f6vede", "state": "", "country": "DE", "coord": {"lon": 9.3, "lat": 54.25}}, {"id": 2898373, "name": "Hove", "state": "", "country": "DE", "coord": {"lon": 9.73065, "lat": 53.518871}}, {"id": 2898383, "name": "Houverath", "state": "", "country": "DE", "coord": {"lon": 6.9, "lat": 50.549999}}, {"id": 2898415, "name": "H\u00f6ttingen", "state": "", "country": "DE", "coord": {"lon": 11.0053, "lat": 49.062618}}, {"id": 2898424, "name": "Hottendorf", "state": "", "country": "DE", "coord": {"lon": 11.55, "lat": 52.533329}}, {"id": 2898431, "name": "Hottenbach", "state": "", "country": "DE", "coord": {"lon": 7.3, "lat": 49.833328}}, {"id": 2898435, "name": "H\u00f6tensleben", "state": "", "country": "DE", "coord": {"lon": 11.02238, "lat": 52.11974}}, {"id": 2898440, "name": "Hostrup", "state": "", "country": "DE", "coord": {"lon": 9.51667, "lat": 54.666672}}, {"id": 2898447, "name": "Hosten", "state": "", "country": "DE", "coord": {"lon": 7.81667, "lat": 50.48333}}, {"id": 2898448, "name": "Hosten", "state": "", "country": "DE", "coord": {"lon": 6.61667, "lat": 49.900002}}, {"id": 2898458, "name": "Ho\u00dfkirch", "state": "", "country": "DE", "coord": {"lon": 9.45, "lat": 47.950001}}, {"id": 2898461, "name": "H\u00f6sseringen", "state": "", "country": "DE", "coord": {"lon": 10.41658, "lat": 52.859081}}, {"id": 2898471, "name": "H\u00f6slwang", "state": "", "country": "DE", "coord": {"lon": 12.32915, "lat": 47.953781}}, {"id": 2898483, "name": "Hosenfeld", "state": "", "country": "DE", "coord": {"lon": 9.47966, "lat": 50.50502}}, {"id": 2898485, "name": "Hosena", "state": "", "country": "DE", "coord": {"lon": 14.01667, "lat": 51.450001}}, {"id": 2898494, "name": "H\u00f6sbach", "state": "", "country": "DE", "coord": {"lon": 9.2, "lat": 50}}, {"id": 2898496, "name": "H\u00f6sacker", "state": "", "country": "DE", "coord": {"lon": 12.36667, "lat": 48.683331}}, {"id": 2898512, "name": "H\u00f6rup", "state": "", "country": "DE", "coord": {"lon": 9.1, "lat": 54.73333}}, {"id": 2898518, "name": "Horterhof", "state": "", "country": "DE", "coord": {"lon": 7.76667, "lat": 49.533329}}, {"id": 2898534, "name": "Horstreihe", "state": "", "country": "DE", "coord": {"lon": 9.61667, "lat": 53.816669}}, {"id": 2898541, "name": "Horstmar", "state": "", "country": "DE", "coord": {"lon": 7.30539, "lat": 52.080978}}, {"id": 2898591, "name": "H\u00f6rsten", "state": "", "country": "DE", "coord": {"lon": 9.58333, "lat": 54.23333}}, {"id": 2898603, "name": "H\u00f6rstel", "state": "", "country": "DE", "coord": {"lon": 7.58333, "lat": 52.316669}}, {"id": 2898607, "name": "Horstedt", "state": "", "country": "DE", "coord": {"lon": 9.06667, "lat": 54.533329}}, {"id": 2898608, "name": "Horstedt", "state": "", "country": "DE", "coord": {"lon": 9.23333, "lat": 53.183331}}, {"id": 2898615, "name": "Horstdorf", "state": "", "country": "DE", "coord": {"lon": 12.43333, "lat": 51.816669}}, {"id": 2898640, "name": "Horst", "state": "", "country": "DE", "coord": {"lon": 9.61667, "lat": 53.816669}}, {"id": 2898641, "name": "Horst", "state": "", "country": "DE", "coord": {"lon": 9.28333, "lat": 53.633331}}, {"id": 2898694, "name": "H\u00f6rspe", "state": "", "country": "DE", "coord": {"lon": 8.58333, "lat": 53.133331}}, {"id": 2898696, "name": "H\u00f6rsingen", "state": "", "country": "DE", "coord": {"lon": 11.15456, "lat": 52.2794}}, {"id": 2898697, "name": "H\u00f6rselgau", "state": "", "country": "DE", "coord": {"lon": 10.58333, "lat": 50.916672}}, {"id": 2898704, "name": "Horschlitt", "state": "", "country": "DE", "coord": {"lon": 10.09558, "lat": 50.922298}}, {"id": 2898705, "name": "H\u00f6rschhof", "state": "", "country": "DE", "coord": {"lon": 9.553, "lat": 48.953281}}, {"id": 2898706, "name": "H\u00f6rschhausen", "state": "", "country": "DE", "coord": {"lon": 6.93333, "lat": 50.25}}, {"id": 2898711, "name": "H\u00f6rschel", "state": "", "country": "DE", "coord": {"lon": 10.21667, "lat": 51.01667}}, {"id": 2898712, "name": "H\u00f6rscheid", "state": "", "country": "DE", "coord": {"lon": 6.86667, "lat": 50.216671}}, {"id": 2898715, "name": "Horschbach", "state": "", "country": "DE", "coord": {"lon": 7.53333, "lat": 49.583328}}, {"id": 2898723, "name": "Horrweiler", "state": "", "country": "DE", "coord": {"lon": 7.96667, "lat": 49.900002}}, {"id": 2898731, "name": "Horressen", "state": "", "country": "DE", "coord": {"lon": 7.8, "lat": 50.433331}}, {"id": 2898732, "name": "Horrenberg", "state": "", "country": "DE", "coord": {"lon": 8.78087, "lat": 49.280399}}, {"id": 2898735, "name": "Horrem", "state": "", "country": "DE", "coord": {"lon": 6.70664, "lat": 50.913422}}, {"id": 2898744, "name": "Horperath", "state": "", "country": "DE", "coord": {"lon": 6.95, "lat": 50.25}}, {"id": 2898745, "name": "H\u00f6rpel", "state": "", "country": "DE", "coord": {"lon": 10.03176, "lat": 53.14259}}, {"id": 2898763, "name": "Hornstorf", "state": "", "country": "DE", "coord": {"lon": 11.53333, "lat": 53.916672}}, {"id": 2898764, "name": "Hornstorf", "state": "", "country": "DE", "coord": {"lon": 10.73333, "lat": 53.783329}}, {"id": 2898767, "name": "Hornstein", "state": "", "country": "DE", "coord": {"lon": 11.47539, "lat": 47.950958}}, {"id": 2898771, "name": "Horns\u00f6mmern", "state": "", "country": "DE", "coord": {"lon": 10.81667, "lat": 51.216671}}, {"id": 2898829, "name": "Hornhausen", "state": "", "country": "DE", "coord": {"lon": 11.17104, "lat": 52.045101}}, {"id": 2898836, "name": "H\u00f6rnerkirchen", "state": "", "country": "DE", "coord": {"lon": 9.7, "lat": 53.849998}}, {"id": 2898847, "name": "Horneburg", "state": "", "country": "DE", "coord": {"lon": 9.57546, "lat": 53.506721}}, {"id": 2898851, "name": "H\u00f6rne", "state": "", "country": "DE", "coord": {"lon": 8.11667, "lat": 53.25}}, {"id": 2898857, "name": "Horndorf", "state": "", "country": "DE", "coord": {"lon": 10.79491, "lat": 53.197021}}, {"id": 2898863, "name": "Hornburg", "state": "", "country": "DE", "coord": {"lon": 10.6049, "lat": 52.030949}}, {"id": 2898876, "name": "Hornberg", "state": "", "country": "DE", "coord": {"lon": 8.23333, "lat": 48.216671}}, {"id": 2898892, "name": "Hornbek", "state": "", "country": "DE", "coord": {"lon": 10.63333, "lat": 53.566669}}, {"id": 2898894, "name": "Horn-Bad Meinberg", "state": "", "country": "DE", "coord": {"lon": 8.96244, "lat": 51.885502}}, {"id": 2898902, "name": "Hornbach", "state": "", "country": "DE", "coord": {"lon": 7.36667, "lat": 49.200001}}, {"id": 2898917, "name": "Horn", "state": "", "country": "DE", "coord": {"lon": 10.08989, "lat": 53.554062}}, {"id": 2898921, "name": "H\u00f6rn", "state": "", "country": "DE", "coord": {"lon": 9.06667, "lat": 54.383331}}, {"id": 2898924, "name": "Horn", "state": "", "country": "DE", "coord": {"lon": 8.9451, "lat": 51.87151}}, {"id": 2898927, "name": "Horn", "state": "", "country": "DE", "coord": {"lon": 7.53333, "lat": 50.049999}}, {"id": 2898960, "name": "Hormersdorf", "state": "", "country": "DE", "coord": {"lon": 12.88333, "lat": 50.666672}}, {"id": 2898975, "name": "H\u00f6rmannsberg", "state": "", "country": "DE", "coord": {"lon": 11.01667, "lat": 48.283329}}, {"id": 2898980, "name": "Horm", "state": "", "country": "DE", "coord": {"lon": 6.43333, "lat": 50.75}}, {"id": 2898986, "name": "H\u00f6rlitz", "state": "", "country": "DE", "coord": {"lon": 13.95, "lat": 51.51667}}, {"id": 2898987, "name": "H\u00f6rlis", "state": "", "country": "DE", "coord": {"lon": 10.33831, "lat": 48.143749}}, {"id": 2899012, "name": "Horka", "state": "", "country": "DE", "coord": {"lon": 14.9, "lat": 51.299999}}, {"id": 2899013, "name": "Horka", "state": "", "country": "DE", "coord": {"lon": 14.25, "lat": 51.26667}}, {"id": 2899016, "name": "H\u00f6ringen", "state": "", "country": "DE", "coord": {"lon": 7.8, "lat": 49.549999}}, {"id": 2899020, "name": "H\u00f6rich", "state": "", "country": "DE", "coord": {"lon": 10.48333, "lat": 47.616669}}, {"id": 2899024, "name": "Horhausen", "state": "", "country": "DE", "coord": {"lon": 7.53333, "lat": 50.599998}}, {"id": 2899025, "name": "Horhausen", "state": "", "country": "DE", "coord": {"lon": 7.9, "lat": 50.366669}}, {"id": 2899033, "name": "H\u00f6rgertshausen", "state": "", "country": "DE", "coord": {"lon": 11.86667, "lat": 48.549999}}, {"id": 2899040, "name": "Horgenzell", "state": "", "country": "DE", "coord": {"lon": 9.5, "lat": 47.799999}}, {"id": 2899048, "name": "Horgau", "state": "", "country": "DE", "coord": {"lon": 10.68333, "lat": 48.400002}}, {"id": 2899058, "name": "H\u00f6rdt", "state": "", "country": "DE", "coord": {"lon": 8.32639, "lat": 49.165829}}, {"id": 2899060, "name": "Hordorf", "state": "", "country": "DE", "coord": {"lon": 10.65, "lat": 52.283329}}, {"id": 2899066, "name": "H\u00f6rden", "state": "", "country": "DE", "coord": {"lon": 10.28372, "lat": 51.66835}}, {"id": 2899070, "name": "H\u00f6rde", "state": "", "country": "DE", "coord": {"lon": 7.5, "lat": 51.48333}}, {"id": 2899081, "name": "Horbruch", "state": "", "country": "DE", "coord": {"lon": 7.23333, "lat": 49.883331}}, {"id": 2899093, "name": "Horben", "state": "", "country": "DE", "coord": {"lon": 7.86667, "lat": 47.933331}}, {"id": 2899101, "name": "Horb am Neckar", "state": "", "country": "DE", "coord": {"lon": 8.6913, "lat": 48.444229}}, {"id": 2899107, "name": "Horbach", "state": "", "country": "DE", "coord": {"lon": 7.85, "lat": 50.383331}}, {"id": 2899110, "name": "Horbach", "state": "", "country": "DE", "coord": {"lon": 7.51667, "lat": 49.816669}}, {"id": 2899113, "name": "Horbach", "state": "", "country": "DE", "coord": {"lon": 7.65, "lat": 49.333328}}, {"id": 2899123, "name": "Horath", "state": "", "country": "DE", "coord": {"lon": 6.98333, "lat": 49.816669}}, {"id": 2899126, "name": "H\u00f6rafing", "state": "", "country": "DE", "coord": {"lon": 12.88333, "lat": 47.849998}}, {"id": 2899135, "name": "Hopsten", "state": "", "country": "DE", "coord": {"lon": 7.61667, "lat": 52.383331}}, {"id": 2899138, "name": "Hoppst\u00e4dten", "state": "", "country": "DE", "coord": {"lon": 7.53333, "lat": 49.700001}}, {"id": 2899139, "name": "Hoppst\u00e4dten", "state": "", "country": "DE", "coord": {"lon": 7.2, "lat": 49.616669}}, {"id": 2899154, "name": "Hoppenstedt", "state": "", "country": "DE", "coord": {"lon": 10.66667, "lat": 51.98333}}, {"id": 2899158, "name": "Hoppenrade", "state": "", "country": "DE", "coord": {"lon": 12.27267, "lat": 53.727852}}, {"id": 2899172, "name": "Hoppegarten", "state": "", "country": "DE", "coord": {"lon": 13.66667, "lat": 52.51667}}, {"id": 2899173, "name": "Hoppegarten", "state": "", "country": "DE", "coord": {"lon": 14.01667, "lat": 52.48333}}, {"id": 2899175, "name": "Hoppecke", "state": "", "country": "DE", "coord": {"lon": 8.65, "lat": 51.383331}}, {"id": 2899189, "name": "Hopfmannsfeld", "state": "", "country": "DE", "coord": {"lon": 9.3, "lat": 50.583328}}, {"id": 2899191, "name": "H\u00f6pfingen", "state": "", "country": "DE", "coord": {"lon": 9.42861, "lat": 49.602501}}, {"id": 2899194, "name": "Hopfgarten", "state": "", "country": "DE", "coord": {"lon": 11.26667, "lat": 50.98333}}, {"id": 2899197, "name": "Hopfgarten", "state": "", "country": "DE", "coord": {"lon": 12.31667, "lat": 48.083328}}, {"id": 2899199, "name": "Hopferstadt", "state": "", "country": "DE", "coord": {"lon": 10.0609, "lat": 49.60849}}, {"id": 2899200, "name": "Hopferbach", "state": "", "country": "DE", "coord": {"lon": 9.61667, "lat": 48}}, {"id": 2899202, "name": "Hopferau", "state": "", "country": "DE", "coord": {"lon": 10.63333, "lat": 47.616669}}, {"id": 2899253, "name": "Hopfen", "state": "", "country": "DE", "coord": {"lon": 9.96667, "lat": 47.566669}}, {"id": 2899264, "name": "Hopen", "state": "", "country": "DE", "coord": {"lon": 9.13333, "lat": 54}}, {"id": 2899278, "name": "Hoort", "state": "", "country": "DE", "coord": {"lon": 11.36667, "lat": 53.48333}}, {"id": 2899284, "name": "Hoope", "state": "", "country": "DE", "coord": {"lon": 8.7, "lat": 53.316669}}, {"id": 2899289, "name": "Hooksiel", "state": "", "country": "DE", "coord": {"lon": 8.01667, "lat": 53.633331}}, {"id": 2899290, "name": "Hoogstede", "state": "", "country": "DE", "coord": {"lon": 6.95, "lat": 52.583328}}, {"id": 2899291, "name": "Hoogstede", "state": "", "country": "DE", "coord": {"lon": 6.95, "lat": 52.583328}}, {"id": 2899295, "name": "Hoof", "state": "", "country": "DE", "coord": {"lon": 9.34052, "lat": 51.28302}}, {"id": 2899303, "name": "Hontheim", "state": "", "country": "DE", "coord": {"lon": 6.36667, "lat": 50.23333}}, {"id": 2899304, "name": "Hontheim", "state": "", "country": "DE", "coord": {"lon": 6.98333, "lat": 50.066669}}, {"id": 2899308, "name": "Honsolgen", "state": "", "country": "DE", "coord": {"lon": 10.7757, "lat": 48.025639}}, {"id": 2899327, "name": "H\u00f6nningen", "state": "", "country": "DE", "coord": {"lon": 6.95, "lat": 50.466671}}, {"id": 2899344, "name": "H\u00f6nisch", "state": "", "country": "DE", "coord": {"lon": 9.21667, "lat": 52.916672}}, {"id": 2899352, "name": "Honigsee", "state": "", "country": "DE", "coord": {"lon": 10.18333, "lat": 54.23333}}, {"id": 2899358, "name": "Honigfleth", "state": "", "country": "DE", "coord": {"lon": 9.41543, "lat": 53.92701}}, {"id": 2899373, "name": "Hoengen", "state": "", "country": "DE", "coord": {"lon": 6.21667, "lat": 50.866669}}, {"id": 2899374, "name": "H\u00f6ngeda", "state": "", "country": "DE", "coord": {"lon": 10.5, "lat": 51.183331}}, {"id": 2899384, "name": "Honerath", "state": "", "country": "DE", "coord": {"lon": 6.9, "lat": 50.383331}}, {"id": 2899412, "name": "Hommertshausen", "state": "", "country": "DE", "coord": {"lon": 8.5, "lat": 50.833328}}, {"id": 2899413, "name": "Hommersum", "state": "", "country": "DE", "coord": {"lon": 6.03333, "lat": 51.683331}}, {"id": 2899419, "name": "Hommerdingen", "state": "", "country": "DE", "coord": {"lon": 6.31667, "lat": 49.916672}}, {"id": 2899423, "name": "Homfeld", "state": "", "country": "DE", "coord": {"lon": 9.75, "lat": 54.083328}}, {"id": 2899448, "name": "Homburg", "state": "", "country": "DE", "coord": {"lon": 7.53333, "lat": 50.916672}}, {"id": 2899449, "name": "Homburg", "state": "", "country": "DE", "coord": {"lon": 7.33333, "lat": 49.316669}}, {"id": 2899475, "name": "Homberg", "state": "", "country": "DE", "coord": {"lon": 6.71667, "lat": 51.466671}}, {"id": 2899477, "name": "Homberg", "state": "", "country": "DE", "coord": {"lon": 6.91667, "lat": 51.299999}}, {"id": 2899478, "name": "Homberg", "state": "", "country": "DE", "coord": {"lon": 9.4, "lat": 51.033329}}, {"id": 2899479, "name": "Homberg", "state": "", "country": "DE", "coord": {"lon": 9, "lat": 50.73333}}, {"id": 2899480, "name": "Homberg", "state": "", "country": "DE", "coord": {"lon": 8.1, "lat": 50.650002}}, {"id": 2899481, "name": "H\u00f6mberg", "state": "", "country": "DE", "coord": {"lon": 7.78333, "lat": 50.333328}}, {"id": 2899482, "name": "Homberg", "state": "", "country": "DE", "coord": {"lon": 7.51667, "lat": 49.650002}}, {"id": 2899526, "name": "Hombeer", "state": "", "country": "DE", "coord": {"lon": 10.6, "lat": 49.700001}}, {"id": 2899538, "name": "Holzwickede", "state": "", "country": "DE", "coord": {"lon": 7.63333, "lat": 51.5}}, {"id": 2899539, "name": "Holzwei\u00dfig", "state": "", "country": "DE", "coord": {"lon": 12.3, "lat": 51.599998}}, {"id": 2899557, "name": "Holzthaleben", "state": "", "country": "DE", "coord": {"lon": 10.58333, "lat": 51.333328}}, {"id": 2899560, "name": "Holzsu\u00dfra", "state": "", "country": "DE", "coord": {"lon": 10.68333, "lat": 51.283329}}, {"id": 2899601, "name": "Holzminden", "state": "", "country": "DE", "coord": {"lon": 9.4455, "lat": 51.82798}}, {"id": 2899620, "name": "Holzmaden", "state": "", "country": "DE", "coord": {"lon": 9.51667, "lat": 48.633331}}, {"id": 2899632, "name": "Holzleuten", "state": "", "country": "DE", "coord": {"lon": 10.55, "lat": 47.666672}}, {"id": 2899633, "name": "Holzleute", "state": "", "country": "DE", "coord": {"lon": 10, "lat": 47.599998}}, {"id": 2899657, "name": "Holzlar", "state": "", "country": "DE", "coord": {"lon": 7.18333, "lat": 50.75}}, {"id": 2899671, "name": "Holzkirchen", "state": "", "country": "DE", "coord": {"lon": 9.68028, "lat": 49.781391}}, {"id": 2899676, "name": "Holzkirchen", "state": "", "country": "DE", "coord": {"lon": 11.70181, "lat": 47.876629}}, {"id": 2899677, "name": "Holzkirch", "state": "", "country": "DE", "coord": {"lon": 9.9952, "lat": 48.531239}}, {"id": 2899689, "name": "Holzingen", "state": "", "country": "DE", "coord": {"lon": 10.92273, "lat": 49.02211}}, {"id": 2899711, "name": "Holzheim am Forst", "state": "", "country": "DE", "coord": {"lon": 12, "lat": 49.150002}}, {"id": 2899716, "name": "Holzheim", "state": "", "country": "DE", "coord": {"lon": 8.05, "lat": 50.349998}}, {"id": 2899722, "name": "Holzheim", "state": "", "country": "DE", "coord": {"lon": 10.95, "lat": 48.616669}}, {"id": 2899723, "name": "Holzheim", "state": "", "country": "DE", "coord": {"lon": 10.53057, "lat": 48.514221}}, {"id": 2899724, "name": "Holzheim", "state": "", "country": "DE", "coord": {"lon": 10.1, "lat": 48.383331}}, {"id": 2899745, "name": "Holzh\u00e4user", "state": "", "country": "DE", "coord": {"lon": 10.01667, "lat": 53.416672}}, {"id": 2899747, "name": "Holzh\u00e4user", "state": "", "country": "DE", "coord": {"lon": 13.2623, "lat": 48.43404}}, {"id": 2899763, "name": "Holzhausen \u00dcber Aar", "state": "", "country": "DE", "coord": {"lon": 8.08333, "lat": 50.200001}}, {"id": 2899767, "name": "Holzhausen an der Haide", "state": "", "country": "DE", "coord": {"lon": 7.91667, "lat": 50.216671}}, {"id": 2899785, "name": "Holzhausen-Externsteine", "state": "", "country": "DE", "coord": {"lon": 8.90425, "lat": 51.877022}}, {"id": 2899811, "name": "Holzhausen", "state": "", "country": "DE", "coord": {"lon": 10.81667, "lat": 48.433331}}, {"id": 2899812, "name": "Holzhausen", "state": "", "country": "DE", "coord": {"lon": 8.6553, "lat": 48.364182}}, {"id": 2899835, "name": "Holzh\u00e4useln", "state": "", "country": "DE", "coord": {"lon": 12.16667, "lat": 48.450001}}, {"id": 2899851, "name": "Holzhammer", "state": "", "country": "DE", "coord": {"lon": 13.33333, "lat": 48.900002}}, {"id": 2899859, "name": "Holzham", "state": "", "country": "DE", "coord": {"lon": 12.16667, "lat": 48.116669}}, {"id": 2899870, "name": "Holzg\u00fcnz", "state": "", "country": "DE", "coord": {"lon": 10.26667, "lat": 48.01667}}, {"id": 2899880, "name": "Holzgerlingen", "state": "", "country": "DE", "coord": {"lon": 9.01149, "lat": 48.63969}}, {"id": 2899889, "name": "Holzerode", "state": "", "country": "DE", "coord": {"lon": 10.06667, "lat": 51.599998}}, {"id": 2899903, "name": "Holzengel", "state": "", "country": "DE", "coord": {"lon": 10.95, "lat": 51.283329}}, {"id": 2899913, "name": "Holzen", "state": "", "country": "DE", "coord": {"lon": 9.66667, "lat": 51.933331}}, {"id": 2899959, "name": "Holzdorf", "state": "", "country": "DE", "coord": {"lon": 9.88333, "lat": 54.549999}}, {"id": 2899961, "name": "Holzdorf", "state": "", "country": "DE", "coord": {"lon": 13.13333, "lat": 51.76667}}, {"id": 2899968, "name": "Holzburg", "state": "", "country": "DE", "coord": {"lon": 9.25, "lat": 50.816669}}, {"id": 2899970, "name": "Holzbunge", "state": "", "country": "DE", "coord": {"lon": 9.7, "lat": 54.383331}}, {"id": 2900020, "name": "Holzbach", "state": "", "country": "DE", "coord": {"lon": 7.53333, "lat": 49.950001}}, {"id": 2900027, "name": "Holzappel", "state": "", "country": "DE", "coord": {"lon": 7.9, "lat": 50.349998}}, {"id": 2900037, "name": "Holz", "state": "", "country": "DE", "coord": {"lon": 7.05, "lat": 51.200001}}, {"id": 2900063, "name": "Holweide", "state": "", "country": "DE", "coord": {"lon": 7.05, "lat": 50.966671}}, {"id": 2900064, "name": "H\u00f6lverscheid", "state": "", "country": "DE", "coord": {"lon": 7.13333, "lat": 51.116669}}, {"id": 2900065, "name": "Holvede", "state": "", "country": "DE", "coord": {"lon": 9.63333, "lat": 53.366669}}, {"id": 2900066, "name": "Holungen", "state": "", "country": "DE", "coord": {"lon": 10.39358, "lat": 51.491539}}, {"id": 2900070, "name": "Holtwick", "state": "", "country": "DE", "coord": {"lon": 7.13333, "lat": 51.75}}, {"id": 2900079, "name": "Holtsee", "state": "", "country": "DE", "coord": {"lon": 9.85, "lat": 54.400002}}, {"id": 2900091, "name": "Holtorfsbostel", "state": "", "country": "DE", "coord": {"lon": 9.66667, "lat": 53.366669}}, {"id": 2900105, "name": "Holtland", "state": "", "country": "DE", "coord": {"lon": 7.58333, "lat": 53.283329}}, {"id": 2900114, "name": "Holtkamp", "state": "", "country": "DE", "coord": {"lon": 8.4, "lat": 51.966671}}, {"id": 2900118, "name": "H\u00f6ltinghausen", "state": "", "country": "DE", "coord": {"lon": 8.13333, "lat": 52.866669}}, {"id": 2900126, "name": "Holthusen", "state": "", "country": "DE", "coord": {"lon": 11.35, "lat": 53.549999}}, {"id": 2900138, "name": "Holthausen", "state": "", "country": "DE", "coord": {"lon": 6.83333, "lat": 51.166672}}, {"id": 2900153, "name": "Holthausen", "state": "", "country": "DE", "coord": {"lon": 7.08333, "lat": 51.416672}}, {"id": 2900174, "name": "Holtgasterfeld", "state": "", "country": "DE", "coord": {"lon": 7.58333, "lat": 53.633331}}, {"id": 2900176, "name": "Holtgast", "state": "", "country": "DE", "coord": {"lon": 7.56667, "lat": 53.633331}}, {"id": 2900182, "name": "Holteyberg", "state": "", "country": "DE", "coord": {"lon": 7.1, "lat": 51.416672}}, {"id": 2900200, "name": "Holterbarge", "state": "", "country": "DE", "coord": {"lon": 7.58333, "lat": 53.166672}}, {"id": 2900216, "name": "Holtendorf", "state": "", "country": "DE", "coord": {"lon": 14.9, "lat": 51.150002}}, {"id": 2900236, "name": "Holtdorf", "state": "", "country": "DE", "coord": {"lon": 9.73333, "lat": 54.183331}}, {"id": 2900240, "name": "Holt", "state": "", "country": "DE", "coord": {"lon": 9.15, "lat": 54.816669}}, {"id": 2900245, "name": "Holsthum", "state": "", "country": "DE", "coord": {"lon": 6.41275, "lat": 49.893532}}, {"id": 2900248, "name": "Holsterhausen", "state": "", "country": "DE", "coord": {"lon": 7.18333, "lat": 51.533329}}, {"id": 2900253, "name": "Holstenniendorf", "state": "", "country": "DE", "coord": {"lon": 9.34808, "lat": 54.041611}}, {"id": 2900258, "name": "Holstendorf", "state": "", "country": "DE", "coord": {"lon": 10.71667, "lat": 53.75}}, {"id": 2900260, "name": "Holsten", "state": "", "country": "DE", "coord": {"lon": 8.13333, "lat": 52.216671}}, {"id": 2900308, "name": "Holnstein", "state": "", "country": "DE", "coord": {"lon": 11.51539, "lat": 49.11422}}, {"id": 2900314, "name": "Holnis", "state": "", "country": "DE", "coord": {"lon": 9.6, "lat": 54.866669}}, {"id": 2900333, "name": "Holmbach", "state": "", "country": "DE", "coord": {"lon": 8.83333, "lat": 49.51667}}, {"id": 2900337, "name": "Holm", "state": "", "country": "DE", "coord": {"lon": 8.86667, "lat": 54.833328}}, {"id": 2900341, "name": "Holm", "state": "", "country": "DE", "coord": {"lon": 9.66667, "lat": 53.616669}}, {"id": 2900368, "name": "Hollsteitz", "state": "", "country": "DE", "coord": {"lon": 12.03333, "lat": 51.083328}}, {"id": 2900375, "name": "Hollstadt", "state": "", "country": "DE", "coord": {"lon": 10.3, "lat": 50.349998}}, {"id": 2900381, "name": "H\u00f6llriegelskreuth", "state": "", "country": "DE", "coord": {"lon": 11.50681, "lat": 48.042}}, {"id": 2900391, "name": "Hollnseth", "state": "", "country": "DE", "coord": {"lon": 9.1, "lat": 53.583328}}, {"id": 2900393, "name": "Hollnich", "state": "", "country": "DE", "coord": {"lon": 7.48333, "lat": 50.066669}}, {"id": 2900398, "name": "Hollm\u00fchle", "state": "", "country": "DE", "coord": {"lon": 9.63333, "lat": 54.633331}}, {"id": 2900409, "name": "Hollingstedt", "state": "", "country": "DE", "coord": {"lon": 9.35, "lat": 54.450001}}, {"id": 2900410, "name": "Hollingstedt", "state": "", "country": "DE", "coord": {"lon": 9.21667, "lat": 54.299999}}, {"id": 2900415, "name": "Holling", "state": "", "country": "DE", "coord": {"lon": 13.13333, "lat": 48.73333}}, {"id": 2900453, "name": "Hollfeld", "state": "", "country": "DE", "coord": {"lon": 11.2925, "lat": 49.93861}}, {"id": 2900474, "name": "Hollern", "state": "", "country": "DE", "coord": {"lon": 9.54791, "lat": 53.592918}}, {"id": 2900495, "name": "H\u00f6llerbach", "state": "", "country": "DE", "coord": {"lon": 8.90028, "lat": 49.777779}}, {"id": 2900499, "name": "Holler", "state": "", "country": "DE", "coord": {"lon": 7.83333, "lat": 50.416672}}, {"id": 2900520, "name": "Hollenstedt", "state": "", "country": "DE", "coord": {"lon": 9.71667, "lat": 53.366669}}, {"id": 2900579, "name": "Hollenbek", "state": "", "country": "DE", "coord": {"lon": 10.81667, "lat": 53.583328}}, {"id": 2900582, "name": "Hollenbeck", "state": "", "country": "DE", "coord": {"lon": 9.46667, "lat": 53.433331}}, {"id": 2900590, "name": "Hollenbach", "state": "", "country": "DE", "coord": {"lon": 11.06667, "lat": 48.48333}}, {"id": 2900595, "name": "Hollen", "state": "", "country": "DE", "coord": {"lon": 8.7, "lat": 53.433331}}, {"id": 2900602, "name": "H\u00f6llen", "state": "", "country": "DE", "coord": {"lon": 6.46322, "lat": 50.957352}}, {"id": 2900617, "name": "Holleben", "state": "", "country": "DE", "coord": {"lon": 11.9, "lat": 51.433331}}, {"id": 2900623, "name": "Holle", "state": "", "country": "DE", "coord": {"lon": 10.16012, "lat": 52.087212}}, {"id": 2900639, "name": "Holldorf", "state": "", "country": "DE", "coord": {"lon": 13.26667, "lat": 53.466671}}, {"id": 2900688, "name": "Hollage", "state": "", "country": "DE", "coord": {"lon": 7.95, "lat": 52.349998}}, {"id": 2900717, "name": "H\u00f6lking", "state": "", "country": "DE", "coord": {"lon": 12.20109, "lat": 47.92934}}, {"id": 2900725, "name": "Holheim", "state": "", "country": "DE", "coord": {"lon": 10.45, "lat": 48.833328}}, {"id": 2900732, "name": "Holenberg", "state": "", "country": "DE", "coord": {"lon": 9.58333, "lat": 51.916672}}, {"id": 2900739, "name": "Holdorf", "state": "", "country": "DE", "coord": {"lon": 11.06667, "lat": 53.73333}}, {"id": 2900740, "name": "Holdorf", "state": "", "country": "DE", "coord": {"lon": 8.11667, "lat": 52.583328}}, {"id": 2900752, "name": "Holdereggen", "state": "", "country": "DE", "coord": {"lon": 9.68333, "lat": 47.549999}}, {"id": 2900763, "name": "H\u00f6lden", "state": "", "country": "DE", "coord": {"lon": 10.58333, "lat": 48.23333}}, {"id": 2900787, "name": "Hoisdorf", "state": "", "country": "DE", "coord": {"lon": 10.31667, "lat": 53.650002}}, {"id": 2900798, "name": "H\u00f6ingen", "state": "", "country": "DE", "coord": {"lon": 7.96667, "lat": 51.48333}}, {"id": 2900799, "name": "H\u00f6ingen", "state": "", "country": "DE", "coord": {"lon": 8.91961, "lat": 50.719101}}, {"id": 2900804, "name": "Hoiersdorf", "state": "", "country": "DE", "coord": {"lon": 10.94547, "lat": 52.12759}}, {"id": 2900816, "name": "Hohwacht", "state": "", "country": "DE", "coord": {"lon": 10.67021, "lat": 54.320782}}, {"id": 2900819, "name": "Hohsdorf", "state": "", "country": "DE", "coord": {"lon": 12.05, "lat": 51.75}}, {"id": 2900825, "name": "H\u00f6hr-Grenzhausen", "state": "", "country": "DE", "coord": {"lon": 7.66667, "lat": 50.433331}}, {"id": 2900840, "name": "Hohnstorf", "state": "", "country": "DE", "coord": {"lon": 10.53486, "lat": 53.144562}}, {"id": 2900844, "name": "Hohnstein", "state": "", "country": "DE", "coord": {"lon": 14.11408, "lat": 50.979912}}, {"id": 2900849, "name": "H\u00f6hnstedt", "state": "", "country": "DE", "coord": {"lon": 11.73333, "lat": 51.5}}, {"id": 2900865, "name": "Hohnhorst", "state": "", "country": "DE", "coord": {"lon": 9.37168, "lat": 52.369419}}, {"id": 2900881, "name": "Hohne", "state": "", "country": "DE", "coord": {"lon": 10.36667, "lat": 52.583328}}, {"id": 2900884, "name": "H\u00f6hndorf", "state": "", "country": "DE", "coord": {"lon": 10.36667, "lat": 54.366669}}, {"id": 2900889, "name": "Hohndorf", "state": "", "country": "DE", "coord": {"lon": 12.68333, "lat": 50.75}}, {"id": 2900895, "name": "Wolkenrasen", "state": "", "country": "DE", "coord": {"lon": 11.16667, "lat": 50.349998}}, {"id": 2900899, "name": "Hohn", "state": "", "country": "DE", "coord": {"lon": 9.5, "lat": 54.299999}}, {"id": 2900900, "name": "Hohn", "state": "", "country": "DE", "coord": {"lon": 7.31667, "lat": 50.883331}}, {"id": 2900902, "name": "Hohn", "state": "", "country": "DE", "coord": {"lon": 7.35, "lat": 50.833328}}, {"id": 2900909, "name": "H\u00f6hm\u00fchlbach", "state": "", "country": "DE", "coord": {"lon": 7.51667, "lat": 49.25}}, {"id": 2900924, "name": "Hohlstedt", "state": "", "country": "DE", "coord": {"lon": 11.16589, "lat": 51.458389}}, {"id": 2900985, "name": "Hohl", "state": "", "country": "DE", "coord": {"lon": 7.53333, "lat": 50.98333}}, {"id": 2900987, "name": "Hohl", "state": "", "country": "DE", "coord": {"lon": 7.7465, "lat": 51.187832}}, {"id": 2901006, "name": "H\u00f6hfr\u00f6schen", "state": "", "country": "DE", "coord": {"lon": 7.56667, "lat": 49.25}}, {"id": 2901018, "name": "Hohewisch", "state": "", "country": "DE", "coord": {"lon": 11.57461, "lat": 53.408871}}, {"id": 2901324, "name": "Hohenzieritz", "state": "", "country": "DE", "coord": {"lon": 13.09811, "lat": 53.442371}}, {"id": 2901325, "name": "Hohenziatz", "state": "", "country": "DE", "coord": {"lon": 12.05, "lat": 52.183331}}, {"id": 2901333, "name": "Hohenwutzen", "state": "", "country": "DE", "coord": {"lon": 14.11838, "lat": 52.844101}}, {"id": 2901335, "name": "Hohenwulsch", "state": "", "country": "DE", "coord": {"lon": 11.6, "lat": 52.666672}}, {"id": 2901336, "name": "Hohenw\u00fchren", "state": "", "country": "DE", "coord": {"lon": 10.23333, "lat": 54.183331}},