[{"id": 1731669, "name": "Alangilan", "state": "", "country": "PH", "coord": {"lon": 122.878899, "lat": 9.2793}}, {"id": 1731676, "name": "Alangalang", "state": "", "country": "PH", "coord": {"lon": 124.846672, "lat": 11.20611}}, {"id": 1731685, "name": "Alaminos", "state": "", "country": "PH", "coord": {"lon": 119.98111, "lat": 16.156111}}, {"id": 1731686, "name": "Alaminos", "state": "", "country": "PH", "coord": {"lon": 121.24649, "lat": 14.06391}}, {"id": 1731689, "name": "Alaminos", "state": "", "country": "PH", "coord": {"lon": 121.25, "lat": 14.05}}, {"id": 1731694, "name": "Alamada", "state": "", "country": "PH", "coord": {"lon": 124.566673, "lat": 7.33333}}, {"id": 1731726, "name": "Alae", "state": "", "country": "PH", "coord": {"lon": 124.812782, "lat": 8.42444}}, {"id": 1731730, "name": "Alad", "state": "", "country": "PH", "coord": {"lon": 122.247513, "lat": 12.61682}}, {"id": 1731733, "name": "Alacaygan", "state": "", "country": "PH", "coord": {"lon": 123.058296, "lat": 10.84014}}, {"id": 1731738, "name": "Alac", "state": "", "country": "PH", "coord": {"lon": 120.806503, "lat": 15.9877}}, {"id": 1731740, "name": "Alabug", "state": "", "country": "PH", "coord": {"lon": 121.47625, "lat": 17.727909}}, {"id": 1731744, "name": "Alabel", "state": "", "country": "PH", "coord": {"lon": 125.290482, "lat": 6.10179}}, {"id": 1731749, "name": "Alabat", "state": "", "country": "PH", "coord": {"lon": 122.015282, "lat": 14.10278}}, {"id": 1731757, "name": "Akle", "state": "", "country": "PH", "coord": {"lon": 121.073303, "lat": 15.0482}}, {"id": 1731758, "name": "Province of Aklan", "state": "", "country": "PH", "coord": {"lon": 122.333328, "lat": 11.66667}}, {"id": 1731765, "name": "Ajuy", "state": "", "country": "PH", "coord": {"lon": 123.019699, "lat": 11.1724}}, {"id": 1731798, "name": "Agutaya", "state": "", "country": "PH", "coord": {"lon": 120.941704, "lat": 11.148}}, {"id": 1731818, "name": "Province of Agusan del Sur", "state": "", "country": "PH", "coord": {"lon": 125.833328, "lat": 8.5}}, {"id": 1731819, "name": "Province of Agusan del Norte", "state": "", "country": "PH", "coord": {"lon": 125.5, "lat": 9.16667}}, {"id": 1731820, "name": "Agusan", "state": "", "country": "PH", "coord": {"lon": 124.737221, "lat": 8.49056}}, {"id": 1731825, "name": "Agupit", "state": "", "country": "PH", "coord": {"lon": 123.324722, "lat": 13.4225}}, {"id": 1731838, "name": "Aguisan", "state": "", "country": "PH", "coord": {"lon": 122.860558, "lat": 10.16556}}, {"id": 1731849, "name": "Aguining", "state": "", "country": "PH", "coord": {"lon": 124.594398, "lat": 10.0861}}, {"id": 1731859, "name": "Aguilar", "state": "", "country": "PH", "coord": {"lon": 120.237801, "lat": 15.8884}}, {"id": 1731892, "name": "Aguada", "state": "", "country": "PH", "coord": {"lon": 123.833328, "lat": 12.81667}}, {"id": 1731943, "name": "Agpangi", "state": "", "country": "PH", "coord": {"lon": 123.423203, "lat": 10.57716}}, {"id": 1731952, "name": "Agos", "state": "", "country": "PH", "coord": {"lon": 123.3983, "lat": 13.3434}}, {"id": 1731958, "name": "Agoo", "state": "", "country": "PH", "coord": {"lon": 120.3666, "lat": 16.3228}}, {"id": 1731959, "name": "Agoo", "state": "", "country": "PH", "coord": {"lon": 120.099998, "lat": 16.08333}}, {"id": 1731969, "name": "Agoncillo", "state": "", "country": "PH", "coord": {"lon": 120.93261, "lat": 13.93556}}, {"id": 1732005, "name": "Agno", "state": "", "country": "PH", "coord": {"lon": 119.799301, "lat": 16.1161}}, {"id": 1732040, "name": "Aglipay", "state": "", "country": "PH", "coord": {"lon": 121.644997, "lat": 16.488899}}, {"id": 1732050, "name": "Aglayan", "state": "", "country": "PH", "coord": {"lon": 125.134171, "lat": 8.055}}, {"id": 1732053, "name": "Aglalana", "state": "", "country": "PH", "coord": {"lon": 122.65667, "lat": 11.17722}}, {"id": 1732070, "name": "Aggugaddah", "state": "", "country": "PH", "coord": {"lon": 121.810654, "lat": 17.70541}}, {"id": 1732091, "name": "Agdangan", "state": "", "country": "PH", "coord": {"lon": 121.915283, "lat": 13.8725}}, {"id": 1732131, "name": "Agbannawag", "state": "", "country": "PH", "coord": {"lon": 121.518852, "lat": 17.385929}}, {"id": 1732132, "name": "Agbannawag", "state": "", "country": "PH", "coord": {"lon": 121.083298, "lat": 15.6792}}, {"id": 1732160, "name": "Agay", "state": "", "country": "PH", "coord": {"lon": 125.58667, "lat": 9.05361}}, {"id": 1732187, "name": "Aganan", "state": "", "country": "PH", "coord": {"lon": 122.533333, "lat": 10.78333}}, {"id": 1732191, "name": "Ag-ambulong", "state": "", "country": "PH", "coord": {"lon": 122.509399, "lat": 11.3684}}, {"id": 1732205, "name": "Aga", "state": "", "country": "PH", "coord": {"lon": 120.80217, "lat": 14.0965}}, {"id": 1732210, "name": "Afusing Centro", "state": "", "country": "PH", "coord": {"lon": 121.6269, "lat": 17.8526}}, {"id": 1732223, "name": "Adtugan", "state": "", "country": "PH", "coord": {"lon": 124.854439, "lat": 7.81194}}, {"id": 1732229, "name": "Adlay", "state": "", "country": "PH", "coord": {"lon": 125.897499, "lat": 9.40972}}, {"id": 1732246, "name": "Adela", "state": "", "country": "PH", "coord": {"lon": 120.972908, "lat": 12.44164}}, {"id": 1732259, "name": "Adams", "state": "", "country": "PH", "coord": {"lon": 120.900002, "lat": 18.466669}}, {"id": 1732277, "name": "Acli", "state": "", "country": "PH", "coord": {"lon": 120.643608, "lat": 15.12556}}, {"id": 1732294, "name": "Accusilian", "state": "", "country": "PH", "coord": {"lon": 121.472298, "lat": 17.754299}}, {"id": 1732297, "name": "Acao", "state": "", "country": "PH", "coord": {"lon": 120.376389, "lat": 16.52556}}, {"id": 1732304, "name": "Abuyon", "state": "", "country": "PH", "coord": {"lon": 122.520561, "lat": 13.62028}}, {"id": 1732311, "name": "Abuyog", "state": "", "country": "PH", "coord": {"lon": 124.055283, "lat": 12.94667}}, {"id": 1732312, "name": "Abuyog", "state": "", "country": "PH", "coord": {"lon": 125.010696, "lat": 10.747}}, {"id": 1732313, "name": "Abuyog", "state": "", "country": "PH", "coord": {"lon": 125.050003, "lat": 10.66667}}, {"id": 1732317, "name": "Abut", "state": "", "country": "PH", "coord": {"lon": 121.603638, "lat": 17.352329}}, {"id": 1732333, "name": "Abulug", "state": "", "country": "PH", "coord": {"lon": 121.453331, "lat": 18.44528}}, {"id": 1732351, "name": "Abucayan", "state": "", "country": "PH", "coord": {"lon": 123.914597, "lat": 9.929}}, {"id": 1732354, "name": "Abucay", "state": "", "country": "PH", "coord": {"lon": 120.53833, "lat": 14.72222}}, {"id": 1732355, "name": "Abucay", "state": "", "country": "PH", "coord": {"lon": 123.6492, "lat": 12.982}}, {"id": 1732356, "name": "Abucay", "state": "", "country": "PH", "coord": {"lon": 120.48333, "lat": 14.76667}}, {"id": 1732378, "name": "Abra de Ilog", "state": "", "country": "PH", "coord": {"lon": 120.729103, "lat": 13.4437}}, {"id": 1732385, "name": "Aborlan", "state": "", "country": "PH", "coord": {"lon": 118.549202, "lat": 9.43516}}, {"id": 1732420, "name": "Abis", "state": "", "country": "PH", "coord": {"lon": 122.943802, "lat": 9.7173}}, {"id": 1732426, "name": "Abilay", "state": "", "country": "PH", "coord": {"lon": 122.5, "lat": 10.73333}}, {"id": 1732434, "name": "Abiera", "state": "", "country": "PH", "coord": {"lon": 122.089996, "lat": 11.5749}}, {"id": 1732483, "name": "Abangay", "state": "", "country": "PH", "coord": {"lon": 122.650002, "lat": 10.96667}}, {"id": 1732526, "name": "Abaca", "state": "", "country": "PH", "coord": {"lon": 122.715599, "lat": 11.1342}}, {"id": 1732531, "name": "Abaca", "state": "", "country": "PH", "coord": {"lon": 124.505096, "lat": 9.9204}}, {"id": 1732602, "name": "Jerantut", "state": "", "country": "MY", "coord": {"lon": 102.362602, "lat": 3.936}}, {"id": 1732637, "name": "Maran", "state": "", "country": "MY", "coord": {"lon": 102.773003, "lat": 3.586}}, {"id": 1732663, "name": "Raub", "state": "", "country": "MY", "coord": {"lon": 101.857002, "lat": 3.7899}}, {"id": 1732687, "name": "Batu Pahat", "state": "", "country": "MY", "coord": {"lon": 102.932503, "lat": 1.8548}}, {"id": 1732698, "name": "Parit Raja", "state": "", "country": "MY", "coord": {"lon": 103.112396, "lat": 1.8681}}, {"id": 1732706, "name": "Pekan Nenas", "state": "", "country": "MY", "coord": {"lon": 103.514099, "lat": 1.51}}, {"id": 1732711, "name": "Pontian Kechil", "state": "", "country": "MY", "coord": {"lon": 103.389603, "lat": 1.4866}}, {"id": 1732721, "name": "Kampung Pasir Gudang Baru", "state": "", "country": "MY", "coord": {"lon": 103.877998, "lat": 1.4726}}, {"id": 1732738, "name": "Kota Tinggi", "state": "", "country": "MY", "coord": {"lon": 103.899902, "lat": 1.7381}}, {"id": 1732740, "name": "Kampung Seelong", "state": "", "country": "MY", "coord": {"lon": 103.695702, "lat": 1.63}}, {"id": 1732741, "name": "Taman Senai", "state": "", "country": "MY", "coord": {"lon": 103.641899, "lat": 1.6006}}, {"id": 1732742, "name": "Kulai", "state": "", "country": "MY", "coord": {"lon": 103.603203, "lat": 1.6561}}, {"id": 1732745, "name": "Skudai", "state": "", "country": "MY", "coord": {"lon": 103.666672, "lat": 1.53333}}, {"id": 1732752, "name": "Johor Bahru", "state": "", "country": "MY", "coord": {"lon": 103.757797, "lat": 1.4655}}, {"id": 1732811, "name": "Kluang", "state": "", "country": "MY", "coord": {"lon": 103.332802, "lat": 2.0251}}, {"id": 1732814, "name": "Yong Peng", "state": "", "country": "MY", "coord": {"lon": 103.065903, "lat": 2.0136}}, {"id": 1732826, "name": "Mersing", "state": "", "country": "MY", "coord": {"lon": 103.8405, "lat": 2.4312}}, {"id": 1732846, "name": "Segamat", "state": "", "country": "MY", "coord": {"lon": 102.815804, "lat": 2.5148}}, {"id": 1732857, "name": "Tangkak", "state": "", "country": "MY", "coord": {"lon": 102.545303, "lat": 2.2673}}, {"id": 1732869, "name": "Muar", "state": "", "country": "MY", "coord": {"lon": 102.568901, "lat": 2.0442}}, {"id": 1732871, "name": "Bakri", "state": "", "country": "MY", "coord": {"lon": 102.652702, "lat": 2.0441}}, {"id": 1732877, "name": "Labis", "state": "", "country": "MY", "coord": {"lon": 103.021004, "lat": 2.385}}, {"id": 1732884, "name": "Chaah", "state": "", "country": "MY", "coord": {"lon": 103.047997, "lat": 2.249}}, {"id": 1732891, "name": "Kuala Selangor", "state": "", "country": "MY", "coord": {"lon": 101.25, "lat": 3.35}}, {"id": 1732892, "name": "Batang Berjuntai", "state": "", "country": "MY", "coord": {"lon": 101.416672, "lat": 3.38333}}, {"id": 1732893, "name": "Batu Arang", "state": "", "country": "MY", "coord": {"lon": 101.466667, "lat": 3.31667}}, {"id": 1732903, "name": "Shah Alam", "state": "", "country": "MY", "coord": {"lon": 101.532806, "lat": 3.08507}}, {"id": 1732905, "name": "Klang", "state": "", "country": "MY", "coord": {"lon": 101.449997, "lat": 3.03333}}, {"id": 1732945, "name": "Cukai", "state": "", "country": "MY", "coord": {"lon": 103.416672, "lat": 4.25}}, {"id": 1733023, "name": "Kuala Lipis", "state": "", "country": "MY", "coord": {"lon": 102.046799, "lat": 4.1842}}, {"id": 1733035, "name": "Melaka", "state": "", "country": "MY", "coord": {"lon": 102.25, "lat": 2.25}}, {"id": 1733036, "name": "Terengganu", "state": "", "country": "MY", "coord": {"lon": 103, "lat": 5}}, {"id": 1733037, "name": "Selangor", "state": "", "country": "MY", "coord": {"lon": 101.5, "lat": 3.16667}}, {"id": 1733038, "name": "Sarawak", "state": "", "country": "MY", "coord": {"lon": 113.5, "lat": 2.5}}, {"id": 1733039, "name": "Sabah", "state": "", "country": "MY", "coord": {"lon": 117, "lat": 5.5}}, {"id": 1733040, "name": "Perlis", "state": "", "country": "MY", "coord": {"lon": 100.25, "lat": 6.5}}, {"id": 1733041, "name": "Perak", "state": "", "country": "MY", "coord": {"lon": 101, "lat": 5}}, {"id": 1733042, "name": "Pahang", "state": "", "country": "MY", "coord": {"lon": 102.75, "lat": 3.5}}, {"id": 1733043, "name": "Negeri Sembilan", "state": "", "country": "MY", "coord": {"lon": 102.166672, "lat": 2.75}}, {"id": 1733044, "name": "Kelantan", "state": "", "country": "MY", "coord": {"lon": 102, "lat": 5.33333}}, {"id": 1733045, "name": "Malaysia", "state": "", "country": "MY", "coord": {"lon": 112.5, "lat": 2.5}}, {"id": 1733046, "name": "Kuala Lumpur", "state": "", "country": "MY", "coord": {"lon": 101.686531, "lat": 3.14309}}, {"id": 1733047, "name": "Pulau Pinang", "state": "", "country": "MY", "coord": {"lon": 100.258476, "lat": 5.37677}}, {"id": 1733048, "name": "Kedah", "state": "", "country": "MY", "coord": {"lon": 100.666672, "lat": 6}}, {"id": 1733049, "name": "Johor", "state": "", "country": "MY", "coord": {"lon": 103.5, "lat": 2}}, {"id": 1733353, "name": "Papar", "state": "", "country": "MY", "coord": {"lon": 115.933327, "lat": 5.73333}}, {"id": 1733432, "name": "Kota Kinabalu", "state": "", "country": "MY", "coord": {"lon": 116.072403, "lat": 5.9749}}, {"id": 1733438, "name": "Donggongon", "state": "", "country": "MY", "coord": {"lon": 116.101463, "lat": 5.90702}}, {"id": 1733440, "name": "Putatan", "state": "", "country": "MY", "coord": {"lon": 116.060944, "lat": 5.9258}}, {"id": 1733449, "name": "Kinarut", "state": "", "country": "MY", "coord": {"lon": 116.0466, "lat": 5.8231}}, {"id": 1733502, "name": "Ranau", "state": "", "country": "MY", "coord": {"lon": 116.664101, "lat": 5.9538}}, {"id": 1733697, "name": "Semporna", "state": "", "country": "MY", "coord": {"lon": 118.611183, "lat": 4.48178}}, {"id": 1733782, "name": "Labuan", "state": "", "country": "MY", "coord": {"lon": 115.241669, "lat": 5.27667}}, {"id": 1733874, "name": "Beaufort", "state": "", "country": "MY", "coord": {"lon": 115.745499, "lat": 5.3473}}, {"id": 1733953, "name": "Lahad Datu", "state": "", "country": "MY", "coord": {"lon": 118.327003, "lat": 5.0268}}, {"id": 1734052, "name": "Sandakan", "state": "", "country": "MY", "coord": {"lon": 118.117897, "lat": 5.8402}}, {"id": 1734098, "name": "Keningau", "state": "", "country": "MY", "coord": {"lon": 116.160202, "lat": 5.3378}}, {"id": 1734199, "name": "Tawau", "state": "", "country": "MY", "coord": {"lon": 117.8871, "lat": 4.2498}}, {"id": 1734240, "name": "Labuan", "state": "", "country": "MY", "coord": {"lon": 115.199997, "lat": 5.33333}}, {"id": 1734313, "name": "Paka", "state": "", "country": "MY", "coord": {"lon": 103.436798, "lat": 4.6374}}, {"id": 1734316, "name": "Kertih", "state": "", "country": "MY", "coord": {"lon": 103.448303, "lat": 4.5141}}, {"id": 1734393, "name": "Kulim", "state": "", "country": "MY", "coord": {"lon": 100.561768, "lat": 5.36499}}, {"id": 1734409, "name": "Bagan Serai", "state": "", "country": "MY", "coord": {"lon": 100.541008, "lat": 5.0108}}, {"id": 1734439, "name": "Bedong", "state": "", "country": "MY", "coord": {"lon": 100.508759, "lat": 5.72744}}, {"id": 1734576, "name": "Simpang Empat", "state": "", "country": "MY", "coord": {"lon": 100.633331, "lat": 4.95}}, {"id": 1734586, "name": "Taiping", "state": "", "country": "MY", "coord": {"lon": 100.73333, "lat": 4.85}}, {"id": 1734599, "name": "Kuala Kangsar", "state": "", "country": "MY", "coord": {"lon": 100.933327, "lat": 4.76667}}, {"id": 1734634, "name": "Ipoh", "state": "", "country": "MY", "coord": {"lon": 101.082901, "lat": 4.5841}}, {"id": 1734651, "name": "Gua Musang", "state": "", "country": "MY", "coord": {"lon": 101.964401, "lat": 4.8823}}, {"id": 1734705, "name": "Kuala Terengganu", "state": "", "country": "MY", "coord": {"lon": 103.1408, "lat": 5.3302}}, {"id": 1734715, "name": "Marang", "state": "", "country": "MY", "coord": {"lon": 103.205902, "lat": 5.2056}}, {"id": 1734738, "name": "Tampin", "state": "", "country": "MY", "coord": {"lon": 102.230202, "lat": 2.4701}}, {"id": 1734745, "name": "Alor Gajah", "state": "", "country": "MY", "coord": {"lon": 102.2089, "lat": 2.3804}}, {"id": 1734753, "name": "Kampung Ayer Keroh", "state": "", "country": "MY", "coord": {"lon": 102.280098, "lat": 2.2654}}, {"id": 1734757, "name": "Sungai Udang", "state": "", "country": "MY", "coord": {"lon": 102.1427, "lat": 2.269}}, {"id": 1734759, "name": "Malacca", "state": "", "country": "MY", "coord": {"lon": 102.240501, "lat": 2.196}}, {"id": 1734769, "name": "Pelabuhan Klang", "state": "", "country": "MY", "coord": {"lon": 101.400002, "lat": 3}}, {"id": 1734781, "name": "Banting", "state": "", "country": "MY", "coord": {"lon": 101.5, "lat": 2.81667}}, {"id": 1734793, "name": "Jenjarum", "state": "", "country": "MY", "coord": {"lon": 101.5, "lat": 2.88333}}, {"id": 1734798, "name": "Semenyih", "state": "", "country": "MY", "coord": {"lon": 101.843002, "lat": 2.9516}}, {"id": 1734802, "name": "Beranang", "state": "", "country": "MY", "coord": {"lon": 101.869698, "lat": 2.8733}}, {"id": 1734810, "name": "Seremban", "state": "", "country": "MY", "coord": {"lon": 101.938103, "lat": 2.7297}}, {"id": 1734815, "name": "Port Dickson", "state": "", "country": "MY", "coord": {"lon": 101.795898, "lat": 2.5228}}, {"id": 1734839, "name": "Bahau", "state": "", "country": "MY", "coord": {"lon": 102.4049, "lat": 2.8079}}, {"id": 1734841, "name": "Kuala Pilah", "state": "", "country": "MY", "coord": {"lon": 102.248703, "lat": 2.7389}}, {"id": 1734879, "name": "Buloh Kasap", "state": "", "country": "MY", "coord": {"lon": 102.764, "lat": 2.5536}}, {"id": 1734949, "name": "Kampung Tekek", "state": "", "country": "MY", "coord": {"lon": 104.159203, "lat": 2.8147}}, {"id": 1734971, "name": "Pekan", "state": "", "country": "MY", "coord": {"lon": 103.399597, "lat": 3.4836}}, {"id": 1735018, "name": "Mentekab", "state": "", "country": "MY", "coord": {"lon": 102.348396, "lat": 3.4854}}, {"id": 1735022, "name": "Temerluh", "state": "", "country": "MY", "coord": {"lon": 102.417603, "lat": 3.4506}}, {"id": 1735071, "name": "Permatang Damar Laut", "state": "", "country": "MY", "coord": {"lon": 100.283333, "lat": 5.28333}}, {"id": 1735076, "name": "Butterworth", "state": "", "country": "MY", "coord": {"lon": 100.363823, "lat": 5.3991}}, {"id": 1735077, "name": "Perai", "state": "", "country": "MY", "coord": {"lon": 100.383331, "lat": 5.38333}}, {"id": 1735079, "name": "Bukit Mertajam", "state": "", "country": "MY", "coord": {"lon": 100.466698, "lat": 5.36301}}, {"id": 1735086, "name": "Nibong Tebal", "state": "", "country": "MY", "coord": {"lon": 100.477928, "lat": 5.16586}}, {"id": 1735089, "name": "Parit Buntar", "state": "", "country": "MY", "coord": {"lon": 100.493156, "lat": 5.12671}}, {"id": 1735093, "name": "Tasek Glugor", "state": "", "country": "MY", "coord": {"lon": 100.498489, "lat": 5.48032}}, {"id": 1735105, "name": "Kampung Sungai Nibung Besar", "state": "", "country": "MY", "coord": {"lon": 100.300194, "lat": 5.33529}}, {"id": 1735106, "name": "George Town", "state": "", "country": "MY", "coord": {"lon": 100.335426, "lat": 5.41123}}, {"id": 1735133, "name": "Kampung Bukit Tinggi, Bentong", "state": "", "country": "MY", "coord": {"lon": 101.816673, "lat": 3.35}}, {"id": 1735148, "name": "Serendah", "state": "", "country": "MY", "coord": {"lon": 101.604103, "lat": 3.3646}}, {"id": 1735150, "name": "Rawang", "state": "", "country": "MY", "coord": {"lon": 101.576698, "lat": 3.3213}}, {"id": 1735155, "name": "Kampung Subang", "state": "", "country": "MY", "coord": {"lon": 101.533333, "lat": 3.15}}, {"id": 1735156, "name": "Petaling", "state": "", "country": "MY", "coord": {"lon": 101.583328, "lat": 3.08333}}, {"id": 1735158, "name": "Petaling Jaya", "state": "", "country": "MY", "coord": {"lon": 101.606712, "lat": 3.10726}}, {"id": 1735161, "name": "Kuala Lumpur", "state": "", "country": "MY", "coord": {"lon": 101.686531, "lat": 3.1412}}, {"id": 1735162, "name": "Setapak", "state": "", "country": "MY", "coord": {"lon": 101.699997, "lat": 3.18333}}, {"id": 1735195, "name": "Sabak Bernam", "state": "", "country": "MY", "coord": {"lon": 100.9879, "lat": 3.7698}}, {"id": 1735199, "name": "Sungai Besar", "state": "", "country": "MY", "coord": {"lon": 100.986702, "lat": 3.6746}}, {"id": 1735227, "name": "Kuantan", "state": "", "country": "MY", "coord": {"lon": 103.325996, "lat": 3.8077}}, {"id": 1735237, "name": "Telok Baharu", "state": "", "country": "MY", "coord": {"lon": 103.333328, "lat": 3.8}}, {"id": 1735262, "name": "Tanah Rata", "state": "", "country": "MY", "coord": {"lon": 101.370399, "lat": 4.475}}, {"id": 1735268, "name": "Batu Gajah", "state": "", "country": "MY", "coord": {"lon": 101.041069, "lat": 4.46916}}, {"id": 1735274, "name": "Kampar", "state": "", "country": "MY", "coord": {"lon": 101.150002, "lat": 4.3}}, {"id": 1735282, "name": "Tapah Road", "state": "", "country": "MY", "coord": {"lon": 101.199997, "lat": 4.16667}}, {"id": 1735287, "name": "Bidur", "state": "", "country": "MY", "coord": {"lon": 101.283333, "lat": 4.11667}}, {"id": 1735450, "name": "Lumut", "state": "", "country": "MY", "coord": {"lon": 100.629799, "lat": 4.2323}}, {"id": 1735453, "name": "Sitiawan", "state": "", "country": "MY", "coord": {"lon": 100.6996, "lat": 4.2168}}, {"id": 1735459, "name": "Teluk Intan", "state": "", "country": "MY", "coord": {"lon": 101.021301, "lat": 4.0259}}, {"id": 1735485, "name": "Gurun", "state": "", "country": "MY", "coord": {"lon": 100.473808, "lat": 5.81717}}, {"id": 1735498, "name": "Sungai Petani", "state": "", "country": "MY", "coord": {"lon": 100.487717, "lat": 5.647}}, {"id": 1735506, "name": "Kepala Batas", "state": "", "country": "MY", "coord": {"lon": 100.426498, "lat": 5.51707}}, {"id": 1735535, "name": "Ketereh", "state": "", "country": "MY", "coord": {"lon": 102.248169, "lat": 5.95701}}, {"id": 1735543, "name": "Pulai Chondong", "state": "", "country": "MY", "coord": {"lon": 102.231773, "lat": 5.87133}}, {"id": 1735553, "name": "Tanah Merah", "state": "", "country": "MY", "coord": {"lon": 102.150002, "lat": 5.8}}, {"id": 1735634, "name": "Kuching", "state": "", "country": "MY", "coord": {"lon": 110.333328, "lat": 1.55}}, {"id": 1735799, "name": "Simanggang", "state": "", "country": "MY", "coord": {"lon": 111.452782, "lat": 1.24722}}, {"id": 1735837, "name": "Sarikei", "state": "", "country": "MY", "coord": {"lon": 111.51667, "lat": 2.11667}}, {"id": 1735902, "name": "Sibu", "state": "", "country": "MY", "coord": {"lon": 111.816673, "lat": 2.3}}, {"id": 1736278, "name": "Kangar", "state": "", "country": "MY", "coord": {"lon": 100.198624, "lat": 6.4414}}, {"id": 1736292, "name": "Kuala Perlis", "state": "", "country": "MY", "coord": {"lon": 100.133331, "lat": 6.4}}, {"id": 1736302, "name": "Jitra", "state": "", "country": "MY", "coord": {"lon": 100.421669, "lat": 6.26812}}, {"id": 1736305, "name": "Kuala Kedah", "state": "", "country": "MY", "coord": {"lon": 100.300003, "lat": 6.1}}, {"id": 1736309, "name": "Alor Setar", "state": "", "country": "MY", "coord": {"lon": 100.360138, "lat": 6.12104}}, {"id": 1736356, "name": "Tumpat", "state": "", "country": "MY", "coord": {"lon": 102.170982, "lat": 6.19776}}, {"id": 1736372, "name": "Pasir Mas", "state": "", "country": "MY", "coord": {"lon": 102.13987, "lat": 6.04934}}, {"id": 1736376, "name": "Kota Bharu", "state": "", "country": "MY", "coord": {"lon": 102.238602, "lat": 6.13328}}, {"id": 1736405, "name": "Jertih", "state": "", "country": "MY", "coord": {"lon": 102.4897, "lat": 5.7336}}, {"id": 1736458, "name": "Kudat", "state": "", "country": "MY", "coord": {"lon": 116.847702, "lat": 6.8837}}, {"id": 1736660, "name": "Kota Belud", "state": "", "country": "MY", "coord": {"lon": 116.430496, "lat": 6.351}}, {"id": 1737185, "name": "Kapit", "state": "", "country": "MY", "coord": {"lon": 112.933327, "lat": 2.01667}}, {"id": 1737486, "name": "Bintulu", "state": "", "country": "MY", "coord": {"lon": 113.033333, "lat": 3.16667}}, {"id": 1737714, "name": "Limbang", "state": "", "country": "MY", "coord": {"lon": 115, "lat": 4.75}}, {"id": 1738050, "name": "Miri", "state": "", "country": "MY", "coord": {"lon": 114.008904, "lat": 4.4148}}, {"id": 1738294, "name": "Ulu Tiram", "state": "", "country": "MY", "coord": {"lon": 103.816673, "lat": 1.6}}, {"id": 1741550, "name": "Tanjung Tokong", "state": "", "country": "MY", "coord": {"lon": 100.307419, "lat": 5.46061}}, {"id": 1741562, "name": "Tanjung Sepat", "state": "", "country": "MY", "coord": {"lon": 101.562897, "lat": 2.6579}}, {"id": 1742350, "name": "Kampung Tabanac", "state": "", "country": "MY", "coord": {"lon": 118.313698, "lat": 5.0357}}, {"id": 1742667, "name": "Sungai Pelek New Village", "state": "", "country": "MY", "coord": {"lon": 101.699997, "lat": 2.65}}, {"id": 1748035, "name": "Rumah Dana", "state": "", "country": "MY", "coord": {"lon": 113.01667, "lat": 3.11667}}, {"id": 1748183, "name": "Rumah Ampeng", "state": "", "country": "MY", "coord": {"lon": 111.966667, "lat": 2.26667}}, {"id": 1748489, "name": "Riam Road Bazaar", "state": "", "country": "MY", "coord": {"lon": 114, "lat": 4.33333}}, {"id": 1749659, "name": "Pulau Sebang", "state": "", "country": "MY", "coord": {"lon": 102.232903, "lat": 2.455}}, {"id": 1749939, "name": "Kampung Pokok Manggis", "state": "", "country": "MY", "coord": {"lon": 100.218269, "lat": 5.37052}}, {"id": 1750500, "name": "Permatang Kuching", "state": "", "country": "MY", "coord": {"lon": 100.381439, "lat": 5.46339}}, {"id": 1750582, "name": "Peringat", "state": "", "country": "MY", "coord": {"lon": 102.283333, "lat": 6.03333}}, {"id": 1750974, "name": "Ladang Seri Kundang", "state": "", "country": "MY", "coord": {"lon": 101.518997, "lat": 3.2856}}, {"id": 1751525, "name": "Pekan Darat", "state": "", "country": "MY", "coord": {"lon": 100.396278, "lat": 5.47251}}, {"id": 1751906, "name": "Pasir Penambang", "state": "", "country": "MY", "coord": {"lon": 101.25, "lat": 3.35}}, {"id": 1752256, "name": "Pantai Remis", "state": "", "country": "MY", "coord": {"lon": 100.628799, "lat": 4.4557}}, {"id": 1759486, "name": "Kuang", "state": "", "country": "MY", "coord": {"lon": 101.5541, "lat": 3.2594}}, {"id": 1759513, "name": "Kuala Sungai Baru", "state": "", "country": "MY", "coord": {"lon": 102.035301, "lat": 2.3594}}, {"id": 1760605, "name": "Kepong", "state": "", "country": "MY", "coord": {"lon": 101.633331, "lat": 3.21667}}, {"id": 1761242, "name": "Klebang Besar", "state": "", "country": "MY", "coord": {"lon": 102.199501, "lat": 2.2186}}, {"id": 1761293, "name": "Kelapa Sawit", "state": "", "country": "MY", "coord": {"lon": 103.5327, "lat": 1.6698}}, {"id": 1762251, "name": "Kampong Wakuba", "state": "", "country": "MY", "coord": {"lon": 118.12175, "lat": 4.2969}}, {"id": 1762882, "name": "Kampong Tengah", "state": "", "country": "MY", "coord": {"lon": 111.466667, "lat": 1.23333}}, {"id": 1762985, "name": "Kampong Telok Reba", "state": "", "country": "MY", "coord": {"lon": 102.300003, "lat": 6.16667}}, {"id": 1763070, "name": "Kampung Teluk Dalam", "state": "", "country": "MY", "coord": {"lon": 100.554497, "lat": 4.2482}}, {"id": 1763164, "name": "Kampung Telaga Batin", "state": "", "country": "MY", "coord": {"lon": 103.105103, "lat": 5.378}}, {"id": 1763412, "name": "Kampung Tanjung Karang", "state": "", "country": "MY", "coord": {"lon": 101.184898, "lat": 3.4242}}, {"id": 1763774, "name": "Kampong Sungai Tanah Liat", "state": "", "country": "MY", "coord": {"lon": 100.683327, "lat": 4.63333}}, {"id": 1764027, "name": "Kampung Sungai Glugur", "state": "", "country": "MY", "coord": {"lon": 100.31353, "lat": 5.36966}}, {"id": 1764160, "name": "Kampung Sungai Ara", "state": "", "country": "MY", "coord": {"lon": 100.273483, "lat": 5.32699}}, {"id": 1764318, "name": "Kampung Simpang Renggam", "state": "", "country": "MY", "coord": {"lon": 103.300003, "lat": 1.8278}}, {"id": 1765067, "name": "Kampung Rantau Panjang", "state": "", "country": "MY", "coord": {"lon": 101.974503, "lat": 6.016}}, {"id": 1765223, "name": "Kampung Pulau Samak", "state": "", "country": "MY", "coord": {"lon": 102.254402, "lat": 2.2623}}, {"id": 1766249, "name": "Kampong Pangkal Kalong", "state": "", "country": "MY", "coord": {"lon": 102.216667, "lat": 5.91667}}, {"id": 1766699, "name": "Kampung Naran", "state": "", "country": "MY", "coord": {"lon": 100.278976, "lat": 5.29102}}, {"id": 1767021, "name": "Kampong Masjid Tanah", "state": "", "country": "MY", "coord": {"lon": 102.116669, "lat": 2.35}}, {"id": 1768129, "name": "Kampung Kota Lama", "state": "", "country": "MY", "coord": {"lon": 102.166397, "lat": 2.5181}}, {"id": 1768664, "name": "Kampong Kadok", "state": "", "country": "MY", "coord": {"lon": 102.25, "lat": 6}}, {"id": 1769157, "name": "Kampong Gual Payong", "state": "", "country": "MY", "coord": {"lon": 102.083328, "lat": 5.95}}, {"id": 1769612, "name": "Kampong Dungun", "state": "", "country": "MY", "coord": {"lon": 101.316673, "lat": 3.21667}}, {"id": 1770351, "name": "Kampung Bukit Baharu", "state": "", "country": "MY", "coord": {"lon": 102.285103, "lat": 2.2152}}, {"id": 1770847, "name": "Kampong Batu Perak", "state": "", "country": "MY", "coord": {"lon": 110.349998, "lat": 1.46667}}, {"id": 1770876, "name": "Kampung Batu Lapan Tiga Suku", "state": "", "country": "MY", "coord": {"lon": 103.216599, "lat": 3.7708}}, {"id": 1771023, "name": "Kampung Baru Subang", "state": "", "country": "MY", "coord": {"lon": 101.533333, "lat": 3.15}}, {"id": 1771287, "name": "Kampung Baharu Nilai", "state": "", "country": "MY", "coord": {"lon": 101.797203, "lat": 2.8033}}, {"id": 1771304, "name": "Kampong Baharu Balakong", "state": "", "country": "MY", "coord": {"lon": 101.75, "lat": 3.03333}}, {"id": 1771485, "name": "Kampung Ayer Molek", "state": "", "country": "MY", "coord": {"lon": 102.327797, "lat": 2.2139}}, {"id": 1772148, "name": "Juru", "state": "", "country": "MY", "coord": {"lon": 100.442291, "lat": 5.31201}}, {"id": 1778290, "name": "Bukit Rambai", "state": "", "country": "MY", "coord": {"lon": 102.1838, "lat": 2.2594}}, {"id": 1778677, "name": "Brighton", "state": "", "country": "MY", "coord": {"lon": 113.966667, "lat": 4.38333}}, {"id": 1779790, "name": "Bentong Town", "state": "", "country": "MY", "coord": {"lon": 101.900002, "lat": 3.51667}}, {"id": 1779926, "name": "Bemban", "state": "", "country": "MY", "coord": {"lon": 102.374603, "lat": 2.2684}}, {"id": 1780890, "name": "Batu Berendam", "state": "", "country": "MY", "coord": {"lon": 102.246002, "lat": 2.2487}}, {"id": 1782807, "name": "Api Rokok", "state": "", "country": "MY", "coord": {"lon": 103.433327, "lat": 4.55}}, {"id": 1783552, "name": "Yuele", "state": "", "country": "CN", "coord": {"lon": 107.909447, "lat": 36.265659}}, {"id": 1783553, "name": "Yingge", "state": "", "country": "CN", "coord": {"lon": 107.648567, "lat": 34.095589}}, {"id": 1783554, "name": "Yaxing", "state": "", "country": "CN", "coord": {"lon": 109.262733, "lat": 19.447781}}, {"id": 1783556, "name": "Xianshui", "state": "", "country": "CN", "coord": {"lon": 101.127007, "lat": 30.991449}}, {"id": 1783557, "name": "Lintan Chengguanzhen", "state": "", "country": "CN", "coord": {"lon": 103.352417, "lat": 34.68885}}, {"id": 1783573, "name": "Hangkou", "state": "", "country": "CN", "coord": {"lon": 114.441841, "lat": 29.04739}}, {"id": 1783581, "name": "Changjing", "state": "", "country": "CN", "coord": {"lon": 120.477501, "lat": 31.75111}}, {"id": 1783596, "name": "Longtan", "state": "", "country": "CN", "coord": {"lon": 114.105911, "lat": 23.71242}}, {"id": 1783600, "name": "Liaoyang", "state": "", "country": "CN", "coord": {"lon": 113.339859, "lat": 37.079769}}, {"id": 1783621, "name": "Zunyi", "state": "", "country": "CN", "coord": {"lon": 106.907219, "lat": 27.68667}}, {"id": 1783625, "name": "Zuitou", "state": "", "country": "CN", "coord": {"lon": 107.31266, "lat": 34.062191}}, {"id": 1783626, "name": "Zuitai", "state": "", "country": "CN", "coord": {"lon": 105.604668, "lat": 33.33083}}, {"id": 1783628, "name": "Zuhu", "state": "", "country": "CN", "coord": {"lon": 112.030884, "lat": 39.731781}}, {"id": 1783631, "name": "Zu\u2019an", "state": "", "country": "CN", "coord": {"lon": 108.484444, "lat": 34.095558}}, {"id": 1783633, "name": "Zoucheng", "state": "", "country": "CN", "coord": {"lon": 116.965561, "lat": 35.400558}}, {"id": 1783636, "name": "Zoushi", "state": "", "country": "CN", "coord": {"lon": 111.538857, "lat": 29.04397}}, {"id": 1783639, "name": "Zouqiao", "state": "", "country": "CN", "coord": {"lon": 115.48539, "lat": 29.42384}}, {"id": 1783643, "name": "Zouma", "state": "", "country": "CN", "coord": {"lon": 110.423058, "lat": 29.828329}}, {"id": 1783649, "name": "Zongying", "state": "", "country": "CN", "coord": {"lon": 106.980423, "lat": 33.15794}}, {"id": 1783651, "name": "Zongyang", "state": "", "country": "CN", "coord": {"lon": 117.20417, "lat": 30.698891}}, {"id": 1783657, "name": "Zongluzui", "state": "", "country": "CN", "coord": {"lon": 115.060364, "lat": 30.696831}}, {"id": 1783683, "name": "Yanjiang", "state": "", "country": "CN", "coord": {"lon": 104.648109, "lat": 30.12108}}, {"id": 1783690, "name": "Zixi", "state": "", "country": "CN", "coord": {"lon": 117.783997, "lat": 28.06949}}, {"id": 1783694, "name": "Ziwu", "state": "", "country": "CN", "coord": {"lon": 108.893623, "lat": 34.058048}}, {"id": 1783699, "name": "Wenchang", "state": "", "country": "CN", "coord": {"lon": 105.155022, "lat": 31.636259}}, {"id": 1783707, "name": "Zishan", "state": "", "country": "CN", "coord": {"lon": 115.541222, "lat": 25.959949}}, {"id": 1783708, "name": "Zirun", "state": "", "country": "CN", "coord": {"lon": 112.683578, "lat": 39.303459}}, {"id": 1783719, "name": "Zilingpu", "state": "", "country": "CN", "coord": {"lon": 112.218163, "lat": 31.131399}}, {"id": 1783720, "name": "Zilang", "state": "", "country": "CN", "coord": {"lon": 111.210579, "lat": 30.003929}}, {"id": 1783731, "name": "Zicheng", "state": "", "country": "CN", "coord": {"lon": 115.1726, "lat": 23.644421}}, {"id": 1783745, "name": "Zigong", "state": "", "country": "CN", "coord": {"lon": 104.776894, "lat": 29.341619}}, {"id": 1783750, "name": "Zibu", "state": "", "country": "CN", "coord": {"lon": 116.86293, "lat": 28.853319}}, {"id": 1783752, "name": "Zhuzuo", "state": "", "country": "CN", "coord": {"lon": 115.979782, "lat": 26.38674}}, {"id": 1783762, "name": "Zhuzhoujiang Miaozuxiang", "state": "", "country": "CN", "coord": {"lon": 110.071938, "lat": 26.67528}}, {"id": 1783763, "name": "Zhuzhou", "state": "", "country": "CN", "coord": {"lon": 113.150002, "lat": 27.83333}}, {"id": 1783774, "name": "Zhuyuan", "state": "", "country": "CN", "coord": {"lon": 103.41861, "lat": 24.10778}}, {"id": 1783779, "name": "Zhuyeping", "state": "", "country": "CN", "coord": {"lon": 110.541931, "lat": 29.472361}}, {"id": 1783786, "name": "Zhuyang", "state": "", "country": "CN", "coord": {"lon": 107.201157, "lat": 30.73674}}, {"id": 1783792, "name": "Zhuxi Chengguanzhen", "state": "", "country": "CN", "coord": {"lon": 109.723373, "lat": 32.325691}}, {"id": 1783800, "name": "Zhuwa", "state": "", "country": "CN", "coord": {"lon": 115.116562, "lat": 30.595079}}, {"id": 1783804, "name": "Zhuting", "state": "", "country": "CN", "coord": {"lon": 114.078506, "lat": 27.776011}}, {"id": 1783808, "name": "Zhutian", "state": "", "country": "CN", "coord": {"lon": 117.081146, "lat": 28.75848}}, {"id": 1783813, "name": "Zhutan", "state": "", "country": "CN", "coord": {"lon": 114.160553, "lat": 28.05261}}, {"id": 1783820, "name": "Zhushi", "state": "", "country": "CN", "coord": {"lon": 113.888817, "lat": 33.061588}}, {"id": 1783825, "name": "Zhushan Chengguanzhen", "state": "", "country": "CN", "coord": {"lon": 110.236137, "lat": 32.22179}}, {"id": 1783836, "name": "Jiahe Chengguanzhen", "state": "", "country": "CN", "coord": {"lon": 112.363518, "lat": 25.559361}}, {"id": 1783842, "name": "Zhuqi", "state": "", "country": "CN", "coord": {"lon": 119.101936, "lat": 26.146111}}, {"id": 1783856, "name": "Zhuoyang", "state": "", "country": "CN", "coord": {"lon": 119.0215, "lat": 26.630039}}, {"id": 1783857, "name": "Zhuotian", "state": "", "country": "CN", "coord": {"lon": 116.275681, "lat": 25.558229}}, {"id": 1783873, "name": "Zhumadian", "state": "", "country": "CN", "coord": {"lon": 114.029442, "lat": 32.979439}}, {"id": 1783886, "name": "Zhulin", "state": "", "country": "CN", "coord": {"lon": 115.491608, "lat": 30.369459}}, {"id": 1783891, "name": "Zhuliang", "state": "", "country": "CN", "coord": {"lon": 116.600891, "lat": 27.46838}}, {"id": 1783894, "name": "Zhulan", "state": "", "country": "CN", "coord": {"lon": 115.711121, "lat": 25.62681}}, {"id": 1783898, "name": "Zhukou", "state": "", "country": "CN", "coord": {"lon": 117.260483, "lat": 26.978991}}, {"id": 1783903, "name": "Zhujing", "state": "", "country": "CN", "coord": {"lon": 121.15966, "lat": 30.900999}}, {"id": 1783906, "name": "Zhujiazhuang", "state": "", "country": "CN", "coord": {"lon": 107.780602, "lat": 34.472359}}, {"id": 1783913, "name": "Zhujiang", "state": "", "country": "CN", "coord": {"lon": 114.70443, "lat": 27.27685}}, {"id": 1783920, "name": "Zhujiajiao", "state": "", "country": "CN", "coord": {"lon": 121.056961, "lat": 31.107571}}, {"id": 1783924, "name": "Zhuangxing", "state": "", "country": "CN", "coord": {"lon": 121.333519, "lat": 30.85157}}, {"id": 1783934, "name": "Shangqiu", "state": "", "country": "CN", "coord": {"lon": 115.650002, "lat": 34.450001}}, {"id": 1783940, "name": "Zhuji", "state": "", "country": "CN", "coord": {"lon": 120.242332, "lat": 29.71876}}, {"id": 1783946, "name": "Zhuhong", "state": "", "country": "CN", "coord": {"lon": 119.983353, "lat": 32.87883}}, {"id": 1783949, "name": "Zhuhang", "state": "", "country": "CN", "coord": {"lon": 120.982498, "lat": 31.90139}}, {"id": 1783956, "name": "Zhouqu Chengguanzhen", "state": "", "country": "CN", "coord": {"lon": 104.362778, "lat": 33.784168}}, {"id": 1783964, "name": "Zhushi", "state": "", "country": "CN", "coord": {"lon": 110.676941, "lat": 27.08778}}, {"id": 1783970, "name": "Zhufeng", "state": "", "country": "CN", "coord": {"lon": 118.936417, "lat": 30.56813}}, {"id": 1783978, "name": "Zhudian", "state": "", "country": "CN", "coord": {"lon": 105.946602, "lat": 35.115669}}, {"id": 1783986, "name": "Zhucun", "state": "", "country": "CN", "coord": {"lon": 113.687851, "lat": 23.2796}}, {"id": 1783988, "name": "Mizhou", "state": "", "country": "CN", "coord": {"lon": 119.397499, "lat": 35.99472}}, {"id": 1784001, "name": "Zhuantang", "state": "", "country": "CN", "coord": {"lon": 120.076134, "lat": 30.1635}}, {"id": 1784008, "name": "Zhuanqiang", "state": "", "country": "CN", "coord": {"lon": 118.813728, "lat": 31.263729}}, {"id": 1784033, "name": "Zhuangtou", "state": "", "country": "CN", "coord": {"lon": 117.291672, "lat": 39.65778}}, {"id": 1784037, "name": "Zhuangtou", "state": "", "country": "CN", "coord": {"lon": 108.451668, "lat": 34.2575}}, {"id": 1784040, "name": "Zhuangta", "state": "", "country": "CN", "coord": {"lon": 110.9011, "lat": 29.628151}}, {"id": 1784041, "name": "Zhuangshi", "state": "", "country": "CN", "coord": {"lon": 121.609619, "lat": 29.93306}}, {"id": 1784044, "name": "Zhuangqiao", "state": "", "country": "CN", "coord": {"lon": 121.548332, "lat": 29.93}}, {"id": 1784050, "name": "Zhuangli", "state": "", "country": "CN", "coord": {"lon": 109.059837, "lat": 34.81958}}, {"id": 1784055, "name": "Zhuanghe", "state": "", "country": "CN", "coord": {"lon": 122.991112, "lat": 39.700829}}, {"id": 1784073, "name": "Zhouzhuang", "state": "", "country": "CN", "coord": {"lon": 120.410461, "lat": 31.865391}}, {"id": 1784074, "name": "Zhouzhuang", "state": "", "country": "CN", "coord": {"lon": 120.8451, "lat": 31.11614}}, {"id": 1784082, "name": "Zhouxin", "state": "", "country": "CN", "coord": {"lon": 113.084938, "lat": 23.68078}}, {"id": 1784083, "name": "Zhouxi", "state": "", "country": "CN", "coord": {"lon": 116.389442, "lat": 29.1859}}, {"id": 1784084, "name": "Zhouxiang", "state": "", "country": "CN", "coord": {"lon": 119.549721, "lat": 32.983891}}, {"id": 1784087, "name": "Zhouxiang", "state": "", "country": "CN", "coord": {"lon": 121.127693, "lat": 30.174431}}, {"id": 1784090, "name": "Zhouwang", "state": "", "country": "CN", "coord": {"lon": 111.194443, "lat": 27.194441}}, {"id": 1784091, "name": "Zhouwangmiao", "state": "", "country": "CN", "coord": {"lon": 120.504478, "lat": 30.463671}}, {"id": 1784094, "name": "Zhoutou", "state": "", "country": "CN", "coord": {"lon": 116.318161, "lat": 29.86409}}, {"id": 1784098, "name": "Zhoutian", "state": "", "country": "CN", "coord": {"lon": 115.727829, "lat": 25.328819}}, {"id": 1784099, "name": "Zhoutian", "state": "", "country": "CN", "coord": {"lon": 113.816673, "lat": 24.966669}}, {"id": 1784103, "name": "Zhoushi", "state": "", "country": "CN", "coord": {"lon": 120.986389, "lat": 31.46361}}, {"id": 1784109, "name": "Zhouquan", "state": "", "country": "CN", "coord": {"lon": 120.347481, "lat": 30.57926}}, {"id": 1784123, "name": "Zhouling", "state": "", "country": "CN", "coord": {"lon": 108.727219, "lat": 34.405281}}, {"id": 1784130, "name": "Zhoukou", "state": "", "country": "CN", "coord": {"lon": 114.633331, "lat": 33.633331}}, {"id": 1784131, "name": "Zhoukou", "state": "", "country": "CN", "coord": {"lon": 106.401131, "lat": 31.034719}}, {"id": 1784132, "name": "Zhoukou", "state": "", "country": "CN", "coord": {"lon": 112.044998, "lat": 29.01528}}, {"id": 1784148, "name": "Zhoujiajing", "state": "", "country": "CN", "coord": {"lon": 102.400002, "lat": 38.883331}}, {"id": 1784155, "name": "Zhoujiadian", "state": "", "country": "CN", "coord": {"lon": 111.900002, "lat": 29.24798}}, {"id": 1784163, "name": "Zhouhu", "state": "", "country": "CN", "coord": {"lon": 114.520264, "lat": 27.159201}}, {"id": 1784174, "name": "Zhoufang", "state": "", "country": "CN", "coord": {"lon": 117.166618, "lat": 28.529341}}, {"id": 1784178, "name": "Zhoucun", "state": "", "country": "CN", "coord": {"lon": 117.816673, "lat": 36.816669}}, {"id": 1784182, "name": "Zhoucheng", "state": "", "country": "CN", "coord": {"lon": 108.121109, "lat": 34.43639}}, {"id": 1784185, "name": "Yuxi", "state": "", "country": "CN", "coord": {"lon": 102.542221, "lat": 24.355}}, {"id": 1784206, "name": "Zhongzhai", "state": "", "country": "CN", "coord": {"lon": 103.964851, "lat": 34.64851}}, {"id": 1784207, "name": "Zhongzhai", "state": "", "country": "CN", "coord": {"lon": 104.42009, "lat": 33.19133}}, {"id": 1784209, "name": "Zhongzhai", "state": "", "country": "CN", "coord": {"lon": 109.268608, "lat": 27.19528}}, {"id": 1784213, "name": "Zhongzhai", "state": "", "country": "CN", "coord": {"lon": 114.396477, "lat": 24.741819}}, {"id": 1784217, "name": "Zhongyun", "state": "", "country": "CN", "coord": {"lon": 117.685944, "lat": 29.22126}}, {"id": 1784220, "name": "Zhongyuan", "state": "", "country": "CN", "coord": {"lon": 110.46759, "lat": 19.147869}}, {"id": 1784239, "name": "Ningxiang", "state": "", "country": "CN", "coord": {"lon": 111.205231, "lat": 37.34}}, {"id": 1784244, "name": "Zhongxinqiao", "state": "", "country": "CN", "coord": {"lon": 117.542503, "lat": 39.034721}}, {"id": 1784253, "name": "Zhongxing", "state": "", "country": "CN", "coord": {"lon": 118.679169, "lat": 33.703892}}, {"id": 1784261, "name": "Zhongxing", "state": "", "country": "CN", "coord": {"lon": 109.852478, "lat": 19.56856}}, {"id": 1784272, "name": "Zhongxin", "state": "", "country": "CN", "coord": {"lon": 101.271538, "lat": 26.616671}}, {"id": 1784273, "name": "Zhongxin", "state": "", "country": "CN", "coord": {"lon": 114.716019, "lat": 24.216261}}, {"id": 1784274, "name": "Zhongxin", "state": "", "country": "CN", "coord": {"lon": 113.613564, "lat": 23.289539}}, {"id": 1784291, "name": "Zhongtou", "state": "", "country": "CN", "coord": {"lon": 113.339546, "lat": 33.988361}}, {"id": 1784292, "name": "Zhongtong", "state": "", "country": "CN", "coord": {"lon": 116.968109, "lat": 28.30127}}, {"id": 1784298, "name": "Zhongtang", "state": "", "country": "CN", "coord": {"lon": 113.657188, "lat": 23.09668}}, {"id": 1784305, "name": "Zhonghe", "state": "", "country": "CN", "coord": {"lon": 106.173843, "lat": 36.032921}}, {"id": 1784309, "name": "Zhongshu", "state": "", "country": "CN", "coord": {"lon": 103.662979, "lat": 25.0273}}, {"id": 1784310, "name": "Zhongshu", "state": "", "country": "CN", "coord": {"lon": 103.76667, "lat": 24.51667}}, {"id": 1784319, "name": "Laocheng", "state": "", "country": "CN", "coord": {"lon": 116.035782, "lat": 25.02737}}, {"id": 1784320, "name": "Zhongshan", "state": "", "country": "CN", "coord": {"lon": 111.300003, "lat": 24.533331}}, {"id": 1784337, "name": "Jinzhong", "state": "", "country": "CN", "coord": {"lon": 103.306389, "lat": 26.37595}}, {"id": 1784347, "name": "Zhongnan", "state": "", "country": "CN", "coord": {"lon": 108.360168, "lat": 34.14677}}, {"id": 1784350, "name": "Zhongming", "state": "", "country": "CN", "coord": {"lon": 118.050751, "lat": 30.984819}}, {"id": 1784361, "name": "Zhongling", "state": "", "country": "CN", "coord": {"lon": 116.477837, "lat": 28.438219}}, {"id": 1784369, "name": "Zhongjiapu", "state": "", "country": "CN", "coord": {"lon": 111.05011, "lat": 29.089001}}, {"id": 1784373, "name": "Kaijiang", "state": "", "country": "CN", "coord": {"lon": 104.674477, "lat": 31.039591}}, {"id": 1784380, "name": "Zhonghuopu", "state": "", "country": "CN", "coord": {"lon": 114.001053, "lat": 29.76034}}, {"id": 1784393, "name": "Zhonghe", "state": "", "country": "CN", "coord": {"lon": 108.98333, "lat": 28.450001}}, {"id": 1784396, "name": "Zhonghexu", "state": "", "country": "CN", "coord": {"lon": 111.858612, "lat": 25.70583}}, {"id": 1784404, "name": "Zhongguan", "state": "", "country": "CN", "coord": {"lon": 120.184509, "lat": 30.64958}}, {"id": 1784414, "name": "Zhongfang", "state": "", "country": "CN", "coord": {"lon": 109.931938, "lat": 27.41139}}, {"id": 1784415, "name": "Zhongfang", "state": "", "country": "CN", "coord": {"lon": 119.425827, "lat": 26.60083}}, {"id": 1784429, "name": "Zhongdeng", "state": "", "country": "CN", "coord": {"lon": 117.353058, "lat": 39.590561}}, {"id": 1784430, "name": "Lianhuashan", "state": "", "country": "CN", "coord": {"lon": 116.992493, "lat": 29.618521}}, {"id": 1784444, "name": "Zhongcun", "state": "", "country": "CN", "coord": {"lon": 115.827713, "lat": 26.96044}}, {"id": 1784447, "name": "Zhongcun", "state": "", "country": "CN", "coord": {"lon": 115.83506, "lat": 25.3578}}, {"id": 1784452, "name": "Zhongchao", "state": "", "country": "CN", "coord": {"lon": 109.220001, "lat": 26.137501}}, {"id": 1784457, "name": "Zhongbu", "state": "", "country": "CN", "coord": {"lon": 117.296333, "lat": 28.846189}}, {"id": 1784461, "name": "Mingxing", "state": "", "country": "CN", "coord": {"lon": 109.270622, "lat": 29.68033}}, {"id": 1784462, "name": "Zhongbao", "state": "", "country": "CN", "coord": {"lon": 116.265244, "lat": 25.195431}}, {"id": 1784463, "name": "Zhongfan", "state": "", "country": "CN", "coord": {"lon": 117.378197, "lat": 28.54038}}, {"id": 1784468, "name": "Zhongba", "state": "", "country": "CN", "coord": {"lon": 104.739319, "lat": 31.778191}}, {"id": 1784469, "name": "Zhongba", "state": "", "country": "CN", "coord": {"lon": 104.739319, "lat": 31.778191}}, {"id": 1784474, "name": "Zhongba", "state": "", "country": "CN", "coord": {"lon": 115.341042, "lat": 23.70731}}, {"id": 1784477, "name": "Zhong\u2019an", "state": "", "country": "CN", "coord": {"lon": 104.23333, "lat": 25.66667}}, {"id": 1784480, "name": "Zhizhong", "state": "", "country": "CN", "coord": {"lon": 109.259941, "lat": 18.63101}}, {"id": 1784488, "name": "Zhixia", "state": "", "country": "CN", "coord": {"lon": 115.110809, "lat": 26.981991}}, {"id": 1784495, "name": "Zhitang", "state": "", "country": "CN", "coord": {"lon": 120.953072, "lat": 31.61158}}, {"id": 1784497, "name": "Zhitan", "state": "", "country": "CN", "coord": {"lon": 117.30909, "lat": 29.62052}}, {"id": 1784513, "name": "Zhili", "state": "", "country": "CN", "coord": {"lon": 120.256668, "lat": 30.873581}}, {"id": 1784525, "name": "Zhijiang", "state": "", "country": "CN", "coord": {"lon": 109.659203, "lat": 27.458139}}, {"id": 1784543, "name": "Zhifang", "state": "", "country": "CN", "coord": {"lon": 114.316673, "lat": 30.35}}, {"id": 1784553, "name": "Zhicheng", "state": "", "country": "CN", "coord": {"lon": 119.90361, "lat": 31.006109}}, {"id": 1784554, "name": "Zhicheng", "state": "", "country": "CN", "coord": {"lon": 111.504723, "lat": 30.295561}}, {"id": 1784556, "name": "Zhibu", "state": "", "country": "CN", "coord": {"lon": 120.248482, "lat": 29.82065}}, {"id": 1784567, "name": "Zhetian", "state": "", "country": "CN", "coord": {"lon": 114.407799, "lat": 27.234249}}, {"id": 1784568, "name": "Zhetang", "state": "", "country": "CN", "coord": {"lon": 118.91552, "lat": 31.75614}}, {"id": 1784579, "name": "Zhenzhushan", "state": "", "country": "CN", "coord": {"lon": 117.461243, "lat": 29.18907}}, {"id": 1784580, "name": "Zhenzhou", "state": "", "country": "CN", "coord": {"lon": 119.178886, "lat": 32.269169}}, {"id": 1784581, "name": "Zhenze", "state": "", "country": "CN", "coord": {"lon": 120.500053, "lat": 30.91571}}, {"id": 1784586, "name": "Zhenyuan", "state": "", "country": "CN", "coord": {"lon": 108.199959, "lat": 34.32502}}, {"id": 1784592, "name": "Wufeng", "state": "", "country": "CN", "coord": {"lon": 104.833328, "lat": 27.450001}}, {"id": 1784617, "name": "Zhenping Chengguanzhen", "state": "", "country": "CN", "coord": {"lon": 112.233208, "lat": 33.033138}}, {"id": 1784642, "name": "Zhenjiang", "state": "", "country": "CN", "coord": {"lon": 119.434174, "lat": 32.209171}}, {"id": 1784647, "name": "Zhaobaoshan", "state": "", "country": "CN", "coord": {"lon": 121.687531, "lat": 29.9695}}, {"id": 1784648, "name": "Zhenhaicun", "state": "", "country": "CN", "coord": {"lon": 118.090492, "lat": 24.25823}}, {"id": 1784658, "name": "Zhengzhou", "state": "", "country": "CN", "coord": {"lon": 113.648613, "lat": 34.757778}}, {"id": 1784702, "name": "Zhengguo", "state": "", "country": "CN", "coord": {"lon": 113.888443, "lat": 23.41823}}, {"id": 1784706, "name": "Zhengfang", "state": "", "country": "CN", "coord": {"lon": 117.889153, "lat": 28.700979}}, {"id": 1784707, "name": "Zhengfang", "state": "", "country": "CN", "coord": {"lon": 117.707397, "lat": 26.71343}}, {"id": 1784708, "name": "Zhengdun", "state": "", "country": "CN", "coord": {"lon": 118.694717, "lat": 27.49667}}, {"id": 1784712, "name": "Zhengding", "state": "", "country": "CN", "coord": {"lon": 114.559441, "lat": 38.139721}}, {"id": 1784715, "name": "Zhengdian", "state": "", "country": "CN", "coord": {"lon": 114.25, "lat": 30.33333}}, {"id": 1784721, "name": "Zhengcun", "state": "", "country": "CN", "coord": {"lon": 114.529343, "lat": 28.95454}}, {"id": 1784730, "name": "Zhengang", "state": "", "country": "CN", "coord": {"lon": 115.315208, "lat": 25.000441}}, {"id": 1784733, "name": "Zhendong", "state": "", "country": "CN", "coord": {"lon": 120.216667, "lat": 34.133331}}, {"id": 1784734, "name": "Zhendeqiao", "state": "", "country": "CN", "coord": {"lon": 111.828072, "lat": 29.137939}}, {"id": 1784755, "name": "Zhelin", "state": "", "country": "CN", "coord": {"lon": 121.46917, "lat": 30.8325}}, {"id": 1784756, "name": "Zhelin", "state": "", "country": "CN", "coord": {"lon": 115.466667, "lat": 29.23333}}, {"id": 1784757, "name": "Zhelin", "state": "", "country": "CN", "coord": {"lon": 117.09111, "lat": 23.581499}}, {"id": 1784760, "name": "Zhelang", "state": "", "country": "CN", "coord": {"lon": 115.557953, "lat": 22.6721}}, {"id": 1784764, "name": "Zhejiang Sheng", "state": "", "country": "CN", "coord": {"lon": 120, "lat": 29}}, {"id": 1784790, "name": "Zhaxi", "state": "", "country": "CN", "coord": {"lon": 104.968742, "lat": 27.850809}}, {"id": 1784800, "name": "Zhapu", "state": "", "country": "CN", "coord": {"lon": 121.086861, "lat": 30.60153}}, {"id": 1784811, "name": "Zhaozhen", "state": "", "country": "CN", "coord": {"lon": 104.436058, "lat": 30.8563}}, {"id": 1784820, "name": "Xinghua", "state": "", "country": "CN", "coord": {"lon": 119.834167, "lat": 32.939171}}, {"id": 1784822, "name": "Zhaoxie", "state": "", "country": "CN", "coord": {"lon": 115.870583, "lat": 27.16778}}, {"id": 1784823, "name": "Zhaoxiang", "state": "", "country": "CN", "coord": {"lon": 121.192032, "lat": 31.151939}}, {"id": 1784827, "name": "Zhaoxian", "state": "", "country": "CN", "coord": {"lon": 107.623352, "lat": 34.749828}}, {"id": 1784841, "name": "Zhaotong", "state": "", "country": "CN", "coord": {"lon": 103.716667, "lat": 27.316669}}, {"id": 1784846, "name": "Zhaoshi", "state": "", "country": "CN", "coord": {"lon": 109.425522, "lat": 29.235741}}, {"id": 1784853, "name": "Zhaoqing", "state": "", "country": "CN", "coord": {"lon": 112.459717, "lat": 23.051161}}, {"id": 1784860, "name": "Zhaoping", "state": "", "country": "CN", "coord": {"lon": 110.787033, "lat": 24.17244}}, {"id": 1784874, "name": "Zhaokang", "state": "", "country": "CN", "coord": {"lon": 111.247253, "lat": 35.720531}}, {"id": 1784892, "name": "Zhaopeng", "state": "", "country": "CN", "coord": {"lon": 113.848587, "lat": 31.4132}}, {"id": 1784919, "name": "Zhaohe", "state": "", "country": "CN", "coord": {"lon": 112.845268, "lat": 33.18774}}, {"id": 1784920, "name": "Zhaoguli", "state": "", "country": "CN", "coord": {"lon": 117.243607, "lat": 39.178329}}, {"id": 1784928, "name": "Zhaogezhuang", "state": "", "country": "CN", "coord": {"lon": 117.195831, "lat": 39.784439}}, {"id": 1784929, "name": "Zhaogezhuang", "state": "", "country": "CN", "coord": {"lon": 118.400002, "lat": 39.76667}}, {"id": 1784947, "name": "Zhaozhen", "state": "", "country": "CN", "coord": {"lon": 108.496941, "lat": 34.55722}}, {"id": 1784950, "name": "Zhaocun", "state": "", "country": "CN", "coord": {"lon": 112.479607, "lat": 33.754822}}, {"id": 1784953, "name": "Zhaoyuan", "state": "", "country": "CN", "coord": {"lon": 120.396393, "lat": 37.359169}}, {"id": 1784960, "name": "Zhaobei", "state": "", "country": "CN", "coord": {"lon": 114.032784, "lat": 39.48444}}, {"id": 1784969, "name": "Xiping", "state": "", "country": "CN", "coord": {"lon": 103.79612, "lat": 25.597839}}, {"id": 1784972, "name": "Zhanxi", "state": "", "country": "CN", "coord": {"lon": 115.2285, "lat": 28.048019}}, {"id": 1784974, "name": "Zhantian", "state": "", "country": "CN", "coord": {"lon": 116.161072, "lat": 26.592079}}, {"id": 1784976, "name": "Zhantang", "state": "", "country": "CN", "coord": {"lon": 115.792168, "lat": 25.416149}}, {"id": 1784982, "name": "Zhanping", "state": "", "country": "CN", "coord": {"lon": 116.240578, "lat": 28.029739}}, {"id": 1784990, "name": "Zhanjiang", "state": "", "country": "CN", "coord": {"lon": 110.342712, "lat": 21.28145}}, {"id": 1784991, "name": "Zhanjiaji", "state": "", "country": "CN", "coord": {"lon": 114.351799, "lat": 30.669001}}, {"id": 1785000, "name": "Danzhu", "state": "", "country": "CN", "coord": {"lon": 112.861008, "lat": 36.1245}}, {"id": 1785003, "name": "Zhangjiazhuang", "state": "", "country": "CN", "coord": {"lon": 112.793892, "lat": 39.263329}}, {"id": 1785015, "name": "Zhangzhuang", "state": "", "country": "CN", "coord": {"lon": 114.358917, "lat": 27.526461}}, {"id": 1785018, "name": "Zhangzhou", "state": "", "country": "CN", "coord": {"lon": 117.655563, "lat": 24.51333}}, {"id": 1785019, "name": "Zhangzhishan", "state": "", "country": "CN", "coord": {"lon": 121.00708, "lat": 31.9247}}, {"id": 1785021, "name": "Zhangzhen", "state": "", "country": "CN", "coord": {"lon": 120.86837, "lat": 29.809311}}, {"id": 1785036, "name": "Zhangye", "state": "", "country": "CN", "coord": {"lon": 100.451668, "lat": 38.93417}}, {"id": 1785041, "name": "Zhangyan", "state": "", "country": "CN", "coord": {"lon": 121.280083, "lat": 30.806629}}, {"id": 1785055, "name": "Zhangwu", "state": "", "country": "CN", "coord": {"lon": 119.543892, "lat": 30.77972}}, {"id": 1785066, "name": "Zhangwan", "state": "", "country": "CN", "coord": {"lon": 119.591942, "lat": 26.71139}}, {"id": 1785068, "name": "Zhangting", "state": "", "country": "CN", "coord": {"lon": 121.284241, "lat": 30.01528}}, {"id": 1785104, "name": "Zhangpu", "state": "", "country": "CN", "coord": {"lon": 120.939552, "lat": 31.28746}}, {"id": 1785132, "name": "Zhangliang", "state": "", "country": "CN", "coord": {"lon": 113.040466, "lat": 33.669491}}, {"id": 1785140, "name": "Zhangjin", "state": "", "country": "CN", "coord": {"lon": 112.597687, "lat": 30.19726}}, {"id": 1785157, "name": "Zhangjiayuan", "state": "", "country": "CN", "coord": {"lon": 106.333, "lat": 36.721851}}, {"id": 1785176, "name": "Zhangjiashan", "state": "", "country": "CN", "coord": {"lon": 115.479263, "lat": 28.08523}}, {"id": 1785177, "name": "Zhangqiao", "state": "", "country": "CN", "coord": {"lon": 120.059692, "lat": 32.115929}}, {"id": 1785195, "name": "Zhangji", "state": "", "country": "CN", "coord": {"lon": 112.778412, "lat": 31.5116}}, {"id": 1785197, "name": "Zhangjiahe", "state": "", "country": "CN", "coord": {"lon": 106.564468, "lat": 33.441399}}, {"id": 1785205, "name": "Zhangfang", "state": "", "country": "CN", "coord": {"lon": 114.10302, "lat": 28.327209}}, {"id": 1785224, "name": "Zhangji", "state": "", "country": "CN", "coord": {"lon": 119.650002, "lat": 34.049999}}, {"id": 1785238, "name": "Zhanghuban", "state": "", "country": "CN", "coord": {"lon": 118.484077, "lat": 26.386539}}, {"id": 1785258, "name": "Zhanggu", "state": "", "country": "CN", "coord": {"lon": 101.884132, "lat": 30.869499}}, {"id": 1785273, "name": "Zhanggang", "state": "", "country": "CN", "coord": {"lon": 112.876663, "lat": 30.572041}}, {"id": 1785285, "name": "Zhangdu", "state": "", "country": "CN", "coord": {"lon": 118.227959, "lat": 30.596371}}, {"id": 1785286, "name": "Zibo", "state": "", "country": "CN", "coord": {"lon": 118.063332, "lat": 36.790562}}, {"id": 1785290, "name": "Zhangdian", "state": "", "country": "CN", "coord": {"lon": 119.300003, "lat": 34.200001}}, {"id": 1785292, "name": "Zhangdian", "state": "", "country": "CN", "coord": {"lon": 120.051468, "lat": 32.404179}}, {"id": 1785294, "name": "Anyang", "state": "", "country": "CN", "coord": {"lon": 114.328888, "lat": 36.099442}}, {"id": 1785309, "name": "Zhangcun", "state": "", "country": "CN", "coord": {"lon": 111.349442, "lat": 35.650108}}, {"id": 1785326, "name": "Zhangcheng", "state": "", "country": "CN", "coord": {"lon": 118.93692, "lat": 25.84676}}, {"id": 1785333, "name": "Zhangba", "state": "", "country": "CN", "coord": {"lon": 107.647903, "lat": 34.896542}}, {"id": 1785341, "name": "Zhan\u2019erxiang", "state": "", "country": "CN", "coord": {"lon": 106.300339, "lat": 33.779861}}, {"id": 1785348, "name": "Zhakou", "state": "", "country": "CN", "coord": {"lon": 111.50074, "lat": 29.851959}}, {"id": 1785351, "name": "Zhajin", "state": "", "country": "CN", "coord": {"lon": 114.23597, "lat": 29.009609}}, {"id": 1785372, "name": "Zhaishi Miaozu Dongzuxiang", "state": "", "country": "CN", "coord": {"lon": 110.044441, "lat": 26.50083}}, {"id": 1785389, "name": "Zhaike", "state": "", "country": "CN", "coord": {"lon": 106.42337, "lat": 36.291561}}, {"id": 1785400, "name": "Zhaigang", "state": "", "country": "CN", "coord": {"lon": 112.348587, "lat": 24.520399}}, {"id": 1785414, "name": "Zezhang", "state": "", "country": "CN", "coord": {"lon": 111.155533, "lat": 35.715729}}, {"id": 1785420, "name": "Zengtian", "state": "", "country": "CN", "coord": {"lon": 115.838966, "lat": 27.3563}}, {"id": 1785421, "name": "Zengtian", "state": "", "country": "CN", "coord": {"lon": 114.981018, "lat": 24.020321}}, {"id": 1785427, "name": "Zengji", "state": "", "country": "CN", "coord": {"lon": 112.369827, "lat": 30.72028}}, {"id": 1785432, "name": "Zengjia", "state": "", "country": "CN", "coord": {"lon": 106.101181, "lat": 32.619572}}, {"id": 1785434, "name": "Zengdian", "state": "", "country": "CN", "coord": {"lon": 113.770271, "lat": 31.12582}}, {"id": 1785439, "name": "Zekou", "state": "", "country": "CN", "coord": {"lon": 112.871521, "lat": 30.487061}}, {"id": 1785453, "name": "Zaozhuang", "state": "", "country": "CN", "coord": {"lon": 117.554169, "lat": 34.864719}}, {"id": 1785462, "name": "Zaoyang", "state": "", "country": "CN", "coord": {"lon": 112.754173, "lat": 32.12722}}, {"id": 1785464, "name": "Zaoxi", "state": "", "country": "CN", "coord": {"lon": 119.490097, "lat": 30.2006}}, {"id": 1785468, "name": "Zaoshi", "state": "", "country": "CN", "coord": {"lon": 111.235649, "lat": 29.654381}}, {"id": 1785469, "name": "Zaoshi", "state": "", "country": "CN", "coord": {"lon": 113.444717, "lat": 26.67083}}, {"id": 1785483, "name": "Xicun", "state": "", "country": "CN", "coord": {"lon": 113.115448, "lat": 39.15139}}, {"id": 1785486, "name": "Zaolin", "state": "", "country": "CN", "coord": {"lon": 107.696182, "lat": 34.363522}}, {"id": 1785489, "name": "Zaojiacheng", "state": "", "country": "CN", "coord": {"lon": 117.431671, "lat": 39.276112}}, {"id": 1785501, "name": "Zangzhai", "state": "", "country": "CN", "coord": {"lon": 113.11367, "lat": 39.629532}}, {"id": 1785522, "name": "Zagunao", "state": "", "country": "CN", "coord": {"lon": 103.171783, "lat": 31.442881}}, {"id": 1785529, "name": "Shangyuzhuang", "state": "", "country": "CN", "coord": {"lon": 112.205788, "lat": 38.907558}}, {"id": 1785541, "name": "Yuyue", "state": "", "country": "CN", "coord": {"lon": 113.963249, "lat": 30.0182}}, {"id": 1785545, "name": "Yuyao", "state": "", "country": "CN", "coord": {"lon": 121.149437, "lat": 30.049999}}, {"id": 1785549, "name": "Yuyang", "state": "", "country": "CN", "coord": {"lon": 112.902832, "lat": 30.17375}}, {"id": 1785555, "name": "Yuxin", "state": "", "country": "CN", "coord": {"lon": 120.788483, "lat": 30.668791}}, {"id": 1785556, "name": "Yuxin", "state": "", "country": "CN", "coord": {"lon": 112.990952, "lat": 30.67293}}, {"id": 1785565, "name": "Xiushui", "state": "", "country": "CN", "coord": {"lon": 113.388649, "lat": 38.10379}}, {"id": 1785566, "name": "Yingchuan", "state": "", "country": "CN", "coord": {"lon": 113.46389, "lat": 34.162781}}, {"id": 1785572, "name": "Yuxia", "state": "", "country": "CN", "coord": {"lon": 108.629051, "lat": 34.061539}}, {"id": 1785574, "name": "Yuxi", "state": "", "country": "CN", "coord": {"lon": 119.997803, "lat": 32.582001}}, {"id": 1785583, "name": "Yuwang", "state": "", "country": "CN", "coord": {"lon": 106.37767, "lat": 36.81929}}, {"id": 1785587, "name": "Yuwan", "state": "", "country": "CN", "coord": {"lon": 113.665024, "lat": 24.16407}}, {"id": 1785591, "name": "Yutou", "state": "", "country": "CN", "coord": {"lon": 118.505661, "lat": 28.62149}}, {"id": 1785593, "name": "Yuting", "state": "", "country": "CN", "coord": {"lon": 117.969681, "lat": 29.84038}}, {"id": 1785614, "name": "Jicheng", "state": "", "country": "CN", "coord": {"lon": 112.957687, "lat": 37.063591}}, {"id": 1785620, "name": "Yushan", "state": "", "country": "CN", "coord": {"lon": 109.501579, "lat": 34.205631}}, {"id": 1785621, "name": "Yushan", "state": "", "country": "CN", "coord": {"lon": 113.815498, "lat": 33.199478}}, {"id": 1785622, "name": "Yushan", "state": "", "country": "CN", "coord": {"lon": 112.367851, "lat": 31.98946}}, {"id": 1785623, "name": "Kunshan", "state": "", "country": "CN", "coord": {"lon": 120.9543, "lat": 31.377621}}, {"id": 1785625, "name": "Yushan", "state": "", "country": "CN", "coord": {"lon": 118.567131, "lat": 26.90863}}, {"id": 1785642, "name": "Yuping", "state": "", "country": "CN", "coord": {"lon": 103.710854, "lat": 22.976931}}, {"id": 1785654, "name": "Yunyang", "state": "", "country": "CN", "coord": {"lon": 108.808609, "lat": 34.637218}}, {"id": 1785655, "name": "Yunyang", "state": "", "country": "CN", "coord": {"lon": 112.714218, "lat": 33.44743}}, {"id": 1785657, "name": "Junyang", "state": "", "country": "CN", "coord": {"lon": 115.366669, "lat": 28.41667}}, {"id": 1785661, "name": "Yunxian Chengguanzhen", "state": "", "country": "CN", "coord": {"lon": 110.808746, "lat": 32.831291}}, {"id": 1785662, "name": "Aihua", "state": "", "country": "CN", "coord": {"lon": 100.099998, "lat": 24.41667}}, {"id": 1785665, "name": "Yunxixian Chengguanzhen", "state": "", "country": "CN", "coord": {"lon": 110.423058, "lat": 32.982761}}, {"id": 1785666, "name": "Yunxi", "state": "", "country": "CN", "coord": {"lon": 105.386139, "lat": 31.2264}}, {"id": 1785669, "name": "Yunxi", "state": "", "country": "CN", "coord": {"lon": 118.93969, "lat": 29.026119}}, {"id": 1785675, "name": "Yunting", "state": "", "country": "CN", "coord": {"lon": 120.337273, "lat": 31.86441}}, {"id": 1785677, "name": "Yunti", "state": "", "country": "CN", "coord": {"lon": 119.282219, "lat": 30.374439}}, {"id": 1785683, "name": "Yuntai", "state": "", "country": "CN", "coord": {"lon": 105.665611, "lat": 33.446339}}, {"id": 1785689, "name": "Yunshan", "state": "", "country": "CN", "coord": {"lon": 116.2995, "lat": 28.17593}}, {"id": 1785694, "name": "Yunnan Sheng", "state": "", "country": "CN", "coord": {"lon": 102, "lat": 25}}, {"id": 1785695, "name": "Yunmenling", "state": "", "country": "CN", "coord": {"lon": 115.7444, "lat": 25.2407}}, {"id": 1785698, "name": "Yunmeng Chengguanzhen", "state": "", "country": "CN", "coord": {"lon": 113.76545, "lat": 31.06251}}, {"id": 1785700, "name": "Yunluo", "state": "", "country": "CN", "coord": {"lon": 116.07486, "lat": 23.25259}}, {"id": 1785705, "name": "Yunlong", "state": "", "country": "CN", "coord": {"lon": 110.467056, "lat": 19.876539}}, {"id": 1785706, "name": "Yunling", "state": "", "country": "CN", "coord": {"lon": 118.224091, "lat": 30.65332}}, {"id": 1785707, "name": "Yunling", "state": "", "country": "CN", "coord": {"lon": 117.336037, "lat": 23.95384}}, {"id": 1785710, "name": "Jinghong", "state": "", "country": "CN", "coord": {"lon": 100.734093, "lat": 21.99102}}, {"id": 1785716, "name": "Pizhou", "state": "", "country": "CN", "coord": {"lon": 117.950279, "lat": 34.31139}}, {"id": 1785717, "name": "Yunhe", "state": "", "country": "CN", "coord": {"lon": 119.716667, "lat": 34.083328}}, {"id": 1785719, "name": "Yunhe", "state": "", "country": "CN", "coord": {"lon": 100.1978, "lat": 26.524969}}, {"id": 1785725, "name": "Yunfu", "state": "", "country": "CN", "coord": {"lon": 112.0373, "lat": 22.930559}}, {"id": 1785738, "name": "Yuncheng", "state": "", "country": "CN", "coord": {"lon": 110.992783, "lat": 35.02306}}, {"id": 1785741, "name": "Yuncao", "state": "", "country": "CN", "coord": {"lon": 118.074097, "lat": 31.422661}}, {"id": 1785766, "name": "Yuling", "state": "", "country": "CN", "coord": {"lon": 112.429443, "lat": 39.555828}}, {"id": 1785777, "name": "Yulinshi", "state": "", "country": "CN", "coord": {"lon": 109.749443, "lat": 38.290562}}, {"id": 1785781, "name": "Yulin", "state": "", "country": "CN", "coord": {"lon": 110.150002, "lat": 22.633329}}, {"id": 1785800, "name": "Yujing", "state": "", "country": "CN", "coord": {"lon": 112.602898, "lat": 39.675522}}, {"id": 1785802, "name": "Yujin", "state": "", "country": "CN", "coord": {"lon": 109.244652, "lat": 34.515079}}, {"id": 1785803, "name": "Yujin", "state": "", "country": "CN", "coord": {"lon": 103.945557, "lat": 29.209089}}, {"id": 1785805, "name": "Wulingyuan", "state": "", "country": "CN", "coord": {"lon": 110.544067, "lat": 29.34936}}, {"id": 1785829, "name": "Yujia", "state": "", "country": "CN", "coord": {"lon": 117.022972, "lat": 28.1744}}, {"id": 1785843, "name": "Yuhuangmiao", "state": "", "country": "CN", "coord": {"lon": 106.948914, "lat": 33.72715}}, {"id": 1785858, "name": "Yuguzhuang", "state": "", "country": "CN", "coord": {"lon": 117.358887, "lat": 39.639999}}, {"id": 1785866, "name": "Yugan", "state": "", "country": "CN", "coord": {"lon": 116.684387, "lat": 28.695629}}, {"id": 1785871, "name": "Yufang", "state": "", "country": "CN", "coord": {"lon": 117.254822, "lat": 26.902189}}, {"id": 1785882, "name": "Yueyang", "state": "", "country": "CN", "coord": {"lon": 111.914543, "lat": 36.2896}}, {"id": 1785884, "name": "Yongjiawan", "state": "", "country": "CN", "coord": {"lon": 113.111107, "lat": 29.140829}}, {"id": 1785896, "name": "Yuecheng", "state": "", "country": "CN", "coord": {"lon": 102.508698, "lat": 28.641569}}, {"id": 1785922, "name": "Yuelai", "state": "", "country": "CN", "coord": {"lon": 121.432449, "lat": 31.935699}}, {"id": 1785941, "name": "Yuegezhuang", "state": "", "country": "CN", "coord": {"lon": 116.26667, "lat": 39.883331}}, {"id": 1785946, "name": "Jiulong", "state": "", "country": "CN", "coord": {"lon": 106.437134, "lat": 30.536221}}, {"id": 1785961, "name": "Yudongzi", "state": "", "country": "CN", "coord": {"lon": 106.322533, "lat": 33.3251}}, {"id": 1785963, "name": "Yudong", "state": "", "country": "CN", "coord": {"lon": 121.355003, "lat": 32.027229}}, {"id": 1785964, "name": "Yudong", "state": "", "country": "CN", "coord": {"lon": 106.51944, "lat": 29.385}}, {"id": 1785972, "name": "Yucun", "state": "", "country": "CN", "coord": {"lon": 118.631393, "lat": 30.34889}}, {"id": 1785974, "name": "Yuci", "state": "", "country": "CN", "coord": {"lon": 112.731941, "lat": 37.680279}}, {"id": 1785979, "name": "Yucheng", "state": "", "country": "CN", "coord": {"lon": 116.628609, "lat": 36.930279}}, {"id": 1785980, "name": "Yucheng", "state": "", "country": "CN", "coord": {"lon": 116.465279, "lat": 34.92889}}, {"id": 1785981, "name": "Yucheng", "state": "", "country": "CN", "coord": {"lon": 120.852287, "lat": 30.53507}}, {"id": 1785998, "name": "Yuanzhou", "state": "", "country": "CN", "coord": {"lon": 113.953438, "lat": 23.12323}}, {"id": 1786039, "name": "Yuantan", "state": "", "country": "CN", "coord": {"lon": 113.195877, "lat": 23.66353}}, {"id": 1786050, "name": "Yuanshan", "state": "", "country": "CN", "coord": {"lon": 114.48439, "lat": 24.372789}}, {"id": 1786052, "name": "Yuanren", "state": "", "country": "CN", "coord": {"lon": 109.454872, "lat": 34.79681}}, {"id": 1786060, "name": "Yuanping", "state": "", "country": "CN", "coord": {"lon": 112.7575, "lat": 38.715279}}, {"id": 1786063, "name": "Yuanmou", "state": "", "country": "CN", "coord": {"lon": 101.872002, "lat": 25.681971}}, {"id": 1786066, "name": "Yuanling", "state": "", "country": "CN", "coord": {"lon": 110.402222, "lat": 28.44861}}, {"id": 1786067, "name": "Qianjiang", "state": "", "country": "CN", "coord": {"lon": 112.885948, "lat": 30.415131}}, {"id": 1786071, "name": "Yuankeng", "state": "", "country": "CN", "coord": {"lon": 117.710678, "lat": 26.761339}}, {"id": 1786088, "name": "Yuanhua", "state": "", "country": "CN", "coord": {"lon": 120.771553, "lat": 30.414539}}, {"id": 1786092, "name": "Yuanguping", "state": "", "country": "CN", "coord": {"lon": 110.724541, "lat": 29.015829}}, {"id": 1786099, "name": "Yuandun", "state": "", "country": "CN", "coord": {"lon": 106.639198, "lat": 33.02784}}, {"id": 1786110, "name": "Yuancheng", "state": "", "country": "CN", "coord": {"lon": 107.789574, "lat": 36.65202}}, {"id": 1786112, "name": "Heyuan", "state": "", "country": "CN", "coord": {"lon": 114.683327, "lat": 23.73333}}, {"id": 1786113, "name": "Yuanbuzi", "state": "", "country": "CN", "coord": {"lon": 112.53434, "lat": 39.822201}}, {"id": 1786119, "name": "Yuanba", "state": "", "country": "CN", "coord": {"lon": 105.961777, "lat": 32.325642}}, {"id": 1786125, "name": "Youzha", "state": "", "country": "CN", "coord": {"lon": 121.063057, "lat": 32.01878}}, {"id": 1786129, "name": "Youzha", "state": "", "country": "CN", "coord": {"lon": 103.274719, "lat": 24.46611}}, {"id": 1786131, "name": "Youzai", "state": "", "country": "CN", "coord": {"lon": 113.888512, "lat": 39.950909}}, {"id": 1786140, "name": "Youxikou", "state": "", "country": "CN", "coord": {"lon": 118.443901, "lat": 26.398121}}, {"id": 1786141, "name": "Youxian Chengguanzhen", "state": "", "country": "CN", "coord": {"lon": 113.362312, "lat": 26.98399}}, {"id": 1786148, "name": "Youxi Chengguanzhen", "state": "", "country": "CN", "coord": {"lon": 118.178886, "lat": 26.173611}}, {"id": 1786151, "name": "Youtian", "state": "", "country": "CN", "coord": {"lon": 114.792763, "lat": 27.512079}}, {"id": 1786157, "name": "Youshui", "state": "", "country": "CN", "coord": {"lon": 115.669739, "lat": 25.44347}}, {"id": 1786169, "name": "Youlan", "state": "", "country": "CN", "coord": {"lon": 116.150002, "lat": 28.580021}}, {"id": 1786182, "name": "Youguzhuang", "state": "", "country": "CN", "coord": {"lon": 117.246109, "lat": 39.90583}}, {"id": 1786184, "name": "Youfencun", "state": "", "country": "CN", "coord": {"lon": 109.26667, "lat": 36.349998}}, {"id": 1786202, "name": "Youdunjie", "state": "", "country": "CN", "coord": {"lon": 116.637421, "lat": 29.377001}}, {"id": 1786211, "name": "Youcheng", "state": "", "country": "CN", "coord": {"lon": 116.830772, "lat": 29.2365}}, {"id": 1786244, "name": "Yongxing", "state": "", "country": "CN", "coord": {"lon": 118.368912, "lat": 27.92927}}, {"id": 1786247, "name": "Yongxing Chengguanzhen", "state": "", "country": "CN", "coord": {"lon": 113.132782, "lat": 26.106649}}, {"id": 1786248, "name": "Yongxing", "state": "", "country": "CN", "coord": {"lon": 110.262939, "lat": 19.893841}}, {"id": 1786257, "name": "Yongtai", "state": "", "country": "CN", "coord": {"lon": 108.150002, "lat": 34.889439}}, {"id": 1786259, "name": "Yongtai", "state": "", "country": "CN", "coord": {"lon": 115.442101, "lat": 27.942961}}, {"id": 1786266, "name": "Yongshan", "state": "", "country": "CN", "coord": {"lon": 117.314842, "lat": 29.1497}}, {"id": 1786278, "name": "Yongping", "state": "", "country": "CN", "coord": {"lon": 117.777702, "lat": 28.21554}}, {"id": 1786279, "name": "Yongping", "state": "", "country": "CN", "coord": {"lon": 116.114166, "lat": 25.28212}}, {"id": 1786288, "name": "Yongning", "state": "", "country": "CN", "coord": {"lon": 106.188652, "lat": 33.839561}}, {"id": 1786290, "name": "Yongning", "state": "", "country": "CN", "coord": {"lon": 114.365761, "lat": 28.52449}}, {"id": 1786293, "name": "Yongning", "state": "", "country": "CN", "coord": {"lon": 118.690002, "lat": 24.68}}, {"id": 1786301, "name": "Yonglong", "state": "", "country": "CN", "coord": {"lon": 115.931168, "lat": 25.4174}}, {"id": 1786306, "name": "Yongle", "state": "", "country": "CN", "coord": {"lon": 108.938057, "lat": 34.53278}}, {"id": 1786334, "name": "Yonghe", "state": "", "country": "CN", "coord": {"lon": 117.475563, "lat": 39.075279}}, {"id": 1786336, "name": "Zhihe", "state": "", "country": "CN", "coord": {"lon": 110.639557, "lat": 36.779961}}, {"id": 1786342, "name": "Yonghe", "state": "", "country": "CN", "coord": {"lon": 112.03228, "lat": 24.62594}}, {"id": 1786343, "name": "Yonghe", "state": "", "country": "CN", "coord": {"lon": 115.799377, "lat": 24.144711}}, {"id": 1786344, "name": "Yonghan", "state": "", "country": "CN", "coord": {"lon": 113.968208, "lat": 23.57003}}, {"id": 1786346, "name": "Yonggu", "state": "", "country": "CN", "coord": {"lon": 111.363098, "lat": 35.721298}}, {"id": 1786351, "name": "Yongfu", "state": "", "country": "CN", "coord": {"lon": 109.98185, "lat": 25.004021}}, {"id": 1786354, "name": "Yongfeng", "state": "", "country": "CN", "coord": {"lon": 109.859261, "lat": 34.999168}}, {"id": 1786356, "name": "Yongfeng", "state": "", "country": "CN", "coord": {"lon": 118.213661, "lat": 28.41893}}, {"id": 1786357, "name": "Yongfeng", "state": "", "country": "CN", "coord": {"lon": 112.18338, "lat": 27.428289}}, {"id": 1786364, "name": "Yongding", "state": "", "country": "CN", "coord": {"lon": 101.686417, "lat": 26.04122}}, {"id": 1786365, "name": "Yongding", "state": "", "country": "CN", "coord": {"lon": 102.461891, "lat": 25.198601}}, {"id": 1786370, "name": "Taocheng", "state": "", "country": "CN", "coord": {"lon": 118.30056, "lat": 25.3123}}, {"id": 1786378, "name": "Yongchuan", "state": "", "country": "CN", "coord": {"lon": 105.894722, "lat": 29.351391}}, {"id": 1786382, "name": "Yongbei", "state": "", "country": "CN", "coord": {"lon": 100.780731, "lat": 26.646231}}, {"id": 1786412, "name": "Yizhang Chengguanzhen", "state": "", "country": "CN", "coord": {"lon": 112.978973, "lat": 25.38323}}, {"id": 1786430, "name": "Yixi", "state": "", "country": "CN", "coord": {"lon": 116.644562, "lat": 23.69644}}, {"id": 1786444, "name": "Yitao", "state": "", "country": "CN", "coord": {"lon": 119.099998, "lat": 34.083328}}, {"id": 1786448, "name": "Yitang", "state": "", "country": "CN", "coord": {"lon": 113.704422, "lat": 31.09568}}, {"id": 1786449, "name": "Yisuhe", "state": "", "country": "CN", "coord": {"lon": 112.926826, "lat": 27.76544}}, {"id": 1786455, "name": "Yishui", "state": "", "country": "CN", "coord": {"lon": 118.628059, "lat": 35.784721}}, {"id": 1786457, "name": "Yishi", "state": "", "country": "CN", "coord": {"lon": 121.474716, "lat": 29.19944}}, {"id": 1786458, "name": "Yishi", "state": "", "country": "CN", "coord": {"lon": 110.745979, "lat": 35.16497}}, {"id": 1786462, "name": "Yishan", "state": "", "country": "CN", "coord": {"lon": 119.254173, "lat": 34.299438}}, {"id": 1786467, "name": "Yisa", "state": "", "country": "CN", "coord": {"lon": 102.447113, "lat": 23.33231}}, {"id": 1786469, "name": "Yirong", "state": "", "country": "CN", "coord": {"lon": 114.8283, "lat": 23.521099}}, {"id": 1786474, "name": "Yiqiao", "state": "", "country": "CN", "coord": {"lon": 120.197838, "lat": 30.069559}}, {"id": 1786478, "name": "Yinzu", "state": "", "country": "CN", "coord": {"lon": 114.886597, "lat": 29.9603}}, {"id": 1786480, "name": "Yinzhu", "state": "", "country": "CN", "coord": {"lon": 119.416847, "lat": 29.98185}}, {"id": 1786485, "name": "Yinzhen", "state": "", "country": "CN", "coord": {"lon": 109.097656, "lat": 34.08268}}, {"id": 1786487, "name": "Yinying", "state": "", "country": "CN", "coord": {"lon": 113.557503, "lat": 37.936939}}, {"id": 1786488, "name": "Yinyang", "state": "", "country": "CN", "coord": {"lon": 121.86187, "lat": 31.71483}}, {"id": 1786499, "name": "Yintang", "state": "", "country": "CN", "coord": {"lon": 118.530891, "lat": 31.597561}}, {"id": 1786517, "name": "Yinliu", "state": "", "country": "CN", "coord": {"lon": 117.396393, "lat": 39.982498}}, {"id": 1786519, "name": "Yinkeng", "state": "", "country": "CN", "coord": {"lon": 115.614731, "lat": 26.21512}}, {"id": 1786525, "name": "Yinjiang", "state": "", "country": "CN", "coord": {"lon": 121.355186, "lat": 29.7742}}, {"id": 1786529, "name": "Yinji", "state": "", "country": "CN", "coord": {"lon": 112.07386, "lat": 31.940741}}, {"id": 1786531, "name": "Yinjiacheng", "state": "", "country": "CN", "coord": {"lon": 106.941269, "lat": 36.18866}}, {"id": 1786535, "name": "Yinji", "state": "", "country": "CN", "coord": {"lon": 113.574997, "lat": 33.25082}}, {"id": 1786538, "name": "Yining", "state": "", "country": "CN", "coord": {"lon": 114.563622, "lat": 29.03614}}, {"id": 1786545, "name": "Yingzhou", "state": "", "country": "CN", "coord": {"lon": 109.849419, "lat": 18.42149}}, {"id": 1786546, "name": "Zhongxiang", "state": "", "country": "CN", "coord": {"lon": 112.583061, "lat": 31.166109}}, {"id": 1786559, "name": "Yingxian", "state": "", "country": "CN", "coord": {"lon": 113.185539, "lat": 39.55912}}, {"id": 1786572, "name": "Yingtou", "state": "", "country": "CN", "coord": {"lon": 107.75386, "lat": 34.160141}}, {"id": 1786577, "name": "Yingtan", "state": "", "country": "CN", "coord": {"lon": 117, "lat": 28.23333}}, {"id": 1786587, "name": "Yingshang Chengguanzhen", "state": "", "country": "CN", "coord": {"lon": 116.270142, "lat": 32.629452}}, {"id": 1786590, "name": "Yingqiao", "state": "", "country": "CN", "coord": {"lon": 113.585297, "lat": 33.963421}}, {"id": 1786620, "name": "Yinggen", "state": "", "country": "CN", "coord": {"lon": 109.839996, "lat": 19.03833}}, {"id": 1786622, "name": "Yinggehai", "state": "", "country": "CN", "coord": {"lon": 108.689438, "lat": 18.511419}}, {"id": 1786630, "name": "Yingdu", "state": "", "country": "CN", "coord": {"lon": 118.244171, "lat": 24.97167}}, {"id": 1786632, "name": "Yingdianjie", "state": "", "country": "CN", "coord": {"lon": 120.113892, "lat": 29.817221}}, {"id": 1786634, "name": "Yingcheng", "state": "", "country": "CN", "coord": {"lon": 113.412682, "lat": 24.16588}}, {"id": 1786635, "name": "Yingcui", "state": "", "country": "CN", "coord": {"lon": 106.45108, "lat": 32.482399}}, {"id": 1786640, "name": "Chengzhong", "state": "", "country": "CN", "coord": {"lon": 113.550003, "lat": 30.950001}}, {"id": 1786657, "name": "Yinchuan", "state": "", "country": "CN", "coord": {"lon": 106.273064, "lat": 38.46806}}, {"id": 1786676, "name": "Yima", "state": "", "country": "CN", "coord": {"lon": 111.883888, "lat": 34.73806}}, {"id": 1786696, "name": "Yijing", "state": "", "country": "CN", "coord": {"lon": 113.214027, "lat": 39.639301}}, {"id": 1786697, "name": "Yijing", "state": "", "country": "CN", "coord": {"lon": 111.99984, "lat": 39.064491}}, {"id": 1786699, "name": "Yijing", "state": "", "country": "CN", "coord": {"lon": 113.601936, "lat": 37.83556}}, {"id": 1786702, "name": "Yijing", "state": "", "country": "CN", "coord": {"lon": 108.105003, "lat": 34.57222}}, {"id": 1786706, "name": "Yijiang", "state": "", "country": "CN", "coord": {"lon": 118.486061, "lat": 30.90745}}, {"id": 1786720, "name": "Yigou", "state": "", "country": "CN", "coord": {"lon": 114.316673, "lat": 35.81139}}, {"id": 1786731, "name": "Qingzhou", "state": "", "country": "CN", "coord": {"lon": 118.479721, "lat": 36.696671}}, {"id": 1786738, "name": "Yidian", "state": "", "country": "CN", "coord": {"lon": 107.75309, "lat": 34.403759}}, {"id": 1786746, "name": "Yichun", "state": "", "country": "CN", "coord": {"lon": 114.400002, "lat": 27.83333}}, {"id": 1786751, "name": "Yichongqiao", "state": "", "country": "CN", "coord": {"lon": 110.86113, "lat": 29.33136}}, {"id": 1786756, "name": "Tangxing", "state": "", "country": "CN", "coord": {"lon": 111.698723, "lat": 35.745209}}, {"id": 1786759, "name": "Yicheng", "state": "", "country": "CN", "coord": {"lon": 112.256111, "lat": 31.70472}}, {"id": 1786760, "name": "Yicheng", "state": "", "country": "CN", "coord": {"lon": 119.87027, "lat": 31.370529}}, {"id": 1786764, "name": "Yichang", "state": "", "country": "CN", "coord": {"lon": 111.284721, "lat": 30.714439}}, {"id": 1786770, "name": "Yibin", "state": "", "country": "CN", "coord": {"lon": 104.623833, "lat": 28.76667}}, {"id": 1786778, "name": "Yezhou", "state": "", "country": "CN", "coord": {"lon": 109.723328, "lat": 30.603689}}, {"id": 1786789, "name": "Yexie", "state": "", "country": "CN", "coord": {"lon": 121.316429, "lat": 30.945431}}, {"id": 1786790, "name": "Kunyang", "state": "", "country": "CN", "coord": {"lon": 113.345001, "lat": 33.619999}}, {"id": 1786796, "name": "Yetan", "state": "", "country": "CN", "coord": {"lon": 115.173523, "lat": 23.9056}}, {"id": 1786803, "name": "Yeping", "state": "", "country": "CN", "coord": {"lon": 116.069702, "lat": 25.90567}}, {"id": 1786811, "name": "Yeliguan", "state": "", "country": "CN", "coord": {"lon": 103.660492, "lat": 34.964401}}, {"id": 1786841, "name": "Yazhou", "state": "", "country": "CN", "coord": {"lon": 120.325562, "lat": 32.390831}}, {"id": 1786853, "name": "Yawangkoucun", "state": "", "country": "CN", "coord": {"lon": 117.216667, "lat": 36.816669}}, {"id": 1786854, "name": "Yatunpu", "state": "", "country": "CN", "coord": {"lon": 109.626671, "lat": 26.155001}}, {"id": 1786855, "name": "Yatou", "state": "", "country": "CN", "coord": {"lon": 122.383331, "lat": 37.150002}}, {"id": 1786866, "name": "Yashan", "state": "", "country": "CN", "coord": {"lon": 118.01667, "lat": 30.816669}}, {"id": 1786867, "name": "Yashan", "state": "", "country": "CN", "coord": {"lon": 109.94194, "lat": 22.1975}}, {"id": 1786872, "name": "Yaqueling", "state": "", "country": "CN", "coord": {"lon": 111.586151, "lat": 30.64543}}, {"id": 1786875, "name": "Yaqian", "state": "", "country": "CN", "coord": {"lon": 116.452881, "lat": 28.289829}}, {"id": 1786893, "name": "Yaoxu", "state": "", "country": "CN", "coord": {"lon": 115.208122, "lat": 27.85428}}, {"id": 1786900, "name": "Yaozhou", "state": "", "country": "CN", "coord": {"lon": 108.970001, "lat": 34.905281}}, {"id": 1786926, "name": "Yaoshi", "state": "", "country": "CN", "coord": {"lon": 109.936592, "lat": 34.057961}}, {"id": 1786927, "name": "Yaoshi", "state": "", "country": "CN", "coord": {"lon": 109.530281, "lat": 27.639441}}, {"id": 1786928, "name": "Yaoshi", "state": "", "country": "CN", "coord": {"lon": 110.789169, "lat": 26.29306}}, {"id": 1786948, "name": "Yaopi", "state": "", "country": "CN", "coord": {"lon": 113.644173, "lat": 26.88694}}, {"id": 1786955, "name": "Yaoli", "state": "", "country": "CN", "coord": {"lon": 117.57502, "lat": 29.546209}}, {"id": 1786960, "name": "Yaowang", "state": "", "country": "CN", "coord": {"lon": 120.066673, "lat": 32.216671}}, {"id": 1786964, "name": "Yaojiagou", "state": "", "country": "CN", "coord": {"lon": 107.521477, "lat": 34.56641}}, {"id": 1786990, "name": "Yaodu", "state": "", "country": "CN", "coord": {"lon": 117.01667, "lat": 30.1}}, {"id": 1786996, "name": "Yaodian", "state": "", "country": "CN", "coord": {"lon": 108.851936, "lat": 34.407501}}, {"id": 1786997, "name": "Yaojiadian", "state": "", "country": "CN", "coord": {"lon": 111.43763, "lat": 30.36681}}, {"id": 1787003, "name": "Yaocun", "state": "", "country": "CN", "coord": {"lon": 119.100578, "lat": 30.891809}}, {"id": 1787005, "name": "Yaocheng", "state": "", "country": "CN", "coord": {"lon": 114.701393, "lat": 37.3325}}, {"id": 1787016, "name": "Yanzihe", "state": "", "country": "CN", "coord": {"lon": 113.605057, "lat": 31.968969}}, {"id": 1787020, "name": "Yanzibian", "state": "", "country": "CN", "coord": {"lon": 105.9254, "lat": 32.901192}}, {"id": 1787022, "name": "Yanzi", "state": "", "country": "CN", "coord": {"lon": 110.220284, "lat": 29.96806}}, {"id": 1787031, "name": "Yanzhou", "state": "", "country": "CN", "coord": {"lon": 116.828613, "lat": 35.55278}}, {"id": 1787046, "name": "Yanxia", "state": "", "country": "CN", "coord": {"lon": 114.862793, "lat": 29.56974}}, {"id": 1787048, "name": "Yanxi", "state": "", "country": "CN", "coord": {"lon": 115.039047, "lat": 27.64255}}, {"id": 1787053, "name": "Yanwu", "state": "", "country": "CN", "coord": {"lon": 107.073677, "lat": 36.1577}}, {"id": 1787057, "name": "Yanweigang", "state": "", "country": "CN", "coord": {"lon": 119.76667, "lat": 34.466671}}, {"id": 1787059, "name": "Yanwan", "state": "", "country": "CN", "coord": {"lon": 106.978302, "lat": 34.033699}}, {"id": 1787065, "name": "Yantou", "state": "", "country": "CN", "coord": {"lon": 113.329018, "lat": 39.060589}}, {"id": 1787072, "name": "Yantian", "state": "", "country": "CN", "coord": {"lon": 114.37429, "lat": 27.36594}}, {"id": 1787073, "name": "Yantian", "state": "", "country": "CN", "coord": {"lon": 119.857498, "lat": 26.853331}}, {"id": 1787075, "name": "Yantian", "state": "", "country": "CN", "coord": {"lon": 114.26722, "lat": 22.584221}}, {"id": 1787079, "name": "Yantang", "state": "", "country": "CN", "coord": {"lon": 113.695831, "lat": 26.78833}}, {"id": 1787080, "name": "Yantan", "state": "", "country": "CN", "coord": {"lon": 104.873802, "lat": 29.27396}}, {"id": 1787093, "name": "Yantai", "state": "", "country": "CN", "coord": {"lon": 121.400002, "lat": 37.533329}}, {"id": 1787094, "name": "Yansi", "state": "", "country": "CN", "coord": {"lon": 118.336792, "lat": 29.82365}}, {"id": 1787123, "name": "Yanqiao", "state": "", "country": "CN", "coord": {"lon": 120.330948, "lat": 31.712721}}, {"id": 1787125, "name": "Yanqian", "state": "", "country": "CN", "coord": {"lon": 117.451637, "lat": 26.26259}}, {"id": 1787129, "name": "Yanmenguan", "state": "", "country": "CN", "coord": {"lon": 112.859459, "lat": 39.190182}}, {"id": 1787131, "name": "Yanmen", "state": "", "country": "CN", "coord": {"lon": 109.74028, "lat": 27.855}}, {"id": 1787143, "name": "Yanling", "state": "", "country": "CN", "coord": {"lon": 104.661079, "lat": 29.530649}}, {"id": 1787144, "name": "Yanliang", "state": "", "country": "CN", "coord": {"lon": 109.22921, "lat": 34.65918}}, {"id": 1787151, "name": "Yankou", "state": "", "country": "CN", "coord": {"lon": 106.28669, "lat": 30.351151}}, {"id": 1787152, "name": "Yankou", "state": "", "country": "CN", "coord": {"lon": 111.088058, "lat": 27.34833}}, {"id": 1787162, "name": "Yanjing", "state": "", "country": "CN", "coord": {"lon": 106.347504, "lat": 29.94278}}, {"id": 1787163, "name": "Yanjing", "state": "", "country": "CN", "coord": {"lon": 111.759438, "lat": 29.84277}}, {"id": 1787164, "name": "Yanjing", "state": "", "country": "CN", "coord": {"lon": 101.509682, "lat": 27.426991}}, {"id": 1787166, "name": "Yanjing", "state": "", "country": "CN", "coord": {"lon": 104.189003, "lat": 28.072069}}, {"id": 1787178, "name": "Yanjiao", "state": "", "country": "CN", "coord": {"lon": 118.041107, "lat": 29.82}}, {"id": 1787204, "name": "Yangzongnan Hengjie", "state": "", "country": "CN", "coord": {"lon": 102.969452, "lat": 24.82222}}, {"id": 1787206, "name": "Yangzi", "state": "", "country": "CN", "coord": {"lon": 116.604118, "lat": 29.6413}}, {"id": 1787208, "name": "Yangzi", "state": "", "country": "CN", "coord": {"lon": 112.632431, "lat": 31.292101}}, {"id": 1787227, "name": "Yangzhou", "state": "", "country": "CN", "coord": {"lon": 119.435829, "lat": 32.397221}}, {"id": 1787228, "name": "Yangzhou", "state": "", "country": "CN", "coord": {"lon": 115.38028, "lat": 29.16279}}, {"id": 1787230, "name": "Yangzhong", "state": "", "country": "CN", "coord": {"lon": 119.374443, "lat": 26.705561}}, {"id": 1787231, "name": "Hutou", "state": "", "country": "CN", "coord": {"lon": 118.476303, "lat": 26.2771}}, {"id": 1787246, "name": "Yangyu", "state": "", "country": "CN", "coord": {"lon": 111.090973, "lat": 35.42012}}, {"id": 1787247, "name": "Yangyu", "state": "", "country": "CN", "coord": {"lon": 108.206421, "lat": 34.651211}}, {"id": 1787255, "name": "Yangxu", "state": "", "country": "CN", "coord": {"lon": 115.158493, "lat": 28.369221}}, {"id": 1787272, "name": "Yangxi", "state": "", "country": "CN", "coord": {"lon": 118.642097, "lat": 30.15667}}, {"id": 1787274, "name": "Yangxi", "state": "", "country": "CN", "coord": {"lon": 116.731918, "lat": 28.229771}}, {"id": 1787277, "name": "Yangxi", "state": "", "country": "CN", "coord": {"lon": 114.213249, "lat": 27.297991}}, {"id": 1787278, "name": "Yangxi", "state": "", "country": "CN", "coord": {"lon": 117.726723, "lat": 26.311411}}, {"id": 1787285, "name": "Yangwang", "state": "", "country": "CN", "coord": {"lon": 111.115211, "lat": 35.50716}}, {"id": 1787304, "name": "Yangtou", "state": "", "country": "CN", "coord": {"lon": 109.413887, "lat": 27.68944}}, {"id": 1787313, "name": "Yangtan", "state": "", "country": "CN", "coord": {"lon": 111.538467, "lat": 35.775162}}, {"id": 1787314, "name": "Yangtan", "state": "", "country": "CN", "coord": {"lon": 119.16806, "lat": 30.70583}}, {"id": 1787323, "name": "Yangshuo", "state": "", "country": "CN", "coord": {"lon": 110.48967, "lat": 24.780809}}, {"id": 1787331, "name": "Zhangjiagang", "state": "", "country": "CN", "coord": {"lon": 120.538887, "lat": 31.865}}, {"id": 1787335, "name": "Yangshan", "state": "", "country": "CN", "coord": {"lon": 116.25, "lat": 35.183331}}, {"id": 1787339, "name": "Yangsha", "state": "", "country": "CN", "coord": {"lon": 103.668159, "lat": 34.831551}}, {"id": 1787351, "name": "Yangquan", "state": "", "country": "CN", "coord": {"lon": 113.563332, "lat": 37.857498}}, {"id": 1787367, "name": "Yangqiao", "state": "", "country": "CN", "coord": {"lon": 114.589973, "lat": 27.95746}}, {"id": 1787375, "name": "Yangpu", "state": "", "country": "CN", "coord": {"lon": 121.519043, "lat": 31.26193}}, {"id": 1787381, "name": "Yangpingguan", "state": "", "country": "CN", "coord": {"lon": 106.053978, "lat": 32.962318}}, {"id": 1787384, "name": "Yangping", "state": "", "country": "CN", "coord": {"lon": 107.489861, "lat": 34.337898}}, {"id": 1787395, "name": "Yangmingbu", "state": "", "country": "CN", "coord": {"lon": 112.872223, "lat": 39.012501}}, {"id": 1787397, "name": "Yangming", "state": "", "country": "CN", "coord": {"lon": 114.934402, "lat": 24.45088}}, {"id": 1787409, "name": "Yangmei", "state": "", "country": "CN", "coord": {"lon": 112.56176, "lat": 24.10231}}, {"id": 1787421, "name": "Yanglu", "state": "", "country": "CN", "coord": {"lon": 106.14164, "lat": 36.636551}}, {"id": 1787423, "name": "Guanshang", "state": "", "country": "CN", "coord": {"lon": 114.553329, "lat": 30.65704}}, {"id": 1787437, "name": "Yangliuqing", "state": "", "country": "CN", "coord": {"lon": 116.999718, "lat": 39.137501}}, {"id": 1787438, "name": "Yangliu", "state": "", "country": "CN", "coord": {"lon": 118.611732, "lat": 30.83795}}, {"id": 1787455, "name": "Yanglinshi", "state": "", "country": "CN", "coord": {"lon": 111.775551, "lat": 29.97875}}, {"id": 1787458, "name": "Yangling", "state": "", "country": "CN", "coord": {"lon": 108.078911, "lat": 34.271729}}, {"id": 1787470, "name": "Yanglang", "state": "", "country": "CN", "coord": {"lon": 106.169701, "lat": 36.225681}}, {"id": 1787481, "name": "Yangjinzhuang", "state": "", "country": "CN", "coord": {"lon": 117.398064, "lat": 39.884998}}, {"id": 1787497, "name": "Yangzhai", "state": "", "country": "CN", "coord": {"lon": 113.995079, "lat": 31.517241}}, {"id": 1787521, "name": "Yangjiapo", "state": "", "country": "CN", "coord": {"lon": 117.887497, "lat": 39.29417}}, {"id": 1787531, "name": "Yangjiang", "state": "", "country": "CN", "coord": {"lon": 114.53405, "lat": 27.856581}}, {"id": 1787538, "name": "Yangji", "state": "", "country": "CN", "coord": {"lon": 112.994919, "lat": 31.218941}}, {"id": 1787554, "name": "Yangdian", "state": "", "country": "CN", "coord": {"lon": 106.426559, "lat": 33.933319}}, {"id": 1787557, "name": "Yangjiachang", "state": "", "country": "CN", "coord": {"lon": 112.284767, "lat": 30.06632}}, {"id": 1787579, "name": "Yanghu", "state": "", "country": "CN", "coord": {"lon": 118.297096, "lat": 29.70237}}, {"id": 1787580, "name": "Yanghou", "state": "", "country": "CN", "coord": {"lon": 118.508057, "lat": 26.640829}}, {"id": 1787581, "name": "Yanghong", "state": "", "country": "CN", "coord": {"lon": 108.315163, "lat": 34.519581}}, {"id": 1787590, "name": "Yanghe", "state": "", "country": "CN", "coord": {"lon": 113.580887, "lat": 31.096251}}, {"id": 1787594, "name": "Yangguo", "state": "", "country": "CN", "coord": {"lon": 109.51963, "lat": 34.355881}}, {"id": 1787599, "name": "Yangguang", "state": "", "country": "CN", "coord": {"lon": 102.793892, "lat": 24.13722}}, {"id": 1787601, "name": "Yanggu", "state": "", "country": "CN", "coord": {"lon": 115.775284, "lat": 36.110561}}, {"id": 1787610, "name": "Yanggang", "state": "", "country": "CN", "coord": {"lon": 115.137413, "lat": 29.57818}}, {"id": 1787618, "name": "Yangfanglin", "state": "", "country": "CN", "coord": {"lon": 114.363022, "lat": 29.484131}}, {"id": 1787619, "name": "Yangfangkou", "state": "", "country": "CN", "coord": {"lon": 112.330589, "lat": 39.100712}}, {"id": 1787624, "name": "Yangezhuang", "state": "", "country": "CN", "coord": {"lon": 117.690277, "lat": 39.996391}}, {"id": 1787638, "name": "Yangdi", "state": "", "country": "CN", "coord": {"lon": 116.328148, "lat": 26.048639}}, {"id": 1787646, "name": "Yangcun", "state": "", "country": "CN", "coord": {"lon": 117.06028, "lat": 39.363892}}, {"id": 1787656, "name": "Yangcun", "state": "", "country": "CN", "coord": {"lon": 114.627991, "lat": 24.637341}}, {"id": 1787657, "name": "Yangcun", "state": "", "country": "CN", "coord": {"lon": 114.467743, "lat": 23.433661}}, {"id": 1787667, "name": "Yangcheng", "state": "", "country": "CN", "coord": {"lon": 112.404282, "lat": 35.492199}}, {"id": 1787669, "name": "Yangcheng", "state": "", "country": "CN", "coord": {"lon": 112.64521, "lat": 24.4762}}, {"id": 1787681, "name": "Yangce", "state": "", "country": "CN", "coord": {"lon": 113.247063, "lat": 32.992851}}, {"id": 1787689, "name": "Yangba", "state": "", "country": "CN", "coord": {"lon": 106.781914, "lat": 32.474628}}, {"id": 1787746, "name": "Yancheng", "state": "", "country": "CN", "coord": {"lon": 120.125282, "lat": 33.385559}}, {"id": 1787758, "name": "Yanbodu", "state": "", "country": "CN", "coord": {"lon": 110.96814, "lat": 29.37467}}, {"id": 1787765, "name": "Yan\u2019an", "state": "", "country": "CN", "coord": {"lon": 109.491669, "lat": 36.598888}}, {"id": 1787768, "name": "Yamenkou", "state": "", "country": "CN", "coord": {"lon": 116.200279, "lat": 39.882778}}, {"id": 1787781, "name": "Yakoucun", "state": "", "country": "CN", "coord": {"lon": 118.637222, "lat": 24.67194}}, {"id": 1787794, "name": "Ya\u2019erya", "state": "", "country": "CN", "coord": {"lon": 112.993088, "lat": 39.968761}}, {"id": 1787805, "name": "Yacheng", "state": "", "country": "CN", "coord": {"lon": 120.188347, "lat": 26.988291}}, {"id": 1787806, "name": "Yacheng", "state": "", "country": "CN", "coord": {"lon": 109.164742, "lat": 18.37595}}, {"id": 1787808, "name": "Yacha", "state": "", "country": "CN", "coord": {"lon": 109.447502, "lat": 19.23056}}, {"id": 1787813, "name": "Yabai", "state": "", "country": "CN", "coord": {"lon": 108.086617, "lat": 34.17939}}, {"id": 1787821, "name": "Xuzhuang", "state": "", "country": "CN", "coord": {"lon": 109.940468, "lat": 34.864552}}, {"id": 1787824, "name": "Tongshan", "state": "", "country": "CN", "coord": {"lon": 117.157066, "lat": 34.18045}}, {"id": 1787828, "name": "Xuyong", "state": "", "country": "CN", "coord": {"lon": 105.434517, "lat": 28.16992}}, {"id": 1787831, "name": "Xucheng", "state": "", "country": "CN", "coord": {"lon": 118.488609, "lat": 33.011108}}, {"id": 1787833, "name": "Xuyang", "state": "", "country": "CN", "coord": {"lon": 109.143532, "lat": 34.618301}}, {"id": 1787834, "name": "Xuyang", "state": "", "country": "CN", "coord": {"lon": 104.419472, "lat": 29.45941}}, {"id": 1787837, "name": "Xucheng", "state": "", "country": "CN", "coord": {"lon": 110.128838, "lat": 20.35}}, {"id": 1787838, "name": "Xuwei", "state": "", "country": "CN", "coord": {"lon": 119.538033, "lat": 34.525982}}, {"id": 1787854, "name": "Xushuguan", "state": "", "country": "CN", "coord": {"lon": 120.497223, "lat": 31.38028}}, {"id": 1787856, "name": "Xushi", "state": "", "country": "CN", "coord": {"lon": 118.089203, "lat": 27.22781}}, {"id": 1787858, "name": "Shangrao", "state": "", "country": "CN", "coord": {"lon": 117.968597, "lat": 28.45322}}, {"id": 1787899, "name": "Xundian", "state": "", "country": "CN", "coord": {"lon": 113.633797, "lat": 31.16188}}, {"id": 1787901, "name": "Xunchang", "state": "", "country": "CN", "coord": {"lon": 104.714981, "lat": 28.45433}}, {"id": 1787912, "name": "Xukou", "state": "", "country": "CN", "coord": {"lon": 120.474136, "lat": 31.23044}}, {"id": 1787913, "name": "Xujing", "state": "", "country": "CN", "coord": {"lon": 121.271217, "lat": 31.176121}}, {"id": 1787917, "name": "Yuyue", "state": "", "country": "CN", "coord": {"lon": 120.261307, "lat": 30.51895}}, {"id": 1787923, "name": "Xujiaping", "state": "", "country": "CN", "coord": {"lon": 106.057632, "lat": 33.405449}}, {"id": 1787925, "name": "Xujiang", "state": "", "country": "CN", "coord": {"lon": 116.320107, "lat": 26.839439}}, {"id": 1787943, "name": "Xubu", "state": "", "country": "CN", "coord": {"lon": 116.315239, "lat": 29.464569}}, {"id": 1787948, "name": "Xujia", "state": "", "country": "CN", "coord": {"lon": 116.69046, "lat": 27.650049}}, {"id": 1787957, "name": "Xuhui", "state": "", "country": "CN", "coord": {"lon": 121.44709, "lat": 31.19594}}, {"id": 1787958, "name": "Xuhe", "state": "", "country": "CN", "coord": {"lon": 120.650002, "lat": 32.73333}}, {"id": 1787960, "name": "Xuhang", "state": "", "country": "CN", "coord": {"lon": 121.270653, "lat": 31.41293}}, {"id": 1787976, "name": "Xuezhen", "state": "", "country": "CN", "coord": {"lon": 109.296516, "lat": 34.95475}}, {"id": 1787989, "name": "Xuelu", "state": "", "country": "CN", "coord": {"lon": 108.340523, "lat": 34.409611}}, {"id": 1787990, "name": "Xuekulue", "state": "", "country": "CN", "coord": {"lon": 112.796692, "lat": 39.407982}}, {"id": 1787994, "name": "Xuejiawa", "state": "", "country": "CN", "coord": {"lon": 112.442451, "lat": 39.049751}},