[{"id": 1866453, "name": "Y\u014fngby\u014fn", "state": "", "country": "KP", "coord": {"lon": 125.804169, "lat": 39.813332}}, {"id": 1866569, "name": "Y\u014fnan-\u016dp", "state": "", "country": "KP", "coord": {"lon": 126.16111, "lat": 37.90889}}, {"id": 1866587, "name": "Y\u014fmju-\u016dp", "state": "", "country": "KP", "coord": {"lon": 124.598061, "lat": 39.89333}}, {"id": 1866923, "name": "W\u014fnsan", "state": "", "country": "KP", "coord": {"lon": 127.443611, "lat": 39.152779}}, {"id": 1867927, "name": "T\u2019ongch\u2019\u014fn-\u016dp", "state": "", "country": "KP", "coord": {"lon": 127.89167, "lat": 38.953892}}, {"id": 1868998, "name": "S\u016dngho 1-tong", "state": "", "country": "KP", "coord": {"lon": 125.977783, "lat": 38.99139}}, {"id": 1869021, "name": "Sunan", "state": "", "country": "KP", "coord": {"lon": 125.690002, "lat": 39.19833}}, {"id": 1869446, "name": "Songnim", "state": "", "country": "KP", "coord": {"lon": 125.644997, "lat": 38.754169}}, {"id": 1870413, "name": "Sil-li", "state": "", "country": "KP", "coord": {"lon": 125.47361, "lat": 39.49472}}, {"id": 1870434, "name": "Sinmak", "state": "", "country": "KP", "coord": {"lon": 126.23333, "lat": 38.416672}}, {"id": 1870742, "name": "Sinanju", "state": "", "country": "KP", "coord": {"lon": 125.609718, "lat": 39.598061}}, {"id": 1870883, "name": "Sariw\u014fn", "state": "", "country": "KP", "coord": {"lon": 125.755829, "lat": 38.507221}}, {"id": 1871028, "name": "Sangs\u014fng-ni", "state": "", "country": "KP", "coord": {"lon": 126.885559, "lat": 39.169441}}, {"id": 1871484, "name": "Samho-rodongjagu", "state": "", "country": "KP", "coord": {"lon": 127.871109, "lat": 39.947498}}, {"id": 1871856, "name": "Pyongyang", "state": "", "country": "KP", "coord": {"lon": 125.92778, "lat": 38.985279}}, {"id": 1871859, "name": "Pyongyang", "state": "", "country": "KP", "coord": {"lon": 125.754318, "lat": 39.033852}}, {"id": 1871871, "name": "P\u2019y\u014fngs\u014fng", "state": "", "country": "KP", "coord": {"lon": 125.871941, "lat": 39.246391}}, {"id": 1871952, "name": "P\u2019y\u014fngan-namdo", "state": "", "country": "KP", "coord": {"lon": 126.18, "lat": 39.511108}}, {"id": 1871954, "name": "P\u2019y\u014fngan-bukto", "state": "", "country": "KP", "coord": {"lon": 125.279716, "lat": 40.05167}}, {"id": 1871967, "name": "Py\u014fks\u014fng-\u016dp", "state": "", "country": "KP", "coord": {"lon": 125.556671, "lat": 38.047501}}, {"id": 1872726, "name": "Panghy\u014fn-dong", "state": "", "country": "KP", "coord": {"lon": 125.241386, "lat": 39.887218}}, {"id": 1873107, "name": "Democratic People\u2019s Republic of Korea", "state": "", "country": "KP", "coord": {"lon": 127, "lat": 40}}, {"id": 1873172, "name": "Ongjin", "state": "", "country": "KP", "coord": {"lon": 125.361938, "lat": 37.934719}}, {"id": 1873757, "name": "Namp\u2019o", "state": "", "country": "KP", "coord": {"lon": 125.407784, "lat": 38.737499}}, {"id": 1875054, "name": "Kwaksan", "state": "", "country": "KP", "coord": {"lon": 125.082779, "lat": 39.6875}}, {"id": 1875069, "name": "Kuy\u014fl-li", "state": "", "country": "KP", "coord": {"lon": 126.037216, "lat": 38.471668}}, {"id": 1875107, "name": "Kus\u014fng", "state": "", "country": "KP", "coord": {"lon": 125.24472, "lat": 39.98111}}, {"id": 1875506, "name": "Kujang-\u016dp", "state": "", "country": "KP", "coord": {"lon": 126.030281, "lat": 39.867222}}, {"id": 1875588, "name": "Kow\u014fn-\u016dp", "state": "", "country": "KP", "coord": {"lon": 127.243057, "lat": 39.438061}}, {"id": 1875632, "name": "Kosan", "state": "", "country": "KP", "coord": {"lon": 127.41806, "lat": 38.855831}}, {"id": 1875790, "name": "Koksan", "state": "", "country": "KP", "coord": {"lon": 126.666389, "lat": 38.78194}}, {"id": 1876101, "name": "Kangw\u014fn-do", "state": "", "country": "KP", "coord": {"lon": 127.440826, "lat": 38.701939}}, {"id": 1876153, "name": "Kangdong-\u016dp", "state": "", "country": "KP", "coord": {"lon": 126.096107, "lat": 39.142502}}, {"id": 1876373, "name": "Kaes\u014fng", "state": "", "country": "KP", "coord": {"lon": 126.554443, "lat": 37.970829}}, {"id": 1876873, "name": "Hwangju-\u016dp", "state": "", "country": "KP", "coord": {"lon": 125.776108, "lat": 38.67028}}, {"id": 1876884, "name": "Hwanghae-namdo", "state": "", "country": "KP", "coord": {"lon": 125.575829, "lat": 38.16111}}, {"id": 1876888, "name": "Hwanghae-bukto", "state": "", "country": "KP", "coord": {"lon": 126.300003, "lat": 38.562778}}, {"id": 1877030, "name": "H\u016dngnam", "state": "", "country": "KP", "coord": {"lon": 127.618607, "lat": 39.831669}}, {"id": 1877046, "name": "H\u016dkkyo-ri", "state": "", "country": "KP", "coord": {"lon": 125.791939, "lat": 38.798611}}, {"id": 1877148, "name": "Hoeyang", "state": "", "country": "KP", "coord": {"lon": 127.598328, "lat": 38.710281}}, {"id": 1877449, "name": "Hamh\u016dng", "state": "", "country": "KP", "coord": {"lon": 127.536392, "lat": 39.918331}}, {"id": 1877450, "name": "Hamnam", "state": "", "country": "KP", "coord": {"lon": 127.53083, "lat": 40.240002}}, {"id": 1877615, "name": "Haeju", "state": "", "country": "KP", "coord": {"lon": 125.714722, "lat": 38.040562}}, {"id": 1877872, "name": "Chunghwa", "state": "", "country": "KP", "coord": {"lon": 125.800003, "lat": 38.863892}}, {"id": 1878389, "name": "Ch\u014fngju", "state": "", "country": "KP", "coord": {"lon": 125.210281, "lat": 39.693329}}, {"id": 1879029, "name": "Changy\u014fn", "state": "", "country": "KP", "coord": {"lon": 125.096107, "lat": 38.250832}}, {"id": 1879151, "name": "Ch\u2019angj\u014fn-dong", "state": "", "country": "KP", "coord": {"lon": 125.75, "lat": 39.01667}}, {"id": 1879487, "name": "Chaery\u014fng-\u016dp", "state": "", "country": "KP", "coord": {"lon": 125.615562, "lat": 38.39917}}, {"id": 1879544, "name": "Ayang-ni", "state": "", "country": "KP", "coord": {"lon": 125.779999, "lat": 38.243061}}, {"id": 1879613, "name": "Anju", "state": "", "country": "KP", "coord": {"lon": 125.664719, "lat": 39.617779}}, {"id": 1879672, "name": "Anby\u014fn-\u016dp", "state": "", "country": "KP", "coord": {"lon": 127.523888, "lat": 39.0425}}, {"id": 1879682, "name": "Anak", "state": "", "country": "KP", "coord": {"lon": 125.494171, "lat": 38.51083}}, {"id": 1880216, "name": "Tampines Estate", "state": "", "country": "SG", "coord": {"lon": 103.940277, "lat": 1.35806}}, {"id": 1880242, "name": "Somapah Serangoon", "state": "", "country": "SG", "coord": {"lon": 103.883331, "lat": 1.36667}}, {"id": 1880251, "name": "Republic of Singapore", "state": "", "country": "SG", "coord": {"lon": 103.800003, "lat": 1.36667}}, {"id": 1880252, "name": "Singapore", "state": "", "country": "SG", "coord": {"lon": 103.850067, "lat": 1.28967}}, {"id": 1880294, "name": "Seletar", "state": "", "country": "SG", "coord": {"lon": 103.874168, "lat": 1.41}}, {"id": 1880574, "name": "Kampong Pasir Ris", "state": "", "country": "SG", "coord": {"lon": 103.931938, "lat": 1.37833}}, {"id": 1880701, "name": "Chye Kay", "state": "", "country": "SG", "coord": {"lon": 103.824173, "lat": 1.42611}}, {"id": 1880755, "name": "Bright Hill Crescent", "state": "", "country": "SG", "coord": {"lon": 103.833328, "lat": 1.35}}, {"id": 1881319, "name": "Qiantong", "state": "", "country": "CN", "coord": {"lon": 121.352547, "lat": 29.224609}}, {"id": 1881436, "name": "Tianyuan", "state": "", "country": "CN", "coord": {"lon": 121.181549, "lat": 30.199699}}, {"id": 1881450, "name": "Langxia", "state": "", "country": "CN", "coord": {"lon": 121.074997, "lat": 30.16778}}, {"id": 1881544, "name": "Ma\u2019ao", "state": "", "country": "CN", "coord": {"lon": 122.0867, "lat": 30.11377}}, {"id": 1881568, "name": "Xiaosha", "state": "", "country": "CN", "coord": {"lon": 122.057793, "lat": 30.10779}}, {"id": 1881661, "name": "Yanguan", "state": "", "country": "CN", "coord": {"lon": 120.54673, "lat": 30.45607}}, {"id": 1881670, "name": "Qingyunqiao", "state": "", "country": "CN", "coord": {"lon": 120.610352, "lat": 30.498119}}, {"id": 1881686, "name": "Maqiao", "state": "", "country": "CN", "coord": {"lon": 120.697922, "lat": 30.464491}}, {"id": 1881715, "name": "Nankai", "state": "", "country": "CN", "coord": {"lon": 109.4086, "lat": 19.08}}, {"id": 1881727, "name": "Baisha", "state": "", "country": "CN", "coord": {"lon": 109.447868, "lat": 19.19142}}, {"id": 1881852, "name": "Xinwan", "state": "", "country": "CN", "coord": {"lon": 120.538567, "lat": 30.278891}}, {"id": 1881858, "name": "Dangshan", "state": "", "country": "CN", "coord": {"lon": 120.518997, "lat": 30.164431}}, {"id": 1882056, "name": "Sinhyeon", "state": "", "country": "KR", "coord": {"lon": 128.626663, "lat": 34.8825}}, {"id": 1882118, "name": "Tanglin Halt", "state": "", "country": "SG", "coord": {"lon": 103.797501, "lat": 1.30139}}, {"id": 1882316, "name": "Woodlands", "state": "", "country": "SG", "coord": {"lon": 103.776672, "lat": 1.44444}}, {"id": 1882558, "name": "Thomson Park", "state": "", "country": "SG", "coord": {"lon": 103.836388, "lat": 1.35722}}, {"id": 1882707, "name": "Chinese Gardens", "state": "", "country": "SG", "coord": {"lon": 103.797783, "lat": 1.31139}}, {"id": 1882749, "name": "Kampong Siren", "state": "", "country": "SG", "coord": {"lon": 103.898064, "lat": 1.35222}}, {"id": 1882753, "name": "Punggol Estate", "state": "", "country": "SG", "coord": {"lon": 103.908333, "lat": 1.36278}}, {"id": 1883978, "name": "Buyeondong", "state": "", "country": "KR", "coord": {"lon": 128.256943, "lat": 38.299999}}, {"id": 1884249, "name": "Kangp\u2019o-ri", "state": "", "country": "KR", "coord": {"lon": 127.292503, "lat": 38.117779}}, {"id": 1884764, "name": "Phon Charoen", "state": "", "country": "TH", "coord": {"lon": 103.709961, "lat": 18.031429}}, {"id": 1884830, "name": "Chaiyo", "state": "", "country": "TH", "coord": {"lon": 100.468613, "lat": 14.67639}}, {"id": 1885004, "name": "Samrong", "state": "", "country": "TH", "coord": {"lon": 104.784203, "lat": 15.00781}}, {"id": 1885051, "name": "Bueng Bun", "state": "", "country": "TH", "coord": {"lon": 104.044853, "lat": 15.3303}}, {"id": 1885287, "name": "Tiaolou", "state": "", "country": "CN", "coord": {"lon": 109.535027, "lat": 19.93877}}, {"id": 1885397, "name": "Changliu", "state": "", "country": "CN", "coord": {"lon": 110.200867, "lat": 20.013269}}, {"id": 1885400, "name": "Zhonghe", "state": "", "country": "CN", "coord": {"lon": 109.344917, "lat": 19.74276}}, {"id": 1885443, "name": "Tayang", "state": "", "country": "CN", "coord": {"lon": 110.5047, "lat": 19.291349}}, {"id": 1885660, "name": "Dingdian", "state": "", "country": "CN", "coord": {"lon": 121.298073, "lat": 32.22353}}, {"id": 1885696, "name": "Zhengyu", "state": "", "country": "CN", "coord": {"lon": 121.361938, "lat": 32.064819}}, {"id": 1885697, "name": "Huolong", "state": "", "country": "CN", "coord": {"lon": 121.27076, "lat": 32.05632}}, {"id": 1885698, "name": "Antou", "state": "", "country": "CN", "coord": {"lon": 121.316856, "lat": 32.06139}}, {"id": 1885709, "name": "Xingdong", "state": "", "country": "CN", "coord": {"lon": 120.968277, "lat": 32.082649}}, {"id": 1885823, "name": "Jiangyou", "state": "", "country": "CN", "coord": {"lon": 104.716667, "lat": 31.76667}}, {"id": 1885912, "name": "Xinjie", "state": "", "country": "CN", "coord": {"lon": 120.773422, "lat": 32.679531}}, {"id": 1885994, "name": "Songch\u2019\u014fni-dong", "state": "", "country": "KR", "coord": {"lon": 127.112312, "lat": 35.876282}}, {"id": 1886026, "name": "Xianfeng", "state": "", "country": "CN", "coord": {"lon": 120.975166, "lat": 32.008999}}, {"id": 1886046, "name": "Pingdong", "state": "", "country": "CN", "coord": {"lon": 120.791672, "lat": 32.136391}}, {"id": 1886064, "name": "Yeyatan", "state": "", "country": "CN", "coord": {"lon": 120.4944, "lat": 32.560799}}, {"id": 1886076, "name": "Hekou", "state": "", "country": "CN", "coord": {"lon": 120.821503, "lat": 32.490379}}, {"id": 1886130, "name": "S\u014fny\u014fl-li", "state": "", "country": "KR", "coord": {"lon": 126.625832, "lat": 35.896389}}, {"id": 1886278, "name": "Wanying", "state": "", "country": "CN", "coord": {"lon": 120.570892, "lat": 33.048672}}, {"id": 1886598, "name": "Y\u014fnmu", "state": "", "country": "KR", "coord": {"lon": 127.099998, "lat": 36.12944}}, {"id": 1886748, "name": "Unam-ni", "state": "", "country": "KR", "coord": {"lon": 127.018333, "lat": 36.561668}}, {"id": 1886760, "name": "Suzhou", "state": "", "country": "CN", "coord": {"lon": 120.618057, "lat": 31.31139}}, {"id": 1886762, "name": "Zhoushan", "state": "", "country": "CN", "coord": {"lon": 122.204651, "lat": 30.01075}}, {"id": 1886767, "name": "Santo Tomas", "state": "", "country": "PH", "coord": {"lon": 120.333328, "lat": 16.33333}}, {"id": 1886768, "name": "San Fabian", "state": "", "country": "PH", "coord": {"lon": 120.5, "lat": 16.16667}}, {"id": 1886840, "name": "Goushan", "state": "", "country": "CN", "coord": {"lon": 122.242142, "lat": 29.980499}}, {"id": 1887068, "name": "Fuming", "state": "", "country": "CN", "coord": {"lon": 121.60186, "lat": 29.873159}}, {"id": 1887070, "name": "Shiqi", "state": "", "country": "CN", "coord": {"lon": 121.50444, "lat": 29.8225}}, {"id": 1887071, "name": "Zhonggongmiao", "state": "", "country": "CN", "coord": {"lon": 121.537498, "lat": 29.826111}}, {"id": 1887078, "name": "Xiaying", "state": "", "country": "CN", "coord": {"lon": 121.591393, "lat": 29.80472}}, {"id": 1887083, "name": "Yunlong", "state": "", "country": "CN", "coord": {"lon": 121.591843, "lat": 29.774401}}, {"id": 1887101, "name": "Dongwu", "state": "", "country": "CN", "coord": {"lon": 121.722504, "lat": 29.808889}}, {"id": 1887115, "name": "Wantou", "state": "", "country": "CN", "coord": {"lon": 121.550003, "lat": 29.897221}}, {"id": 1887171, "name": "Qidong Yanchang", "state": "", "country": "CN", "coord": {"lon": 121.838943, "lat": 31.91128}}, {"id": 1887177, "name": "Jinhai", "state": "", "country": "CN", "coord": {"lon": 121.778847, "lat": 31.9175}}, {"id": 1887188, "name": "Huiping", "state": "", "country": "CN", "coord": {"lon": 121.777908, "lat": 31.76408}}, {"id": 1887194, "name": "Donghai", "state": "", "country": "CN", "coord": {"lon": 121.870506, "lat": 31.76841}}, {"id": 1887204, "name": "Hehe", "state": "", "country": "CN", "coord": {"lon": 121.803413, "lat": 31.738359}}, {"id": 1887218, "name": "Dajiahe", "state": "", "country": "CN", "coord": {"lon": 121.55056, "lat": 29.42889}}, {"id": 1887327, "name": "Cipatujah Selatan", "state": "", "country": "ID", "coord": {"lon": 108.017303, "lat": -7.7433}}, {"id": 1887427, "name": "Tangwan", "state": "", "country": "CN", "coord": {"lon": 121.806671, "lat": 31.145}}, {"id": 1887493, "name": "Fenghuang", "state": "", "country": "CN", "coord": {"lon": 109.423553, "lat": 18.291969}}, {"id": 1887674, "name": "Sizhoutou", "state": "", "country": "CN", "coord": {"lon": 121.767502, "lat": 29.37278}}, {"id": 1887681, "name": "Xinqiao", "state": "", "country": "CN", "coord": {"lon": 121.861671, "lat": 29.31778}}, {"id": 1887715, "name": "Tuci", "state": "", "country": "CN", "coord": {"lon": 121.933609, "lat": 29.55722}}, {"id": 1887722, "name": "Xianxiang", "state": "", "country": "CN", "coord": {"lon": 121.842781, "lat": 29.58778}}, {"id": 1887762, "name": "Baifeng", "state": "", "country": "CN", "coord": {"lon": 121.991943, "lat": 29.877781}}, {"id": 1887772, "name": "Xiapu", "state": "", "country": "CN", "coord": {"lon": 121.880302, "lat": 29.889021}}, {"id": 1887803, "name": "Li\u2019ao", "state": "", "country": "CN", "coord": {"lon": 121.988892, "lat": 29.79833}}, {"id": 1887870, "name": "Tianfen", "state": "", "country": "CN", "coord": {"lon": 121.54158, "lat": 32.06308}}, {"id": 1887894, "name": "Caobu", "state": "", "country": "CN", "coord": {"lon": 121.085632, "lat": 32.246391}}, {"id": 1887909, "name": "Zhangjiayuan", "state": "", "country": "CN", "coord": {"lon": 121.09201, "lat": 32.453979}}, {"id": 1887918, "name": "Lingmin", "state": "", "country": "CN", "coord": {"lon": 121.040947, "lat": 32.384769}}, {"id": 1888069, "name": "Wujie", "state": "", "country": "CN", "coord": {"lon": 120.688889, "lat": 32.09306}}, {"id": 1888247, "name": "Song Dao", "state": "", "country": "TH", "coord": {"lon": 103.475471, "lat": 17.336281}}, {"id": 1889484, "name": "Punam-ni", "state": "", "country": "KP", "coord": {"lon": 125.660828, "lat": 39.23}}, {"id": 1890085, "name": "Tangp\u2019y\u014fng", "state": "", "country": "KR", "coord": {"lon": 128.038773, "lat": 37.570621}}, {"id": 1890524, "name": "Olilit", "state": "", "country": "ID", "coord": {"lon": 131.329163, "lat": -8}}, {"id": 1892640, "name": "Lincheng", "state": "", "country": "CN", "coord": {"lon": 122.200409, "lat": 29.99646}}, {"id": 1892675, "name": "B\u1ebfn \u00d0\u00ecnh", "state": "", "country": "VN", "coord": {"lon": 107.083328, "lat": 10.36833}}, {"id": 1892721, "name": "Jiguan", "state": "", "country": "CN", "coord": {"lon": 122.296303, "lat": 29.879801}}, {"id": 1892727, "name": "Gongqian", "state": "", "country": "CN", "coord": {"lon": 122.276497, "lat": 29.83279}}, {"id": 1892823, "name": "Tonghae", "state": "", "country": "KR", "coord": {"lon": 129.106934, "lat": 37.543892}}, {"id": 1893193, "name": "Shahe", "state": "", "country": "CN", "coord": {"lon": 112.879173, "lat": 23.994169}}, {"id": 1893233, "name": "Huanshi", "state": "", "country": "CN", "coord": {"lon": 113.127609, "lat": 23.02812}}, {"id": 1893246, "name": "Wangniudun", "state": "", "country": "CN", "coord": {"lon": 113.647423, "lat": 23.053289}}, {"id": 1893334, "name": "Fucheng", "state": "", "country": "CN", "coord": {"lon": 109.330276, "lat": 21.569719}}, {"id": 1893595, "name": "Dacheng", "state": "", "country": "CN", "coord": {"lon": 109.392754, "lat": 19.50927}}, {"id": 1893972, "name": "Laocheng", "state": "", "country": "CN", "coord": {"lon": 110.119331, "lat": 19.96422}}, {"id": 1893980, "name": "Shishan", "state": "", "country": "CN", "coord": {"lon": 110.204323, "lat": 19.935459}}, {"id": 1894012, "name": "Longtang", "state": "", "country": "CN", "coord": {"lon": 110.411011, "lat": 19.8843}}, {"id": 1894017, "name": "Xinpo", "state": "", "country": "CN", "coord": {"lon": 110.365463, "lat": 19.77165}}, {"id": 1894019, "name": "Jiazi", "state": "", "country": "CN", "coord": {"lon": 110.494263, "lat": 19.60931}}, {"id": 1894026, "name": "Leiming", "state": "", "country": "CN", "coord": {"lon": 110.319908, "lat": 19.55718}}, {"id": 1894067, "name": "Gongpo", "state": "", "country": "CN", "coord": {"lon": 110.80368, "lat": 19.79216}}, {"id": 1894072, "name": "Baoluo", "state": "", "country": "CN", "coord": {"lon": 110.74453, "lat": 19.84123}}, {"id": 1894076, "name": "Sigeng", "state": "", "country": "CN", "coord": {"lon": 108.673561, "lat": 19.2281}}, {"id": 1894079, "name": "Imsil", "state": "", "country": "KR", "coord": {"lon": 127.89463, "lat": 35.749802}}, {"id": 1894128, "name": "Wupo", "state": "", "country": "CN", "coord": {"lon": 110.067223, "lat": 19.18429}}, {"id": 1894132, "name": "Lingkou", "state": "", "country": "CN", "coord": {"lon": 110.303917, "lat": 19.343969}}, {"id": 1894135, "name": "Yangjiang", "state": "", "country": "CN", "coord": {"lon": 110.343117, "lat": 19.100889}}, {"id": 1894196, "name": "Benhao", "state": "", "country": "CN", "coord": {"lon": 109.957748, "lat": 18.612181}}, {"id": 1894221, "name": "Leluo", "state": "", "country": "CN", "coord": {"lon": 108.882446, "lat": 18.44808}}, {"id": 1894388, "name": "Motobu", "state": "", "country": "JP", "coord": {"lon": 127.890282, "lat": 26.652781}}, {"id": 1894471, "name": "Nandang", "state": "", "country": "CN", "coord": {"lon": 120.849442, "lat": 27.919439}}, {"id": 1894616, "name": "Okinawa", "state": "", "country": "JP", "coord": {"lon": 127.801392, "lat": 26.335831}}, {"id": 1894619, "name": "Urazoe", "state": "", "country": "JP", "coord": {"lon": 127.70639, "lat": 26.25444}}, {"id": 1894628, "name": "Haebaru", "state": "", "country": "JP", "coord": {"lon": 127.722504, "lat": 26.184719}}, {"id": 1894694, "name": "Putuoshan", "state": "", "country": "CN", "coord": {"lon": 122.38047, "lat": 29.98657}}, {"id": 1894758, "name": "Dadong\u2019ao", "state": "", "country": "CN", "coord": {"lon": 122.388809, "lat": 29.922279}}, {"id": 1895090, "name": "Jiujianfang", "state": "", "country": "CN", "coord": {"lon": 109.515129, "lat": 34.185799}}, {"id": 1895261, "name": "Zhangguanying", "state": "", "country": "CN", "coord": {"lon": 113.174553, "lat": 33.654079}}, {"id": 1895284, "name": "Zhangpan", "state": "", "country": "CN", "coord": {"lon": 113.990387, "lat": 33.992561}}, {"id": 1895287, "name": "S\u014fnbawi", "state": "", "country": "KR", "coord": {"lon": 128.335556, "lat": 36.63139}}, {"id": 1895288, "name": "Duqu", "state": "", "country": "CN", "coord": {"lon": 113.863289, "lat": 33.813068}}, {"id": 1895356, "name": "Liuquan", "state": "", "country": "CN", "coord": {"lon": 112.335098, "lat": 33.047581}}, {"id": 1895695, "name": "Kushima", "state": "", "country": "JP", "coord": {"lon": 131.233337, "lat": 31.45833}}, {"id": 1895856, "name": "Shaochang", "state": "", "country": "CN", "coord": {"lon": 121.753448, "lat": 30.9083}}, {"id": 1896348, "name": "Hikari", "state": "", "country": "JP", "coord": {"lon": 131.949997, "lat": 33.955002}}, {"id": 1896758, "name": "Quantang", "state": "", "country": "CN", "coord": {"lon": 121.223892, "lat": 30.682079}}, {"id": 1896953, "name": "Pubal", "state": "", "country": "KR", "coord": {"lon": 127.507782, "lat": 37.291672}}, {"id": 1897000, "name": "Seongnam-si", "state": "", "country": "KR", "coord": {"lon": 127.137779, "lat": 37.43861}}, {"id": 1897007, "name": "Hanam", "state": "", "country": "KR", "coord": {"lon": 127.205559, "lat": 37.540001}}, {"id": 1897118, "name": "Hwado", "state": "", "country": "KR", "coord": {"lon": 127.307503, "lat": 37.6525}}, {"id": 1897122, "name": "Namyangju", "state": "", "country": "KR", "coord": {"lon": 127.214172, "lat": 37.636669}}, {"id": 1897460, "name": "Maoshan", "state": "", "country": "CN", "coord": {"lon": 121.495857, "lat": 29.74572}}, {"id": 1897590, "name": "Kaita", "state": "", "country": "JP", "coord": {"lon": 132.550003, "lat": 34.366669}}, {"id": 1897924, "name": "Dushan", "state": "", "country": "CN", "coord": {"lon": 121.266113, "lat": 29.045561}}, {"id": 1898046, "name": "Seir\u014d", "state": "", "country": "JP", "coord": {"lon": 139.255005, "lat": 37.98333}}, {"id": 1898062, "name": "Tangzi", "state": "", "country": "CN", "coord": {"lon": 120.08194, "lat": 32.93639}}, {"id": 1898130, "name": "Yangjian", "state": "", "country": "CN", "coord": {"lon": 120.55632, "lat": 31.62575}}, {"id": 1898149, "name": "Mirukashi", "state": "", "country": "JP", "coord": {"lon": 129.938324, "lat": 33.438332}}, {"id": 1898186, "name": "Yakataishi", "state": "", "country": "JP", "coord": {"lon": 129.925003, "lat": 33.521671}}, {"id": 1898207, "name": "Xinzhuang", "state": "", "country": "CN", "coord": {"lon": 120.692047, "lat": 31.535219}}, {"id": 1898302, "name": "Weitang", "state": "", "country": "CN", "coord": {"lon": 120.644913, "lat": 31.46195}}, {"id": 1898310, "name": "Taiping", "state": "", "country": "CN", "coord": {"lon": 120.698334, "lat": 31.434719}}, {"id": 1898346, "name": "Fengqiao", "state": "", "country": "CN", "coord": {"lon": 120.550011, "lat": 31.31362}}, {"id": 1898359, "name": "Mudu", "state": "", "country": "CN", "coord": {"lon": 120.511787, "lat": 31.251961}}, {"id": 1898446, "name": "Xinqiao", "state": "", "country": "CN", "coord": {"lon": 120.504784, "lat": 31.802509}}, {"id": 1898493, "name": "Tongli", "state": "", "country": "CN", "coord": {"lon": 120.712639, "lat": 31.159401}}, {"id": 1898494, "name": "Songling", "state": "", "country": "CN", "coord": {"lon": 120.717583, "lat": 31.1933}}, {"id": 1898548, "name": "Hengjing", "state": "", "country": "CN", "coord": {"lon": 120.53241, "lat": 31.1696}}, {"id": 1898565, "name": "Shadili", "state": "", "country": "CN", "coord": {"lon": 122.039093, "lat": 30.17523}}, {"id": 1898581, "name": "Xiushan", "state": "", "country": "CN", "coord": {"lon": 122.168892, "lat": 30.18944}}, {"id": 1898597, "name": "Beichan", "state": "", "country": "CN", "coord": {"lon": 122.219437, "lat": 30.067221}}, {"id": 1898634, "name": "Yancang", "state": "", "country": "CN", "coord": {"lon": 122.056938, "lat": 30.0329}}, {"id": 1898675, "name": "Daixi", "state": "", "country": "CN", "coord": {"lon": 122.122643, "lat": 30.293449}}, {"id": 1898681, "name": "Nizhi", "state": "", "country": "CN", "coord": {"lon": 122.17556, "lat": 30.304171}}, {"id": 1898693, "name": "Daidaon", "state": "", "country": "CN", "coord": {"lon": 122.197937, "lat": 30.295259}}, {"id": 1898799, "name": "Zhanmao", "state": "", "country": "CN", "coord": {"lon": 122.282898, "lat": 30.026979}}, {"id": 1898819, "name": "Huaniao", "state": "", "country": "CN", "coord": {"lon": 122.691391, "lat": 30.850281}}, {"id": 1898842, "name": "Wulong", "state": "", "country": "CN", "coord": {"lon": 122.517776, "lat": 30.70722}}, {"id": 1898861, "name": "Liutangting", "state": "", "country": "CN", "coord": {"lon": 121.264893, "lat": 30.275881}}, {"id": 1898905, "name": "Qiaotou", "state": "", "country": "CN", "coord": {"lon": 121.35688, "lat": 30.160959}}, {"id": 1898918, "name": "Haiyanmiao", "state": "", "country": "CN", "coord": {"lon": 121.3993, "lat": 30.22748}}, {"id": 1898930, "name": "Shengshan", "state": "", "country": "CN", "coord": {"lon": 121.32254, "lat": 30.232901}}, {"id": 1898934, "name": "Kandun", "state": "", "country": "CN", "coord": {"lon": 121.259506, "lat": 30.22538}}, {"id": 1898962, "name": "Zhangqi", "state": "", "country": "CN", "coord": {"lon": 121.45089, "lat": 30.11581}}, {"id": 1899052, "name": "Sanqishi", "state": "", "country": "CN", "coord": {"lon": 121.338562, "lat": 30.0336}}, {"id": 1899102, "name": "Nagato", "state": "", "country": "JP", "coord": {"lon": 131.199997, "lat": 34.383331}}, {"id": 1899262, "name": "Preah Sihanouk", "state": "", "country": "KH", "coord": {"lon": 103.75, "lat": 10.66667}}, {"id": 1899273, "name": "Banteay Meanchey", "state": "", "country": "KH", "coord": {"lon": 103, "lat": 13.75}}, {"id": 1899293, "name": "Laojunpo", "state": "", "country": "CN", "coord": {"lon": 105.421181, "lat": 35.747162}}, {"id": 1899294, "name": "Qingjiangyi", "state": "", "country": "CN", "coord": {"lon": 105.439178, "lat": 35.677391}}, {"id": 1899296, "name": "Shixiang", "state": "", "country": "CN", "coord": {"lon": 102.54026, "lat": 35.833092}}, {"id": 1899297, "name": "Baizhuangji", "state": "", "country": "CN", "coord": {"lon": 102.573929, "lat": 35.720619}}, {"id": 1899300, "name": "Houjiachuan", "state": "", "country": "CN", "coord": {"lon": 105.2201, "lat": 35.492828}}, {"id": 1899301, "name": "Xindian", "state": "", "country": "CN", "coord": {"lon": 105.518066, "lat": 35.352219}}, {"id": 1899313, "name": "Shaozhai", "state": "", "country": "CN", "coord": {"lon": 107.803848, "lat": 34.991451}}, {"id": 1899315, "name": "Taijing", "state": "", "country": "CN", "coord": {"lon": 105.548889, "lat": 34.563332}}, {"id": 1899319, "name": "Weixin", "state": "", "country": "CN", "coord": {"lon": 103.868523, "lat": 34.66703}}, {"id": 1899320, "name": "Sancha", "state": "", "country": "CN", "coord": {"lon": 103.761391, "lat": 34.587502}}, {"id": 1899328, "name": "Taibai", "state": "", "country": "CN", "coord": {"lon": 106.162323, "lat": 34.057911}}, {"id": 1899332, "name": "Zhaocun", "state": "", "country": "CN", "coord": {"lon": 108.346672, "lat": 34.280281}}, {"id": 1899334, "name": "Xipo", "state": "", "country": "CN", "coord": {"lon": 106.430389, "lat": 33.847721}}, {"id": 1899335, "name": "Dahedian", "state": "", "country": "CN", "coord": {"lon": 106.049721, "lat": 33.653332}}, {"id": 1899338, "name": "Huama", "state": "", "country": "CN", "coord": {"lon": 104.539749, "lat": 33.73671}}, {"id": 1899341, "name": "Shimen", "state": "", "country": "CN", "coord": {"lon": 104.738243, "lat": 33.48597}}, {"id": 1899343, "name": "Yangtian", "state": "", "country": "CN", "coord": {"lon": 105.664528, "lat": 33.18396}}, {"id": 1899344, "name": "Baiyang", "state": "", "country": "CN", "coord": {"lon": 105.781837, "lat": 33.172878}}, {"id": 1899347, "name": "Zhuandou", "state": "", "country": "CN", "coord": {"lon": 106.073601, "lat": 32.709179}}, {"id": 1899351, "name": "Tielou", "state": "", "country": "CN", "coord": {"lon": 104.464447, "lat": 32.906651}}, {"id": 1899364, "name": "Liangshui", "state": "", "country": "CN", "coord": {"lon": 105.21833, "lat": 32.383331}}, {"id": 1899368, "name": "Chixi", "state": "", "country": "CN", "coord": {"lon": 106.764313, "lat": 32.154442}}, {"id": 1899371, "name": "Qingyu", "state": "", "country": "CN", "coord": {"lon": 107.178787, "lat": 32.21571}}, {"id": 1899402, "name": "Cook Islands", "state": "", "country": "CK", "coord": {"lon": -159.785156, "lat": -21.248421}}, {"id": 1900608, "name": "Totok", "state": "", "country": "ID", "coord": {"lon": 119.306, "lat": -9.4828}}, {"id": 1900790, "name": "Belanting", "state": "", "country": "ID", "coord": {"lon": 116.627502, "lat": -8.3053}}, {"id": 1901233, "name": "Xiliguantun", "state": "", "country": "CN", "coord": {"lon": 115.941391, "lat": 37.078331}}, {"id": 1901597, "name": "Obelobel", "state": "", "country": "ID", "coord": {"lon": 116.549103, "lat": -8.2654}}, {"id": 1901631, "name": "Tulehu", "state": "", "country": "ID", "coord": {"lon": 128.340073, "lat": -3.59108}}, {"id": 1901872, "name": "Lufeng", "state": "", "country": "CN", "coord": {"lon": 103.11528, "lat": 24.5725}}, {"id": 1901903, "name": "Xiaojiezi", "state": "", "country": "CN", "coord": {"lon": 102.8638, "lat": 24.344761}}, {"id": 1901904, "name": "Sijie", "state": "", "country": "CN", "coord": {"lon": 102.705276, "lat": 24.16667}}, {"id": 1901958, "name": "Kowo", "state": "", "country": "ID", "coord": {"lon": 119.006104, "lat": -8.5352}}, {"id": 1902028, "name": "Gyeongsangnam-do", "state": "", "country": "KR", "coord": {"lon": 128.25, "lat": 35.25}}, {"id": 1902418, "name": "Huai\u2019an", "state": "", "country": "CN", "coord": {"lon": 107.818428, "lat": 36.583542}}, {"id": 1903204, "name": "Segorotambak", "state": "", "country": "ID", "coord": {"lon": 112.807503, "lat": -7.36667}}, {"id": 1903205, "name": "Tambakoso", "state": "", "country": "ID", "coord": {"lon": 112.803902, "lat": -7.346}}, {"id": 1903206, "name": "Medokanayu", "state": "", "country": "ID", "coord": {"lon": 112.798798, "lat": -7.3256}}, {"id": 1903208, "name": "Wonorejo", "state": "", "country": "ID", "coord": {"lon": 112.796806, "lat": -7.31138}}, {"id": 1903273, "name": "Ngembo", "state": "", "country": "ID", "coord": {"lon": 112.502197, "lat": -6.9087}}, {"id": 1904168, "name": "Hepingchang", "state": "", "country": "CN", "coord": {"lon": 106.455276, "lat": 29.225}}, {"id": 1904214, "name": "Pelabuhan Kelang Utara", "state": "", "country": "MY", "coord": {"lon": 101.42083, "lat": 3.07361}}, {"id": 1904391, "name": "Ban Houakhoua", "state": "", "country": "LA", "coord": {"lon": 100.45472, "lat": 20.245279}}, {"id": 1904443, "name": "Ban Tinpha", "state": "", "country": "LA", "coord": {"lon": 100.434441, "lat": 20.253059}}, {"id": 1904616, "name": "Khou\u00e8ng Bok\u00e8o", "state": "", "country": "LA", "coord": {"lon": 100.5, "lat": 20.5}}, {"id": 1904617, "name": "Bolikhamxai", "state": "", "country": "LA", "coord": {"lon": 104.333328, "lat": 18.5}}, {"id": 1904618, "name": "Vientiane Prefecture", "state": "", "country": "LA", "coord": {"lon": 102.666672, "lat": 18.08333}}, {"id": 1904743, "name": "Zhangcun", "state": "", "country": "CN", "coord": {"lon": 119.375, "lat": 30.464701}}, {"id": 1904748, "name": "Panbanqiao", "state": "", "country": "CN", "coord": {"lon": 119.871391, "lat": 30.38472}}, {"id": 1904749, "name": "Shuangxi", "state": "", "country": "CN", "coord": {"lon": 119.825653, "lat": 30.40551}}, {"id": 1904762, "name": "Leping", "state": "", "country": "CN", "coord": {"lon": 119.396942, "lat": 30.01033}}, {"id": 1905099, "name": "Huy\u1ec7n \u00d0i\u1ec7n Bi\u00ean", "state": "", "country": "VN", "coord": {"lon": 102.933327, "lat": 21.33333}}, {"id": 1905277, "name": "Zangwan", "state": "", "country": "CN", "coord": {"lon": 117.394089, "lat": 29.46954}}, {"id": 1905307, "name": "Xikengkou", "state": "", "country": "CN", "coord": {"lon": 118.315277, "lat": 29.432699}}, {"id": 1905324, "name": "Zhukou", "state": "", "country": "CN", "coord": {"lon": 118.914436, "lat": 27.69722}}, {"id": 1905412, "name": "T\u1ec9nh B\u1eafc Ninh", "state": "", "country": "VN", "coord": {"lon": 106.166672, "lat": 21.08333}}, {"id": 1905419, "name": "T\u1ec9nh B\u1eafc Giang", "state": "", "country": "VN", "coord": {"lon": 106.333328, "lat": 21.33333}}, {"id": 1905468, "name": "T\u1ec9nh \u00d0\u00e0 N\u1eb5ng", "state": "", "country": "VN", "coord": {"lon": 108.083328, "lat": 16.08333}}, {"id": 1905475, "name": "T\u1ec9nh B\u00ecnh D\u01b0\u01a1ng", "state": "", "country": "VN", "coord": {"lon": 106.666672, "lat": 11.16667}}, {"id": 1905480, "name": "T\u1ec9nh B\u00ecnh Ph\u01b0\u1edbc", "state": "", "country": "VN", "coord": {"lon": 106.916672, "lat": 11.75}}, {"id": 1905497, "name": "T\u1ec9nh Th\u00e1i Nguy\u00ean", "state": "", "country": "VN", "coord": {"lon": 105.833328, "lat": 21.66667}}, {"id": 1905516, "name": "T\u1ec9nh Qu\u1ea3ng Nam", "state": "", "country": "VN", "coord": {"lon": 107.916672, "lat": 15.58333}}, {"id": 1905577, "name": "T\u1ec9nh Ph\u00fa Th\u1ecd", "state": "", "country": "VN", "coord": {"lon": 105.166672, "lat": 21.33333}}, {"id": 1905626, "name": "T\u1ec9nh Nam \u00d0\u1ecbnh", "state": "", "country": "VN", "coord": {"lon": 106.25, "lat": 20.25}}, {"id": 1905637, "name": "T\u1ec9nh H\u00e0 Nam", "state": "", "country": "VN", "coord": {"lon": 106, "lat": 20.58333}}, {"id": 1905669, "name": "T\u1ec9nh B\u1eafc K\u1ea1n", "state": "", "country": "VN", "coord": {"lon": 105.833328, "lat": 22.16667}}, {"id": 1905675, "name": "T\u1ec9nh B\u1ea1c Li\u00eau", "state": "", "country": "VN", "coord": {"lon": 105.75, "lat": 9.25}}, {"id": 1905678, "name": "T\u1ec9nh C\u00e0 Mau", "state": "", "country": "VN", "coord": {"lon": 105.083328, "lat": 9.08333}}, {"id": 1905686, "name": "T\u1ec9nh H\u1ea3i D\u01b0\u01a1ng", "state": "", "country": "VN", "coord": {"lon": 106.333328, "lat": 20.91667}}, {"id": 1905699, "name": "T\u1ec9nh H\u01b0ng Y\u00ean", "state": "", "country": "VN", "coord": {"lon": 106.083328, "lat": 20.83333}}, {"id": 1905806, "name": "Runsong", "state": "", "country": "CN", "coord": {"lon": 109.095284, "lat": 26.868891}}, {"id": 1905856, "name": "T\u1ec9nh V\u0129nh Ph\u00fac", "state": "", "country": "VN", "coord": {"lon": 105.599998, "lat": 21.299999}}, {"id": 1906090, "name": "Dundong", "state": "", "country": "CN", "coord": {"lon": 109.144997, "lat": 26.01083}}, {"id": 1906137, "name": "Gaowu", "state": "", "country": "CN", "coord": {"lon": 108.907784, "lat": 25.559999}}, {"id": 1906153, "name": "Pingjiang", "state": "", "country": "CN", "coord": {"lon": 108.663063, "lat": 25.80694}}, {"id": 1906305, "name": "Ploso", "state": "", "country": "ID", "coord": {"lon": 112.763329, "lat": -7.25222}}, {"id": 1906549, "name": "Gununganyar", "state": "", "country": "ID", "coord": {"lon": 112.782097, "lat": -7.3409}}, {"id": 1906551, "name": "Panjangjiwo", "state": "", "country": "ID", "coord": {"lon": 112.764099, "lat": -7.3129}}, {"id": 1906553, "name": "Semampir", "state": "", "country": "ID", "coord": {"lon": 112.780197, "lat": -7.3082}}, {"id": 1906562, "name": "Wadungasri", "state": "", "country": "ID", "coord": {"lon": 112.768303, "lat": -7.3451}}, {"id": 1906564, "name": "Wedoro", "state": "", "country": "ID", "coord": {"lon": 112.751389, "lat": -7.35111}}, {"id": 1906569, "name": "Dares", "state": "", "country": "ID", "coord": {"lon": 112.762398, "lat": -7.369}}, {"id": 1906570, "name": "Semampirbarat", "state": "", "country": "ID", "coord": {"lon": 112.772781, "lat": -7.37222}}, {"id": 1906573, "name": "Banjarkemuning", "state": "", "country": "ID", "coord": {"lon": 112.808502, "lat": -7.3867}}, {"id": 1906578, "name": "Tambaksumur", "state": "", "country": "ID", "coord": {"lon": 112.772903, "lat": -7.3485}}, {"id": 1906583, "name": "Buncitan", "state": "", "country": "ID", "coord": {"lon": 112.781303, "lat": -7.3961}}, {"id": 1906589, "name": "Dukuhgisikcemandi", "state": "", "country": "ID", "coord": {"lon": 112.806602, "lat": -7.3899}}, {"id": 1906686, "name": "Changwat Udon Thani", "state": "", "country": "TH", "coord": {"lon": 102.833328, "lat": 17.33333}}, {"id": 1906687, "name": "Changwat Prachin Buri", "state": "", "country": "TH", "coord": {"lon": 101.666672, "lat": 14.08333}}, {"id": 1906688, "name": "Changwat Ubon Ratchathani", "state": "", "country": "TH", "coord": {"lon": 105.166672, "lat": 15.16667}}, {"id": 1906689, "name": "Changwat Amnat Charoen", "state": "", "country": "TH", "coord": {"lon": 104.75, "lat": 15.91667}}, {"id": 1906690, "name": "Changwat Nong Bua Lamphu", "state": "", "country": "TH", "coord": {"lon": 102.25, "lat": 17.25}}, {"id": 1906691, "name": "Changwat Sa Kaeo", "state": "", "country": "TH", "coord": {"lon": 102.333328, "lat": 13.75}}, {"id": 1907116, "name": "Nakai", "state": "", "country": "JP", "coord": {"lon": 139.158615, "lat": 35.96833}}, {"id": 1907123, "name": "Hasuda", "state": "", "country": "JP", "coord": {"lon": 139.650833, "lat": 35.975559}}, {"id": 1907125, "name": "Kamifukuoka", "state": "", "country": "JP", "coord": {"lon": 139.50972, "lat": 35.872501}}, {"id": 1907146, "name": "Sayama", "state": "", "country": "JP", "coord": {"lon": 139.412125, "lat": 35.852951}}, {"id": 1907148, "name": "Fussa", "state": "", "country": "JP", "coord": {"lon": 139.323608, "lat": 35.736671}}, {"id": 1907157, "name": "Fujino", "state": "", "country": "JP", "coord": {"lon": 139.143066, "lat": 35.606392}}, {"id": 1907165, "name": "Kunitachi", "state": "", "country": "JP", "coord": {"lon": 139.434998, "lat": 35.674438}}, {"id": 1907174, "name": "Okura", "state": "", "country": "JP", "coord": {"lon": 139.470276, "lat": 35.584721}}, {"id": 1907190, "name": "Minawa", "state": "", "country": "JP", "coord": {"lon": 139.319443, "lat": 35.522781}}, {"id": 1907225, "name": "Kawara", "state": "", "country": "JP", "coord": {"lon": 139.272781, "lat": 35.47361}}, {"id": 1907235, "name": "Miyanomae", "state": "", "country": "JP", "coord": {"lon": 139.392776, "lat": 35.422779}}, {"id": 1907243, "name": "Takata", "state": "", "country": "JP", "coord": {"lon": 139.423065, "lat": 35.33889}}, {"id": 1907255, "name": "Koyasu", "state": "", "country": "JP", "coord": {"lon": 139.255554, "lat": 35.41806}}, {"id": 1907299, "name": "Asaka", "state": "", "country": "JP", "coord": {"lon": 139.601944, "lat": 35.804722}}, {"id": 1907300, "name": "Wako", "state": "", "country": "JP", "coord": {"lon": 139.623337, "lat": 35.78944}}, {"id": 1907301, "name": "Shimotoda", "state": "", "country": "JP", "coord": {"lon": 139.692505, "lat": 35.809441}}, {"id": 1907306, "name": "Komae", "state": "", "country": "JP", "coord": {"lon": 139.574432, "lat": 35.636391}}, {"id": 1907307, "name": "Kimitsu", "state": "", "country": "JP", "coord": {"lon": 139.891113, "lat": 35.325279}}, {"id": 1907309, "name": "Miura", "state": "", "country": "JP", "coord": {"lon": 139.619171, "lat": 35.139999}}, {"id": 1907590, "name": "Baiyatai", "state": "", "country": "CN", "coord": {"lon": 113.97361, "lat": 39.32806}}, {"id": 1907834, "name": "Da\u2019an", "state": "", "country": "CN", "coord": {"lon": 109.209831, "lat": 18.69565}}, {"id": 1907837, "name": "Wanchong", "state": "", "country": "CN", "coord": {"lon": 109.317078, "lat": 18.84864}}, {"id": 1907842, "name": "Nansheng", "state": "", "country": "CN", "coord": {"lon": 109.588097, "lat": 18.73945}}, {"id": 1907847, "name": "Shiling", "state": "", "country": "CN", "coord": {"lon": 109.778809, "lat": 18.66432}}, {"id": 1907972, "name": "Haodi", "state": "", "country": "CN", "coord": {"lon": 105.758873, "lat": 35.000961}}, {"id": 1907974, "name": "Jiangkou", "state": "", "country": "CN", "coord": {"lon": 105.09996, "lat": 34.05846}}, {"id": 1907978, "name": "Leiwang", "state": "", "country": "CN", "coord": {"lon": 105.14418, "lat": 34.050838}}, {"id": 1907979, "name": "Liuping", "state": "", "country": "CN", "coord": {"lon": 105.71917, "lat": 34.891392}}, {"id": 1907996, "name": "Suhe", "state": "", "country": "CN", "coord": {"lon": 105.222099, "lat": 34.0625}}, {"id": 1908001, "name": "Wangyin", "state": "", "country": "CN", "coord": {"lon": 105.761673, "lat": 34.833889}}, {"id": 1908010, "name": "Xinglong", "state": "", "country": "CN", "coord": {"lon": 105.344223, "lat": 34.038212}}, {"id": 1908115, "name": "Fujia", "state": "", "country": "CN", "coord": {"lon": 106.689972, "lat": 32.11718}}, {"id": 1908438, "name": "Huangshi", "state": "", "country": "CN", "coord": {"lon": 110.997223, "lat": 33.042782}}, {"id": 1908504, "name": "Dahekan", "state": "", "country": "CN", "coord": {"lon": 107.036392, "lat": 33.041111}}, {"id": 1908845, "name": "Yangying", "state": "", "country": "CN", "coord": {"lon": 112.167023, "lat": 33.0023}}, {"id": 1908846, "name": "Dafengying", "state": "", "country": "CN", "coord": {"lon": 112.841698, "lat": 33.006721}}, {"id": 1908853, "name": "Qutun", "state": "", "country": "CN", "coord": {"lon": 112.025398, "lat": 33.040409}}, {"id": 1908860, "name": "Wanggang", "state": "", "country": "CN", "coord": {"lon": 112.086639, "lat": 33.10091}}, {"id": 1908861, "name": "Luyi", "state": "", "country": "CN", "coord": {"lon": 112.047188, "lat": 33.10062}}, {"id": 1908867, "name": "Xiezhuang", "state": "", "country": "CN", "coord": {"lon": 112.435623, "lat": 33.14954}}, {"id": 1908871, "name": "Xuanqiao", "state": "", "country": "CN", "coord": {"lon": 112.961952, "lat": 33.152649}}, {"id": 1908893, "name": "Guangyang", "state": "", "country": "CN", "coord": {"lon": 112.7015, "lat": 33.284389}}, {"id": 1908895, "name": "Yuandianhui", "state": "", "country": "CN", "coord": {"lon": 112.844078, "lat": 33.272339}}, {"id": 1908952, "name": "Jizhong", "state": "", "country": "CN", "coord": {"lon": 112.678429, "lat": 33.636238}}, {"id": 1908957, "name": "Xiongbei", "state": "", "country": "CN", "coord": {"lon": 112.811798, "lat": 33.662479}}, {"id": 1908960, "name": "Sikeshu", "state": "", "country": "CN", "coord": {"lon": 112.585091, "lat": 33.666039}}, {"id": 1908976, "name": "Zhangdian", "state": "", "country": "CN", "coord": {"lon": 112.883141, "lat": 33.772499}}, {"id": 1908997, "name": "Zhangbaqiao", "state": "", "country": "CN", "coord": {"lon": 112.959778, "lat": 33.862759}}, {"id": 1909000, "name": "Guanyinsi", "state": "", "country": "CN", "coord": {"lon": 112.728157, "lat": 33.867432}}, {"id": 1909421, "name": "Liuge", "state": "", "country": "CN", "coord": {"lon": 113.972221, "lat": 32.984169}}, {"id": 1909475, "name": "Gaodian", "state": "", "country": "CN", "coord": {"lon": 113.235367, "lat": 32.639339}}, {"id": 1909476, "name": "Shuangmiaojie", "state": "", "country": "CN", "coord": {"lon": 113.258858, "lat": 32.803841}}, {"id": 1909481, "name": "Yangjiaji", "state": "", "country": "CN", "coord": {"lon": 113.338448, "lat": 32.829479}}, {"id": 1909488, "name": "Fuzhuang", "state": "", "country": "CN", "coord": {"lon": 113.47892, "lat": 32.958679}}, {"id": 1909504, "name": "Laohe", "state": "", "country": "CN", "coord": {"lon": 113.714493, "lat": 32.919479}}, {"id": 1909609, "name": "Sizhou", "state": "", "country": "CN", "coord": {"lon": 117.709938, "lat": 29.046329}}, {"id": 1909610, "name": "Xiangtun", "state": "", "country": "CN", "coord": {"lon": 117.540283, "lat": 29.00806}}, {"id": 1909627, "name": "Xiaofayi", "state": "", "country": "CN", "coord": {"lon": 107.821182, "lat": 34.169842}}, {"id": 1909635, "name": "Wuzhangyuan", "state": "", "country": "CN", "coord": {"lon": 107.612808, "lat": 34.284061}}, {"id": 1909636, "name": "Majia", "state": "", "country": "CN", "coord": {"lon": 107.70742, "lat": 34.310532}}, {"id": 1909644, "name": "Zhaogong", "state": "", "country": "CN", "coord": {"lon": 107.989067, "lat": 34.438171}}, {"id": 1909649, "name": "Jingdang", "state": "", "country": "CN", "coord": {"lon": 107.823196, "lat": 34.490452}}, {"id": 1909653, "name": "Meiganqiao", "state": "", "country": "CN", "coord": {"lon": 107.451103, "lat": 34.542221}}, {"id": 1909659, "name": "Hanfeng", "state": "", "country": "CN", "coord": {"lon": 107.297432, "lat": 34.619308}}, {"id": 1909663, "name": "Cuijiatou", "state": "", "country": "CN", "coord": {"lon": 107.231773, "lat": 34.636452}}, {"id": 1909669, "name": "Zhangjiayuan", "state": "", "country": "CN", "coord": {"lon": 107.102158, "lat": 34.699581}}, {"id": 1909683, "name": "Pingyao", "state": "", "country": "CN", "coord": {"lon": 107.974716, "lat": 34.827789}}, {"id": 1909789, "name": "Li\u2019an", "state": "", "country": "CN", "coord": {"lon": 110.066917, "lat": 18.433241}}, {"id": 1909791, "name": "Guangpo", "state": "", "country": "CN", "coord": {"lon": 110.051498, "lat": 18.55089}}, {"id": 1909797, "name": "Liji", "state": "", "country": "CN", "coord": {"lon": 110.315063, "lat": 18.751841}}, {"id": 1909802, "name": "Hou\u2019an", "state": "", "country": "CN", "coord": {"lon": 110.446541, "lat": 18.86714}}, {"id": 1909836, "name": "Hongshan", "state": "", "country": "CN", "coord": {"lon": 119.254173, "lat": 26.09083}}, {"id": 1909844, "name": "Huanxi", "state": "", "country": "CN", "coord": {"lon": 119.353798, "lat": 26.17664}}, {"id": 1910047, "name": "Xiabeisi", "state": "", "country": "CN", "coord": {"lon": 113.566689, "lat": 33.02763}}, {"id": 1910053, "name": "Huangshankou", "state": "", "country": "CN", "coord": {"lon": 113.317009, "lat": 33.040932}}, {"id": 1910073, "name": "Yangfeng", "state": "", "country": "CN", "coord": {"lon": 113.853157, "lat": 33.134399}}, {"id": 1910085, "name": "Shenzhai", "state": "", "country": "CN", "coord": {"lon": 113.867371, "lat": 33.23539}}, {"id": 1910086, "name": "Huaishu", "state": "", "country": "CN", "coord": {"lon": 113.725243, "lat": 33.251099}}, {"id": 1910089, "name": "Jiudian", "state": "", "country": "CN", "coord": {"lon": 113.661034, "lat": 33.259579}}, {"id": 1910091, "name": "Yangzhuang", "state": "", "country": "CN", "coord": {"lon": 113.481049, "lat": 33.26852}}, {"id": 1910099, "name": "Lumiao", "state": "", "country": "CN", "coord": {"lon": 113.715393, "lat": 33.320301}}, {"id": 1910101, "name": "Yangzhuang", "state": "", "country": "CN", "coord": {"lon": 113.837433, "lat": 33.337132}}, {"id": 1910102, "name": "Zhuantan", "state": "", "country": "CN", "coord": {"lon": 113.903343, "lat": 33.33659}}, {"id": 1910104, "name": "Miaojie", "state": "", "country": "CN", "coord": {"lon": 113.463783, "lat": 33.357449}}, {"id": 1910107, "name": "Tandian", "state": "", "country": "CN", "coord": {"lon": 113.925652, "lat": 33.3759}}, {"id": 1910110, "name": "Shiling", "state": "", "country": "CN", "coord": {"lon": 113.819183, "lat": 33.39677}}, {"id": 1910116, "name": "Wenfeng", "state": "", "country": "CN", "coord": {"lon": 113.575478, "lat": 33.44659}}, {"id": 1910117, "name": "Xin\u2019an", "state": "", "country": "CN", "coord": {"lon": 113.678589, "lat": 33.445881}}, {"id": 1910123, "name": "Songji", "state": "", "country": "CN", "coord": {"lon": 113.973213, "lat": 33.463581}}, {"id": 1910132, "name": "Longquan", "state": "", "country": "CN", "coord": {"lon": 113.425041, "lat": 33.488258}}, {"id": 1910136, "name": "Jiangdian", "state": "", "country": "CN", "coord": {"lon": 113.661537, "lat": 33.528332}}, {"id": 1910138, "name": "Macun", "state": "", "country": "CN", "coord": {"lon": 113.645538, "lat": 33.566799}}, {"id": 1910139, "name": "Mazhuang", "state": "", "country": "CN", "coord": {"lon": 113.343559, "lat": 33.59066}}, {"id": 1910147, "name": "Shuizhai", "state": "", "country": "CN", "coord": {"lon": 113.543167, "lat": 33.621841}}, {"id": 1910150, "name": "Taiwei", "state": "", "country": "CN", "coord": {"lon": 113.75769, "lat": 33.62973}}, {"id": 1910151, "name": "Rendian", "state": "", "country": "CN", "coord": {"lon": 113.227119, "lat": 33.62672}}, {"id": 1910153, "name": "Houji", "state": "", "country": "CN", "coord": {"lon": 113.704819, "lat": 33.670029}}, {"id": 1910154, "name": "Gunziying", "state": "", "country": "CN", "coord": {"lon": 113.103233, "lat": 33.67001}}, {"id": 1910155, "name": "Dengli", "state": "", "country": "CN", "coord": {"lon": 113.502411, "lat": 33.67178}}, {"id": 1910157, "name": "Zhanghua", "state": "", "country": "CN", "coord": {"lon": 113.622704, "lat": 33.66851}}, {"id": 1910160, "name": "Zunhuadian", "state": "", "country": "CN", "coord": {"lon": 113.400749, "lat": 33.705959}}, {"id": 1910162, "name": "Caozhen", "state": "", "country": "CN", "coord": {"lon": 113.213997, "lat": 33.70443}}, {"id": 1910165, "name": "Hongzhuangyang", "state": "", "country": "CN", "coord": {"lon": 113.516724, "lat": 33.730621}}, {"id": 1910169, "name": "Donggaohuang", "state": "", "country": "CN", "coord": {"lon": 113.363831, "lat": 33.75758}}, {"id": 1910170, "name": "Jiaodian", "state": "", "country": "CN", "coord": {"lon": 113.222939, "lat": 33.76722}}, {"id": 1910171, "name": "Huangdimiao", "state": "", "country": "CN", "coord": {"lon": 113.985672, "lat": 33.76757}}, {"id": 1910172, "name": "Taichen", "state": "", "country": "CN", "coord": {"lon": 113.921898, "lat": 33.76926}}, {"id": 1910177, "name": "Lizhuang", "state": "", "country": "CN", "coord": {"lon": 113.26577, "lat": 33.841209}}, {"id": 1910178, "name": "Yangzhuang", "state": "", "country": "CN", "coord": {"lon": 113.035027, "lat": 33.835758}}, {"id": 1910179, "name": "Fanhu", "state": "", "country": "CN", "coord": {"lon": 113.681351, "lat": 33.845291}}, {"id": 1910180, "name": "Juling", "state": "", "country": "CN", "coord": {"lon": 113.960037, "lat": 33.862202}}, {"id": 1910181, "name": "Zhouzhuang", "state": "", "country": "CN", "coord": {"lon": 113.115982, "lat": 33.86055}}, {"id": 1910183, "name": "Guxiang", "state": "", "country": "CN", "coord": {"lon": 113.919807, "lat": 33.873211}}, {"id": 1910184, "name": "Shilipu", "state": "", "country": "CN", "coord": {"lon": 113.430542, "lat": 33.881729}}, {"id": 1910186, "name": "Yaozhuang", "state": "", "country": "CN", "coord": {"lon": 113.270943, "lat": 33.875751}}, {"id": 1910188, "name": "Kuzhuang", "state": "", "country": "CN", "coord": {"lon": 113.558937, "lat": 33.902802}}, {"id": 1910191, "name": "Xiaoqi", "state": "", "country": "CN", "coord": {"lon": 113.060562, "lat": 33.916359}}, {"id": 1910193, "name": "Jiangliji", "state": "", "country": "CN", "coord": {"lon": 113.834839, "lat": 33.940189}}, {"id": 1910195, "name": "Yingyang", "state": "", "country": "CN", "coord": {"lon": 113.611778, "lat": 33.951241}}, {"id": 1910198, "name": "Guangkuotiandi", "state": "", "country": "CN", "coord": {"lon": 113.16555, "lat": 33.966541}}, {"id": 1910209, "name": "Caotang", "state": "", "country": "CN", "coord": {"lon": 108.710831, "lat": 34.043892}}, {"id": 1910215, "name": "Luanzhen", "state": "", "country": "CN", "coord": {"lon": 108.811653, "lat": 34.05843}}, {"id": 1910216, "name": "Jiangcun", "state": "", "country": "CN", "coord": {"lon": 108.473518, "lat": 34.082939}}, {"id": 1910219, "name": "Huangliang", "state": "", "country": "CN", "coord": {"lon": 108.894531, "lat": 34.09346}}, {"id": 1910225, "name": "Xiliu", "state": "", "country": "CN", "coord": {"lon": 108.791107, "lat": 34.15028}}, {"id": 1910232, "name": "Tangfang", "state": "", "country": "CN", "coord": {"lon": 108.362503, "lat": 34.237221}}, {"id": 1910233, "name": "Yuhuazhai", "state": "", "country": "CN", "coord": {"lon": 108.85556, "lat": 34.22694}}, {"id": 1910235, "name": "Dazhuang", "state": "", "country": "CN", "coord": {"lon": 108.162392, "lat": 34.253361}}, {"id": 1910238, "name": "Chenyangzhai", "state": "", "country": "CN", "coord": {"lon": 108.706223, "lat": 34.320148}}, {"id": 1910239, "name": "Liucunbao", "state": "", "country": "CN", "coord": {"lon": 108.847641, "lat": 34.333611}}, {"id": 1910240, "name": "Nanshi", "state": "", "country": "CN", "coord": {"lon": 108.462379, "lat": 34.360401}}, {"id": 1910241, "name": "Nanwei", "state": "", "country": "CN", "coord": {"lon": 108.542221, "lat": 34.357498}}, {"id": 1910243, "name": "Jiangcun", "state": "", "country": "CN", "coord": {"lon": 108.252502, "lat": 34.39278}}, {"id": 1910248, "name": "Xizhangbao", "state": "", "country": "CN", "coord": {"lon": 108.565559, "lat": 34.50528}}, {"id": 1910249, "name": "Lingyuan", "state": "", "country": "CN", "coord": {"lon": 108.349258, "lat": 34.50222}}, {"id": 1910253, "name": "Sanqu", "state": "", "country": "CN", "coord": {"lon": 108.892502, "lat": 34.57444}}, {"id": 1910256, "name": "Qiaodi", "state": "", "country": "CN", "coord": {"lon": 108.71611, "lat": 34.606392}}, {"id": 1910263, "name": "Xinglong", "state": "", "country": "CN", "coord": {"lon": 108.69278, "lat": 34.64806}}, {"id": 1910274, "name": "Mafang", "state": "", "country": "CN", "coord": {"lon": 108.162521, "lat": 34.785759}}, {"id": 1910277, "name": "Guxian", "state": "", "country": "CN", "coord": {"lon": 108.756943, "lat": 34.838612}}, {"id": 1910278, "name": "Potou", "state": "", "country": "CN", "coord": {"lon": 108.894722, "lat": 34.852779}}, {"id": 1910279, "name": "Majia", "state": "", "country": "CN", "coord": {"lon": 108.458328, "lat": 34.85833}}, {"id": 1910284, "name": "Sigou", "state": "", "country": "CN", "coord": {"lon": 108.931671, "lat": 34.938332}}, {"id": 1910285, "name": "Hujiamiao", "state": "", "country": "CN", "coord": {"lon": 108.418999, "lat": 34.957939}}, {"id": 1910288, "name": "Dongjiahe", "state": "", "country": "CN", "coord": {"lon": 108.996941, "lat": 34.962502}}, {"id": 1910293, "name": "Sunyuan", "state": "", "country": "CN", "coord": {"lon": 109.025063, "lat": 34.944439}}, {"id": 1910297, "name": "Duli", "state": "", "country": "CN", "coord": {"lon": 109.080452, "lat": 34.634048}}, {"id": 1910301, "name": "Baimiao", "state": "", "country": "CN", "coord": {"lon": 109.143639, "lat": 34.937962}}, {"id": 1910306, "name": "Xinshi", "state": "", "country": "CN", "coord": {"lon": 109.180054, "lat": 34.538342}}, {"id": 1910307, "name": "Weizhai", "state": "", "country": "CN", "coord": {"lon": 109.171661, "lat": 34.107731}}, {"id": 1910308, "name": "Qianwei", "state": "", "country": "CN", "coord": {"lon": 109.223541, "lat": 34.126362}}, {"id": 1910310, "name": "Tangyu", "state": "", "country": "CN", "coord": {"lon": 109.214348, "lat": 34.018318}}, {"id": 1910312, "name": "Qinling Jieban", "state": "", "country": "CN", "coord": {"lon": 109.249283, "lat": 34.38678}}, {"id": 1910314, "name": "Ancun", "state": "", "country": "CN", "coord": {"lon": 109.268608, "lat": 34.121342}}, {"id": 1910317, "name": "Sanli", "state": "", "country": "CN", "coord": {"lon": 109.307571, "lat": 34.169128}}, {"id": 1910318, "name": "Daiwang", "state": "", "country": "CN", "coord": {"lon": 109.294273, "lat": 34.396858}}, {"id": 1910319, "name": "Hezhai", "state": "", "country": "CN", "coord": {"lon": 109.317787, "lat": 34.517231}}, {"id": 1910322, "name": "Zhangqiao", "state": "", "country": "CN", "coord": {"lon": 109.381561, "lat": 34.756001}}, {"id": 1910323, "name": "Sufang", "state": "", "country": "CN", "coord": {"lon": 109.371201, "lat": 34.895859}}, {"id": 1910325, "name": "Youhuai", "state": "", "country": "CN", "coord": {"lon": 109.385529, "lat": 34.558491}}, {"id": 1910327, "name": "Potou", "state": "", "country": "CN", "coord": {"lon": 109.445938, "lat": 34.971031}}, {"id": 1910333, "name": "Sanhe", "state": "", "country": "CN", "coord": {"lon": 109.514961, "lat": 34.970852}}, {"id": 1910342, "name": "Longchi", "state": "", "country": "CN", "coord": {"lon": 109.67691, "lat": 34.80653}}, {"id": 1910343, "name": "Chunlin", "state": "", "country": "CN", "coord": {"lon": 109.677383, "lat": 34.95998}}, {"id": 1910344, "name": "Zhangjia", "state": "", "country": "CN", "coord": {"lon": 109.735832, "lat": 34.61697}}, {"id": 1910347, "name": "Dongchen", "state": "", "country": "CN", "coord": {"lon": 109.806824, "lat": 35.000858}}, {"id": 1910348, "name": "Xijing", "state": "", "country": "CN", "coord": {"lon": 109.818161, "lat": 34.048561}}, {"id": 1910351, "name": "Fengcun", "state": "", "country": "CN", "coord": {"lon": 109.827103, "lat": 34.85257}}, {"id": 1910358, "name": "Liuzhi", "state": "", "country": "CN", "coord": {"lon": 109.856812, "lat": 34.53936}}, {"id": 1910474, "name": "Aijia", "state": "", "country": "CN", "coord": {"lon": 111.346138, "lat": 30.62359}}, {"id": 1910477, "name": "Babao", "state": "", "country": "CN", "coord": {"lon": 111.870232, "lat": 30.182289}}, {"id": 1910488, "name": "Dianjun", "state": "", "country": "CN", "coord": {"lon": 111.259911, "lat": 30.70154}}, {"id": 1910495, "name": "Gujiadian", "state": "", "country": "CN", "coord": {"lon": 111.576851, "lat": 30.330521}}, {"id": 1910517, "name": "Sijiachang", "state": "", "country": "CN", "coord": {"lon": 111.621262, "lat": 30.08597}}, {"id": 1910524, "name": "Wuyanquan", "state": "", "country": "CN", "coord": {"lon": 111.322083, "lat": 30.354919}}, {"id": 1910527, "name": "Xiejiaping", "state": "", "country": "CN", "coord": {"lon": 111.366478, "lat": 30.04044}}, {"id": 1910538, "name": "Yunchi", "state": "", "country": "CN", "coord": {"lon": 111.44046, "lat": 30.52235}}, {"id": 1910588, "name": "Zhengzhou", "state": "", "country": "CN", "coord": {"lon": 113.532501, "lat": 34.683609}}, {"id": 1910597, "name": "Shanshiwang", "state": "", "country": "CN", "coord": {"lon": 113.812218, "lat": 34.548061}}, {"id": 1910930, "name": "Shenbai", "state": "", "country": "CN", "coord": {"lon": 111.148079, "lat": 35.36668}}, {"id": 1910950, "name": "Donggaocun", "state": "", "country": "CN", "coord": {"lon": 111.292137, "lat": 35.602131}}, {"id": 1910961, "name": "Houcun", "state": "", "country": "CN", "coord": {"lon": 111.351059, "lat": 35.416611}}, {"id": 1910975, "name": "Fengcheng", "state": "", "country": "CN", "coord": {"lon": 111.43605, "lat": 35.633228}}, {"id": 1910992, "name": "Dadeng", "state": "", "country": "CN", "coord": {"lon": 111.533882, "lat": 35.921478}}, {"id": 1912044, "name": "Xianghuang Nanying", "state": "", "country": "CN", "coord": {"lon": 116.20639, "lat": 39.966942}}, {"id": 1912147, "name": "Yuzhuang", "state": "", "country": "CN", "coord": {"lon": 116.058327, "lat": 39.677502}}, {"id": 1912205, "name": "Ungsang", "state": "", "country": "KR", "coord": {"lon": 129.16861, "lat": 35.406109}}, {"id": 1912209, "name": "Wabu", "state": "", "country": "KR", "coord": {"lon": 127.220284, "lat": 37.589722}}, {"id": 1912220, "name": "Yushan", "state": "", "country": "CN", "coord": {"lon": 120.322769, "lat": 26.957479}}, {"id": 1912606, "name": "Nankai", "state": "", "country": "CN", "coord": {"lon": 117.599167, "lat": 38.98278}}, {"id": 1912743, "name": "Gaozhai", "state": "", "country": "CN", "coord": {"lon": 101.992218, "lat": 36.516109}}, {"id": 1912819, "name": "Yongfeng", "state": "", "country": "CN", "coord": {"lon": 115.209, "lat": 26.306129}}, {"id": 1912824, "name": "Qingtang", "state": "", "country": "CN", "coord": {"lon": 115.862968, "lat": 26.440821}}, {"id": 1912826, "name": "Fangtai", "state": "", "country": "CN", "coord": {"lon": 115.385002, "lat": 26.51083}}, {"id": 1912837, "name": "Futan", "state": "", "country": "CN", "coord": {"lon": 115.150337, "lat": 26.991249}}, {"id": 1913167, "name": "Shatian", "state": "", "country": "CN", "coord": {"lon": 113.610847, "lat": 22.920469}}, {"id": 1913172, "name": "Xinwan", "state": "", "country": "CN", "coord": {"lon": 113.667999, "lat": 22.786619}}, {"id": 1913188, "name": "Dongkeng", "state": "", "country": "CN", "coord": {"lon": 113.94326, "lat": 22.99262}}, {"id": 1913195, "name": "Huangjiang", "state": "", "country": "CN", "coord": {"lon": 113.995354, "lat": 22.91687}}, {"id": 1913339, "name": "Xiachuan", "state": "", "country": "CN", "coord": {"lon": 112.581291, "lat": 21.65086}}, {"id": 1913369, "name": "Shangchuan", "state": "", "country": "CN", "coord": {"lon": 112.771301, "lat": 21.7262}}, {"id": 1913375, "name": "Zhize", "state": "", "country": "CN", "coord": {"lon": 111.607018, "lat": 21.74608}}, {"id": 1913430, "name": "Dongcheng", "state": "", "country": "CN", "coord": {"lon": 112.012497, "lat": 21.87833}}, {"id": 1913575, "name": "Sanba", "state": "", "country": "CN", "coord": {"lon": 112.681458, "lat": 22.30176}}, {"id": 1913808, "name": "Dongying", "state": "", "country": "CN", "coord": {"lon": 110.413467, "lat": 20.05278}}, {"id": 1913819, "name": "Mei\u2019an", "state": "", "country": "CN", "coord": {"lon": 110.185822, "lat": 19.87826}}, {"id": 1913835, "name": "Yongfa", "state": "", "country": "CN", "coord": {"lon": 110.194839, "lat": 19.748341}}, {"id": 1913862, "name": "Xinzhu", "state": "", "country": "CN", "coord": {"lon": 110.206497, "lat": 19.62158}}, {"id": 1913863, "name": "Xinwu", "state": "", "country": "CN", "coord": {"lon": 110.187431, "lat": 19.649361}}, {"id": 1913875, "name": "Zuntan", "state": "", "country": "CN", "coord": {"lon": 110.29911, "lat": 19.81443}}, {"id": 1913877, "name": "Longqiao", "state": "", "country": "CN", "coord": {"lon": 110.355759, "lat": 19.91391}}, {"id": 1913896, "name": "Hongqi", "state": "", "country": "CN", "coord": {"lon": 110.506378, "lat": 19.82036}}, {"id": 1913935, "name": "Dapo", "state": "", "country": "CN", "coord": {"lon": 110.571579, "lat": 19.616091}}, {"id": 1913943, "name": "Donglu", "state": "", "country": "CN", "coord": {"lon": 110.677971, "lat": 19.738689}}, {"id": 1913969, "name": "Fengpo", "state": "", "country": "CN", "coord": {"lon": 110.776573, "lat": 19.96796}}, {"id": 1913971, "name": "Yanfeng", "state": "", "country": "CN", "coord": {"lon": 110.554512, "lat": 19.951151}}, {"id": 1914024, "name": "Longlou", "state": "", "country": "CN", "coord": {"lon": 110.964592, "lat": 19.656321}}, {"id": 1914035, "name": "Dongge", "state": "", "country": "CN", "coord": {"lon": 110.845161, "lat": 19.66004}}, {"id": 1914146, "name": "Dayuanhuizu", "state": "", "country": "CN", "coord": {"lon": 105.234451, "lat": 32.423061}}, {"id": 1914152, "name": "Fengxiang", "state": "", "country": "CN", "coord": {"lon": 105.311302, "lat": 32.901939}}, {"id": 1914158, "name": "Xiasi", "state": "", "country": "CN", "coord": {"lon": 105.51326, "lat": 32.289982}}, {"id": 1914171, "name": "Yangba", "state": "", "country": "CN", "coord": {"lon": 105.766434, "lat": 33.010269}}, {"id": 1914340, "name": "Zhenghu", "state": "", "country": "CN", "coord": {"lon": 118.021751, "lat": 26.361441}}, {"id": 1914358, "name": "Luxia", "state": "", "country": "CN", "coord": {"lon": 118.296112, "lat": 26.49004}}, {"id": 1914367, "name": "Chimen", "state": "", "country": "CN", "coord": {"lon": 118.447762, "lat": 26.54549}}, {"id": 1914370, "name": "Songji", "state": "", "country": "CN", "coord": {"lon": 118.740349, "lat": 26.57662}}, {"id": 1914421, "name": "Yedun", "state": "", "country": "CN", "coord": {"lon": 118.141617, "lat": 26.909849}}, {"id": 1914462, "name": "Heyun", "state": "", "country": "CN", "coord": {"lon": 112.917099, "lat": 23.92893}}, {"id": 1914468, "name": "Longjing", "state": "", "country": "CN", "coord": {"lon": 112.866852, "lat": 23.880289}}, {"id": 1914540, "name": "Xianggang", "state": "", "country": "CN", "coord": {"lon": 112.821114, "lat": 23.388611}}, {"id": 1914622, "name": "Hongmao", "state": "", "country": "CN", "coord": {"lon": 109.665489, "lat": 19.025591}}, {"id": 1914636, "name": "Zhongping", "state": "", "country": "CN", "coord": {"lon": 110.053329, "lat": 19.063049}}, {"id": 1914639, "name": "Huishan", "state": "", "country": "CN", "coord": {"lon": 110.261032, "lat": 19.069401}}, {"id": 1914669, "name": "Longjiang", "state": "", "country": "CN", "coord": {"lon": 110.320053, "lat": 19.147711}}, {"id": 1914700, "name": "Xishui", "state": "", "country": "CN", "coord": {"lon": 109.559677, "lat": 19.21129}}, {"id": 1914713, "name": "Wanquan", "state": "", "country": "CN", "coord": {"lon": 110.403961, "lat": 19.24415}}, {"id": 1914723, "name": "Sanya", "state": "", "country": "CN", "coord": {"lon": 109.656677, "lat": 19.26392}}, {"id": 1914730, "name": "Limushan", "state": "", "country": "CN", "coord": {"lon": 109.782982, "lat": 19.267521}}, {"id": 1914743, "name": "Poxin", "state": "", "country": "CN", "coord": {"lon": 110.08374, "lat": 19.302019}}, {"id": 1914825, "name": "Lanyang", "state": "", "country": "CN", "coord": {"lon": 109.6604, "lat": 19.461411}}, {"id": 1914927, "name": "Sandu", "state": "", "country": "CN", "coord": {"lon": 109.214996, "lat": 19.7894}}, {"id": 1914932, "name": "Mutang", "state": "", "country": "CN", "coord": {"lon": 109.34539, "lat": 19.80755}}, {"id": 1914952, "name": "Dongcheng", "state": "", "country": "CN", "coord": {"lon": 109.4561, "lat": 19.708679}}, {"id": 1914965, "name": "Heqing", "state": "", "country": "CN", "coord": {"lon": 109.63279, "lat": 19.528311}}, {"id": 1915043, "name": "Bohou", "state": "", "country": "CN", "coord": {"lon": 109.740593, "lat": 19.88125}}, {"id": 1915047, "name": "Huangtong", "state": "", "country": "CN", "coord": {"lon": 109.84391, "lat": 19.83503}}, {"id": 1915056, "name": "Longbo", "state": "", "country": "CN", "coord": {"lon": 109.851868, "lat": 19.761009}}, {"id": 1915089, "name": "Dongyin", "state": "", "country": "CN", "coord": {"lon": 109.642731, "lat": 19.960541}}, {"id": 1915223, "name": "Zhongshan", "state": "", "country": "CN", "coord": {"lon": 110.582909, "lat": 21.322559}}, {"id": 1915377, "name": "Zhangshui", "state": "", "country": "CN", "coord": {"lon": 121.299347, "lat": 29.82036}}, {"id": 1915379, "name": "Xiaren", "state": "", "country": "CN", "coord": {"lon": 121.026756, "lat": 29.5704}}, {"id": 1915383, "name": "Hemudu", "state": "", "country": "CN", "coord": {"lon": 121.311378, "lat": 29.987101}}, {"id": 1915391, "name": "Ruanzhuang", "state": "", "country": "CN", "coord": {"lon": 121.02813, "lat": 29.780109}}, {"id": 1915399, "name": "Dashiju", "state": "", "country": "CN", "coord": {"lon": 121.034172, "lat": 29.444719}}, {"id": 1915413, "name": "Chenxikou", "state": "", "country": "CN", "coord": {"lon": 121.0522, "lat": 29.81805}}, {"id": 1915446, "name": "Huangwu", "state": "", "country": "CN", "coord": {"lon": 121.1661, "lat": 29.084539}}, {"id": 1915479, "name": "Feikeng", "state": "", "country": "CN", "coord": {"lon": 121.235558, "lat": 29.28702}}, {"id": 1915491, "name": "Shiliang", "state": "", "country": "CN", "coord": {"lon": 121.043221, "lat": 29.240971}}, {"id": 1915501, "name": "Hengjie", "state": "", "country": "CN", "coord": {"lon": 121.396942, "lat": 29.859171}}, {"id": 1915507, "name": "Gulin", "state": "", "country": "CN", "coord": {"lon": 121.430283, "lat": 29.8325}}, {"id": 1915508, "name": "Jishigang", "state": "", "country": "CN", "coord": {"lon": 121.431107, "lat": 29.870279}}, {"id": 1915735, "name": "Fulong", "state": "", "country": "CN", "coord": {"lon": 109.455338, "lat": 19.32386}}, {"id": 1915761, "name": "Jinbo", "state": "", "country": "CN", "coord": {"lon": 109.169968, "lat": 19.240919}}, {"id": 1915772, "name": "Qifang", "state": "", "country": "CN", "coord": {"lon": 109.235741, "lat": 19.299919}}, {"id": 1915786, "name": "Bangxi", "state": "", "country": "CN", "coord": {"lon": 109.097862, "lat": 19.37064}}, {"id": 1915788, "name": "Rongbang", "state": "", "country": "CN", "coord": {"lon": 109.133919, "lat": 19.446369}}, {"id": 1915799, "name": "Shiyuetian", "state": "", "country": "CN", "coord": {"lon": 108.948952, "lat": 19.328671}}, {"id": 1915821, "name": "Wulie", "state": "", "country": "CN", "coord": {"lon": 108.783943, "lat": 19.28614}}, {"id": 1915840, "name": "Sanjia", "state": "", "country": "CN", "coord": {"lon": 108.755898, "lat": 19.24299}}, {"id": 1915877, "name": "Qicha", "state": "", "country": "CN", "coord": {"lon": 109.04628, "lat": 19.11623}}, {"id": 1916009, "name": "Changhao", "state": "", "country": "CN", "coord": {"lon": 109.477829, "lat": 18.737789}}, {"id": 1916012, "name": "Chongshan", "state": "", "country": "CN", "coord": {"lon": 109.499298, "lat": 18.782749}}, {"id": 1916015, "name": "Maodao", "state": "", "country": "CN", "coord": {"lon": 109.40551, "lat": 18.793949}}, {"id": 1916039, "name": "Fanyang", "state": "", "country": "CN", "coord": {"lon": 109.393112, "lat": 18.876751}}, {"id": 1916137, "name": "Nan\u2019ao", "state": "", "country": "CN", "coord": {"lon": 114.487183, "lat": 22.53619}}, {"id": 1916188, "name": "Tieyong", "state": "", "country": "CN", "coord": {"lon": 114.834137, "lat": 22.72459}}, {"id": 1916198, "name": "Huangbu", "state": "", "country": "CN", "coord": {"lon": 114.956642, "lat": 22.754}}, {"id": 1916204, "name": "Pingdi", "state": "", "country": "CN", "coord": {"lon": 114.301781, "lat": 22.7717}}, {"id": 1916222, "name": "Dongyong", "state": "", "country": "CN", "coord": {"lon": 115.415878, "lat": 22.79567}}, {"id": 1916226, "name": "Qiuchang", "state": "", "country": "CN", "coord": {"lon": 114.425858, "lat": 22.821529}}, {"id": 1916231, "name": "Ebu", "state": "", "country": "CN", "coord": {"lon": 114.996986, "lat": 22.82765}}, {"id": 1916234, "name": "Dahu", "state": "", "country": "CN", "coord": {"lon": 115.561707, "lat": 22.835039}}, {"id": 1916237, "name": "Hongcao", "state": "", "country": "CN", "coord": {"lon": 115.355217, "lat": 22.83601}}, {"id": 1916245, "name": "Shatian", "state": "", "country": "CN", "coord": {"lon": 114.545258, "lat": 22.862659}}, {"id": 1916249, "name": "Jinxiang", "state": "", "country": "CN", "coord": {"lon": 115.701958, "lat": 22.86282}}, {"id": 1916257, "name": "Jiadong", "state": "", "country": "CN", "coord": {"lon": 116.10228, "lat": 22.87677}}, {"id": 1916262, "name": "Jiaxi", "state": "", "country": "CN", "coord": {"lon": 116.013748, "lat": 22.88623}}, {"id": 1916268, "name": "Shangying", "state": "", "country": "CN", "coord": {"lon": 115.559624, "lat": 22.88652}}, {"id": 1916270, "name": "Taohe", "state": "", "country": "CN", "coord": {"lon": 115.393288, "lat": 22.899651}}, {"id": 1916276, "name": "Lian\u2019an", "state": "", "country": "CN", "coord": {"lon": 115.29351, "lat": 22.916491}}, {"id": 1916282, "name": "Qishi", "state": "", "country": "CN", "coord": {"lon": 116.123833, "lat": 22.917561}}, {"id": 1916285, "name": "Qiaochong", "state": "", "country": "CN", "coord": {"lon": 115.782639, "lat": 22.921619}}, {"id": 1916288, "name": "Yonghu", "state": "", "country": "CN", "coord": {"lon": 114.49485, "lat": 22.94685}}, {"id": 1916289, "name": "Ketang", "state": "", "country": "CN", "coord": {"lon": 115.452003, "lat": 22.943649}}, {"id": 1916294, "name": "Aojiang", "state": "", "country": "CN", "coord": {"lon": 116.035919, "lat": 22.942141}}, {"id": 1916296, "name": "Chengdong", "state": "", "country": "CN", "coord": {"lon": 115.650551, "lat": 22.9496}}, {"id": 1916300, "name": "Qianzhan", "state": "", "country": "CN", "coord": {"lon": 116.423561, "lat": 22.94359}}, {"id": 1916301, "name": "Hexi", "state": "", "country": "CN", "coord": {"lon": 115.609673, "lat": 22.958151}}, {"id": 1916310, "name": "Donggang", "state": "", "country": "CN", "coord": {"lon": 115.953796, "lat": 22.96806}}, {"id": 1916314, "name": "Hongmei", "state": "", "country": "CN", "coord": {"lon": 113.603722, "lat": 22.99378}}, {"id": 1916315, "name": "Sandong", "state": "", "country": "CN", "coord": {"lon": 114.44162, "lat": 22.98777}}, {"id": 1916320, "name": "Xixi", "state": "", "country": "CN", "coord": {"lon": 116.158546, "lat": 22.988741}}, {"id": 1916396, "name": "Longmen", "state": "", "country": "CN", "coord": {"lon": 119.947502, "lat": 29.902519}}, {"id": 1916398, "name": "Huanshan", "state": "", "country": "CN", "coord": {"lon": 119.924782, "lat": 29.930679}}, {"id": 1916418, "name": "Gaoxiang", "state": "", "country": "CN", "coord": {"lon": 119.590698, "lat": 29.92837}}, {"id": 1916624, "name": "Dashe", "state": "", "country": "CN", "coord": {"lon": 118.907402, "lat": 29.9079}}, {"id": 1916627, "name": "Wangfu", "state": "", "country": "CN", "coord": {"lon": 118.911812, "lat": 29.84182}}, {"id": 1916643, "name": "Weiping", "state": "", "country": "CN", "coord": {"lon": 118.784027, "lat": 29.728279}}, {"id": 1916647, "name": "Tangban", "state": "", "country": "CN", "coord": {"lon": 118.914436, "lat": 29.683889}}, {"id": 1916663, "name": "Yaojia", "state": "", "country": "CN", "coord": {"lon": 118.783623, "lat": 29.552601}}, {"id": 1916670, "name": "Langchuan", "state": "", "country": "CN", "coord": {"lon": 118.597099, "lat": 29.48992}}, {"id": 1916673, "name": "Liyang", "state": "", "country": "CN", "coord": {"lon": 118.992699, "lat": 29.48284}}, {"id": 1916677, "name": "Shuangqiao", "state": "", "country": "CN", "coord": {"lon": 118.883614, "lat": 29.13447}}, {"id": 1916689, "name": "Datou", "state": "", "country": "CN", "coord": {"lon": 118.757782, "lat": 29.153061}}, {"id": 1916698, "name": "Xiacaoqiao", "state": "", "country": "CN", "coord": {"lon": 118.838791, "lat": 29.18392}}, {"id": 1916701, "name": "Shisanli", "state": "", "country": "CN", "coord": {"lon": 118.907516, "lat": 29.005051}}, {"id": 1916705, "name": "Huipinggeng", "state": "", "country": "CN", "coord": {"lon": 118.854279, "lat": 29.249741}}, {"id": 1916712, "name": "Anyang", "state": "", "country": "CN", "coord": {"lon": 118.82917, "lat": 29.4175}}, {"id": 1916715, "name": "Fengshuling", "state": "", "country": "CN", "coord": {"lon": 118.705658, "lat": 29.36916}}, {"id": 1916722, "name": "Daqiaotou", "state": "", "country": "CN", "coord": {"lon": 118.558899, "lat": 29.288321}}, {"id": 1916732, "name": "Shangyuan", "state": "", "country": "CN", "coord": {"lon": 118.658249, "lat": 29.043011}}, {"id": 1916734, "name": "Xinchang", "state": "", "country": "CN", "coord": {"lon": 118.58979, "lat": 29.074209}}, {"id": 1916737, "name": "Donglu", "state": "", "country": "CN", "coord": {"lon": 118.534821, "lat": 29.02355}}, {"id": 1916743, "name": "Lujiawu", "state": "", "country": "CN", "coord": {"lon": 118.249199, "lat": 29.00753}}, {"id": 1916753, "name": "Youxikou", "state": "", "country": "CN", "coord": {"lon": 118.197403, "lat": 29.12418}}, {"id": 1916758, "name": "Zhangcun", "state": "", "country": "CN", "coord": {"lon": 118.335373, "lat": 29.21903}}, {"id": 1916778, "name": "Xiashan", "state": "", "country": "CN", "coord": {"lon": 118.406174, "lat": 29.3339}}, {"id": 1916785, "name": "Zhongzhou", "state": "", "country": "CN", "coord": {"lon": 118.478279, "lat": 29.440889}}, {"id": 1916798, "name": "Dongwu", "state": "", "country": "CN", "coord": {"lon": 118.545631, "lat": 29.23789}}, {"id": 1916824, "name": "Xukou", "state": "", "country": "CN", "coord": {"lon": 119.665283, "lat": 29.98727}}, {"id": 1916848, "name": "Daling", "state": "", "country": "CN", "coord": {"lon": 114.701523, "lat": 23.00371}}, {"id": 1916860, "name": "Shipai", "state": "", "country": "CN", "coord": {"lon": 113.945061, "lat": 23.08744}}, {"id": 1916861, "name": "Gaobu", "state": "", "country": "CN", "coord": {"lon": 113.71785, "lat": 23.084351}}, {"id": 1916862, "name": "Shijie", "state": "", "country": "CN", "coord": {"lon": 113.795822, "lat": 23.09305}}, {"id": 1916872, "name": "Lianghua", "state": "", "country": "CN", "coord": {"lon": 114.671928, "lat": 23.11273}}, {"id": 1916875, "name": "Shiwan", "state": "", "country": "CN", "coord": {"lon": 113.862793, "lat": 23.124451}}, {"id": 1916883, "name": "Xiaojinkou", "state": "", "country": "CN", "coord": {"lon": 114.404221, "lat": 23.18894}}, {"id": 1916888, "name": "Yonghe", "state": "", "country": "CN", "coord": {"lon": 113.584717, "lat": 23.181589}}, {"id": 1916895, "name": "Ningxi", "state": "", "country": "CN", "coord": {"lon": 113.654892, "lat": 23.21722}}, {"id": 1916898, "name": "Aipi", "state": "", "country": "CN", "coord": {"lon": 114.638443, "lat": 23.228201}}, {"id": 1916948, "name": "Feng\u2019an", "state": "", "country": "CN", "coord": {"lon": 114.839783, "lat": 23.40933}}, {"id": 1916993, "name": "Qingxi", "state": "", "country": "CN", "coord": {"lon": 114.954018, "lat": 23.53754}}, {"id": 1916998, "name": "Gongzhuang", "state": "", "country": "CN", "coord": {"lon": 114.388367, "lat": 23.552799}}, {"id": 1917000, "name": "Luxi", "state": "", "country": "CN", "coord": {"lon": 114.274399, "lat": 23.562679}}, {"id": 1917017, "name": "Longjiang", "state": "", "country": "CN", "coord": {"lon": 114.289352, "lat": 23.60943}}, {"id": 1917050, "name": "Wangping", "state": "", "country": "CN", "coord": {"lon": 114.248306, "lat": 23.73477}}, {"id": 1917059, "name": "Jiushe", "state": "", "country": "CN", "coord": {"lon": 114.958969, "lat": 23.77894}}, {"id": 1917061, "name": "Xingang", "state": "", "country": "CN", "coord": {"lon": 114.633011, "lat": 23.7843}}, {"id": 1917073, "name": "Gaotian", "state": "", "country": "CN", "coord": {"lon": 113.180511, "lat": 23.817011}}, {"id": 1917081, "name": "Yihe", "state": "", "country": "CN", "coord": {"lon": 114.863167, "lat": 23.845051}}, {"id": 1917092, "name": "Shuitou", "state": "", "country": "CN", "coord": {"lon": 113.641449, "lat": 23.880939}}, {"id": 1917107, "name": "Xichang", "state": "", "country": "CN", "coord": {"lon": 114.452667, "lat": 23.929501}}, {"id": 1917113, "name": "Shuangjiang", "state": "", "country": "CN", "coord": {"lon": 114.711906, "lat": 23.95043}}, {"id": 1917121, "name": "Yaotian", "state": "", "country": "CN", "coord": {"lon": 113.826111, "lat": 23.983061}}, {"id": 1917124, "name": "Xiaozhen", "state": "", "country": "CN", "coord": {"lon": 114.025978, "lat": 23.98542}}, {"id": 1917133, "name": "Dadong", "state": "", "country": "CN", "coord": {"lon": 113.068832, "lat": 24.02553}}, {"id": 1917135, "name": "Gaogang", "state": "", "country": "CN", "coord": {"lon": 113.579483, "lat": 24.02676}}, {"id": 1917139, "name": "Banjiang", "state": "", "country": "CN", "coord": {"lon": 114.555237, "lat": 24.03937}}, {"id": 1917143, "name": "Luohu", "state": "", "country": "CN", "coord": {"lon": 114.874031, "lat": 24.04837}}, {"id": 1917150, "name": "Shuibian", "state": "", "country": "CN", "coord": {"lon": 113.168587, "lat": 24.09556}}, {"id": 1917153, "name": "Shaba", "state": "", "country": "CN", "coord": {"lon": 113.081367, "lat": 24.090811}}, {"id": 1917160, "name": "Zhangxi", "state": "", "country": "CN", "coord": {"lon": 114.922546, "lat": 24.102739}}, {"id": 1917161, "name": "Shangguan", "state": "", "country": "CN", "coord": {"lon": 114.987968, "lat": 24.101919}}, {"id": 1917162, "name": "Shuntian", "state": "", "country": "CN", "coord": {"lon": 114.764091, "lat": 24.10667}}, {"id": 1917170, "name": "Huanggang", "state": "", "country": "CN", "coord": {"lon": 113.498871, "lat": 24.133329}}, {"id": 1917177, "name": "Huangqi", "state": "", "country": "CN", "coord": {"lon": 114.221558, "lat": 24.16836}}, {"id": 1917181, "name": "Huangsha", "state": "", "country": "CN", "coord": {"lon": 114.84362, "lat": 24.170919}}, {"id": 1917184, "name": "Qixia", "state": "", "country": "CN", "coord": {"lon": 114.034439, "lat": 24.189171}}, {"id": 1917185, "name": "Tianyuan", "state": "", "country": "CN", "coord": {"lon": 114.418808, "lat": 24.188129}}, {"id": 1917200, "name": "Youxi", "state": "", "country": "CN", "coord": {"lon": 114.679977, "lat": 24.21596}}, {"id": 1917201, "name": "Lishi", "state": "", "country": "CN", "coord": {"lon": 114.996002, "lat": 24.22748}}, {"id": 1917204, "name": "Zhoupi", "state": "", "country": "CN", "coord": {"lon": 114.02507, "lat": 24.24939}}, {"id": 1917205, "name": "Miaodun", "state": "", "country": "CN", "coord": {"lon": 113.911392, "lat": 24.252781}}, {"id": 1917207, "name": "Qiaotou", "state": "", "country": "CN", "coord": {"lon": 113.768311, "lat": 24.249689}}, {"id": 1917213, "name": "Xiuduan", "state": "", "country": "CN", "coord": {"lon": 114.850594, "lat": 24.26475}}, {"id": 1917215, "name": "Xishan", "state": "", "country": "CN", "coord": {"lon": 114.420837, "lat": 24.26963}}, {"id": 1917218, "name": "Gongbai", "state": "", "country": "CN", "coord": {"lon": 114.947906, "lat": 24.276649}}, {"id": 1917221, "name": "Yinghong", "state": "", "country": "CN", "coord": {"lon": 113.422218, "lat": 24.29472}}, {"id": 1917237, "name": "Hengshitang", "state": "", "country": "CN", "coord": {"lon": 113.385002, "lat": 24.343889}}, {"id": 1917240, "name": "Yunling", "state": "", "country": "CN", "coord": {"lon": 113.438873, "lat": 24.346939}}, {"id": 1917243, "name": "Hengshishui", "state": "", "country": "CN", "coord": {"lon": 113.801361, "lat": 24.365009}}, {"id": 1917248, "name": "Neiguan", "state": "", "country": "CN", "coord": {"lon": 114.553032, "lat": 24.370199}}, {"id": 1917270, "name": "Boluo", "state": "", "country": "CN", "coord": {"lon": 113.01918, "lat": 24.44219}}, {"id": 1917275, "name": "Reshui", "state": "", "country": "CN", "coord": {"lon": 114.82682, "lat": 24.45767}}, {"id": 1917284, "name": "Tielong", "state": "", "country": "CN", "coord": {"lon": 113.692223, "lat": 24.505831}}, {"id": 1917290, "name": "Daba", "state": "", "country": "CN", "coord": {"lon": 114.926888, "lat": 24.507191}}, {"id": 1917302, "name": "Zhangshi", "state": "", "country": "CN", "coord": {"lon": 113.536392, "lat": 24.559441}}, {"id": 1917306, "name": "Liyuan", "state": "", "country": "CN", "coord": {"lon": 114.765251, "lat": 24.565941}}, {"id": 1917320, "name": "Aizi", "state": "", "country": "CN", "coord": {"lon": 113.980003, "lat": 24.631941}}, {"id": 1917342, "name": "Longgui", "state": "", "country": "CN", "coord": {"lon": 113.46167, "lat": 24.729441}}, {"id": 1917350, "name": "Duheng", "state": "", "country": "CN", "coord": {"lon": 114.275284, "lat": 24.768721}}, {"id": 1917362, "name": "Yiliu", "state": "", "country": "CN", "coord": {"lon": 113.38382, "lat": 24.83066}}, {"id": 1917363, "name": "Shendushui", "state": "", "country": "CN", "coord": {"lon": 114.069443, "lat": 24.8375}}, {"id": 1917367, "name": "Shiliting", "state": "", "country": "CN", "coord": {"lon": 113.565002, "lat": 24.84778}}, {"id": 1917368, "name": "Luoba", "state": "", "country": "CN", "coord": {"lon": 114.208252, "lat": 24.862499}}, {"id": 1917370, "name": "Dongping", "state": "", "country": "CN", "coord": {"lon": 113.18, "lat": 24.74}}, {"id": 1917374, "name": "Zhongyang", "state": "", "country": "CN", "coord": {"lon": 113.464996, "lat": 24.885}}, {"id": 1917385, "name": "Dungang", "state": "", "country": "CN", "coord": {"lon": 114.137741, "lat": 24.921499}}, {"id": 1917386, "name": "Daqiao", "state": "", "country": "CN", "coord": {"lon": 113.764717, "lat": 24.92778}}, {"id": 1917390, "name": "Chengnan", "state": "", "country": "CN", "coord": {"lon": 114.069168, "lat": 24.94083}}, {"id": 1917394, "name": "Youxi", "state": "", "country": "CN", "coord": {"lon": 113.360283, "lat": 24.95694}}, {"id": 1917424, "name": "Gushi", "state": "", "country": "CN", "coord": {"lon": 114.222778, "lat": 25.06167}}, {"id": 1917425, "name": "Zhutian", "state": "", "country": "CN", "coord": {"lon": 114.29583, "lat": 25.065281}}, {"id": 1917426, "name": "Huangkeng", "state": "", "country": "CN", "coord": {"lon": 113.82444, "lat": 25.067499}}, {"id": 1917428, "name": "Changlai", "state": "", "country": "CN", "coord": {"lon": 113.386078, "lat": 25.08396}}, {"id": 1917430, "name": "Jiangtou", "state": "", "country": "CN", "coord": {"lon": 114.418892, "lat": 25.090281}}, {"id": 1917433, "name": "Shaping", "state": "", "country": "CN", "coord": {"lon": 113.038048, "lat": 25.089319}}, {"id": 1917442, "name": "Yunyan", "state": "", "country": "CN", "coord": {"lon": 113.093979, "lat": 25.129919}}, {"id": 1917443, "name": "Quan\u2019an", "state": "", "country": "CN", "coord": {"lon": 114.249168, "lat": 25.138611}}, {"id": 1917444, "name": "Cangshi", "state": "", "country": "CN", "coord": {"lon": 114.192223, "lat": 25.139999}}, {"id": 1917449, "name": "Pingtian", "state": "", "country": "CN", "coord": {"lon": 114.635834, "lat": 25.149441}}, {"id": 1917450, "name": "Wenshao", "state": "", "country": "CN", "coord": {"lon": 113.886658, "lat": 25.140739}}, {"id": 1917453, "name": "Langtian", "state": "", "country": "CN", "coord": {"lon": 113.461731, "lat": 25.160191}}, {"id": 1917455, "name": "Nanmu", "state": "", "country": "CN", "coord": {"lon": 114.539169, "lat": 25.176109}}, {"id": 1917457, "name": "Xiushui", "state": "", "country": "CN", "coord": {"lon": 112.998009, "lat": 25.17226}}, {"id": 1917461, "name": "Beixiang", "state": "", "country": "CN", "coord": {"lon": 113.347191, "lat": 25.185471}}, {"id": 1917469, "name": "Zhuji", "state": "", "country": "CN", "coord": {"lon": 114.33667, "lat": 25.20694}}, {"id": 1917478, "name": "Lanhe", "state": "", "country": "CN", "coord": {"lon": 114.134171, "lat": 25.24556}}, {"id": 1917481, "name": "Jiezhi", "state": "", "country": "CN", "coord": {"lon": 114.698334, "lat": 25.25806}}, {"id": 1917485, "name": "Hongshan", "state": "", "country": "CN", "coord": {"lon": 113.595993, "lat": 25.25876}}, {"id": 1917487, "name": "Wushan", "state": "", "country": "CN", "coord": {"lon": 113.48568, "lat": 25.260941}}, {"id": 1917490, "name": "Dengfang", "state": "", "country": "CN", "coord": {"lon": 114.427498, "lat": 25.280279}}, {"id": 1917492, "name": "Datang", "state": "", "country": "CN", "coord": {"lon": 114.503609, "lat": 25.289721}}, {"id": 1917495, "name": "Kongjiang", "state": "", "country": "CN", "coord": {"lon": 114.598328, "lat": 25.297501}}, {"id": 1917498, "name": "Maozifeng", "state": "", "country": "CN", "coord": {"lon": 114.142776, "lat": 25.30361}}, {"id": 1917513, "name": "Youshan", "state": "", "country": "CN", "coord": {"lon": 114.517776, "lat": 25.36833}}, {"id": 1917515, "name": "Liangjiang", "state": "", "country": "CN", "coord": {"lon": 113.284576, "lat": 25.360929}}, {"id": 1917521, "name": "Qingyun", "state": "", "country": "CN", "coord": {"lon": 113.176552, "lat": 25.396641}}, {"id": 1917526, "name": "Huangpu", "state": "", "country": "CN", "coord": {"lon": 113.174721, "lat": 25.443331}}, {"id": 1917527, "name": "Baishi", "state": "", "country": "CN", "coord": {"lon": 113.252693, "lat": 25.459629}}, {"id": 1917530, "name": "Shangen", "state": "", "country": "CN", "coord": {"lon": 110.482292, "lat": 18.969481}}, {"id": 1917569, "name": "Sancai", "state": "", "country": "CN", "coord": {"lon": 110.000763, "lat": 18.475809}}, {"id": 1917571, "name": "Timeng", "state": "", "country": "CN", "coord": {"lon": 110.012459, "lat": 18.569059}}, {"id": 1917589, "name": "Changfeng", "state": "", "country": "CN", "coord": {"lon": 110.320671, "lat": 18.80197}}, {"id": 1917594, "name": "Damao", "state": "", "country": "CN", "coord": {"lon": 110.392441, "lat": 18.849199}}, {"id": 1917615, "name": "Heping", "state": "", "country": "CN", "coord": {"lon": 110.019829, "lat": 18.9009}}, {"id": 1917629, "name": "Beida", "state": "", "country": "CN", "coord": {"lon": 110.330788, "lat": 18.92416}}, {"id": 1917639, "name": "Changzheng", "state": "", "country": "CN", "coord": {"lon": 109.874619, "lat": 18.961611}}, {"id": 1917666, "name": "Shang\u2019an", "state": "", "country": "CN", "coord": {"lon": 109.833, "lat": 18.877581}}, {"id": 1917674, "name": "Diaoluoshan", "state": "", "country": "CN", "coord": {"lon": 109.873917, "lat": 18.79545}}, {"id": 1917716, "name": "Qunying", "state": "", "country": "CN", "coord": {"lon": 109.870842, "lat": 18.58473}}, {"id": 1917718, "name": "Liugong", "state": "", "country": "CN", "coord": {"lon": 109.777847, "lat": 18.539921}}, {"id": 1917725, "name": "Wenluo", "state": "", "country": "CN", "coord": {"lon": 109.952888, "lat": 18.517891}}, {"id": 1917726, "name": "Longguang", "state": "", "country": "CN", "coord": {"lon": 109.899132, "lat": 18.50526}}, {"id": 1917750, "name": "Jiamao", "state": "", "country": "CN", "coord": {"lon": 109.697617, "lat": 18.556219}}, {"id": 1917771, "name": "Nanlin", "state": "", "country": "CN", "coord": {"lon": 109.612671, "lat": 18.407619}}, {"id": 1917846, "name": "Jiusuo", "state": "", "country": "CN", "coord": {"lon": 108.910149, "lat": 18.44425}}, {"id": 1917861, "name": "Lincuo", "state": "", "country": "CN", "coord": {"lon": 117.25946, "lat": 23.66062}}, {"id": 1917864, "name": "Dongyingcun", "state": "", "country": "CN", "coord": {"lon": 117.385597, "lat": 23.68852}}, {"id": 1917867, "name": "Xingxi", "state": "", "country": "CN", "coord": {"lon": 117.190712, "lat": 23.704981}}, {"id": 1917868, "name": "Zhangtang", "state": "", "country": "CN", "coord": {"lon": 117.446678, "lat": 23.721411}}, {"id": 1917869, "name": "Xinzhai", "state": "", "country": "CN", "coord": {"lon": 117.148659, "lat": 23.72048}}, {"id": 1917870, "name": "Kangmei", "state": "", "country": "CN", "coord": {"lon": 117.472656, "lat": 23.73559}}, {"id": 1917871, "name": "Lushikeng", "state": "", "country": "CN", "coord": {"lon": 117.255341, "lat": 23.76058}}, {"id": 1917875, "name": "Jingbaoshan", "state": "", "country": "CN", "coord": {"lon": 117.096428, "lat": 23.808531}}, {"id": 1917876, "name": "Lieyu", "state": "", "country": "CN", "coord": {"lon": 117.462379, "lat": 23.82394}}, {"id": 1917880, "name": "Dongpu", "state": "", "country": "CN", "coord": {"lon": 117.116447, "lat": 23.88588}}, {"id": 1917887, "name": "Dongkeng", "state": "", "country": "CN", "coord": {"lon": 117.382538, "lat": 23.950081}}, {"id": 1917888, "name": "Zhaizipu", "state": "", "country": "CN", "coord": {"lon": 117.262657, "lat": 23.956751}}, {"id": 1917891, "name": "Xiage", "state": "", "country": "CN", "coord": {"lon": 117.011337, "lat": 23.993549}}, {"id": 1917962, "name": "Nanpingcun", "state": "", "country": "CN", "coord": {"lon": 117.47139, "lat": 24.653061}}, {"id": 1918273, "name": "Fenglin", "state": "", "country": "CN", "coord": {"lon": 118.499184, "lat": 28.52285}}, {"id": 1918280, "name": "Maofan", "state": "", "country": "CN", "coord": {"lon": 118.485878, "lat": 28.543341}}, {"id": 1918314, "name": "Xintangbian", "state": "", "country": "CN", "coord": {"lon": 118.451523, "lat": 28.621611}}, {"id": 1918327, "name": "Wucun", "state": "", "country": "CN", "coord": {"lon": 118.453644, "lat": 28.659781}}, {"id": 1918420, "name": "Baishijie", "state": "", "country": "CN", "coord": {"lon": 118.403778, "lat": 28.822729}}, {"id": 1918511, "name": "Dong\u2019an", "state": "", "country": "CN", "coord": {"lon": 118.657318, "lat": 28.98299}}, {"id": 1918611, "name": "Huangtian", "state": "", "country": "CN", "coord": {"lon": 118.93306, "lat": 27.76556}}, {"id": 1918623, "name": "Shiyang", "state": "", "country": "CN", "coord": {"lon": 119.860229, "lat": 27.85277}}, {"id": 1918655, "name": "Pingdu", "state": "", "country": "CN", "coord": {"lon": 118.96666, "lat": 27.61289}}, {"id": 1918709, "name": "Sanlian", "state": "", "country": "CN", "coord": {"lon": 120.345459, "lat": 29.04183}}, {"id": 1918710, "name": "Fangqian", "state": "", "country": "CN", "coord": {"lon": 120.679489, "lat": 29.0516}}, {"id": 1918713, "name": "Fangjun", "state": "", "country": "CN", "coord": {"lon": 120.245003, "lat": 29.07139}}, {"id": 1918719, "name": "Mazhai", "state": "", "country": "CN", "coord": {"lon": 120.366249, "lat": 29.092621}}, {"id": 1918735, "name": "Pingqiao", "state": "", "country": "CN", "coord": {"lon": 120.880882, "lat": 29.152519}}, {"id": 1918742, "name": "Huangtianfan", "state": "", "country": "CN", "coord": {"lon": 120.136063, "lat": 29.16749}}, {"id": 1918749, "name": "Huaxi", "state": "", "country": "CN", "coord": {"lon": 120.159119, "lat": 29.19487}}, {"id": 1918758, "name": "Guozhai", "state": "", "country": "CN", "coord": {"lon": 120.395493, "lat": 29.220989}}, {"id": 1918764, "name": "Xichou", "state": "", "country": "CN", "coord": {"lon": 120.437698, "lat": 29.24407}}, {"id": 1918774, "name": "Beijiang", "state": "", "country": "CN", "coord": {"lon": 120.375313, "lat": 29.273899}}, {"id": 1918784, "name": "Diji", "state": "", "country": "CN", "coord": {"lon": 120.631393, "lat": 29.298889}}, {"id": 1918792, "name": "Zuocun", "state": "", "country": "CN", "coord": {"lon": 120.49762, "lat": 29.325871}}, {"id": 1918793, "name": "Xinshichang", "state": "", "country": "CN", "coord": {"lon": 120.839363, "lat": 29.323669}}, {"id": 1918795, "name": "Huailu", "state": "", "country": "CN", "coord": {"lon": 120.381737, "lat": 29.3433}}, {"id": 1918797, "name": "Dianqian", "state": "", "country": "CN", "coord": {"lon": 120.781052, "lat": 29.33897}}, {"id": 1918807, "name": "Xiachengli", "state": "", "country": "CN", "coord": {"lon": 120.45356, "lat": 29.37282}}, {"id": 1918820, "name": "Lingbeizhou", "state": "", "country": "CN", "coord": {"lon": 120.303833, "lat": 29.396799}}, {"id": 1918876, "name": "Gaochengtou", "state": "", "country": "CN", "coord": {"lon": 120.061119, "lat": 29.582529}}, {"id": 1918883, "name": "Lipu", "state": "", "country": "CN", "coord": {"lon": 120.346451, "lat": 29.61408}}, {"id": 1918884, "name": "Wangjiajing", "state": "", "country": "CN", "coord": {"lon": 120.214699, "lat": 29.627831}}, {"id": 1918891, "name": "Pukou", "state": "", "country": "CN", "coord": {"lon": 120.855881, "lat": 29.63196}}, {"id": 1918911, "name": "Datang\u2019an", "state": "", "country": "CN", "coord": {"lon": 120.163887, "lat": 29.692221}}, {"id": 1918938, "name": "Zhaojia", "state": "", "country": "CN", "coord": {"lon": 120.45639, "lat": 29.75639}}, {"id": 1918966, "name": "Jiangzao", "state": "", "country": "CN", "coord": {"lon": 120.315788, "lat": 29.841419}}, {"id": 1918967, "name": "Shanxiahu", "state": "", "country": "CN", "coord": {"lon": 120.352959, "lat": 29.85668}}, {"id": 1918973, "name": "Ruanshi", "state": "", "country": "CN", "coord": {"lon": 120.378029, "lat": 29.87673}}, {"id": 1918986, "name": "Louta", "state": "", "country": "CN", "coord": {"lon": 120.12439, "lat": 29.90683}}, {"id": 1918996, "name": "Lijiashan", "state": "", "country": "CN", "coord": {"lon": 120.523872, "lat": 29.95047}}, {"id": 1919000, "name": "Diankou", "state": "", "country": "CN", "coord": {"lon": 120.350868, "lat": 29.94017}}, {"id": 1919006, "name": "Changtang", "state": "", "country": "CN", "coord": {"lon": 120.791878, "lat": 29.95504}}, {"id": 1919007, "name": "Fusheng", "state": "", "country": "CN", "coord": {"lon": 120.720093, "lat": 29.963249}}, {"id": 1919014, "name": "Lianghu", "state": "", "country": "CN", "coord": {"lon": 120.898453, "lat": 29.99152}}, {"id": 1919017, "name": "Jinsanjiao", "state": "", "country": "CN", "coord": {"lon": 120.527161, "lat": 29.98938}}, {"id": 1919031, "name": "Xinqiao", "state": "", "country": "CN", "coord": {"lon": 118.931938, "lat": 30.25083}}, {"id": 1919048, "name": "Longgang", "state": "", "country": "CN", "coord": {"lon": 119.122963, "lat": 30.16234}}, {"id": 1919088, "name": "Yongchang", "state": "", "country": "CN", "coord": {"lon": 119.731667, "lat": 30.038059}}, {"id": 1919101, "name": "Shoujiang", "state": "", "country": "CN", "coord": {"lon": 119.959442, "lat": 30.126671}}, {"id": 1919116, "name": "Banqiao", "state": "", "country": "CN", "coord": {"lon": 119.781113, "lat": 30.16667}}, {"id": 1919191, "name": "Luniao", "state": "", "country": "CN", "coord": {"lon": 119.754539, "lat": 30.45413}}, {"id": 1919224, "name": "Ximu", "state": "", "country": "CN", "coord": {"lon": 119.584549, "lat": 30.74168}}, {"id": 1919264, "name": "Huaikan", "state": "", "country": "CN", "coord": {"lon": 119.681671, "lat": 31.069441}}, {"id": 1919304, "name": "Xiache", "state": "", "country": "CN", "coord": {"lon": 115.11245, "lat": 24.661921}}, {"id": 1919328, "name": "Changtang", "state": "", "country": "CN", "coord": {"lon": 115.155937, "lat": 24.56493}}, {"id": 1919347, "name": "Yousheng", "state": "", "country": "CN", "coord": {"lon": 115.086777, "lat": 24.50819}}, {"id": 1919348, "name": "Yanzhen", "state": "", "country": "CN", "coord": {"lon": 115.444939, "lat": 24.490721}}, {"id": 1919358, "name": "Beidun", "state": "", "country": "CN", "coord": {"lon": 115.201599, "lat": 24.4601}}, {"id": 1919368, "name": "Luogang", "state": "", "country": "CN", "coord": {"lon": 115.634132, "lat": 24.424841}}, {"id": 1919385, "name": "Huilong", "state": "", "country": "CN", "coord": {"lon": 115.525581, "lat": 24.370119}}, {"id": 1919401, "name": "Huangshi", "state": "", "country": "CN", "coord": {"lon": 115.257568, "lat": 24.328211}}, {"id": 1919407, "name": "Linzhai", "state": "", "country": "CN", "coord": {"lon": 115.063004, "lat": 24.28233}}, {"id": 1919420, "name": "Heshui", "state": "", "country": "CN", "coord": {"lon": 115.699928, "lat": 24.25444}}, {"id": 1919435, "name": "Yetang", "state": "", "country": "CN", "coord": {"lon": 115.661392, "lat": 24.19553}}, {"id": 1919437, "name": "Jingnan", "state": "", "country": "CN", "coord": {"lon": 115.921013, "lat": 24.1919}}, {"id": 1919441, "name": "Fengren", "state": "", "country": "CN", "coord": {"lon": 115.325974, "lat": 24.175039}}, {"id": 1919444, "name": "Guqian", "state": "", "country": "CN", "coord": {"lon": 115.424454, "lat": 24.18199}}, {"id": 1919445, "name": "Yidu", "state": "", "country": "CN", "coord": {"lon": 115.132751, "lat": 24.161449}}, {"id": 1919448, "name": "Xinbei", "state": "", "country": "CN", "coord": {"lon": 115.688293, "lat": 24.1579}}, {"id": 1919450, "name": "Ningxin", "state": "", "country": "CN", "coord": {"lon": 115.744469, "lat": 24.13497}}, {"id": 1919455, "name": "Shangrao", "state": "", "country": "CN", "coord": {"lon": 116.904869, "lat": 24.148399}}, {"id": 1919460, "name": "Fucheng", "state": "", "country": "CN", "coord": {"lon": 115.237556, "lat": 24.1068}}, {"id": 1919467, "name": "Raoyang", "state": "", "country": "CN", "coord": {"lon": 116.875542, "lat": 24.10107}}, {"id": 1919472, "name": "Nibei", "state": "", "country": "CN", "coord": {"lon": 115.813858, "lat": 24.085199}}, {"id": 1919478, "name": "Dengyun", "state": "", "country": "CN", "coord": {"lon": 115.391876, "lat": 24.06735}}, {"id": 1919481, "name": "Tongqu", "state": "", "country": "CN", "coord": {"lon": 115.376778, "lat": 24.04707}}, {"id": 1919488, "name": "Jianrao", "state": "", "country": "CN", "coord": {"lon": 116.908768, "lat": 24.018209}}, {"id": 1919498, "name": "Huangbu", "state": "", "country": "CN", "coord": {"lon": 115.299011, "lat": 23.98151}}, {"id": 1919511, "name": "Xintang", "state": "", "country": "CN", "coord": {"lon": 116.784958, "lat": 23.94323}}, {"id": 1919515, "name": "Zishi", "state": "", "country": "CN", "coord": {"lon": 115.353783, "lat": 23.935011}}, {"id": 1919522, "name": "Dongshan", "state": "", "country": "CN", "coord": {"lon": 116.931641, "lat": 23.907761}}, {"id": 1919525, "name": "Tangxi", "state": "", "country": "CN", "coord": {"lon": 116.864021, "lat": 23.898291}}, {"id": 1919539, "name": "Datian", "state": "", "country": "CN", "coord": {"lon": 115.446358, "lat": 23.858431}}, {"id": 1919547, "name": "Fubin", "state": "", "country": "CN", "coord": {"lon": 116.862732, "lat": 23.84697}}, {"id": 1919558, "name": "Chifeng", "state": "", "country": "CN", "coord": {"lon": 116.53434, "lat": 23.817921}}, {"id": 1919564, "name": "Xinxu", "state": "", "country": "CN", "coord": {"lon": 116.940697, "lat": 23.80555}}, {"id": 1919565, "name": "Kanghe", "state": "", "country": "CN", "coord": {"lon": 115.074547, "lat": 23.780581}}, {"id": 1919583, "name": "Guihu", "state": "", "country": "CN", "coord": {"lon": 116.578148, "lat": 23.762011}}, {"id": 1919584, "name": "Wenci", "state": "", "country": "CN", "coord": {"lon": 116.6745, "lat": 23.760811}}, {"id": 1919592, "name": "Zhangxi", "state": "", "country": "CN", "coord": {"lon": 116.88884, "lat": 23.743601}}, {"id": 1919598, "name": "Gaotang", "state": "", "country": "CN", "coord": {"lon": 116.937569, "lat": 23.71299}}, {"id": 1919602, "name": "Lianrao", "state": "", "country": "CN", "coord": {"lon": 116.982277, "lat": 23.727249}}, {"id": 1919615, "name": "Dengtang", "state": "", "country": "CN", "coord": {"lon": 116.527359, "lat": 23.68326}}, {"id": 1919629, "name": "Linxi", "state": "", "country": "CN", "coord": {"lon": 116.702454, "lat": 23.646179}},