[{"id": 4866445, "name": "Mason City", "state": "IA", "country": "US", "coord": {"lon": -93.201042, "lat": 43.153568}}, {"id": 4866520, "name": "Maulsby", "state": "IA", "country": "US", "coord": {"lon": -92.923264, "lat": 42.144711}}, {"id": 4866830, "name": "Mechanicsville", "state": "IA", "country": "US", "coord": {"lon": -91.254608, "lat": 41.904461}}, {"id": 4866845, "name": "Mediapolis", "state": "IA", "country": "US", "coord": {"lon": -91.16404, "lat": 41.008091}}, {"id": 4866897, "name": "Melcher-Dallas", "state": "IA", "country": "US", "coord": {"lon": -93.241318, "lat": 41.224998}}, {"id": 4867373, "name": "Milford", "state": "IA", "country": "US", "coord": {"lon": -95.150002, "lat": 43.324692}}, {"id": 4867471, "name": "Millman", "state": "IA", "country": "US", "coord": {"lon": -93.677437, "lat": 41.5411}}, {"id": 4867477, "name": "Mills County", "state": "IA", "country": "US", "coord": {"lon": -95.616951, "lat": 41.033329}}, {"id": 4867597, "name": "Missouri Valley", "state": "IA", "country": "US", "coord": {"lon": -95.887787, "lat": 41.556381}}, {"id": 4867632, "name": "Mitchellville", "state": "IA", "country": "US", "coord": {"lon": -93.357712, "lat": 41.668598}}, {"id": 4867700, "name": "Monona", "state": "IA", "country": "US", "coord": {"lon": -91.389297, "lat": 43.051651}}, {"id": 4867721, "name": "Monroe", "state": "IA", "country": "US", "coord": {"lon": -93.101868, "lat": 41.522209}}, {"id": 4867775, "name": "Montezuma", "state": "IA", "country": "US", "coord": {"lon": -92.527412, "lat": 41.585831}}, {"id": 4867801, "name": "Monticello", "state": "IA", "country": "US", "coord": {"lon": -91.187088, "lat": 42.238338}}, {"id": 4868092, "name": "Mount Ayr", "state": "IA", "country": "US", "coord": {"lon": -94.235229, "lat": 40.71471}}, {"id": 4868167, "name": "Mount Joy", "state": "IA", "country": "US", "coord": {"lon": -90.565689, "lat": 41.615028}}, {"id": 4868205, "name": "Mount Pleasant", "state": "IA", "country": "US", "coord": {"lon": -91.557938, "lat": 40.963638}}, {"id": 4868251, "name": "Mount Vernon", "state": "IA", "country": "US", "coord": {"lon": -91.41684, "lat": 41.921951}}, {"id": 4868306, "name": "Moville", "state": "IA", "country": "US", "coord": {"lon": -96.072517, "lat": 42.48888}}, {"id": 4868404, "name": "Muscatine", "state": "IA", "country": "US", "coord": {"lon": -91.043213, "lat": 41.424469}}, {"id": 4868410, "name": "Muscatine County", "state": "IA", "country": "US", "coord": {"lon": -91.133492, "lat": 41.46669}}, {"id": 4868498, "name": "Nashua", "state": "IA", "country": "US", "coord": {"lon": -92.536301, "lat": 42.952751}}, {"id": 4868620, "name": "Nevada", "state": "IA", "country": "US", "coord": {"lon": -93.452431, "lat": 42.02277}}, {"id": 4868686, "name": "New Hampton", "state": "IA", "country": "US", "coord": {"lon": -92.31768, "lat": 43.059139}}, {"id": 4868768, "name": "New London", "state": "IA", "country": "US", "coord": {"lon": -91.399597, "lat": 40.926979}}, {"id": 4868809, "name": "New Sharon", "state": "IA", "country": "US", "coord": {"lon": -92.651299, "lat": 41.470001}}, {"id": 4868907, "name": "Newton", "state": "IA", "country": "US", "coord": {"lon": -93.047981, "lat": 41.699711}}, {"id": 4869045, "name": "Nora Springs", "state": "IA", "country": "US", "coord": {"lon": -93.004372, "lat": 43.14275}}, {"id": 4869136, "name": "North English", "state": "IA", "country": "US", "coord": {"lon": -92.076286, "lat": 41.513901}}, {"id": 4869195, "name": "North Liberty", "state": "IA", "country": "US", "coord": {"lon": -91.597954, "lat": 41.74918}}, {"id": 4869369, "name": "Northwood", "state": "IA", "country": "US", "coord": {"lon": -93.221039, "lat": 43.444118}}, {"id": 4869386, "name": "Norwalk", "state": "IA", "country": "US", "coord": {"lon": -93.678833, "lat": 41.475552}}, {"id": 4869613, "name": "Oakland", "state": "IA", "country": "US", "coord": {"lon": -93.44326, "lat": 42.581089}}, {"id": 4869614, "name": "Oakland", "state": "IA", "country": "US", "coord": {"lon": -95.396667, "lat": 41.309158}}, {"id": 4869743, "name": "Odebolt", "state": "IA", "country": "US", "coord": {"lon": -95.250549, "lat": 42.31221}}, {"id": 4869760, "name": "Oelwein", "state": "IA", "country": "US", "coord": {"lon": -91.913498, "lat": 42.673321}}, {"id": 4869780, "name": "Ogden", "state": "IA", "country": "US", "coord": {"lon": -94.027733, "lat": 42.03915}}, {"id": 4869880, "name": "Old Orchard Mobile Home Park", "state": "IA", "country": "US", "coord": {"lon": -93.62661, "lat": 42.006931}}, {"id": 4870003, "name": "Onawa", "state": "IA", "country": "US", "coord": {"lon": -96.097237, "lat": 42.026649}}, {"id": 4870083, "name": "Orange City", "state": "IA", "country": "US", "coord": {"lon": -96.05835, "lat": 43.00721}}, {"id": 4870113, "name": "Orchard Park Mobile Home Court", "state": "IA", "country": "US", "coord": {"lon": -93.372978, "lat": 43.144958}}, {"id": 4870184, "name": "Osage", "state": "IA", "country": "US", "coord": {"lon": -92.811028, "lat": 43.284142}}, {"id": 4870211, "name": "Osceola", "state": "IA", "country": "US", "coord": {"lon": -93.765503, "lat": 41.03389}}, {"id": 4870217, "name": "Osceola County", "state": "IA", "country": "US", "coord": {"lon": -95.633621, "lat": 43.383301}}, {"id": 4870239, "name": "Oskaloosa", "state": "IA", "country": "US", "coord": {"lon": -92.644363, "lat": 41.296398}}, {"id": 4870380, "name": "Ottumwa", "state": "IA", "country": "US", "coord": {"lon": -92.411301, "lat": 41.020012}}, {"id": 4870622, "name": "Palmyra", "state": "IA", "country": "US", "coord": {"lon": -93.438271, "lat": 41.4361}}, {"id": 4870626, "name": "Palo", "state": "IA", "country": "US", "coord": {"lon": -91.795464, "lat": 42.066109}}, {"id": 4870654, "name": "Panora", "state": "IA", "country": "US", "coord": {"lon": -94.363022, "lat": 41.69165}}, {"id": 4870716, "name": "Park View", "state": "IA", "country": "US", "coord": {"lon": -90.545692, "lat": 41.694199}}, {"id": 4870730, "name": "Parkersburg", "state": "IA", "country": "US", "coord": {"lon": -92.786858, "lat": 42.57748}}, {"id": 4870823, "name": "Paullina", "state": "IA", "country": "US", "coord": {"lon": -95.688072, "lat": 42.979149}}, {"id": 4870915, "name": "Pella", "state": "IA", "country": "US", "coord": {"lon": -92.916313, "lat": 41.408051}}, {"id": 4870988, "name": "Peosta", "state": "IA", "country": "US", "coord": {"lon": -90.85041, "lat": 42.450562}}, {"id": 4870995, "name": "Percival", "state": "IA", "country": "US", "coord": {"lon": -95.813606, "lat": 40.74889}}, {"id": 4871019, "name": "Perry", "state": "IA", "country": "US", "coord": {"lon": -94.107178, "lat": 41.8386}}, {"id": 4871472, "name": "Pleasant Hill", "state": "IA", "country": "US", "coord": {"lon": -93.519943, "lat": 41.583881}}, {"id": 4871647, "name": "Pleasantville", "state": "IA", "country": "US", "coord": {"lon": -93.269371, "lat": 41.38583}}, {"id": 4871708, "name": "Plymouth County", "state": "IA", "country": "US", "coord": {"lon": -96.233643, "lat": 42.733318}}, {"id": 4871727, "name": "Pocahontas", "state": "IA", "country": "US", "coord": {"lon": -94.669151, "lat": 42.735531}}, {"id": 4871773, "name": "Polk City", "state": "IA", "country": "US", "coord": {"lon": -93.712997, "lat": 41.771381}}, {"id": 4871782, "name": "Polk County", "state": "IA", "country": "US", "coord": {"lon": -93.583549, "lat": 41.683319}}, {"id": 4871875, "name": "Postville", "state": "IA", "country": "US", "coord": {"lon": -91.568199, "lat": 43.084702}}, {"id": 4871894, "name": "Pottawattamie County", "state": "IA", "country": "US", "coord": {"lon": -95.533607, "lat": 41.333328}}, {"id": 4871942, "name": "Prairie City", "state": "IA", "country": "US", "coord": {"lon": -93.235207, "lat": 41.59943}}, {"id": 4872164, "name": "Preston", "state": "IA", "country": "US", "coord": {"lon": -90.414017, "lat": 42.050301}}, {"id": 4872189, "name": "Primghar", "state": "IA", "country": "US", "coord": {"lon": -95.627228, "lat": 43.086922}}, {"id": 4872393, "name": "Racine", "state": "IA", "country": "US", "coord": {"lon": -93.329369, "lat": 42.470261}}, {"id": 4872593, "name": "Red Oak", "state": "IA", "country": "US", "coord": {"lon": -95.225548, "lat": 41.00972}}, {"id": 4872729, "name": "Reinbeck", "state": "IA", "country": "US", "coord": {"lon": -92.599358, "lat": 42.323601}}, {"id": 4872752, "name": "Remsen", "state": "IA", "country": "US", "coord": {"lon": -95.973351, "lat": 42.814709}}, {"id": 4873263, "name": "Robins", "state": "IA", "country": "US", "coord": {"lon": -91.66684, "lat": 42.07111}}, {"id": 4873354, "name": "Rock Rapids", "state": "IA", "country": "US", "coord": {"lon": -96.175858, "lat": 43.427189}}, {"id": 4873371, "name": "Rock Valley", "state": "IA", "country": "US", "coord": {"lon": -96.295029, "lat": 43.205261}}, {"id": 4873424, "name": "Rockwell", "state": "IA", "country": "US", "coord": {"lon": -93.191872, "lat": 42.985241}}, {"id": 4873426, "name": "Rockwell City", "state": "IA", "country": "US", "coord": {"lon": -94.633873, "lat": 42.39526}}, {"id": 4873496, "name": "Roland", "state": "IA", "country": "US", "coord": {"lon": -93.501877, "lat": 42.16637}}, {"id": 4873807, "name": "Russell", "state": "IA", "country": "US", "coord": {"lon": -93.19854, "lat": 40.981949}}, {"id": 4873884, "name": "Sac City", "state": "IA", "country": "US", "coord": {"lon": -94.989708, "lat": 42.422199}}, {"id": 4873899, "name": "Sac County", "state": "IA", "country": "US", "coord": {"lon": -95.116943, "lat": 42.38332}}, {"id": 4874045, "name": "Saint Ansgar", "state": "IA", "country": "US", "coord": {"lon": -92.918808, "lat": 43.3783}}, {"id": 4875489, "name": "Sanborn", "state": "IA", "country": "US", "coord": {"lon": -95.655571, "lat": 43.181641}}, {"id": 4875626, "name": "Saylorville", "state": "IA", "country": "US", "coord": {"lon": -93.629662, "lat": 41.6786}}, {"id": 4875666, "name": "Schaller", "state": "IA", "country": "US", "coord": {"lon": -95.293053, "lat": 42.499699}}, {"id": 4875785, "name": "Scott County", "state": "IA", "country": "US", "coord": {"lon": -90.633469, "lat": 41.633362}}, {"id": 4875821, "name": "Scranton", "state": "IA", "country": "US", "coord": {"lon": -94.54525, "lat": 42.02248}}, {"id": 4875904, "name": "Sergeant Bluff", "state": "IA", "country": "US", "coord": {"lon": -96.358643, "lat": 42.403881}}, {"id": 4876097, "name": "Sheffield", "state": "IA", "country": "US", "coord": {"lon": -93.215202, "lat": 42.893299}}, {"id": 4876141, "name": "Sheldon", "state": "IA", "country": "US", "coord": {"lon": -95.856133, "lat": 43.181091}}, {"id": 4876161, "name": "Shell Rock", "state": "IA", "country": "US", "coord": {"lon": -92.58297, "lat": 42.710258}}, {"id": 4876190, "name": "Shenandoah", "state": "IA", "country": "US", "coord": {"lon": -95.372208, "lat": 40.765549}}, {"id": 4876353, "name": "Sidney", "state": "IA", "country": "US", "coord": {"lon": -95.647499, "lat": 40.748329}}, {"id": 4876378, "name": "Sibley", "state": "IA", "country": "US", "coord": {"lon": -95.751961, "lat": 43.399139}}, {"id": 4876384, "name": "Sigourney", "state": "IA", "country": "US", "coord": {"lon": -92.204628, "lat": 41.33334}}, {"id": 4876430, "name": "Silver Creek Mobile Home Community", "state": "IA", "country": "US", "coord": {"lon": -90.62236, "lat": 41.57225}}, {"id": 4876510, "name": "Sioux Center", "state": "IA", "country": "US", "coord": {"lon": -96.175583, "lat": 43.079708}}, {"id": 4876523, "name": "Sioux City", "state": "IA", "country": "US", "coord": {"lon": -96.400307, "lat": 42.499989}}, {"id": 4876545, "name": "Sioux County", "state": "IA", "country": "US", "coord": {"lon": -96.233643, "lat": 42.733318}}, {"id": 4876656, "name": "Skyview Mobile Home Park", "state": "IA", "country": "US", "coord": {"lon": -91.433487, "lat": 40.466148}}, {"id": 4876661, "name": "Slater", "state": "IA", "country": "US", "coord": {"lon": -93.678551, "lat": 41.877762}}, {"id": 4876867, "name": "Solon", "state": "IA", "country": "US", "coord": {"lon": -91.494057, "lat": 41.807232}}, {"id": 4877138, "name": "Spencer", "state": "IA", "country": "US", "coord": {"lon": -95.14444, "lat": 43.141361}}, {"id": 4877184, "name": "Spirit Lake", "state": "IA", "country": "US", "coord": {"lon": -95.102219, "lat": 43.42218}}, {"id": 4877352, "name": "Springville", "state": "IA", "country": "US", "coord": {"lon": -91.442673, "lat": 42.059448}}, {"id": 4877466, "name": "State Center", "state": "IA", "country": "US", "coord": {"lon": -93.163544, "lat": 42.016651}}, {"id": 4877655, "name": "Storm Lake", "state": "IA", "country": "US", "coord": {"lon": -95.209717, "lat": 42.64109}}, {"id": 4877676, "name": "Story City", "state": "IA", "country": "US", "coord": {"lon": -93.595772, "lat": 42.18721}}, {"id": 4877685, "name": "Story County", "state": "IA", "country": "US", "coord": {"lon": -93.466881, "lat": 42.033321}}, {"id": 4877729, "name": "Strawberry Point", "state": "IA", "country": "US", "coord": {"lon": -91.534027, "lat": 42.683601}}, {"id": 4877761, "name": "Stuart", "state": "IA", "country": "US", "coord": {"lon": -94.318573, "lat": 41.503319}}, {"id": 4877907, "name": "Sumner", "state": "IA", "country": "US", "coord": {"lon": -92.09156, "lat": 42.847481}}, {"id": 4878195, "name": "Tabor", "state": "IA", "country": "US", "coord": {"lon": -95.671387, "lat": 40.898331}}, {"id": 4878229, "name": "Tama", "state": "IA", "country": "US", "coord": {"lon": -92.576859, "lat": 41.96666}}, {"id": 4878585, "name": "Tiffin", "state": "IA", "country": "US", "coord": {"lon": -91.662949, "lat": 41.705849}}, {"id": 4878643, "name": "Tipton", "state": "IA", "country": "US", "coord": {"lon": -91.127937, "lat": 41.769741}}, {"id": 4878703, "name": "Toledo", "state": "IA", "country": "US", "coord": {"lon": -92.576859, "lat": 41.995548}}, {"id": 4878795, "name": "Traer", "state": "IA", "country": "US", "coord": {"lon": -92.465469, "lat": 42.1936}}, {"id": 4879018, "name": "Tripoli", "state": "IA", "country": "US", "coord": {"lon": -92.258232, "lat": 42.808041}}, {"id": 4879817, "name": "University Heights", "state": "IA", "country": "US", "coord": {"lon": -91.556839, "lat": 41.655022}}, {"id": 4879881, "name": "Urbana", "state": "IA", "country": "US", "coord": {"lon": -91.874336, "lat": 42.224159}}, {"id": 4879890, "name": "Urbandale", "state": "IA", "country": "US", "coord": {"lon": -93.712173, "lat": 41.626659}}, {"id": 4880034, "name": "Van Meter", "state": "IA", "country": "US", "coord": {"lon": -93.954117, "lat": 41.531929}}, {"id": 4880228, "name": "Villisca", "state": "IA", "country": "US", "coord": {"lon": -94.976089, "lat": 40.92971}}, {"id": 4880268, "name": "Vinton", "state": "IA", "country": "US", "coord": {"lon": -92.023514, "lat": 42.16861}}, {"id": 4880327, "name": "Volga", "state": "IA", "country": "US", "coord": {"lon": -91.540977, "lat": 42.80471}}, {"id": 4880422, "name": "Walcott", "state": "IA", "country": "US", "coord": {"lon": -90.772087, "lat": 41.584751}}, {"id": 4880442, "name": "Walford", "state": "IA", "country": "US", "coord": {"lon": -91.834618, "lat": 41.878342}}, {"id": 4880620, "name": "Wapello", "state": "IA", "country": "US", "coord": {"lon": -91.185432, "lat": 41.181419}}, {"id": 4880625, "name": "Wapello County", "state": "IA", "country": "US", "coord": {"lon": -92.416847, "lat": 41.033352}}, {"id": 4880695, "name": "Warren County", "state": "IA", "country": "US", "coord": {"lon": -93.550217, "lat": 41.333328}}, {"id": 4880731, "name": "Washington", "state": "IA", "country": "US", "coord": {"lon": -91.69294, "lat": 41.299179}}, {"id": 4880748, "name": "Washington County", "state": "IA", "country": "US", "coord": {"lon": -91.716827, "lat": 41.333351}}, {"id": 4880889, "name": "Waterloo", "state": "IA", "country": "US", "coord": {"lon": -92.342957, "lat": 42.49276}}, {"id": 4880981, "name": "Waukee", "state": "IA", "country": "US", "coord": {"lon": -93.885231, "lat": 41.61166}}, {"id": 4880997, "name": "Waukon", "state": "IA", "country": "US", "coord": {"lon": -91.4757, "lat": 43.269421}}, {"id": 4881024, "name": "Waverly", "state": "IA", "country": "US", "coord": {"lon": -92.475456, "lat": 42.725811}}, {"id": 4881096, "name": "Webster City", "state": "IA", "country": "US", "coord": {"lon": -93.816048, "lat": 42.469421}}, {"id": 4881109, "name": "Webster County", "state": "IA", "country": "US", "coord": {"lon": -94.166901, "lat": 42.4333}}, {"id": 4881149, "name": "Wellman", "state": "IA", "country": "US", "coord": {"lon": -91.838226, "lat": 41.46418}}, {"id": 4881274, "name": "West Branch", "state": "IA", "country": "US", "coord": {"lon": -91.34655, "lat": 41.67141}}, {"id": 4881322, "name": "West Burlington", "state": "IA", "country": "US", "coord": {"lon": -91.15654, "lat": 40.825039}}, {"id": 4881346, "name": "West Des Moines", "state": "IA", "country": "US", "coord": {"lon": -93.745308, "lat": 41.571991}}, {"id": 4881433, "name": "West Liberty", "state": "IA", "country": "US", "coord": {"lon": -91.263771, "lat": 41.570019}}, {"id": 4881551, "name": "West Union", "state": "IA", "country": "US", "coord": {"lon": -91.80822, "lat": 42.962761}}, {"id": 4882007, "name": "Williamsburg", "state": "IA", "country": "US", "coord": {"lon": -92.009071, "lat": 41.661121}}, {"id": 4882164, "name": "Wilton", "state": "IA", "country": "US", "coord": {"lon": -91.016823, "lat": 41.588921}}, {"id": 4882198, "name": "Windsor Heights", "state": "IA", "country": "US", "coord": {"lon": -93.708282, "lat": 41.597771}}, {"id": 4882211, "name": "Winfield", "state": "IA", "country": "US", "coord": {"lon": -91.441269, "lat": 41.123081}}, {"id": 4882231, "name": "Winnebago County", "state": "IA", "country": "US", "coord": {"lon": -93.716888, "lat": 43.383289}}, {"id": 4882259, "name": "Winterset", "state": "IA", "country": "US", "coord": {"lon": -94.01384, "lat": 41.330818}}, {"id": 4882378, "name": "Woodbine", "state": "IA", "country": "US", "coord": {"lon": -95.702782, "lat": 41.738319}}, {"id": 4882396, "name": "Woodbury County", "state": "IA", "country": "US", "coord": {"lon": -96.03363, "lat": 42.38332}}, {"id": 4882453, "name": "Woodward", "state": "IA", "country": "US", "coord": {"lon": -93.921898, "lat": 41.85693}}, {"id": 4882839, "name": "Abingdon", "state": "IL", "country": "US", "coord": {"lon": -90.401802, "lat": 40.804482}}, {"id": 4882920, "name": "Addison", "state": "IL", "country": "US", "coord": {"lon": -87.98896, "lat": 41.931702}}, {"id": 4883053, "name": "Aledo", "state": "IL", "country": "US", "coord": {"lon": -90.749313, "lat": 41.19976}}, {"id": 4883078, "name": "Algonquin", "state": "IL", "country": "US", "coord": {"lon": -88.29425, "lat": 42.165581}}, {"id": 4883207, "name": "Alsip", "state": "IL", "country": "US", "coord": {"lon": -87.738663, "lat": 41.668919}}, {"id": 4883249, "name": "Amboy", "state": "IL", "country": "US", "coord": {"lon": -89.328712, "lat": 41.714199}}, {"id": 4883311, "name": "Andalusia", "state": "IL", "country": "US", "coord": {"lon": -90.717644, "lat": 41.439201}}, {"id": 4883393, "name": "Antioch", "state": "IL", "country": "US", "coord": {"lon": -88.095642, "lat": 42.477242}}, {"id": 4883555, "name": "Arlington Heights", "state": "IL", "country": "US", "coord": {"lon": -87.980629, "lat": 42.08836}}, {"id": 4883614, "name": "Aroma Park", "state": "IL", "country": "US", "coord": {"lon": -87.811432, "lat": 41.07975}}, {"id": 4883749, "name": "Astoria", "state": "IL", "country": "US", "coord": {"lon": -90.359573, "lat": 40.227539}}, {"id": 4883772, "name": "Atlanta", "state": "IL", "country": "US", "coord": {"lon": -89.233421, "lat": 40.25948}}, {"id": 4883817, "name": "Aurora", "state": "IL", "country": "US", "coord": {"lon": -88.320068, "lat": 41.760578}}, {"id": 4883999, "name": "Bakerville", "state": "IL", "country": "US", "coord": {"lon": -89.196762, "lat": 40.063099}}, {"id": 4884026, "name": "Bancroft Corners", "state": "IL", "country": "US", "coord": {"lon": -87.862022, "lat": 42.421131}}, {"id": 4884038, "name": "Bannockburn", "state": "IL", "country": "US", "coord": {"lon": -87.866463, "lat": 42.193359}}, {"id": 4884116, "name": "Barrington", "state": "IL", "country": "US", "coord": {"lon": -88.136192, "lat": 42.153912}}, {"id": 4884121, "name": "Barrington Hills", "state": "IL", "country": "US", "coord": {"lon": -88.155632, "lat": 42.144749}}, {"id": 4884141, "name": "Bartlett", "state": "IL", "country": "US", "coord": {"lon": -88.185631, "lat": 41.995029}}, {"id": 4884161, "name": "Bartonville", "state": "IL", "country": "US", "coord": {"lon": -89.652046, "lat": 40.650318}}, {"id": 4884192, "name": "Batavia", "state": "IL", "country": "US", "coord": {"lon": -88.312569, "lat": 41.850029}}, {"id": 4884249, "name": "Beach Park", "state": "IL", "country": "US", "coord": {"lon": -87.8573, "lat": 42.422241}}, {"id": 4884282, "name": "Beardstown", "state": "IL", "country": "US", "coord": {"lon": -90.424294, "lat": 40.017551}}, {"id": 4884352, "name": "Beecher", "state": "IL", "country": "US", "coord": {"lon": -87.621429, "lat": 41.340591}}, {"id": 4884416, "name": "Bellevue", "state": "IL", "country": "US", "coord": {"lon": -89.680099, "lat": 40.684479}}, {"id": 4884434, "name": "Bellwood", "state": "IL", "country": "US", "coord": {"lon": -87.883118, "lat": 41.88142}}, {"id": 4884453, "name": "Belvidere", "state": "IL", "country": "US", "coord": {"lon": -88.844269, "lat": 42.263908}}, {"id": 4884509, "name": "Bensenville", "state": "IL", "country": "US", "coord": {"lon": -87.940071, "lat": 41.955029}}, {"id": 4884562, "name": "Berkeley", "state": "IL", "country": "US", "coord": {"lon": -87.903397, "lat": 41.88892}}, {"id": 4884597, "name": "Berwyn", "state": "IL", "country": "US", "coord": {"lon": -87.793671, "lat": 41.85059}}, {"id": 4884902, "name": "Big Rock", "state": "IL", "country": "US", "coord": {"lon": -88.54702, "lat": 41.76392}}, {"id": 4884947, "name": "Binnie Lakes", "state": "IL", "country": "US", "coord": {"lon": -88.359528, "lat": 42.116409}}, {"id": 4884951, "name": "Birchwood", "state": "IL", "country": "US", "coord": {"lon": -87.665337, "lat": 42.016701}}, {"id": 4885156, "name": "Bloomingdale", "state": "IL", "country": "US", "coord": {"lon": -88.080902, "lat": 41.957531}}, {"id": 4885164, "name": "Bloomington", "state": "IL", "country": "US", "coord": {"lon": -88.99369, "lat": 40.4842}}, {"id": 4885186, "name": "Blue Island", "state": "IL", "country": "US", "coord": {"lon": -87.680054, "lat": 41.657261}}, {"id": 4885265, "name": "Bolingbrook", "state": "IL", "country": "US", "coord": {"lon": -88.068398, "lat": 41.698639}}, {"id": 4885336, "name": "Boulder Hill", "state": "IL", "country": "US", "coord": {"lon": -88.336182, "lat": 41.712528}}, {"id": 4885342, "name": "Bourbonnais", "state": "IL", "country": "US", "coord": {"lon": -87.875038, "lat": 41.141701}}, {"id": 4885392, "name": "Boone County", "state": "IL", "country": "US", "coord": {"lon": -88.816772, "lat": 42.333351}}, {"id": 4885418, "name": "Bradley", "state": "IL", "country": "US", "coord": {"lon": -87.861153, "lat": 41.141979}}, {"id": 4885444, "name": "Braidwood", "state": "IL", "country": "US", "coord": {"lon": -88.21228, "lat": 41.26503}}, {"id": 4885493, "name": "Bremen", "state": "IL", "country": "US", "coord": {"lon": -90.413742, "lat": 42.400558}}, {"id": 4885573, "name": "Bridgeview", "state": "IL", "country": "US", "coord": {"lon": -87.804222, "lat": 41.750031}}, {"id": 4885637, "name": "Broadview", "state": "IL", "country": "US", "coord": {"lon": -87.853394, "lat": 41.863918}}, {"id": 4885689, "name": "Brookfield", "state": "IL", "country": "US", "coord": {"lon": -87.85173, "lat": 41.823921}}, {"id": 4885902, "name": "Bucks", "state": "IL", "country": "US", "coord": {"lon": -88.970078, "lat": 40.265041}}, {"id": 4885955, "name": "Buffalo Grove", "state": "IL", "country": "US", "coord": {"lon": -87.959793, "lat": 42.151409}}, {"id": 4885961, "name": "Bull Valley", "state": "IL", "country": "US", "coord": {"lon": -88.355087, "lat": 42.32058}}, {"id": 4885983, "name": "Burbank", "state": "IL", "country": "US", "coord": {"lon": -87.779503, "lat": 41.733921}}, {"id": 4885994, "name": "Bureau County", "state": "IL", "country": "US", "coord": {"lon": -89.516762, "lat": 41.40004}}, {"id": 4886038, "name": "Burnham", "state": "IL", "country": "US", "coord": {"lon": -87.556709, "lat": 41.63892}}, {"id": 4886090, "name": "Burr Ridge", "state": "IL", "country": "US", "coord": {"lon": -87.918388, "lat": 41.74892}}, {"id": 4886117, "name": "Bushnell", "state": "IL", "country": "US", "coord": {"lon": -90.506241, "lat": 40.552818}}, {"id": 4886188, "name": "Byron", "state": "IL", "country": "US", "coord": {"lon": -89.255661, "lat": 42.126968}}, {"id": 4886192, "name": "Byron Hills Estates", "state": "IL", "country": "US", "coord": {"lon": -89.269829, "lat": 42.141411}}, {"id": 4886255, "name": "Calumet City", "state": "IL", "country": "US", "coord": {"lon": -87.529488, "lat": 41.615589}}, {"id": 4886269, "name": "Calumet Park", "state": "IL", "country": "US", "coord": {"lon": -87.660599, "lat": 41.662811}}, {"id": 4886374, "name": "Cambridge", "state": "IL", "country": "US", "coord": {"lon": -90.192902, "lat": 41.30365}}, {"id": 4886464, "name": "Camp Point", "state": "IL", "country": "US", "coord": {"lon": -91.069298, "lat": 40.039211}}, {"id": 4886494, "name": "Campbell", "state": "IL", "country": "US", "coord": {"lon": -87.57946, "lat": 40.191151}}, {"id": 4886584, "name": "Capron", "state": "IL", "country": "US", "coord": {"lon": -88.740379, "lat": 42.399738}}, {"id": 4886590, "name": "Carbon Cliff", "state": "IL", "country": "US", "coord": {"lon": -90.390678, "lat": 41.494759}}, {"id": 4886662, "name": "Carol Stream", "state": "IL", "country": "US", "coord": {"lon": -88.134789, "lat": 41.912529}}, {"id": 4886676, "name": "Carpentersville", "state": "IL", "country": "US", "coord": {"lon": -88.257858, "lat": 42.12114}}, {"id": 4886694, "name": "Carroll County", "state": "IL", "country": "US", "coord": {"lon": -89.916786, "lat": 42.066689}}, {"id": 4886716, "name": "Carthage", "state": "IL", "country": "US", "coord": {"lon": -91.136253, "lat": 40.416431}}, {"id": 4886717, "name": "Carthage", "state": "IL", "country": "US", "coord": {"lon": -89.313713, "lat": 41.918919}}, {"id": 4886738, "name": "Cary", "state": "IL", "country": "US", "coord": {"lon": -88.238136, "lat": 42.211971}}, {"id": 4886765, "name": "Castle Junction", "state": "IL", "country": "US", "coord": {"lon": -90.577911, "lat": 41.392529}}, {"id": 4886790, "name": "Catlin", "state": "IL", "country": "US", "coord": {"lon": -87.701973, "lat": 40.065041}}, {"id": 4887024, "name": "Central City", "state": "IL", "country": "US", "coord": {"lon": -88.281731, "lat": 41.237808}}, {"id": 4887137, "name": "Chadwick", "state": "IL", "country": "US", "coord": {"lon": -89.890678, "lat": 42.013359}}, {"id": 4887158, "name": "Champaign", "state": "IL", "country": "US", "coord": {"lon": -88.243378, "lat": 40.116421}}, {"id": 4887163, "name": "Champaign County", "state": "IL", "country": "US", "coord": {"lon": -88.20005, "lat": 40.133369}}, {"id": 4887198, "name": "Channahon", "state": "IL", "country": "US", "coord": {"lon": -88.228668, "lat": 41.429482}}, {"id": 4887205, "name": "Channel Lake", "state": "IL", "country": "US", "coord": {"lon": -88.137589, "lat": 42.47863}}, {"id": 4887290, "name": "Chatsworth", "state": "IL", "country": "US", "coord": {"lon": -88.291992, "lat": 40.753651}}, {"id": 4887309, "name": "Chebanse", "state": "IL", "country": "US", "coord": {"lon": -87.908096, "lat": 41.00309}}, {"id": 4887330, "name": "Chenoa", "state": "IL", "country": "US", "coord": {"lon": -88.719788, "lat": 40.741699}}, {"id": 4887364, "name": "Cherry Valley", "state": "IL", "country": "US", "coord": {"lon": -88.94899, "lat": 42.234741}}, {"id": 4887398, "name": "Chicago", "state": "IL", "country": "US", "coord": {"lon": -87.650047, "lat": 41.850029}}, {"id": 4887442, "name": "Chicago Heights", "state": "IL", "country": "US", "coord": {"lon": -87.635597, "lat": 41.506149}}, {"id": 4887492, "name": "Chicago Ridge", "state": "IL", "country": "US", "coord": {"lon": -87.779221, "lat": 41.70142}}, {"id": 4887574, "name": "Chillicothe", "state": "IL", "country": "US", "coord": {"lon": -89.486198, "lat": 40.92226}}, {"id": 4888015, "name": "Cicero", "state": "IL", "country": "US", "coord": {"lon": -87.753937, "lat": 41.845589}}, {"id": 4888080, "name": "Clarendon Hills", "state": "IL", "country": "US", "coord": {"lon": -87.954781, "lat": 41.797531}}, {"id": 4888176, "name": "Clearing", "state": "", "country": "US", "coord": {"lon": -87.761719, "lat": 41.778091}}, {"id": 4888208, "name": "Clifton", "state": "IL", "country": "US", "coord": {"lon": -87.934486, "lat": 40.93531}}, {"id": 4888217, "name": "Clinton", "state": "IL", "country": "US", "coord": {"lon": -88.964531, "lat": 40.153648}}, {"id": 4888270, "name": "Coal City", "state": "IL", "country": "US", "coord": {"lon": -88.285622, "lat": 41.287811}}, {"id": 4888296, "name": "Coal Valley", "state": "IL", "country": "US", "coord": {"lon": -90.46096, "lat": 41.42865}}, {"id": 4888331, "name": "Colchester", "state": "IL", "country": "US", "coord": {"lon": -90.792633, "lat": 40.42643}}, {"id": 4888366, "name": "Colfax", "state": "IL", "country": "US", "coord": {"lon": -88.616447, "lat": 40.566978}}, {"id": 4888432, "name": "Colona", "state": "IL", "country": "US", "coord": {"lon": -90.35318, "lat": 41.483921}}, {"id": 4888439, "name": "Colonial Meadows", "state": "IL", "country": "US", "coord": {"lon": -88.925346, "lat": 40.476151}}, {"id": 4888671, "name": "Cook County", "state": "IL", "country": "US", "coord": {"lon": -87.85006, "lat": 41.833359}}, {"id": 4888810, "name": "Cortland", "state": "IL", "country": "US", "coord": {"lon": -88.688698, "lat": 41.920029}}, {"id": 4888892, "name": "Country Club Hills", "state": "IL", "country": "US", "coord": {"lon": -87.720329, "lat": 41.568089}}, {"id": 4888906, "name": "Countryside", "state": "IL", "country": "US", "coord": {"lon": -87.878113, "lat": 41.78281}}, {"id": 4889038, "name": "Crandall", "state": "IL", "country": "US", "coord": {"lon": -89.432037, "lat": 40.63282}}, {"id": 4889107, "name": "Crest Hill", "state": "IL", "country": "US", "coord": {"lon": -88.098671, "lat": 41.554749}}, {"id": 4889113, "name": "Crestwood", "state": "IL", "country": "US", "coord": {"lon": -87.752548, "lat": 41.66114}}, {"id": 4889120, "name": "Crete", "state": "IL", "country": "US", "coord": {"lon": -87.631432, "lat": 41.444481}}, {"id": 4889130, "name": "Creve Coeur", "state": "IL", "country": "US", "coord": {"lon": -89.591209, "lat": 40.647259}}, {"id": 4889229, "name": "Crystal Lake", "state": "IL", "country": "US", "coord": {"lon": -88.3162, "lat": 42.241131}}, {"id": 4889248, "name": "Crystal Lawns", "state": "IL", "country": "US", "coord": {"lon": -88.158119, "lat": 41.570309}}, {"id": 4889255, "name": "Cuba", "state": "IL", "country": "US", "coord": {"lon": -90.190681, "lat": 40.492821}}, {"id": 4889256, "name": "Cuba", "state": "IL", "country": "US", "coord": {"lon": -88.19091, "lat": 42.18391}}, {"id": 4889370, "name": "Dalzell", "state": "IL", "country": "US", "coord": {"lon": -89.176201, "lat": 41.357811}}, {"id": 4889423, "name": "Danvers", "state": "IL", "country": "US", "coord": {"lon": -89.177307, "lat": 40.52948}}, {"id": 4889426, "name": "Danville", "state": "IL", "country": "US", "coord": {"lon": -87.63002, "lat": 40.124481}}, {"id": 4889447, "name": "Darien", "state": "IL", "country": "US", "coord": {"lon": -87.973953, "lat": 41.75198}}, {"id": 4889496, "name": "Davis Junction", "state": "IL", "country": "US", "coord": {"lon": -89.093163, "lat": 42.101688}}, {"id": 4889548, "name": "De Witt County", "state": "IL", "country": "US", "coord": {"lon": -88.916748, "lat": 40.166698}}, {"id": 4889553, "name": "DeKalb", "state": "IL", "country": "US", "coord": {"lon": -88.750359, "lat": 41.92947}}, {"id": 4889554, "name": "DeKalb County", "state": "IL", "country": "US", "coord": {"lon": -88.750359, "lat": 41.916698}}, {"id": 4889652, "name": "Deer Park", "state": "IL", "country": "US", "coord": {"lon": -88.081467, "lat": 42.160858}}, {"id": 4889668, "name": "Deerfield", "state": "IL", "country": "US", "coord": {"lon": -87.844513, "lat": 42.171139}}, {"id": 4889700, "name": "Delavan", "state": "IL", "country": "US", "coord": {"lon": -89.547318, "lat": 40.37254}}, {"id": 4889761, "name": "Depue", "state": "IL", "country": "US", "coord": {"lon": -89.306747, "lat": 41.3242}}, {"id": 4889772, "name": "Des Plaines", "state": "IL", "country": "US", "coord": {"lon": -87.8834, "lat": 42.03336}}, {"id": 4889835, "name": "Diamond", "state": "IL", "country": "US", "coord": {"lon": -88.251732, "lat": 41.288639}}, {"id": 4889957, "name": "Dixmoor", "state": "IL", "country": "US", "coord": {"lon": -87.660881, "lat": 41.631699}}, {"id": 4889959, "name": "Dixon", "state": "IL", "country": "US", "coord": {"lon": -89.479553, "lat": 41.838921}}, {"id": 4890009, "name": "Dolton", "state": "IL", "country": "US", "coord": {"lon": -87.607269, "lat": 41.63892}}, {"id": 4890119, "name": "Downers Grove", "state": "IL", "country": "US", "coord": {"lon": -88.011169, "lat": 41.808922}}, {"id": 4890138, "name": "Downs", "state": "IL", "country": "US", "coord": {"lon": -88.870628, "lat": 40.39698}}, {"id": 4890213, "name": "DuPage County", "state": "IL", "country": "US", "coord": {"lon": -88.083397, "lat": 41.833359}}, {"id": 4890304, "name": "Dunlap", "state": "IL", "country": "US", "coord": {"lon": -89.678711, "lat": 40.861698}}, {"id": 4890327, "name": "Durand", "state": "IL", "country": "US", "coord": {"lon": -89.332062, "lat": 42.436401}}, {"id": 4890359, "name": "Dwight", "state": "IL", "country": "US", "coord": {"lon": -88.425056, "lat": 41.094479}}, {"id": 4890441, "name": "Earlville", "state": "IL", "country": "US", "coord": {"lon": -88.922028, "lat": 41.589481}}, {"id": 4890486, "name": "East Dundee", "state": "IL", "country": "US", "coord": {"lon": -88.271469, "lat": 42.098911}}, {"id": 4890497, "name": "East Dubuque", "state": "IL", "country": "US", "coord": {"lon": -90.642906, "lat": 42.492229}}, {"id": 4890513, "name": "East Hazel Crest", "state": "IL", "country": "US", "coord": {"lon": -87.646431, "lat": 41.57365}}, {"id": 4890536, "name": "East Moline", "state": "IL", "country": "US", "coord": {"lon": -90.444298, "lat": 41.50087}}, {"id": 4890549, "name": "East Peoria", "state": "IL", "country": "US", "coord": {"lon": -89.580101, "lat": 40.666149}}, {"id": 4890813, "name": "El Paso", "state": "IL", "country": "US", "coord": {"lon": -89.016457, "lat": 40.739201}}, {"id": 4890835, "name": "Elburn", "state": "IL", "country": "US", "coord": {"lon": -88.472298, "lat": 41.89225}}, {"id": 4890864, "name": "Elgin", "state": "IL", "country": "US", "coord": {"lon": -88.281189, "lat": 42.037251}}, {"id": 4890925, "name": "Elk Grove Village", "state": "IL", "country": "US", "coord": {"lon": -87.970352, "lat": 42.003922}}, {"id": 4891010, "name": "Elmhurst", "state": "IL", "country": "US", "coord": {"lon": -87.940338, "lat": 41.899471}}, {"id": 4891030, "name": "Elmwood", "state": "IL", "country": "US", "coord": {"lon": -89.966499, "lat": 40.777821}}, {"id": 4891051, "name": "Elmwood Park", "state": "IL", "country": "US", "coord": {"lon": -87.809227, "lat": 41.921139}}, {"id": 4891077, "name": "Elwood", "state": "IL", "country": "US", "coord": {"lon": -88.111717, "lat": 41.403919}}, {"id": 4891240, "name": "Erie", "state": "IL", "country": "US", "coord": {"lon": -90.079292, "lat": 41.656422}}, {"id": 4891310, "name": "Eureka", "state": "IL", "country": "US", "coord": {"lon": -89.272858, "lat": 40.721432}}, {"id": 4891382, "name": "Evanston", "state": "IL", "country": "US", "coord": {"lon": -87.690063, "lat": 42.041142}}, {"id": 4891431, "name": "Evergreen Park", "state": "IL", "country": "US", "coord": {"lon": -87.701721, "lat": 41.720589}}, {"id": 4891520, "name": "Fairbury", "state": "IL", "country": "US", "coord": {"lon": -88.514778, "lat": 40.747261}}, {"id": 4891534, "name": "Fairfield", "state": "IL", "country": "US", "coord": {"lon": -88.06147, "lat": 42.219189}}, {"id": 4891555, "name": "Fairmont", "state": "IL", "country": "US", "coord": {"lon": -88.059227, "lat": 41.556141}}, {"id": 4891772, "name": "Farmer City", "state": "IL", "country": "US", "coord": {"lon": -88.64257, "lat": 40.24337}}, {"id": 4891784, "name": "Farmington", "state": "IL", "country": "US", "coord": {"lon": -90.005951, "lat": 40.69809}}, {"id": 4891785, "name": "Farmington", "state": "IL", "country": "US", "coord": {"lon": -88.31591, "lat": 41.944752}}, {"id": 4892570, "name": "Fisher", "state": "IL", "country": "US", "coord": {"lon": -88.350052, "lat": 40.314758}}, {"id": 4892637, "name": "Flanagan", "state": "IL", "country": "US", "coord": {"lon": -88.861183, "lat": 40.87809}}, {"id": 4892684, "name": "Flossmoor", "state": "IL", "country": "US", "coord": {"lon": -87.684769, "lat": 41.542809}}, {"id": 4892729, "name": "Ford County", "state": "IL", "country": "US", "coord": {"lon": -88.25061, "lat": 40.58337}}, {"id": 4892731, "name": "Ford Heights", "state": "IL", "country": "US", "coord": {"lon": -87.591713, "lat": 41.50642}}, {"id": 4892770, "name": "Forest Lake", "state": "IL", "country": "US", "coord": {"lon": -88.055634, "lat": 42.20752}}, {"id": 4892775, "name": "Forest Park", "state": "IL", "country": "US", "coord": {"lon": -87.813667, "lat": 41.879478}}, {"id": 4892812, "name": "Forrest", "state": "IL", "country": "US", "coord": {"lon": -88.411163, "lat": 40.75198}}, {"id": 4892818, "name": "Forreston", "state": "IL", "country": "US", "coord": {"lon": -89.579277, "lat": 42.126141}}, {"id": 4892950, "name": "Fox Lake", "state": "IL", "country": "US", "coord": {"lon": -88.183701, "lat": 42.39669}}, {"id": 4892953, "name": "Fox Lake Hills", "state": "IL", "country": "US", "coord": {"lon": -88.131752, "lat": 42.408081}}, {"id": 4892971, "name": "Fox River Grove", "state": "IL", "country": "US", "coord": {"lon": -88.214531, "lat": 42.200859}}, {"id": 4893037, "name": "Frankfort", "state": "IL", "country": "US", "coord": {"lon": -87.848663, "lat": 41.495869}}, {"id": 4893043, "name": "Frankfort Square", "state": "IL", "country": "US", "coord": {"lon": -87.803101, "lat": 41.518921}}, {"id": 4893061, "name": "Franklin Grove", "state": "IL", "country": "US", "coord": {"lon": -89.300377, "lat": 41.841702}}, {"id": 4893070, "name": "Franklin Park", "state": "IL", "country": "US", "coord": {"lon": -87.865623, "lat": 41.93531}}, {"id": 4893171, "name": "Freeport", "state": "IL", "country": "US", "coord": {"lon": -89.621231, "lat": 42.296692}}, {"id": 4893267, "name": "Fruitland", "state": "IL", "country": "US", "coord": {"lon": -90.5168, "lat": 41.47142}}, {"id": 4893309, "name": "Fulton", "state": "IL", "country": "US", "coord": {"lon": -90.159569, "lat": 41.867249}}, {"id": 4893371, "name": "Gages Lake", "state": "IL", "country": "US", "coord": {"lon": -87.982582, "lat": 42.351688}}, {"id": 4893384, "name": "Galena", "state": "IL", "country": "US", "coord": {"lon": -90.429024, "lat": 42.416672}}, {"id": 4893392, "name": "Galesburg", "state": "IL", "country": "US", "coord": {"lon": -90.371239, "lat": 40.947819}}, {"id": 4893424, "name": "Galva", "state": "IL", "country": "US", "coord": {"lon": -90.04261, "lat": 41.167542}}, {"id": 4893446, "name": "Garber", "state": "IL", "country": "US", "coord": {"lon": -88.381721, "lat": 40.515869}}, {"id": 4893472, "name": "Gardner", "state": "IL", "country": "US", "coord": {"lon": -88.309776, "lat": 41.185589}}, {"id": 4893581, "name": "Geneseo", "state": "IL", "country": "US", "coord": {"lon": -90.154282, "lat": 41.44809}}, {"id": 4893590, "name": "Genet", "state": "IL", "country": "US", "coord": {"lon": -89.075661, "lat": 42.342522}}, {"id": 4893591, "name": "Geneva", "state": "IL", "country": "US", "coord": {"lon": -88.305351, "lat": 41.887531}}, {"id": 4893601, "name": "Genoa", "state": "IL", "country": "US", "coord": {"lon": -88.692871, "lat": 42.097252}}, {"id": 4893637, "name": "Georgetown", "state": "IL", "country": "US", "coord": {"lon": -89.828728, "lat": 42.139751}}, {"id": 4893670, "name": "Germantown Hills", "state": "IL", "country": "US", "coord": {"lon": -89.467873, "lat": 40.76643}}, {"id": 4893700, "name": "Gibson City", "state": "IL", "country": "US", "coord": {"lon": -88.384598, "lat": 40.458431}}, {"id": 4893731, "name": "Gilberts", "state": "IL", "country": "US", "coord": {"lon": -88.372864, "lat": 42.103359}}, {"id": 4893755, "name": "Gilman", "state": "IL", "country": "US", "coord": {"lon": -87.992264, "lat": 40.766701}}, {"id": 4893801, "name": "Glasford", "state": "IL", "country": "US", "coord": {"lon": -89.813438, "lat": 40.57254}}, {"id": 4893811, "name": "Glen Ellyn", "state": "IL", "country": "US", "coord": {"lon": -88.067009, "lat": 41.877529}}, {"id": 4893886, "name": "Glenview", "state": "IL", "country": "US", "coord": {"lon": -87.787842, "lat": 42.069752}}, {"id": 4893896, "name": "Glenwood", "state": "IL", "country": "US", "coord": {"lon": -87.602272, "lat": 41.54253}}, {"id": 4894006, "name": "Good Hope", "state": "IL", "country": "US", "coord": {"lon": -90.673462, "lat": 40.557819}}, {"id": 4894061, "name": "Goodings Grove", "state": "IL", "country": "US", "coord": {"lon": -87.930893, "lat": 41.6292}}, {"id": 4894078, "name": "Glencoe", "state": "IL", "country": "US", "coord": {"lon": -87.758118, "lat": 42.135029}}, {"id": 4894360, "name": "Grandwood Park", "state": "IL", "country": "US", "coord": {"lon": -87.98674, "lat": 42.393082}}, {"id": 4894387, "name": "Grant Park", "state": "IL", "country": "US", "coord": {"lon": -87.646149, "lat": 41.241138}}, {"id": 4894410, "name": "Granville", "state": "IL", "country": "US", "coord": {"lon": -89.227592, "lat": 41.26115}}, {"id": 4894465, "name": "Grayslake", "state": "IL", "country": "US", "coord": {"lon": -88.041748, "lat": 42.344471}}, {"id": 4894614, "name": "Green Oaks", "state": "IL", "country": "US", "coord": {"lon": -87.903412, "lat": 42.29002}}, {"id": 4894625, "name": "Green Rock", "state": "IL", "country": "US", "coord": {"lon": -90.357628, "lat": 41.473091}}, {"id": 4894753, "name": "Gridley", "state": "IL", "country": "US", "coord": {"lon": -88.881462, "lat": 40.74337}}, {"id": 4894861, "name": "Gurnee", "state": "IL", "country": "US", "coord": {"lon": -87.902023, "lat": 42.3703}}, {"id": 4894921, "name": "Hainesville", "state": "IL", "country": "US", "coord": {"lon": -88.067863, "lat": 42.34502}}, {"id": 4894981, "name": "Hamilton", "state": "IL", "country": "US", "coord": {"lon": -91.339043, "lat": 40.396431}}, {"id": 4895016, "name": "Hampshire", "state": "IL", "country": "US", "coord": {"lon": -88.530357, "lat": 42.097801}}, {"id": 4895027, "name": "Hampton", "state": "IL", "country": "US", "coord": {"lon": -90.409302, "lat": 41.55587}}, {"id": 4895035, "name": "Hancock County", "state": "IL", "country": "US", "coord": {"lon": -91.150139, "lat": 40.516708}}, {"id": 4895050, "name": "Hanna City", "state": "IL", "country": "US", "coord": {"lon": -89.795113, "lat": 40.6917}}, {"id": 4895066, "name": "Hanover Park", "state": "IL", "country": "US", "coord": {"lon": -88.145073, "lat": 41.99947}}, {"id": 4895282, "name": "Harvard", "state": "IL", "country": "US", "coord": {"lon": -88.613708, "lat": 42.422241}}, {"id": 4895298, "name": "Harvey", "state": "IL", "country": "US", "coord": {"lon": -87.646713, "lat": 41.610031}}, {"id": 4895308, "name": "Harwood Heights", "state": "IL", "country": "US", "coord": {"lon": -87.807564, "lat": 41.967251}}, {"id": 4895336, "name": "Havana", "state": "IL", "country": "US", "coord": {"lon": -90.060951, "lat": 40.300041}}, {"id": 4895376, "name": "Hawthorn Woods", "state": "IL", "country": "US", "coord": {"lon": -88.049522, "lat": 42.216969}}, {"id": 4895416, "name": "Hazel Crest", "state": "IL", "country": "US", "coord": {"lon": -87.694489, "lat": 41.571701}}, {"id": 4895484, "name": "Hebron", "state": "IL", "country": "US", "coord": {"lon": -88.43232, "lat": 42.471691}}, {"id": 4895580, "name": "Hennepin", "state": "IL", "country": "US", "coord": {"lon": -89.342308, "lat": 41.2542}}, {"id": 4895593, "name": "Henry", "state": "IL", "country": "US", "coord": {"lon": -89.356483, "lat": 41.11142}}, {"id": 4895598, "name": "Henry County", "state": "IL", "country": "US", "coord": {"lon": -90.150124, "lat": 41.35004}}, {"id": 4895688, "name": "Herscher", "state": "IL", "country": "US", "coord": {"lon": -88.097832, "lat": 41.049198}}, {"id": 4895708, "name": "Heyworth", "state": "IL", "country": "US", "coord": {"lon": -88.973686, "lat": 40.31337}}, {"id": 4895767, "name": "Hickory Hills", "state": "IL", "country": "US", "coord": {"lon": -87.825058, "lat": 41.72559}}, {"id": 4895876, "name": "Highland Park", "state": "IL", "country": "US", "coord": {"lon": -87.800339, "lat": 42.18169}}, {"id": 4895918, "name": "Highwood", "state": "IL", "country": "US", "coord": {"lon": -87.809227, "lat": 42.199749}}, {"id": 4895936, "name": "Hillcrest", "state": "IL", "country": "US", "coord": {"lon": -89.064537, "lat": 41.951141}}, {"id": 4895971, "name": "Hillside", "state": "IL", "country": "US", "coord": {"lon": -87.90284, "lat": 41.877811}}, {"id": 4895999, "name": "Hinckley", "state": "IL", "country": "US", "coord": {"lon": -88.640907, "lat": 41.768921}}, {"id": 4896012, "name": "Hinsdale", "state": "IL", "country": "US", "coord": {"lon": -87.937012, "lat": 41.800861}}, {"id": 4896069, "name": "Hodgkins", "state": "IL", "country": "US", "coord": {"lon": -87.857841, "lat": 41.768921}}, {"id": 4896075, "name": "Hoffman Estates", "state": "IL", "country": "US", "coord": {"lon": -88.079803, "lat": 42.042809}}, {"id": 4896333, "name": "Homer", "state": "IL", "country": "US", "coord": {"lon": -87.958092, "lat": 40.03476}}, {"id": 4896336, "name": "Homer Glen", "state": "IL", "country": "US", "coord": {"lon": -87.93811, "lat": 41.600029}}, {"id": 4896348, "name": "Hometown", "state": "IL", "country": "US", "coord": {"lon": -87.731438, "lat": 41.734482}}, {"id": 4896353, "name": "Homewood", "state": "IL", "country": "US", "coord": {"lon": -87.665604, "lat": 41.557259}}, {"id": 4896390, "name": "Hoopeston", "state": "IL", "country": "US", "coord": {"lon": -87.668358, "lat": 40.467258}}, {"id": 4896555, "name": "Howard District", "state": "IL", "country": "US", "coord": {"lon": -87.66922, "lat": 42.020859}}, {"id": 4896608, "name": "Hudson", "state": "IL", "country": "US", "coord": {"lon": -88.987297, "lat": 40.605869}}, {"id": 4896691, "name": "Huntley", "state": "IL", "country": "US", "coord": {"lon": -88.428139, "lat": 42.168079}}, {"id": 4896861, "name": "Illinois", "state": "IL", "country": "US", "coord": {"lon": -89.250366, "lat": 40.00032}}, {"id": 4897039, "name": "Indian Head Park", "state": "IL", "country": "US", "coord": {"lon": -87.902283, "lat": 41.770309}}, {"id": 4897105, "name": "Ingalls Park", "state": "IL", "country": "US", "coord": {"lon": -88.042831, "lat": 41.52253}}, {"id": 4897482, "name": "Inverness", "state": "IL", "country": "US", "coord": {"lon": -88.096191, "lat": 42.11808}}, {"id": 4897521, "name": "Iroquois County", "state": "IL", "country": "US", "coord": {"lon": -87.833366, "lat": 40.750591}}, {"id": 4897579, "name": "Island Lake", "state": "IL", "country": "US", "coord": {"lon": -88.192032, "lat": 42.276131}}, {"id": 4897654, "name": "Itasca", "state": "IL", "country": "US", "coord": {"lon": -88.007294, "lat": 41.975029}}, {"id": 4897897, "name": "Jo Daviess County", "state": "IL", "country": "US", "coord": {"lon": -90.183456, "lat": 42.35001}}, {"id": 4897967, "name": "Johnsburg", "state": "IL", "country": "US", "coord": {"lon": -88.242027, "lat": 42.38002}}, {"id": 4898015, "name": "Joliet", "state": "IL", "country": "US", "coord": {"lon": -88.081734, "lat": 41.525028}}, {"id": 4898152, "name": "Justice", "state": "IL", "country": "US", "coord": {"lon": -87.83783, "lat": 41.74448}}, {"id": 4898166, "name": "Kane County", "state": "IL", "country": "US", "coord": {"lon": -88.433411, "lat": 41.950031}}, {"id": 4898182, "name": "Kankakee", "state": "IL", "country": "US", "coord": {"lon": -87.861153, "lat": 41.120029}}, {"id": 4898188, "name": "Kankakee County", "state": "IL", "country": "US", "coord": {"lon": -87.866707, "lat": 41.150028}}, {"id": 4898342, "name": "Kendall County", "state": "IL", "country": "US", "coord": {"lon": -88.433403, "lat": 41.583359}}, {"id": 4898349, "name": "Kenilworth", "state": "IL", "country": "US", "coord": {"lon": -87.71756, "lat": 42.085861}}, {"id": 4898433, "name": "Kewanee", "state": "IL", "country": "US", "coord": {"lon": -89.924828, "lat": 41.24559}}, {"id": 4898480, "name": "Kildeer", "state": "IL", "country": "US", "coord": {"lon": -88.047852, "lat": 42.170582}}, {"id": 4898589, "name": "Kingston", "state": "IL", "country": "US", "coord": {"lon": -88.75898, "lat": 42.099751}}, {"id": 4898630, "name": "Kirkland", "state": "IL", "country": "US", "coord": {"lon": -88.851212, "lat": 42.092529}}, {"id": 4898711, "name": "Knollwood", "state": "IL", "country": "US", "coord": {"lon": -87.885628, "lat": 42.286129}}, {"id": 4898712, "name": "Knollwood", "state": "", "country": "US", "coord": {"lon": -88.115082, "lat": 42.195862}}, {"id": 4898722, "name": "Knox County", "state": "IL", "country": "US", "coord": {"lon": -90.200119, "lat": 40.933369}}, {"id": 4898734, "name": "Knoxville", "state": "IL", "country": "US", "coord": {"lon": -90.284851, "lat": 40.908371}}, {"id": 4898846, "name": "La Grange", "state": "IL", "country": "US", "coord": {"lon": -87.869232, "lat": 41.805031}}, {"id": 4898850, "name": "La Grange Park", "state": "IL", "country": "US", "coord": {"lon": -87.861732, "lat": 41.834751}}, {"id": 4898856, "name": "La Harpe", "state": "IL", "country": "US", "coord": {"lon": -90.969307, "lat": 40.58337}}, {"id": 4898875, "name": "La Salle", "state": "IL", "country": "US", "coord": {"lon": -89.091751, "lat": 41.33337}}, {"id": 4898878, "name": "LaSalle County", "state": "IL", "country": "US", "coord": {"lon": -88.883408, "lat": 41.266701}}, {"id": 4898920, "name": "Lacon", "state": "IL", "country": "US", "coord": {"lon": -89.411201, "lat": 41.024761}}, {"id": 4898927, "name": "Ladd", "state": "IL", "country": "US", "coord": {"lon": -89.218971, "lat": 41.38253}}, {"id": 4898969, "name": "Lake Barrington", "state": "IL", "country": "US", "coord": {"lon": -88.15258, "lat": 42.212521}}, {"id": 4898974, "name": "Lake Bluff", "state": "IL", "country": "US", "coord": {"lon": -87.834244, "lat": 42.278912}}, {"id": 4898990, "name": "Lake Catherine", "state": "IL", "country": "US", "coord": {"lon": -88.133423, "lat": 42.479191}}, {"id": 4898998, "name": "Lake County", "state": "IL", "country": "US", "coord": {"lon": -88.000633, "lat": 42.333359}}, {"id": 4899012, "name": "Lake Forest", "state": "IL", "country": "US", "coord": {"lon": -87.840622, "lat": 42.258629}}, {"id": 4899135, "name": "Lake Summerset", "state": "IL", "country": "US", "coord": {"lon": -89.389557, "lat": 42.45446}}, {"id": 4899154, "name": "Lake Villa", "state": "IL", "country": "US", "coord": {"lon": -88.073967, "lat": 42.416969}}, {"id": 4899170, "name": "Lake Zurich", "state": "IL", "country": "US", "coord": {"lon": -88.093407, "lat": 42.196972}}, {"id": 4899184, "name": "Lake in the Hills", "state": "IL", "country": "US", "coord": {"lon": -88.33036, "lat": 42.18169}}, {"id": 4899197, "name": "Lake of the Woods", "state": "IL", "country": "US", "coord": {"lon": -88.368668, "lat": 40.206421}}, {"id": 4899213, "name": "Lakemoor", "state": "IL", "country": "US", "coord": {"lon": -88.198967, "lat": 42.328629}}, {"id": 4899249, "name": "Lakewood", "state": "IL", "country": "US", "coord": {"lon": -88.355087, "lat": 42.229191}}, {"id": 4899258, "name": "Lakewood Shores", "state": "IL", "country": "US", "coord": {"lon": -88.144783, "lat": 41.2817}}, {"id": 4899287, "name": "Lanark", "state": "IL", "country": "US", "coord": {"lon": -89.83345, "lat": 42.102249}}, {"id": 4899340, "name": "Lansing", "state": "IL", "country": "US", "coord": {"lon": -87.538933, "lat": 41.564758}}, {"id": 4899471, "name": "Le Roy", "state": "IL", "country": "US", "coord": {"lon": -88.764236, "lat": 40.351978}}, {"id": 4899519, "name": "Lee County", "state": "IL", "country": "US", "coord": {"lon": -89.283432, "lat": 41.750591}}, {"id": 4899581, "name": "Lemont", "state": "IL", "country": "US", "coord": {"lon": -88.001732, "lat": 41.673641}}, {"id": 4899665, "name": "Lewistown", "state": "IL", "country": "US", "coord": {"lon": -90.154839, "lat": 40.393101}}, {"id": 4899670, "name": "Lexington", "state": "IL", "country": "US", "coord": {"lon": -88.783401, "lat": 40.641418}}, {"id": 4899739, "name": "Libertyville", "state": "IL", "country": "US", "coord": {"lon": -87.953133, "lat": 42.283081}}, {"id": 4899822, "name": "Lincoln", "state": "IL", "country": "US", "coord": {"lon": -89.364822, "lat": 40.14838}}, {"id": 4899983, "name": "Lincolnshire", "state": "IL", "country": "US", "coord": {"lon": -87.908401, "lat": 42.190022}}, {"id": 4899988, "name": "Lincolnwood", "state": "IL", "country": "US", "coord": {"lon": -87.730057, "lat": 42.004478}}, {"id": 4900013, "name": "Lindenhurst", "state": "IL", "country": "US", "coord": {"lon": -88.026192, "lat": 42.41058}}, {"id": 4900080, "name": "Lisle", "state": "IL", "country": "US", "coord": {"lon": -88.074791, "lat": 41.80114}}, {"id": 4900233, "name": "Livingston County", "state": "IL", "country": "US", "coord": {"lon": -88.516724, "lat": 40.866699}}, {"id": 4900292, "name": "Lockport", "state": "IL", "country": "US", "coord": {"lon": -88.057838, "lat": 41.589481}}, {"id": 4900338, "name": "Logan County", "state": "IL", "country": "US", "coord": {"lon": -89.36676, "lat": 40.133381}}, {"id": 4900373, "name": "Lombard", "state": "IL", "country": "US", "coord": {"lon": -88.007843, "lat": 41.880032}}, {"id": 4900416, "name": "Long Grove", "state": "IL", "country": "US", "coord": {"lon": -87.997849, "lat": 42.17836}}, {"id": 4900430, "name": "Long Lake", "state": "IL", "country": "US", "coord": {"lon": -88.127579, "lat": 42.37085}}, {"id": 4900541, "name": "Lotus Woods", "state": "IL", "country": "US", "coord": {"lon": -88.173141, "lat": 42.421959}}, {"id": 4900579, "name": "Loves Park", "state": "IL", "country": "US", "coord": {"lon": -89.058159, "lat": 42.320019}}, {"id": 4900739, "name": "Lynwood", "state": "IL", "country": "US", "coord": {"lon": -87.538651, "lat": 41.526421}}, {"id": 4900740, "name": "Lynwood", "state": "IL", "country": "US", "coord": {"lon": -88.393677, "lat": 41.68364}}, {"id": 4900749, "name": "Lyons", "state": "IL", "country": "US", "coord": {"lon": -87.818108, "lat": 41.81337}}, {"id": 4900801, "name": "Machesney Park", "state": "IL", "country": "US", "coord": {"lon": -89.039001, "lat": 42.34724}}, {"id": 4900808, "name": "Mackinaw", "state": "IL", "country": "US", "coord": {"lon": -89.35759, "lat": 40.53698}}, {"id": 4900817, "name": "Macomb", "state": "IL", "country": "US", "coord": {"lon": -90.671799, "lat": 40.459209}}, {"id": 4900885, "name": "Mahomet", "state": "IL", "country": "US", "coord": {"lon": -88.404221, "lat": 40.195309}}, {"id": 4900942, "name": "Malta", "state": "IL", "country": "US", "coord": {"lon": -88.860924, "lat": 41.929749}}, {"id": 4900961, "name": "Manhattan", "state": "IL", "country": "US", "coord": {"lon": -87.985893, "lat": 41.422531}}, {"id": 4900970, "name": "Manito", "state": "IL", "country": "US", "coord": {"lon": -89.779282, "lat": 40.425869}}, {"id": 4901015, "name": "Manteno", "state": "IL", "country": "US", "coord": {"lon": -87.831429, "lat": 41.250591}}, {"id": 4901102, "name": "Maple Park", "state": "IL", "country": "US", "coord": {"lon": -88.599251, "lat": 41.907532}}, {"id": 4901164, "name": "Marengo", "state": "IL", "country": "US", "coord": {"lon": -88.608429, "lat": 42.248631}}, {"id": 4901229, "name": "Markham", "state": "IL", "country": "US", "coord": {"lon": -87.694771, "lat": 41.593651}}, {"id": 4901249, "name": "Maroa", "state": "IL", "country": "US", "coord": {"lon": -88.957031, "lat": 40.03643}}, {"id": 4901260, "name": "Marquette Heights", "state": "IL", "country": "US", "coord": {"lon": -89.60038, "lat": 40.617538}}, {"id": 4901279, "name": "Marseilles", "state": "IL", "country": "US", "coord": {"lon": -88.70813, "lat": 41.330872}}, {"id": 4901390, "name": "Mason City", "state": "IL", "country": "US", "coord": {"lon": -89.698158, "lat": 40.202271}}, {"id": 4901445, "name": "Matteson", "state": "IL", "country": "US", "coord": {"lon": -87.713097, "lat": 41.503922}}, {"id": 4901514, "name": "Maywood", "state": "IL", "country": "US", "coord": {"lon": -87.843117, "lat": 41.8792}}, {"id": 4901525, "name": "Mazon", "state": "IL", "country": "US", "coord": {"lon": -88.41951, "lat": 41.241421}}, {"id": 4901609, "name": "McCullom Lake", "state": "IL", "country": "US", "coord": {"lon": -88.292587, "lat": 42.368351}}, {"id": 4901622, "name": "McDonough County", "state": "IL", "country": "US", "coord": {"lon": -90.666801, "lat": 40.466709}}, {"id": 4901663, "name": "McHenry", "state": "IL", "country": "US", "coord": {"lon": -88.266747, "lat": 42.333359}}, {"id": 4901666, "name": "McHenry County", "state": "IL", "country": "US", "coord": {"lon": -88.466759, "lat": 42.333351}}, {"id": 4901730, "name": "McLean County", "state": "IL", "country": "US", "coord": {"lon": -88.833397, "lat": 40.483372}}, {"id": 4901868, "name": "Melrose Park", "state": "IL", "country": "US", "coord": {"lon": -87.856728, "lat": 41.900589}}, {"id": 4901944, "name": "Mendota", "state": "IL", "country": "US", "coord": {"lon": -89.117592, "lat": 41.547249}}, {"id": 4902033, "name": "Merrionette Park", "state": "IL", "country": "US", "coord": {"lon": -87.700333, "lat": 41.6842}}, {"id": 4902065, "name": "Metamora", "state": "IL", "country": "US", "coord": {"lon": -89.360641, "lat": 40.790588}}, {"id": 4902181, "name": "Midlothian", "state": "IL", "country": "US", "coord": {"lon": -87.717552, "lat": 41.625309}}, {"id": 4902218, "name": "Milan", "state": "IL", "country": "US", "coord": {"lon": -90.572083, "lat": 41.453091}}, {"id": 4902229, "name": "Milford", "state": "IL", "country": "US", "coord": {"lon": -87.696136, "lat": 40.628368}}, {"id": 4902279, "name": "Milledgeville", "state": "IL", "country": "US", "coord": {"lon": -89.774559, "lat": 41.96336}}, {"id": 4902370, "name": "Minier", "state": "IL", "country": "US", "coord": {"lon": -89.313148, "lat": 40.433651}}, {"id": 4902382, "name": "Minonk", "state": "IL", "country": "US", "coord": {"lon": -89.034523, "lat": 40.90448}}, {"id": 4902386, "name": "Minooka", "state": "IL", "country": "US", "coord": {"lon": -88.261726, "lat": 41.455311}}, {"id": 4902475, "name": "Mokena", "state": "IL", "country": "US", "coord": {"lon": -87.889221, "lat": 41.526138}}, {"id": 4902476, "name": "Moline", "state": "IL", "country": "US", "coord": {"lon": -90.515129, "lat": 41.506699}}, {"id": 4902486, "name": "Momence", "state": "IL", "country": "US", "coord": {"lon": -87.662819, "lat": 41.166698}}, {"id": 4902498, "name": "Monee", "state": "IL", "country": "US", "coord": {"lon": -87.741707, "lat": 41.420029}}, {"id": 4902512, "name": "Monmouth", "state": "IL", "country": "US", "coord": {"lon": -90.647362, "lat": 40.91143}}, {"id": 4902559, "name": "Montgomery", "state": "IL", "country": "US", "coord": {"lon": -88.345901, "lat": 41.730579}}, {"id": 4902567, "name": "Monticello", "state": "IL", "country": "US", "coord": {"lon": -88.573402, "lat": 40.027809}}, {"id": 4902706, "name": "Morris", "state": "IL", "country": "US", "coord": {"lon": -88.421181, "lat": 41.35725}}, {"id": 4902724, "name": "Morrison", "state": "IL", "country": "US", "coord": {"lon": -89.965118, "lat": 41.80975}}, {"id": 4902748, "name": "Morse", "state": "IL", "country": "US", "coord": {"lon": -89.645103, "lat": 41.23032}}, {"id": 4902754, "name": "Morton", "state": "IL", "country": "US", "coord": {"lon": -89.459259, "lat": 40.61282}}, {"id": 4902763, "name": "Morton Grove", "state": "IL", "country": "US", "coord": {"lon": -87.782562, "lat": 42.040588}}, {"id": 4902883, "name": "Mount Carroll", "state": "IL", "country": "US", "coord": {"lon": -89.97818, "lat": 42.09502}}, {"id": 4902955, "name": "Mount Morris", "state": "IL", "country": "US", "coord": {"lon": -89.431221, "lat": 42.050308}}, {"id": 4903024, "name": "Mount Prospect", "state": "IL", "country": "US", "coord": {"lon": -87.937286, "lat": 42.066422}}, {"id": 4903032, "name": "Mount Pulaski", "state": "IL", "country": "US", "coord": {"lon": -89.28231, "lat": 40.01088}}, {"id": 4903184, "name": "Mundelein", "state": "IL", "country": "US", "coord": {"lon": -88.003967, "lat": 42.263081}}, {"id": 4903279, "name": "Naperville", "state": "IL", "country": "US", "coord": {"lon": -88.147293, "lat": 41.785858}}, {"id": 4903330, "name": "Nauvoo", "state": "IL", "country": "US", "coord": {"lon": -91.384872, "lat": 40.550041}}, {"id": 4903497, "name": "New Holland", "state": "IL", "country": "US", "coord": {"lon": -89.58094, "lat": 40.184769}}, {"id": 4903535, "name": "New Lenox", "state": "IL", "country": "US", "coord": {"lon": -87.965607, "lat": 41.511978}}, {"id": 4903565, "name": "New Michigan (historical)", "state": "IL", "country": "US", "coord": {"lon": -88.742851, "lat": 41.055031}}, {"id": 4903730, "name": "Niles", "state": "IL", "country": "US", "coord": {"lon": -87.802841, "lat": 42.018921}}, {"id": 4903780, "name": "Normal", "state": "IL", "country": "US", "coord": {"lon": -88.990631, "lat": 40.514198}}, {"id": 4903803, "name": "Norridge", "state": "IL", "country": "US", "coord": {"lon": -87.827278, "lat": 41.96336}}, {"id": 4903818, "name": "North Aurora", "state": "IL", "country": "US", "coord": {"lon": -88.327301, "lat": 41.806141}}, {"id": 4903830, "name": "North Barrington", "state": "IL", "country": "US", "coord": {"lon": -88.140633, "lat": 42.207802}}, {"id": 4903862, "name": "North Chicago", "state": "IL", "country": "US", "coord": {"lon": -87.841179, "lat": 42.325581}}, {"id": 4903975, "name": "North Pekin", "state": "IL", "country": "US", "coord": {"lon": -89.622322, "lat": 40.61504}}, {"id": 4903976, "name": "North Peoria", "state": "IL", "country": "US", "coord": {"lon": -89.584259, "lat": 40.717541}}, {"id": 4904002, "name": "North Riverside", "state": "IL", "country": "US", "coord": {"lon": -87.823112, "lat": 41.842812}}, {"id": 4904056, "name": "Northbrook", "state": "IL", "country": "US", "coord": {"lon": -87.828949, "lat": 42.127529}}, {"id": 4904094, "name": "Northfield", "state": "IL", "country": "US", "coord": {"lon": -87.780899, "lat": 42.099751}}, {"id": 4904102, "name": "Northlake", "state": "IL", "country": "US", "coord": {"lon": -87.895622, "lat": 41.917252}}, {"id": 4904277, "name": "Oak Brook", "state": "IL", "country": "US", "coord": {"lon": -87.928947, "lat": 41.832809}}, {"id": 4904286, "name": "Oak Forest", "state": "IL", "country": "US", "coord": {"lon": -87.743942, "lat": 41.60281}}, {"id": 4904365, "name": "Oak Lawn", "state": "IL", "country": "US", "coord": {"lon": -87.75811, "lat": 41.710869}}, {"id": 4904381, "name": "Oak Park", "state": "IL", "country": "US", "coord": {"lon": -87.7845, "lat": 41.885029}}, {"id": 4904407, "name": "Oak Ridge", "state": "IL", "country": "US", "coord": {"lon": -89.437592, "lat": 40.811432}}, {"id": 4904447, "name": "Oakbrook Terrace", "state": "IL", "country": "US", "coord": {"lon": -87.964508, "lat": 41.850029}}, {"id": 4904520, "name": "Oakwood", "state": "IL", "country": "US", "coord": {"lon": -87.778358, "lat": 40.11615}}, {"id": 4904543, "name": "Oakwood Hills", "state": "IL", "country": "US", "coord": {"lon": -88.242859, "lat": 42.24641}}, {"id": 4904574, "name": "Odell", "state": "IL", "country": "US", "coord": {"lon": -88.525337, "lat": 41.003639}}, {"id": 4904601, "name": "Ogle County", "state": "IL", "country": "US", "coord": {"lon": -89.316772, "lat": 42.03336}}, {"id": 4904605, "name": "Oglesby", "state": "IL", "country": "US", "coord": {"lon": -89.059532, "lat": 41.295311}}, {"id": 4904793, "name": "Olympia Fields", "state": "IL", "country": "US", "coord": {"lon": -87.67421, "lat": 41.513371}}, {"id": 4904809, "name": "Onarga", "state": "IL", "country": "US", "coord": {"lon": -88.006149, "lat": 40.715038}}, {"id": 4904872, "name": "Oquawka", "state": "IL", "country": "US", "coord": {"lon": -90.94709, "lat": 40.93198}}, {"id": 4904898, "name": "Oregon", "state": "IL", "country": "US", "coord": {"lon": -89.332329, "lat": 42.014751}}, {"id": 4904922, "name": "Orion", "state": "IL", "country": "US", "coord": {"lon": -90.381523, "lat": 41.354759}}, {"id": 4904934, "name": "Orland Hills", "state": "IL", "country": "US", "coord": {"lon": -87.843109, "lat": 41.585312}}, {"id": 4904937, "name": "Orland Park", "state": "IL", "country": "US", "coord": {"lon": -87.853943, "lat": 41.63031}}, {"id": 4904996, "name": "Oswego", "state": "IL", "country": "US", "coord": {"lon": -88.351463, "lat": 41.682812}}, {"id": 4905006, "name": "Ottawa", "state": "IL", "country": "US", "coord": {"lon": -88.842583, "lat": 41.345589}}, {"id": 4905211, "name": "Palatine", "state": "IL", "country": "US", "coord": {"lon": -88.034241, "lat": 42.110298}}, {"id": 4905232, "name": "Palm Beach", "state": "IL", "country": "US", "coord": {"lon": -88.197311, "lat": 42.37669}}, {"id": 4905259, "name": "Palos Heights", "state": "IL", "country": "US", "coord": {"lon": -87.79644, "lat": 41.668091}}, {"id": 4905263, "name": "Palos Hills", "state": "IL", "country": "US", "coord": {"lon": -87.817001, "lat": 41.696701}}, {"id": 4905265, "name": "Palos Park", "state": "IL", "country": "US", "coord": {"lon": -87.83033, "lat": 41.667252}}, {"id": 4905334, "name": "Park City", "state": "IL", "country": "US", "coord": {"lon": -87.884239, "lat": 42.348358}}, {"id": 4905337, "name": "Park Forest", "state": "IL", "country": "US", "coord": {"lon": -87.674492, "lat": 41.491421}}, {"id": 4905367, "name": "Park Ridge", "state": "IL", "country": "US", "coord": {"lon": -87.840622, "lat": 42.011139}}, {"id": 4905509, "name": "Paxton", "state": "IL", "country": "US", "coord": {"lon": -88.095322, "lat": 40.460312}}, {"id": 4905572, "name": "Pecatonica", "state": "IL", "country": "US", "coord": {"lon": -89.359283, "lat": 42.313911}}, {"id": 4905599, "name": "Pekin", "state": "IL", "country": "US", "coord": {"lon": -89.640663, "lat": 40.567539}}, {"id": 4905687, "name": "Peoria", "state": "IL", "country": "US", "coord": {"lon": -89.588989, "lat": 40.693649}}, {"id": 4905697, "name": "Peoria County", "state": "IL", "country": "US", "coord": {"lon": -89.766769, "lat": 40.766701}}, {"id": 4905704, "name": "Peoria Heights", "state": "IL", "country": "US", "coord": {"lon": -89.573982, "lat": 40.747261}}, {"id": 4905724, "name": "Peotone", "state": "IL", "country": "US", "coord": {"lon": -87.785316, "lat": 41.33226}}, {"id": 4905762, "name": "Perryville", "state": "IL", "country": "US", "coord": {"lon": -88.979553, "lat": 42.221691}}, {"id": 4905770, "name": "Peru", "state": "IL", "country": "US", "coord": {"lon": -89.128967, "lat": 41.32753}}, {"id": 4905791, "name": "Petersburg", "state": "IL", "country": "US", "coord": {"lon": -89.848167, "lat": 40.011719}}, {"id": 4905866, "name": "Philo", "state": "IL", "country": "US", "coord": {"lon": -88.158096, "lat": 40.006981}}, {"id": 4905873, "name": "Phoenix", "state": "IL", "country": "US", "coord": {"lon": -87.634773, "lat": 41.611149}}, {"id": 4906035, "name": "Pingree Grove", "state": "IL", "country": "US", "coord": {"lon": -88.413422, "lat": 42.068642}}, {"id": 4906087, "name": "Pistakee Highlands", "state": "IL", "country": "US", "coord": {"lon": -88.206482, "lat": 42.40863}}, {"id": 4906125, "name": "Plainfield", "state": "IL", "country": "US", "coord": {"lon": -88.203949, "lat": 41.626968}}, {"id": 4906143, "name": "Plano", "state": "IL", "country": "US", "coord": {"lon": -88.537018, "lat": 41.662811}}, {"id": 4906421, "name": "Polo", "state": "IL", "country": "US", "coord": {"lon": -89.579277, "lat": 41.986141}}, {"id": 4906438, "name": "Pontiac", "state": "IL", "country": "US", "coord": {"lon": -88.629784, "lat": 40.880871}}, {"id": 4906482, "name": "Poplar Grove", "state": "IL", "country": "US", "coord": {"lon": -88.822052, "lat": 42.368351}}, {"id": 4906490, "name": "Port Barrington", "state": "IL", "country": "US", "coord": {"lon": -88.202026, "lat": 42.242519}}, {"id": 4906491, "name": "Port Byron", "state": "IL", "country": "US", "coord": {"lon": -90.335411, "lat": 41.606419}}, {"id": 4906527, "name": "Posen", "state": "IL", "country": "US", "coord": {"lon": -87.681442, "lat": 41.631699}}, {"id": 4906641, "name": "Prairie Grove", "state": "IL", "country": "US", "coord": {"lon": -88.260918, "lat": 42.278629}}, {"id": 4906802, "name": "Preston Heights", "state": "IL", "country": "US", "coord": {"lon": -88.081718, "lat": 41.491699}}, {"id": 4906818, "name": "Princeton", "state": "IL", "country": "US", "coord": {"lon": -89.464813, "lat": 41.368092}}, {"id": 4906824, "name": "Princeville", "state": "IL", "country": "US", "coord": {"lon": -89.757599, "lat": 40.92976}}, {"id": 4906868, "name": "Prophetstown", "state": "IL", "country": "US", "coord": {"lon": -89.936218, "lat": 41.671421}}, {"id": 4906882, "name": "Prospect Heights", "state": "IL", "country": "US", "coord": {"lon": -87.937569, "lat": 42.095299}}, {"id": 4907131, "name": "Rantoul", "state": "IL", "country": "US", "coord": {"lon": -88.155884, "lat": 40.308369}}, {"id": 4907504, "name": "Richmond", "state": "IL", "country": "US", "coord": {"lon": -88.305931, "lat": 42.475849}}, {"id": 4907505, "name": "Richmond", "state": "IL", "country": "US", "coord": {"lon": -89.36898, "lat": 40.36087}}, {"id": 4907514, "name": "Richton Park", "state": "IL", "country": "US", "coord": {"lon": -87.703377, "lat": 41.484482}}, {"id": 4907637, "name": "River Forest", "state": "IL", "country": "US", "coord": {"lon": -87.81395, "lat": 41.897812}}, {"id": 4907649, "name": "River Grove", "state": "IL", "country": "US", "coord": {"lon": -87.835892, "lat": 41.925861}}, {"id": 4907683, "name": "Riverdale", "state": "IL", "country": "US", "coord": {"lon": -87.633102, "lat": 41.633369}}, {"id": 4907706, "name": "Riverside", "state": "IL", "country": "US", "coord": {"lon": -87.822838, "lat": 41.83503}}, {"id": 4907762, "name": "Riverwoods", "state": "IL", "country": "US", "coord": {"lon": -87.897011, "lat": 42.16753}}, {"id": 4907773, "name": "Roanoke", "state": "IL", "country": "US", "coord": {"lon": -89.197304, "lat": 40.79615}}, {"id": 4907786, "name": "Robbins", "state": "IL", "country": "US", "coord": {"lon": -87.703659, "lat": 41.643921}}, {"id": 4907863, "name": "Rochelle", "state": "IL", "country": "US", "coord": {"lon": -89.06871, "lat": 41.92392}}, {"id": 4907898, "name": "Rock Falls", "state": "IL", "country": "US", "coord": {"lon": -89.689003, "lat": 41.779751}}, {"id": 4907907, "name": "Rock Island", "state": "IL", "country": "US", "coord": {"lon": -90.578751, "lat": 41.50948}}, {"id": 4907910, "name": "Rock Island County", "state": "IL", "country": "US", "coord": {"lon": -90.5168, "lat": 41.450031}}, {"id": 4907953, "name": "Rockdale", "state": "IL", "country": "US", "coord": {"lon": -88.114502, "lat": 41.506142}}, {"id": 4907959, "name": "Rockford", "state": "IL", "country": "US", "coord": {"lon": -89.094002, "lat": 42.27113}}, {"id": 4907985, "name": "Rockton", "state": "IL", "country": "US", "coord": {"lon": -89.072327, "lat": 42.452518}}, {"id": 4908052, "name": "Rolling Meadows", "state": "IL", "country": "US", "coord": {"lon": -88.01313, "lat": 42.08419}}, {"id": 4908066, "name": "Rome", "state": "IL", "country": "US", "coord": {"lon": -89.502586, "lat": 40.883091}}, {"id": 4908068, "name": "Romeoville", "state": "IL", "country": "US", "coord": {"lon": -88.089508, "lat": 41.64753}}, {"id": 4908126, "name": "Roscoe", "state": "IL", "country": "US", "coord": {"lon": -89.00927, "lat": 42.413349}}, {"id": 4908173, "name": "Roselle", "state": "IL", "country": "US", "coord": {"lon": -88.079788, "lat": 41.984749}}, {"id": 4908179, "name": "Rosemont", "state": "IL", "country": "US", "coord": {"lon": -87.884506, "lat": 41.995312}}, {"id": 4908209, "name": "Rossville", "state": "IL", "country": "US", "coord": {"lon": -87.668633, "lat": 40.3792}}, {"id": 4908236, "name": "Round Lake", "state": "IL", "country": "US", "coord": {"lon": -88.093407, "lat": 42.353359}}, {"id": 4908237, "name": "Round Lake Beach", "state": "IL", "country": "US", "coord": {"lon": -88.09008, "lat": 42.371689}}, {"id": 4908242, "name": "Round Lake Heights", "state": "IL", "country": "US", "coord": {"lon": -88.104248, "lat": 42.38002}}, {"id": 4908243, "name": "Round Lake Park", "state": "IL", "country": "US", "coord": {"lon": -88.076752, "lat": 42.356972}}, {"id": 4908321, "name": "Rushville", "state": "IL", "country": "US", "coord": {"lon": -90.563179, "lat": 40.121159}}, {"id": 4908543, "name": "Saint Anne", "state": "IL", "country": "US", "coord": {"lon": -87.713921, "lat": 41.025028}}, {"id": 4908737, "name": "Saint Charles", "state": "IL", "country": "US", "coord": {"lon": -88.308693, "lat": 41.914188}}, {"id": 4909268, "name": "Saint Joseph", "state": "IL", "country": "US", "coord": {"lon": -88.041702, "lat": 40.111698}}, {"id": 4910543, "name": "Sandwich", "state": "IL", "country": "US", "coord": {"lon": -88.621742, "lat": 41.645859}}, {"id": 4910634, "name": "Sauk Village", "state": "IL", "country": "US", "coord": {"lon": -87.567543, "lat": 41.488369}}, {"id": 4910652, "name": "Savanna", "state": "IL", "country": "US", "coord": {"lon": -90.156792, "lat": 42.094471}}, {"id": 4910663, "name": "Savoy", "state": "IL", "country": "US", "coord": {"lon": -88.251717, "lat": 40.054749}}, {"id": 4910713, "name": "Schaumburg", "state": "IL", "country": "US", "coord": {"lon": -88.083412, "lat": 42.03336}}, {"id": 4910743, "name": "Schiller Park", "state": "IL", "country": "US", "coord": {"lon": -87.870903, "lat": 41.95586}}, {"id": 4911041, "name": "Sellers", "state": "IL", "country": "US", "coord": {"lon": -88.104759, "lat": 40.18642}}, {"id": 4911059, "name": "Seneca", "state": "IL", "country": "US", "coord": {"lon": -88.609787, "lat": 41.311138}}, {"id": 4911259, "name": "Sheldon", "state": "IL", "country": "US", "coord": {"lon": -87.563919, "lat": 40.769199}}, {"id": 4911289, "name": "Sheridan", "state": "IL", "country": "US", "coord": {"lon": -88.679802, "lat": 41.530029}}, {"id": 4911382, "name": "Shirland", "state": "IL", "country": "US", "coord": {"lon": -89.197609, "lat": 42.444462}}, {"id": 4911418, "name": "Shorewood", "state": "IL", "country": "US", "coord": {"lon": -88.201729, "lat": 41.520031}}, {"id": 4911455, "name": "Sidney", "state": "IL", "country": "US", "coord": {"lon": -88.073372, "lat": 40.025028}}, {"id": 4911516, "name": "Silvis", "state": "IL", "country": "US", "coord": {"lon": -90.415131, "lat": 41.51226}}, {"id": 4911600, "name": "Skokie", "state": "IL", "country": "US", "coord": {"lon": -87.733391, "lat": 42.03336}}, {"id": 4911640, "name": "Sleepy Hollow", "state": "IL", "country": "US", "coord": {"lon": -88.302582, "lat": 42.094189}}, {"id": 4911802, "name": "Somonauk", "state": "IL", "country": "US", "coord": {"lon": -88.68119, "lat": 41.63364}}, {"id": 4911825, "name": "South Barrington", "state": "IL", "country": "US", "coord": {"lon": -88.121742, "lat": 42.091419}}, {"id": 4911830, "name": "South Beloit", "state": "IL", "country": "US", "coord": {"lon": -89.036781, "lat": 42.493069}}, {"id": 4911868, "name": "South Chicago Heights", "state": "IL", "country": "US", "coord": {"lon": -87.637817, "lat": 41.480869}}, {"id": 4911893, "name": "South Elgin", "state": "IL", "country": "US", "coord": {"lon": -88.292297, "lat": 41.99419}}, {"id": 4911916, "name": "South Freeport", "state": "IL", "country": "US", "coord": {"lon": -89.572609, "lat": 42.24086}}, {"id": 4911934, "name": "South Holland", "state": "IL", "country": "US", "coord": {"lon": -87.606987, "lat": 41.600868}}, {"id": 4911982, "name": "South Pekin", "state": "IL", "country": "US", "coord": {"lon": -89.651772, "lat": 40.49448}}, {"id": 4912248, "name": "Spring Grove", "state": "IL", "country": "US", "coord": {"lon": -88.236481, "lat": 42.44363}}, {"id": 4912303, "name": "Spring Valley", "state": "IL", "country": "US", "coord": {"lon": -89.199806, "lat": 41.327541}}, {"id": 4912398, "name": "Stark County", "state": "IL", "country": "US", "coord": {"lon": -89.800102, "lat": 41.10004}}, {"id": 4912474, "name": "Steger", "state": "IL", "country": "US", "coord": {"lon": -87.636429, "lat": 41.470032}}, {"id": 4912492, "name": "Stephenson County", "state": "IL", "country": "US", "coord": {"lon": -89.666779, "lat": 42.350021}}, {"id": 4912499, "name": "Sterling", "state": "IL", "country": "US", "coord": {"lon": -89.69622, "lat": 41.788639}}, {"id": 4912555, "name": "Stickney", "state": "IL", "country": "US", "coord": {"lon": -87.782829, "lat": 41.821419}}, {"id": 4912566, "name": "Stillman Valley", "state": "IL", "country": "US", "coord": {"lon": -89.179268, "lat": 42.10725}}, {"id": 4912583, "name": "Stockton", "state": "IL", "country": "US", "coord": {"lon": -90.00679, "lat": 42.349739}}, {"id": 4912602, "name": "Stone Park", "state": "IL", "country": "US", "coord": {"lon": -87.883667, "lat": 41.90559}}, {"id": 4912691, "name": "Streamwood", "state": "IL", "country": "US", "coord": {"lon": -88.178413, "lat": 42.025581}}, {"id": 4912698, "name": "Streator", "state": "IL", "country": "US", "coord": {"lon": -88.83535, "lat": 41.120869}}, {"id": 4912783, "name": "Sugar Grove", "state": "IL", "country": "US", "coord": {"lon": -88.443687, "lat": 41.761421}}, {"id": 4912845, "name": "Summit", "state": "IL", "country": "US", "coord": {"lon": -87.810333, "lat": 41.78809}}, {"id": 4913005, "name": "Surrey", "state": "IL", "country": "US", "coord": {"lon": -90.468193, "lat": 40.911701}}, {"id": 4913110, "name": "Sycamore", "state": "IL", "country": "US", "coord": {"lon": -88.686752, "lat": 41.988918}}, {"id": 4913271, "name": "Tazewell County", "state": "IL", "country": "US", "coord": {"lon": -89.550102, "lat": 40.533371}}, {"id": 4913515, "name": "Third Lake", "state": "IL", "country": "US", "coord": {"lon": -88.01091, "lat": 42.373909}}, {"id": 4913555, "name": "Thomasboro", "state": "IL", "country": "US", "coord": {"lon": -88.184212, "lat": 40.241699}}, {"id": 4913605, "name": "Thornton", "state": "IL", "country": "US", "coord": {"lon": -87.608101, "lat": 41.568089}}, {"id": 4913666, "name": "Tilton", "state": "IL", "country": "US", "coord": {"lon": -87.647522, "lat": 40.09531}}, {"id": 4913723, "name": "Tinley Park", "state": "IL", "country": "US", "coord": {"lon": -87.784492, "lat": 41.573372}}, {"id": 4913760, "name": "Toluca", "state": "IL", "country": "US", "coord": {"lon": -89.133423, "lat": 41.002258}}, {"id": 4913764, "name": "Tomahawk Bluff", "state": "IL", "country": "US", "coord": {"lon": -89.08342, "lat": 41.380589}}, {"id": 4913799, "name": "Toulon", "state": "IL", "country": "US", "coord": {"lon": -89.86483, "lat": 41.093651}}, {"id": 4913816, "name": "Tower Lake", "state": "IL", "country": "US", "coord": {"lon": -88.152023, "lat": 42.231972}}, {"id": 4913892, "name": "Tremont", "state": "IL", "country": "US", "coord": {"lon": -89.492599, "lat": 40.527538}}, {"id": 4914065, "name": "Triumph", "state": "IL", "country": "US", "coord": {"lon": -89.022034, "lat": 41.499481}}, {"id": 4914209, "name": "Twin Grove", "state": "IL", "country": "US", "coord": {"lon": -89.079803, "lat": 40.49337}}, {"id": 4914514, "name": "University Park", "state": "", "country": "US", "coord": {"lon": -87.685333, "lat": 41.592258}}, {"id": 4914570, "name": "Urbana", "state": "IL", "country": "US", "coord": {"lon": -88.207268, "lat": 40.110592}}, {"id": 4914628, "name": "Valley View", "state": "IL", "country": "US", "coord": {"lon": -88.966209, "lat": 42.222801}}, {"id": 4914704, "name": "Venetian Village", "state": "IL", "country": "US", "coord": {"lon": -88.052582, "lat": 42.398628}}, {"id": 4914710, "name": "Vermilion County", "state": "IL", "country": "US", "coord": {"lon": -87.75058, "lat": 40.166698}}, {"id": 4914738, "name": "Vernon Hills", "state": "IL", "country": "US", "coord": {"lon": -87.965134, "lat": 42.21809}}, {"id": 4914830, "name": "Villa Park", "state": "IL", "country": "US", "coord": {"lon": -87.988953, "lat": 41.889751}}, {"id": 4914934, "name": "Volo", "state": "IL", "country": "US", "coord": {"lon": -88.167862, "lat": 42.32613}}, {"id": 4915294, "name": "Wadsworth", "state": "IL", "country": "US", "coord": {"lon": -87.923973, "lat": 42.428631}}, {"id": 4915397, "name": "Walnut", "state": "IL", "country": "US", "coord": {"lon": -89.59343, "lat": 41.556702}}, {"id": 4915497, "name": "Warren", "state": "IL", "country": "US", "coord": {"lon": -89.989571, "lat": 42.496399}}, {"id": 4915502, "name": "Warren County", "state": "IL", "country": "US", "coord": {"lon": -90.616798, "lat": 40.85004}}, {"id": 4915525, "name": "Warrenville", "state": "IL", "country": "US", "coord": {"lon": -88.173401, "lat": 41.81781}}, {"id": 4915533, "name": "Warsaw", "state": "IL", "country": "US", "coord": {"lon": -91.434601, "lat": 40.359211}}, {"id": 4915543, "name": "Washburn", "state": "IL", "country": "US", "coord": {"lon": -89.291199, "lat": 40.919201}}, {"id": 4915545, "name": "Washington", "state": "IL", "country": "US", "coord": {"lon": -89.40731, "lat": 40.703651}}, {"id": 4915683, "name": "Waterman", "state": "IL", "country": "US", "coord": {"lon": -88.773689, "lat": 41.771702}}, {"id": 4915695, "name": "Watertown", "state": "IL", "country": "US", "coord": {"lon": -89.294548, "lat": 41.98531}}, {"id": 4915703, "name": "Watseka", "state": "IL", "country": "US", "coord": {"lon": -87.73642, "lat": 40.77615}}, {"id": 4915725, "name": "Wauconda", "state": "IL", "country": "US", "coord": {"lon": -88.139252, "lat": 42.258911}}, {"id": 4915734, "name": "Waukegan", "state": "IL", "country": "US", "coord": {"lon": -87.844788, "lat": 42.363628}}, {"id": 4915764, "name": "Wayne", "state": "IL", "country": "US", "coord": {"lon": -88.242302, "lat": 41.950859}}, {"id": 4915794, "name": "Webster", "state": "IL", "country": "US", "coord": {"lon": -87.60392, "lat": 40.773651}}, {"id": 4915884, "name": "Wenona", "state": "IL", "country": "US", "coord": {"lon": -89.050362, "lat": 41.052528}}, {"id": 4915963, "name": "West Chicago", "state": "IL", "country": "US", "coord": {"lon": -88.203957, "lat": 41.88475}}, {"id": 4915977, "name": "West Dundee", "state": "IL", "country": "US", "coord": {"lon": -88.28286, "lat": 42.09808}}, {"id": 4916008, "name": "West Hallock", "state": "IL", "country": "US", "coord": {"lon": -89.639259, "lat": 40.920872}}, {"id": 4916055, "name": "West Peoria", "state": "IL", "country": "US", "coord": {"lon": -89.627876, "lat": 40.692539}}, {"id": 4916140, "name": "Westchester", "state": "IL", "country": "US", "coord": {"lon": -87.882004, "lat": 41.85059}}, {"id": 4916161, "name": "Western Springs", "state": "IL", "country": "US", "coord": {"lon": -87.90062, "lat": 41.80975}}, {"id": 4916207, "name": "Westmont", "state": "IL", "country": "US", "coord": {"lon": -87.975616, "lat": 41.79586}}, {"id": 4916252, "name": "Westville", "state": "IL", "country": "US", "coord": {"lon": -87.638634, "lat": 40.042259}}, {"id": 4916288, "name": "Wheaton", "state": "IL", "country": "US", "coord": {"lon": -88.10701, "lat": 41.866138}}, {"id": 4916311, "name": "Wheeling", "state": "IL", "country": "US", "coord": {"lon": -87.928963, "lat": 42.139191}}, {"id": 4916416, "name": "White Willow (historical)", "state": "IL", "country": "US", "coord": {"lon": -88.384789, "lat": 41.474751}}, {"id": 4916434, "name": "Whiteside County", "state": "IL", "country": "US", "coord": {"lon": -89.916779, "lat": 41.750591}}, {"id": 4916470, "name": "Wichert", "state": "IL", "country": "US", "coord": {"lon": -87.704201, "lat": 41.057259}}, {"id": 4916565, "name": "Will County", "state": "IL", "country": "US", "coord": {"lon": -87.966721, "lat": 41.433369}}, {"id": 4916698, "name": "Willow Springs", "state": "IL", "country": "US", "coord": {"lon": -87.860329, "lat": 41.740871}}, {"id": 4916709, "name": "Willowbrook", "state": "IL", "country": "US", "coord": {"lon": -87.93589, "lat": 41.769749}}, {"id": 4916710, "name": "Willowbrook", "state": "IL", "country": "US", "coord": {"lon": -87.53643, "lat": 41.457809}}, {"id": 4916732, "name": "Wilmette", "state": "IL", "country": "US", "coord": {"lon": -87.722839, "lat": 42.07225}}, {"id": 4916740, "name": "Wilmington", "state": "IL", "country": "US", "coord": {"lon": -88.146721, "lat": 41.307812}}, {"id": 4916785, "name": "Wilton", "state": "IL", "country": "US", "coord": {"lon": -87.934219, "lat": 41.379478}}, {"id": 4916826, "name": "Winfield", "state": "IL", "country": "US", "coord": {"lon": -88.160896, "lat": 41.861698}}, {"id": 4916843, "name": "Winnebago", "state": "IL", "country": "US", "coord": {"lon": -89.241219, "lat": 42.266129}}, {"id": 4916845, "name": "Winnebago County", "state": "IL", "country": "US", "coord": {"lon": -89.183441, "lat": 42.350021}}, {"id": 4916891, "name": "Winnetka", "state": "IL", "country": "US", "coord": {"lon": -87.735901, "lat": 42.108082}}, {"id": 4916894, "name": "Winthrop Harbor", "state": "IL", "country": "US", "coord": {"lon": -87.823677, "lat": 42.478909}}, {"id": 4916973, "name": "Wonder Lake", "state": "IL", "country": "US", "coord": {"lon": -88.347313, "lat": 42.3853}}, {"id": 4916975, "name": "Wood Dale", "state": "IL", "country": "US", "coord": {"lon": -87.978958, "lat": 41.96336}}, {"id": 4917010, "name": "Woodford County", "state": "IL", "country": "US", "coord": {"lon": -89.233421, "lat": 40.766701}}, {"id": 4917089, "name": "Woodridge", "state": "IL", "country": "US", "coord": {"lon": -88.050339, "lat": 41.746971}}, {"id": 4917123, "name": "Woodstock", "state": "IL", "country": "US", "coord": {"lon": -88.4487, "lat": 42.314739}}, {"id": 4917171, "name": "Worth", "state": "IL", "country": "US", "coord": {"lon": -87.797279, "lat": 41.689751}}, {"id": 4917218, "name": "Wyoming", "state": "IL", "country": "US", "coord": {"lon": -89.773163, "lat": 41.061699}}, {"id": 4917268, "name": "Yeoward Addition", "state": "IL", "country": "US", "coord": {"lon": -89.66066, "lat": 41.758091}}, {"id": 4917298, "name": "Yorkville", "state": "IL", "country": "US", "coord": {"lon": -88.447289, "lat": 41.64114}}, {"id": 4917358, "name": "Zion", "state": "IL", "country": "US", "coord": {"lon": -87.832848, "lat": 42.446129}}, {"id": 4917466, "name": "Aberdeen", "state": "IN", "country": "US", "coord": {"lon": -87.11142, "lat": 41.438931}}, {"id": 4917517, "name": "Akron", "state": "IN", "country": "US", "coord": {"lon": -86.028053, "lat": 41.03838}}, {"id": 4917520, "name": "Albany", "state": "IN", "country": "US", "coord": {"lon": -85.241913, "lat": 40.30088}}, {"id": 4917523, "name": "Albion", "state": "IN", "country": "US", "coord": {"lon": -85.424423, "lat": 41.395599}}, {"id": 4917537, "name": "Alexandria", "state": "IN", "country": "US", "coord": {"lon": -85.675812, "lat": 40.262821}}, {"id": 4917545, "name": "Alida", "state": "IN", "country": "US", "coord": {"lon": -86.903084, "lat": 41.510601}}, {"id": 4917555, "name": "Allen County", "state": "IN", "country": "US", "coord": {"lon": -85.014412, "lat": 41.070599}}, {"id": 4917592, "name": "Anderson", "state": "IN", "country": "US", "coord": {"lon": -85.680252, "lat": 40.10532}}, {"id": 4917606, "name": "Andrews", "state": "IN", "country": "US", "coord": {"lon": -85.601646, "lat": 40.862541}}, {"id": 4917614, "name": "Angola", "state": "IN", "country": "US", "coord": {"lon": -84.999413, "lat": 41.634769}}, {"id": 4917653, "name": "Arcadia", "state": "IN", "country": "US", "coord": {"lon": -86.021652, "lat": 40.175869}}, {"id": 4917658, "name": "Ardmore", "state": "IN", "country": "US", "coord": {"lon": -86.317513, "lat": 41.689209}}, {"id": 4917661, "name": "Argos", "state": "IN", "country": "US", "coord": {"lon": -86.214653, "lat": 41.237801}}, {"id": 4917707, "name": "Attica", "state": "IN", "country": "US", "coord": {"lon": -87.248901, "lat": 40.294201}}, {"id": 4917712, "name": "Auburn", "state": "IN", "country": "US", "coord": {"lon": -85.058861, "lat": 41.366989}}, {"id": 4917726, "name": "Avery", "state": "IN", "country": "US", "coord": {"lon": -86.440559, "lat": 40.308929}}, {"id": 4917727, "name": "Avilla", "state": "IN", "country": "US", "coord": {"lon": -85.238861, "lat": 41.365879}}, {"id": 4917768, "name": "Bainter Town", "state": "IN", "country": "US", "coord": {"lon": -85.817207, "lat": 41.516991}}, {"id": 4917848, "name": "Bass Lake", "state": "IN", "country": "US", "coord": {"lon": -86.601959, "lat": 41.20726}}, {"id": 4917857, "name": "Battle Ground", "state": "IN", "country": "US", "coord": {"lon": -86.841682, "lat": 40.508369}}, {"id": 4918006, "name": "Berne", "state": "IN", "country": "US", "coord": {"lon": -84.951912, "lat": 40.657822}}, {"id": 4918123, "name": "Big Hill", "state": "IN", "country": "US", "coord": {"lon": -86.195831, "lat": 41.045319}}, {"id": 4918181, "name": "Blackford County", "state": "IN", "country": "US", "coord": {"lon": -85.369972, "lat": 40.451149}}, {"id": 4918234, "name": "Bluffton", "state": "IN", "country": "US", "coord": {"lon": -85.171638, "lat": 40.738659}}, {"id": 4918273, "name": "Boone County", "state": "IN", "country": "US", "coord": {"lon": -86.46917, "lat": 40.04837}}, {"id": 4918309, "name": "Bourbon", "state": "IN", "country": "US", "coord": {"lon": -86.116386, "lat": 41.295601}}, {"id": 4918363, "name": "Bremen", "state": "IN", "country": "US", "coord": {"lon": -86.148064, "lat": 41.446442}}, {"id": 4918393, "name": "Bristol", "state": "IN", "country": "US", "coord": {"lon": -85.81749, "lat": 41.721439}}, {"id": 4918417, "name": "Brookston", "state": "IN", "country": "US", "coord": {"lon": -86.867233, "lat": 40.60281}}, {"id": 4918559, "name": "Burns Harbor", "state": "IN", "country": "US", "coord": {"lon": -87.133369, "lat": 41.62587}}, {"id": 4918595, "name": "Butler", "state": "IN", "country": "US", "coord": {"lon": -84.871353, "lat": 41.429771}}, {"id": 4918669, "name": "Cammack", "state": "IN", "country": "US", "coord": {"lon": -85.49247, "lat": 40.20977}}, {"id": 4918771, "name": "Cass County", "state": "IN", "country": "US", "coord": {"lon": -86.356667, "lat": 40.754478}}, {"id": 4918805, "name": "Cedar Lake", "state": "IN", "country": "US", "coord": {"lon": -87.441147, "lat": 41.364761}}, {"id": 4918949, "name": "Chesterfield", "state": "IN", "country": "US", "coord": {"lon": -85.596916, "lat": 40.112541}}, {"id": 4918962, "name": "Chesterton", "state": "IN", "country": "US", "coord": {"lon": -87.064201, "lat": 41.610592}}, {"id": 4919021, "name": "Churubusco", "state": "IN", "country": "US", "coord": {"lon": -85.31942, "lat": 41.230598}}, {"id": 4919026, "name": "Cicero", "state": "IN", "country": "US", "coord": {"lon": -86.013321, "lat": 40.123932}}, {"id": 4919127, "name": "Clinton County", "state": "IN", "country": "US", "coord": {"lon": -86.510841, "lat": 40.27948}}, {"id": 4919203, "name": "Columbia City", "state": "IN", "country": "US", "coord": {"lon": -85.488312, "lat": 41.157269}}, {"id": 4919272, "name": "Converse", "state": "IN", "country": "US", "coord": {"lon": -85.873322, "lat": 40.577541}}, {"id": 4919277, "name": "Cook", "state": "IN", "country": "US", "coord": {"lon": -87.469757, "lat": 41.377258}}, {"id": 4919349, "name": "Covington", "state": "IN", "country": "US", "coord": {"lon": -87.394737, "lat": 40.141701}}, {"id": 4919381, "name": "Crawfordsville", "state": "IN", "country": "US", "coord": {"lon": -86.874451, "lat": 40.041149}}, {"id": 4919451, "name": "Crown Point", "state": "IN", "country": "US", "coord": {"lon": -87.365311, "lat": 41.416981}}, {"id": 4919466, "name": "Culver", "state": "IN", "country": "US", "coord": {"lon": -86.423058, "lat": 41.218929}}, {"id": 4919487, "name": "Dale", "state": "IN", "country": "US", "coord": {"lon": -86.400002, "lat": 40.016708}}, {"id": 4919490, "name": "Daleville", "state": "IN", "country": "US", "coord": {"lon": -85.558029, "lat": 40.121151}}, {"id": 4919553, "name": "Dayton", "state": "IN", "country": "US", "coord": {"lon": -86.768898, "lat": 40.374199}}, {"id": 4919555, "name": "DeMotte", "state": "IN", "country": "US", "coord": {"lon": -87.198639, "lat": 41.195042}}, {"id": 4919564, "name": "Decatur", "state": "IN", "country": "US", "coord": {"lon": -84.929131, "lat": 40.830601}}, {"id": 4919615, "name": "Delaware County", "state": "IN", "country": "US", "coord": {"lon": -85.38636, "lat": 40.193378}}, {"id": 4919624, "name": "Delphi", "state": "IN", "country": "US", "coord": {"lon": -86.675011, "lat": 40.58754}}, {"id": 4919627, "name": "Deming", "state": "IN", "country": "US", "coord": {"lon": -86.098602, "lat": 40.115311}}, {"id": 4919750, "name": "Drew", "state": "IN", "country": "US", "coord": {"lon": -85.386917, "lat": 40.218929}}, {"id": 4919797, "name": "Dunkirk", "state": "IN", "country": "US", "coord": {"lon": -86.393608, "lat": 40.756432}}, {"id": 4919798, "name": "Dunkirk", "state": "IN", "country": "US", "coord": {"lon": -85.209412, "lat": 40.37532}}, {"id": 4919820, "name": "Dyer", "state": "IN", "country": "US", "coord": {"lon": -87.521713, "lat": 41.494202}}, {"id": 4919826, "name": "Dunlap", "state": "IN", "country": "US", "coord": {"lon": -85.921661, "lat": 41.637829}}, {"id": 4919857, "name": "East Chicago", "state": "IN", "country": "US", "coord": {"lon": -87.454758, "lat": 41.639198}}, {"id": 4919907, "name": "Eaton", "state": "IN", "country": "US", "coord": {"lon": -85.3508, "lat": 40.340321}}, {"id": 4919937, "name": "Edgewood", "state": "IN", "country": "US", "coord": {"lon": -85.734138, "lat": 40.103371}}, {"id": 4919987, "name": "Elkhart", "state": "IN", "country": "US", "coord": {"lon": -85.976669, "lat": 41.681992}}, {"id": 4919988, "name": "Elkhart County", "state": "IN", "country": "US", "coord": {"lon": -85.834442, "lat": 41.582272}}, {"id": 4920041, "name": "Elwood", "state": "IN", "country": "US", "coord": {"lon": -85.841919, "lat": 40.276981}}, {"id": 4920153, "name": "Fairmount", "state": "IN", "country": "US", "coord": {"lon": -85.650528, "lat": 40.415321}}, {"id": 4920199, "name": "Farmland", "state": "IN", "country": "US", "coord": {"lon": -85.127472, "lat": 40.18782}}, {"id": 4920327, "name": "Fish Lake", "state": "IN", "country": "US", "coord": {"lon": -86.551964, "lat": 41.566711}}, {"id": 4920380, "name": "Flora", "state": "IN", "country": "US", "coord": {"lon": -86.524437, "lat": 40.54726}}, {"id": 4920423, "name": "Fort Wayne", "state": "IN", "country": "US", "coord": {"lon": -85.12886, "lat": 41.1306}}, {"id": 4920444, "name": "Fountain County", "state": "IN", "country": "US", "coord": {"lon": -87.262512, "lat": 40.113091}}, {"id": 4920452, "name": "Fowler", "state": "IN", "country": "US", "coord": {"lon": -87.320847, "lat": 40.616699}}, {"id": 4920473, "name": "Frankfort", "state": "IN", "country": "US", "coord": {"lon": -86.510841, "lat": 40.27948}}, {"id": 4920512, "name": "Fremont", "state": "IN", "country": "US", "coord": {"lon": -84.932739, "lat": 41.730881}}, {"id": 4920523, "name": "Frankton", "state": "IN", "country": "US", "coord": {"lon": -85.77887, "lat": 40.22282}}, {"id": 4920550, "name": "Fulton County", "state": "IN", "country": "US", "coord": {"lon": -86.215828, "lat": 41.064758}}, {"id": 4920577, "name": "Galveston", "state": "IN", "country": "US", "coord": {"lon": -86.190269, "lat": 40.57893}}, {"id": 4920600, "name": "Garrett", "state": "IN", "country": "US", "coord": {"lon": -85.135529, "lat": 41.349491}}, {"id": 4920607, "name": "Gary", "state": "IN", "country": "US", "coord": {"lon": -87.346428, "lat": 41.593369}}, {"id": 4920637, "name": "Gas City", "state": "IN", "country": "US", "coord": {"lon": -85.613029, "lat": 40.487259}}, {"id": 4920664, "name": "Geneva", "state": "IN", "country": "US", "coord": {"lon": -84.957191, "lat": 40.591991}}, {"id": 4920681, "name": "Georgetown", "state": "IN", "country": "US", "coord": {"lon": -86.50473, "lat": 40.740601}}, {"id": 4920683, "name": "Georgetown", "state": "IN", "country": "US", "coord": {"lon": -86.22834, "lat": 41.729488}}, {"id": 4920783, "name": "Goodland", "state": "IN", "country": "US", "coord": {"lon": -87.293633, "lat": 40.763371}}, {"id": 4920808, "name": "Goshen", "state": "IN", "country": "US", "coord": {"lon": -85.834442, "lat": 41.582272}}, {"id": 4920825, "name": "Grabill", "state": "IN", "country": "US", "coord": {"lon": -84.966911, "lat": 41.21088}}, {"id": 4920869, "name": "Granger", "state": "IN", "country": "US", "coord": {"lon": -86.125687, "lat": 41.748131}}, {"id": 4920875, "name": "Grant County", "state": "IN", "country": "US", "coord": {"lon": -85.659142, "lat": 40.558369}}, {"id": 4920961, "name": "Greentown", "state": "IN", "country": "US", "coord": {"lon": -85.966652, "lat": 40.478088}}, {"id": 4920986, "name": "Griffith", "state": "IN", "country": "US", "coord": {"lon": -87.423653, "lat": 41.52837}}, {"id": 4921034, "name": "Gulivoire Park", "state": "IN", "country": "US", "coord": {"lon": -86.245277, "lat": 41.61338}}, {"id": 4921083, "name": "Hamilton", "state": "IN", "country": "US", "coord": {"lon": -84.912743, "lat": 41.533661}}, {"id": 4921085, "name": "Hamilton County", "state": "IN", "country": "US", "coord": {"lon": -86.008598, "lat": 40.045589}}, {"id": 4921100, "name": "Hammond", "state": "IN", "country": "US", "coord": {"lon": -87.500038, "lat": 41.58337}}, {"id": 4921161, "name": "Harlan", "state": "IN", "country": "US", "coord": {"lon": -84.919693, "lat": 41.196159}}, {"id": 4921162, "name": "Harlansburg", "state": "IN", "country": "US", "coord": {"lon": -85.564423, "lat": 40.814491}}, {"id": 4921229, "name": "Hartford City", "state": "IN", "country": "US", "coord": {"lon": -85.369972, "lat": 40.451149}}, {"id": 4921298, "name": "Hebron", "state": "IN", "country": "US", "coord": {"lon": -87.20031, "lat": 41.318649}}, {"id": 4921402, "name": "Highland", "state": "IN", "country": "US", "coord": {"lon": -87.451981, "lat": 41.55365}}, {"id": 4921476, "name": "Hobart", "state": "IN", "country": "US", "coord": {"lon": -87.255043, "lat": 41.532261}}, {"id": 4921613, "name": "Hoover Park", "state": "IN", "country": "US", "coord": {"lon": -85.361076, "lat": 40.454208}}, {"id": 4921670, "name": "Howard County", "state": "IN", "country": "US", "coord": {"lon": -86.133598, "lat": 40.486431}}, {"id": 4921690, "name": "Hudson Lake", "state": "IN", "country": "US", "coord": {"lon": -86.534187, "lat": 41.71032}}, {"id": 4921722, "name": "Huntertown", "state": "IN", "country": "US", "coord": {"lon": -85.17247, "lat": 41.228378}}, {"id": 4921725, "name": "Huntington", "state": "IN", "country": "US", "coord": {"lon": -85.497482, "lat": 40.883099}}, {"id": 4921729, "name": "Huntington County", "state": "IN", "country": "US", "coord": {"lon": -85.497482, "lat": 40.883099}}, {"id": 4921815, "name": "Indian Heights", "state": "IN", "country": "US", "coord": {"lon": -86.125549, "lat": 40.427261}}, {"id": 4921868, "name": "Indiana", "state": "IN", "country": "US", "coord": {"lon": -86.250267, "lat": 40.00032}}, {"id": 4922007, "name": "Jasper County", "state": "IN", "country": "US", "coord": {"lon": -87.151413, "lat": 41.041431}}, {"id": 4922150, "name": "Jonesboro", "state": "IN", "country": "US", "coord": {"lon": -85.627747, "lat": 40.479759}}, {"id": 4922252, "name": "Kendallville", "state": "IN", "country": "US", "coord": {"lon": -85.264977, "lat": 41.441441}}, {"id": 4922267, "name": "Kentland", "state": "IN", "country": "US", "coord": {"lon": -87.445297, "lat": 40.770321}}, {"id": 4922297, "name": "Kiley", "state": "IN", "country": "US", "coord": {"lon": -85.68026, "lat": 40.527538}}, {"id": 4922329, "name": "Kingsford Heights", "state": "IN", "country": "US", "coord": {"lon": -86.691689, "lat": 41.480598}}, {"id": 4922360, "name": "Klondike", "state": "IN", "country": "US", "coord": {"lon": -86.962227, "lat": 40.467529}}, {"id": 4922388, "name": "Kokomo", "state": "IN", "country": "US", "coord": {"lon": -86.133598, "lat": 40.486431}}, {"id": 4922402, "name": "Koontz Lake", "state": "IN", "country": "US", "coord": {"lon": -86.485847, "lat": 41.418098}}, {"id": 4922408, "name": "Kosciusko County", "state": "IN", "country": "US", "coord": {"lon": -85.85305, "lat": 41.238098}}, {"id": 4922412, "name": "Kouts", "state": "IN", "country": "US", "coord": {"lon": -87.025864, "lat": 41.316711}}, {"id": 4922418, "name": "Knox", "state": "IN", "country": "US", "coord": {"lon": -86.625008, "lat": 41.295879}}, {"id": 4922458, "name": "LaGrange County", "state": "IN", "country": "US", "coord": {"lon": -85.416649, "lat": 41.64172}}, {"id": 4922459, "name": "LaPorte", "state": "IN", "country": "US", "coord": {"lon": -86.722519, "lat": 41.6106}}, {"id": 4922460, "name": "LaPorte County", "state": "IN", "country": "US", "coord": {"lon": -86.722519, "lat": 41.6106}}, {"id": 4922462, "name": "Lafayette", "state": "IN", "country": "US", "coord": {"lon": -86.87529, "lat": 40.416698}}, {"id": 4922472, "name": "Lagrange", "state": "IN", "country": "US", "coord": {"lon": -85.416649, "lat": 41.64172}}, {"id": 4922493, "name": "Lake County", "state": "IN", "country": "US", "coord": {"lon": -87.365311, "lat": 41.416981}}, {"id": 4922501, "name": "Lake Dalecarlia", "state": "IN", "country": "US", "coord": {"lon": -87.39476, "lat": 41.330872}}, {"id": 4922541, "name": "Lake Station", "state": "IN", "country": "US", "coord": {"lon": -87.238922, "lat": 41.575039}}, {"id": 4922562, "name": "Lakes of the Four Seasons", "state": "IN", "country": "US", "coord": {"lon": -87.213089, "lat": 41.41032}}, {"id": 4922624, "name": "Lapel", "state": "IN", "country": "US", "coord": {"lon": -85.848312, "lat": 40.068371}}, {"id": 4922673, "name": "Lebanon", "state": "IN", "country": "US", "coord": {"lon": -86.46917, "lat": 40.04837}}, {"id": 4922721, "name": "Leo-Cedarville", "state": "IN", "country": "US", "coord": {"lon": -85.01664, "lat": 41.212551}}, {"id": 4922776, "name": "Ligonier", "state": "IN", "country": "US", "coord": {"lon": -85.587479, "lat": 41.465881}}, {"id": 4922847, "name": "Linwood", "state": "IN", "country": "US", "coord": {"lon": -85.681641, "lat": 40.193649}}, {"id": 4922968, "name": "Logansport", "state": "IN", "country": "US", "coord": {"lon": -86.356667, "lat": 40.754478}}, {"id": 4922979, "name": "Long Beach", "state": "IN", "country": "US", "coord": {"lon": -86.856972, "lat": 41.73893}}, {"id": 4923041, "name": "Lowell", "state": "IN", "country": "US", "coord": {"lon": -87.420593, "lat": 41.29142}}, {"id": 4923096, "name": "Lynn", "state": "IN", "country": "US", "coord": {"lon": -84.93969, "lat": 40.04977}}, {"id": 4923124, "name": "Madison County", "state": "IN", "country": "US", "coord": {"lon": -85.681641, "lat": 40.193649}}, {"id": 4923210, "name": "Marion", "state": "IN", "country": "US", "coord": {"lon": -85.659142, "lat": 40.558369}}, {"id": 4923226, "name": "Markle", "state": "IN", "country": "US", "coord": {"lon": -85.338837, "lat": 40.824619}}, {"id": 4923252, "name": "Marshall County", "state": "IN", "country": "US", "coord": {"lon": -86.309731, "lat": 41.343658}}, {"id": 4923322, "name": "Maxinkuckee", "state": "IN", "country": "US", "coord": {"lon": -86.381393, "lat": 41.208382}}, {"id": 4923468, "name": "Mentone", "state": "IN", "country": "US", "coord": {"lon": -86.034721, "lat": 41.173382}}, {"id": 4923482, "name": "Merrillville", "state": "IN", "country": "US", "coord": {"lon": -87.332809, "lat": 41.482811}}, {"id": 4923517, "name": "Miami County", "state": "IN", "country": "US", "coord": {"lon": -86.068878, "lat": 40.753651}}, {"id": 4923531, "name": "Michigan City", "state": "IN", "country": "US", "coord": {"lon": -86.895027, "lat": 41.707539}}, {"id": 4923554, "name": "Middlebury", "state": "IN", "country": "US", "coord": {"lon": -85.7061, "lat": 41.675331}}, {"id": 4923559, "name": "Middletown", "state": "IN", "country": "US", "coord": {"lon": -85.537201, "lat": 40.05727}}, {"id": 4923570, "name": "Milford", "state": "IN", "country": "US", "coord": {"lon": -85.845551, "lat": 41.409771}}, {"id": 4923670, "name": "Mishawaka", "state": "IN", "country": "US", "coord": {"lon": -86.158623, "lat": 41.661991}}, {"id": 4923711, "name": "Monon", "state": "IN", "country": "US", "coord": {"lon": -86.878899, "lat": 40.867821}}, {"id": 4923735, "name": "Monroeville", "state": "IN", "country": "US", "coord": {"lon": -84.868301, "lat": 40.97477}}, {"id": 4923741, "name": "Montgomery County", "state": "IN", "country": "US", "coord": {"lon": -86.874451, "lat": 40.041149}}, {"id": 4923745, "name": "Monticello", "state": "IN", "country": "US", "coord": {"lon": -86.764732, "lat": 40.745319}}, {"id": 4923747, "name": "Montpelier", "state": "IN", "country": "US", "coord": {"lon": -85.277473, "lat": 40.553928}}, {"id": 4923796, "name": "Morocco", "state": "IN", "country": "US", "coord": {"lon": -87.453362, "lat": 40.946152}}, {"id": 4923914, "name": "Mount Vernon", "state": "IN", "country": "US", "coord": {"lon": -85.82415, "lat": 40.669491}}, {"id": 4923997, "name": "Mulberry", "state": "IN", "country": "US", "coord": {"lon": -86.665283, "lat": 40.344479}}, {"id": 4924006, "name": "Muncie", "state": "IN", "country": "US", "coord": {"lon": -85.38636, "lat": 40.193378}}, {"id": 4924014, "name": "Munster", "state": "IN", "country": "US", "coord": {"lon": -87.512543, "lat": 41.56448}}, {"id": 4924077, "name": "Nappanee", "state": "IN", "country": "US", "coord": {"lon": -86.001389, "lat": 41.442829}}, {"id": 4924093, "name": "New Carlisle", "state": "IN", "country": "US", "coord": {"lon": -86.50946, "lat": 41.700321}}, {"id": 4924095, "name": "New Chicago", "state": "IN", "country": "US", "coord": {"lon": -87.274483, "lat": 41.558369}}, {"id": 4924104, "name": "New Haven", "state": "IN", "country": "US", "coord": {"lon": -85.014412, "lat": 41.070599}}, {"id": 4924135, "name": "New Paris", "state": "IN", "country": "US", "coord": {"lon": -85.828049, "lat": 41.500332}}, {"id": 4924144, "name": "New Richmond", "state": "IN", "country": "US", "coord": {"lon": -86.978897, "lat": 40.195591}}, {"id": 4924187, "name": "Nine Mile", "state": "IN", "country": "US", "coord": {"lon": -85.224968, "lat": 40.975052}}, {"id": 4924192, "name": "Noble County", "state": "IN", "country": "US", "coord": {"lon": -85.424423, "lat": 41.395599}}, {"id": 4924198, "name": "Noblesville", "state": "IN", "country": "US", "coord": {"lon": -86.008598, "lat": 40.045589}}, {"id": 4924242, "name": "North Judson", "state": "IN", "country": "US", "coord": {"lon": -86.775848, "lat": 41.215038}}, {"id": 4924243, "name": "North Liberty", "state": "IN", "country": "US", "coord": {"lon": -86.427231, "lat": 41.53421}}, {"id": 4924246, "name": "North Manchester", "state": "IN", "country": "US", "coord": {"lon": -85.7686, "lat": 41.000599}}, {"id": 4924273, "name": "North Webster", "state": "IN", "country": "US", "coord": {"lon": -85.697762, "lat": 41.3256}}, {"id": 4924412, "name": "Ogden Dunes", "state": "IN", "country": "US", "coord": {"lon": -87.191704, "lat": 41.62281}}, {"id": 4924493, "name": "Ontario", "state": "IN", "country": "US", "coord": {"lon": -85.382477, "lat": 41.702271}}, {"id": 4924538, "name": "Osceola", "state": "IN", "country": "US", "coord": {"lon": -86.075844, "lat": 41.665051}}, {"id": 4924543, "name": "Ossian", "state": "IN", "country": "US", "coord": {"lon": -85.166359, "lat": 40.8806}}, {"id": 4924578, "name": "Otterbein", "state": "IN", "country": "US", "coord": {"lon": -87.096397, "lat": 40.490589}}, {"id": 4924593, "name": "Oxford", "state": "IN", "country": "US", "coord": {"lon": -87.247787, "lat": 40.51976}}, {"id": 4924636, "name": "Parker City", "state": "IN", "country": "US", "coord": {"lon": -85.20414, "lat": 40.188931}}, {"id": 4924733, "name": "Peru", "state": "IN", "country": "US", "coord": {"lon": -86.068878, "lat": 40.753651}}, {"id": 4924780, "name": "Pierceton", "state": "IN", "country": "US", "coord": {"lon": -85.705544, "lat": 41.200321}}, {"id": 4924970, "name": "Plymouth", "state": "IN", "country": "US", "coord": {"lon": -86.309731, "lat": 41.343658}}, {"id": 4925001, "name": "Port Mitchell", "state": "IN", "country": "US", "coord": {"lon": -85.438873, "lat": 41.361992}}, {"id": 4925006, "name": "Portage", "state": "IN", "country": "US", "coord": {"lon": -87.176147, "lat": 41.575871}}, {"id": 4925015, "name": "Porter", "state": "IN", "country": "US", "coord": {"lon": -87.074203, "lat": 41.615589}}, {"id": 4925020, "name": "Porter County", "state": "IN", "country": "US", "coord": {"lon": -87.061142, "lat": 41.473091}}, {"id": 4925037, "name": "Portland", "state": "IN", "country": "US", "coord": {"lon": -84.977753, "lat": 40.43449}}, {"id": 4925265, "name": "Redkey", "state": "IN", "country": "US", "coord": {"lon": -85.149971, "lat": 40.34893}}, {"id": 4925304, "name": "Remington", "state": "IN", "country": "US", "coord": {"lon": -87.150848, "lat": 40.760872}}, {"id": 4925311, "name": "Rensselaer", "state": "IN", "country": "US", "coord": {"lon": -87.150864, "lat": 40.936699}}, {"id": 4925483, "name": "Roanoke", "state": "IN", "country": "US", "coord": {"lon": -85.373306, "lat": 40.962551}}, {"id": 4925519, "name": "Rochester", "state": "IN", "country": "US", "coord": {"lon": -86.215828, "lat": 41.064758}}, {"id": 4925561, "name": "Rome City", "state": "IN", "country": "US", "coord": {"lon": -85.376648, "lat": 41.496159}}, {"id": 4925591, "name": "Roselawn", "state": "IN", "country": "US", "coord": {"lon": -87.314751, "lat": 41.141701}}, {"id": 4925610, "name": "Rossville", "state": "IN", "country": "US", "coord": {"lon": -86.594719, "lat": 40.416981}}, {"id": 4925646, "name": "Royal Center", "state": "IN", "country": "US", "coord": {"lon": -86.499733, "lat": 40.864479}}, {"id": 4925674, "name": "Russiaville", "state": "IN", "country": "US", "coord": {"lon": -86.271378, "lat": 40.417542}}, {"id": 4925793, "name": "Saint John", "state": "IN", "country": "US", "coord": {"lon": -87.470039, "lat": 41.450039}}, {"id": 4925848, "name": "Saint Joseph County", "state": "IN", "country": "US", "coord": {"lon": -86.235008, "lat": 41.673939}}, {"id": 4926170, "name": "Schererville", "state": "IN", "country": "US", "coord": {"lon": -87.454758, "lat": 41.47892}}, {"id": 4926280, "name": "Shadeland", "state": "IN", "country": "US", "coord": {"lon": -86.948898, "lat": 40.37365}}, {"id": 4926367, "name": "Sheridan", "state": "IN", "country": "US", "coord": {"lon": -86.220551, "lat": 40.13504}}, {"id": 4926449, "name": "Simonton Lake", "state": "IN", "country": "US", "coord": {"lon": -85.974998, "lat": 41.754219}}, {"id": 4926474, "name": "Sloan", "state": "IN", "country": "US", "coord": {"lon": -87.476128, "lat": 40.301979}}, {"id": 4926563, "name": "South Bend", "state": "IN", "country": "US", "coord": {"lon": -86.250008, "lat": 41.68338}}, {"id": 4926613, "name": "South Haven", "state": "IN", "country": "US", "coord": {"lon": -87.13726, "lat": 41.541981}}, {"id": 4926629, "name": "South Whitley", "state": "IN", "country": "US", "coord": {"lon": -85.628036, "lat": 41.08477}}, {"id": 4926796, "name": "Steuben County", "state": "IN", "country": "US", "coord": {"lon": -84.999413, "lat": 41.634769}}, {"id": 4926802, "name": "Steubenville", "state": "IN", "country": "US", "coord": {"lon": -85.022743, "lat": 41.532269}}, {"id": 4926956, "name": "Summit", "state": "IN", "country": "US", "coord": {"lon": -86.929176, "lat": 40.416698}}, {"id": 4927017, "name": "Sweetser", "state": "IN", "country": "US", "coord": {"lon": -85.76915, "lat": 40.57198}}, {"id": 4927042, "name": "Syracuse", "state": "IN", "country": "US", "coord": {"lon": -85.752487, "lat": 41.42783}}, {"id": 4927129, "name": "Terre Coupee", "state": "IN", "country": "US", "coord": {"lon": -86.477242, "lat": 41.702271}}, {"id": 4927194, "name": "Thorntown", "state": "IN", "country": "US", "coord": {"lon": -86.606667, "lat": 40.129478}}, {"id": 4927230, "name": "Tippecanoe County", "state": "IN", "country": "US", "coord": {"lon": -86.890556, "lat": 40.417259}}, {"id": 4927242, "name": "Tipton", "state": "IN", "country": "US", "coord": {"lon": -86.0411, "lat": 40.282261}}, {"id": 4927264, "name": "Topeka", "state": "IN", "country": "US", "coord": {"lon": -85.539711, "lat": 41.539219}}, {"id": 4927291, "name": "Trail Creek", "state": "IN", "country": "US", "coord": {"lon": -86.8592, "lat": 41.698372}}, {"id": 4927309, "name": "Tri-Lakes", "state": "IN", "country": "US", "coord": {"lon": -85.441917, "lat": 41.24588}}, {"id": 4927449, "name": "Union City", "state": "IN", "country": "US", "coord": {"lon": -84.809128, "lat": 40.201988}}, {"id": 4927510, "name": "Upland", "state": "IN", "country": "US", "coord": {"lon": -85.494423, "lat": 40.475601}}, {"id": 4927537, "name": "Valparaiso", "state": "IN", "country": "US", "coord": {"lon": -87.061142, "lat": 41.473091}}, {"id": 4927580, "name": "Veedersburg", "state": "IN", "country": "US", "coord": {"lon": -87.262512, "lat": 40.113091}}, {"id": 4927589, "name": "Vermont", "state": "IN", "country": "US", "coord": {"lon": -86.031929, "lat": 40.49921}}, {"id": 4927746, "name": "Wabash", "state": "IN", "country": "US", "coord": {"lon": -85.820541, "lat": 40.797821}}, {"id": 4927773, "name": "Wakarusa", "state": "IN", "country": "US", "coord": {"lon": -86.020828, "lat": 41.53616}}, {"id": 4927788, "name": "Walkerton", "state": "IN", "country": "US", "coord": {"lon": -86.48307, "lat": 41.466709}}, {"id": 4927827, "name": "Walton", "state": "IN", "country": "US", "coord": {"lon": -86.241943, "lat": 40.66087}}, {"id": 4927832, "name": "Wanatah", "state": "IN", "country": "US", "coord": {"lon": -86.898361, "lat": 41.430599}}, {"id": 4927844, "name": "Warren", "state": "IN", "country": "US", "coord": {"lon": -85.4272, "lat": 40.682819}}, {"id": 4927846, "name": "Warren County", "state": "IN", "country": "US", "coord": {"lon": -87.2939, "lat": 40.288368}}, {"id": 4927854, "name": "Warsaw", "state": "IN", "country": "US", "coord": {"lon": -85.85305, "lat": 41.238098}}, {"id": 4927928, "name": "Waterloo", "state": "IN", "country": "US", "coord": {"lon": -85.019974, "lat": 41.431992}}, {"id": 4927970, "name": "Waterford Mills", "state": "IN", "country": "US", "coord": {"lon": -85.830551, "lat": 41.543098}}, {"id": 4928084, "name": "West Middleton", "state": "IN", "country": "US", "coord": {"lon": -86.21611, "lat": 40.43948}}, {"id": 4928096, "name": "West Lafayette", "state": "IN", "country": "US", "coord": {"lon": -86.908073, "lat": 40.425869}}, {"id": 4928118, "name": "Westfield", "state": "IN", "country": "US", "coord": {"lon": -86.127487, "lat": 40.04282}}, {"id": 4928137, "name": "Westpoint", "state": "IN", "country": "US", "coord": {"lon": -87.043068, "lat": 40.345039}}, {"id": 4928145, "name": "Westville", "state": "IN", "country": "US", "coord": {"lon": -86.900581, "lat": 41.541431}}, {"id": 4928208, "name": "Whiting", "state": "IN", "country": "US", "coord": {"lon": -87.494492, "lat": 41.67976}}, {"id": 4928215, "name": "Whitley County", "state": "IN", "country": "US", "coord": {"lon": -85.488312, "lat": 41.157269}}, {"id": 4928274, "name": "Williamsport", "state": "IN", "country": "US", "coord": {"lon": -87.2939, "lat": 40.288368}}, {"id": 4928313, "name": "Winamac", "state": "IN", "country": "US", "coord": {"lon": -86.603058, "lat": 41.05143}}, {"id": 4928318, "name": "Winchester", "state": "IN", "country": "US", "coord": {"lon": -84.981354, "lat": 40.171989}}, {"id": 4928337, "name": "Winona Lake", "state": "IN", "country": "US", "coord": {"lon": -85.82193, "lat": 41.227268}}, {"id": 4928354, "name": "Winfield", "state": "IN", "country": "US", "coord": {"lon": -87.275307, "lat": 41.405312}}, {"id": 4928360, "name": "Wolcott", "state": "IN", "country": "US", "coord": {"lon": -87.041679, "lat": 40.758091}}, {"id": 4928386, "name": "Woodburn", "state": "IN", "country": "US", "coord": {"lon": -84.853302, "lat": 41.125332}}, {"id": 4928492, "name": "Yorktown", "state": "IN", "country": "US", "coord": {"lon": -85.494141, "lat": 40.173649}}, {"id": 4928662, "name": "Abington", "state": "MA", "country": "US", "coord": {"lon": -70.94532, "lat": 42.10482}}, {"id": 4928703, "name": "Acton", "state": "MA", "country": "US", "coord": {"lon": -71.432838, "lat": 42.485088}}, {"id": 4928720, "name": "Acushnet", "state": "MA", "country": "US", "coord": {"lon": -70.907822, "lat": 41.68066}}, {"id": 4928733, "name": "Adams", "state": "MA", "country": "US", "coord": {"lon": -73.117599, "lat": 42.624249}}, {"id": 4928788, "name": "Agawam", "state": "MA", "country": "US", "coord": {"lon": -72.614807, "lat": 42.069538}}, {"id": 4929004, "name": "Amesbury", "state": "MA", "country": "US", "coord": {"lon": -70.930054, "lat": 42.858421}}, {"id": 4929023, "name": "Amherst Center", "state": "MA", "country": "US", "coord": {"lon": -72.519249, "lat": 42.37537}}, {"id": 4929055, "name": "Andover", "state": "MA", "country": "US", "coord": {"lon": -71.137001, "lat": 42.658428}}, {"id": 4929180, "name": "Arlington", "state": "MA", "country": "US", "coord": {"lon": -71.156441, "lat": 42.415371}}, {"id": 4929256, "name": "Ashburnham", "state": "MA", "country": "US", "coord": {"lon": -71.907852, "lat": 42.6362}}, {"id": 4929262, "name": "Ashby", "state": "MA", "country": "US", "coord": {"lon": -71.820351, "lat": 42.677872}}, {"id": 4929276, "name": "Ashfield", "state": "MA", "country": "US", "coord": {"lon": -72.788429, "lat": 42.52647}}, {"id": 4929283, "name": "Ashland", "state": "MA", "country": "US", "coord": {"lon": -71.463402, "lat": 42.261211}}, {"id": 4929354, "name": "Assinippi", "state": "MA", "country": "US", "coord": {"lon": -70.850883, "lat": 42.158428}}, {"id": 4929376, "name": "Athol", "state": "MA", "country": "US", "coord": {"lon": -72.226753, "lat": 42.595921}}, {"id": 4929399, "name": "Attleboro", "state": "MA", "country": "US", "coord": {"lon": -71.285606, "lat": 41.944538}}, {"id": 4929417, "name": "Auburn", "state": "MA", "country": "US", "coord": {"lon": -71.835632, "lat": 42.194538}}, {"id": 4929476, "name": "Avon", "state": "MA", "country": "US", "coord": {"lon": -71.041161, "lat": 42.130661}}]