[{"id": 248946, "name": "Irbid", "state": "", "country": "JO", "coord": {"lon": 35.849998, "lat": 32.555561}}, {"id": 249184, "name": "\u1e28\u0101tim", "state": "", "country": "JO", "coord": {"lon": 35.777222, "lat": 32.645191}}, {"id": 249310, "name": "\u1e28al\u0101wah", "state": "", "country": "JO", "coord": {"lon": 35.661469, "lat": 32.38464}}, {"id": 249318, "name": "\u1e28akam\u0101", "state": "", "country": "JO", "coord": {"lon": 35.884109, "lat": 32.594452}}, {"id": 249676, "name": "Dayr Y\u016bsuf", "state": "", "country": "JO", "coord": {"lon": 35.798729, "lat": 32.491161}}, {"id": 249842, "name": "Bu\u015fayr\u0101", "state": "", "country": "JO", "coord": {"lon": 35.60775, "lat": 30.7376}}, {"id": 249849, "name": "Burm\u0101", "state": "", "country": "JO", "coord": {"lon": 35.783939, "lat": 32.219898}}, {"id": 249930, "name": "Bayt Y\u0101f\u0101", "state": "", "country": "JO", "coord": {"lon": 35.7883, "lat": 32.517368}}, {"id": 249933, "name": "Bayt \u012adis", "state": "", "country": "JO", "coord": {"lon": 35.69836, "lat": 32.437599}}, {"id": 250052, "name": "Bal\u012bl\u0101", "state": "", "country": "JO", "coord": {"lon": 35.935051, "lat": 32.388062}}, {"id": 250085, "name": "Az Zubayd\u012byah", "state": "", "country": "JO", "coord": {"lon": 36.295952, "lat": 32.378719}}, {"id": 250090, "name": "Zarqa", "state": "", "country": "JO", "coord": {"lon": 36.087959, "lat": 32.07275}}, {"id": 250092, "name": "Mu\u1e29\u0101faz\u0327at az Zarq\u0101\u2019", "state": "", "country": "JO", "coord": {"lon": 36.833328, "lat": 31.83333}}, {"id": 250106, "name": "\u2018Ayy", "state": "", "country": "JO", "coord": {"lon": 35.640831, "lat": 31.133329}}, {"id": 250124, "name": "\u2018Ayn Jannah", "state": "", "country": "JO", "coord": {"lon": 35.76189, "lat": 32.335289}}, {"id": 250152, "name": "Ayd\u016bn", "state": "", "country": "JO", "coord": {"lon": 35.857498, "lat": 32.507221}}, {"id": 250179, "name": "A\u0163 \u0162urrah", "state": "", "country": "JO", "coord": {"lon": 35.99194, "lat": 32.641392}}, {"id": 250186, "name": "A\u0163 \u0162ayyibah", "state": "", "country": "JO", "coord": {"lon": 35.716942, "lat": 32.541672}}, {"id": 250187, "name": "Al Khinz\u012brah", "state": "", "country": "JO", "coord": {"lon": 35.601681, "lat": 31.056721}}, {"id": 250188, "name": "A\u0163 \u0162ayyibah", "state": "", "country": "JO", "coord": {"lon": 35.459969, "lat": 30.256611}}, {"id": 250198, "name": "A\u0163 \u0162af\u012blah", "state": "", "country": "JO", "coord": {"lon": 35.60442, "lat": 30.837521}}, {"id": 250199, "name": "Mu\u1e29\u0101faz\u0327at a\u0163 \u0162af\u012blah", "state": "", "country": "JO", "coord": {"lon": 35.583328, "lat": 30.75}}, {"id": 250258, "name": "As Sal\u0163", "state": "", "country": "JO", "coord": {"lon": 35.727219, "lat": 32.039169}}, {"id": 250294, "name": "Ash Shajarah", "state": "", "country": "JO", "coord": {"lon": 35.940971, "lat": 32.644562}}, {"id": 250303, "name": "Isf\u012br al Ma\u1e29a\u1e6d\u1e6dah", "state": "", "country": "JO", "coord": {"lon": 35.762859, "lat": 30.179291}}, {"id": 250336, "name": "Ar Ramth\u0101", "state": "", "country": "JO", "coord": {"lon": 36.006939, "lat": 32.55917}}, {"id": 250345, "name": "Ar Rabbah", "state": "", "country": "JO", "coord": {"lon": 35.738289, "lat": 31.26923}}, {"id": 250420, "name": "\u2018Anjarah", "state": "", "country": "JO", "coord": {"lon": 35.756531, "lat": 32.306301}}, {"id": 250439, "name": "Amman Governorate", "state": "", "country": "JO", "coord": {"lon": 36.333351, "lat": 31.583691}}, {"id": 250441, "name": "Amman", "state": "", "country": "JO", "coord": {"lon": 35.94503, "lat": 31.955219}}, {"id": 250461, "name": "\u1e28ayy al Quwaysimah", "state": "", "country": "JO", "coord": {"lon": 35.950001, "lat": 31.9167}}, {"id": 250462, "name": "Al Quwayrah", "state": "", "country": "JO", "coord": {"lon": 35.3116, "lat": 29.800449}}, {"id": 250487, "name": "Al Qa\u015fr", "state": "", "country": "JO", "coord": {"lon": 35.744999, "lat": 31.31444}}, {"id": 250540, "name": "Al Maz\u0101r al Jan\u016bb\u012b", "state": "", "country": "JO", "coord": {"lon": 35.69611, "lat": 31.065559}}, {"id": 250582, "name": "Mafraq", "state": "", "country": "JO", "coord": {"lon": 36.208038, "lat": 32.342892}}, {"id": 250583, "name": "Al Mafraq", "state": "", "country": "JO", "coord": {"lon": 37.916672, "lat": 32.333328}}, {"id": 250603, "name": "Al Kittah", "state": "", "country": "JO", "coord": {"lon": 35.841141, "lat": 32.276852}}, {"id": 250623, "name": "Al Kar\u0101mah", "state": "", "country": "JO", "coord": {"lon": 35.57917, "lat": 31.952221}}, {"id": 250624, "name": "Q\u012br Mo\u0101v", "state": "", "country": "JO", "coord": {"lon": 35.699989, "lat": 31.18248}}, {"id": 250625, "name": "Al Karak", "state": "", "country": "JO", "coord": {"lon": 35.75, "lat": 31.16667}}, {"id": 250637, "name": "Al Jubayhah", "state": "", "country": "JO", "coord": {"lon": 35.864578, "lat": 32.02581}}, {"id": 250639, "name": "Al J\u012bzah", "state": "", "country": "JO", "coord": {"lon": 35.957211, "lat": 31.69968}}, {"id": 250649, "name": "Al Jafr", "state": "", "country": "JO", "coord": {"lon": 36.212151, "lat": 30.294559}}, {"id": 250697, "name": "Al \u1e28amr\u0101\u2019", "state": "", "country": "JO", "coord": {"lon": 36.151211, "lat": 32.440609}}, {"id": 250738, "name": "\u1e28ayy al Bunayy\u0101t", "state": "", "country": "JO", "coord": {"lon": 35.893139, "lat": 31.89299}}, {"id": 250751, "name": "Mu\u1e29\u0101faz\u0327at al Balq\u0101\u2019", "state": "", "country": "JO", "coord": {"lon": 35.666672, "lat": 32}}, {"id": 250774, "name": "Aqaba", "state": "", "country": "JO", "coord": {"lon": 35.007778, "lat": 29.52667}}, {"id": 250799, "name": "\u2018Ajl\u016bn", "state": "", "country": "JO", "coord": {"lon": 35.75238, "lat": 32.333851}}, {"id": 250821, "name": "Adir", "state": "", "country": "JO", "coord": {"lon": 35.761551, "lat": 31.202169}}, {"id": 251187, "name": "Zonian\u00e1", "state": "", "country": "GR", "coord": {"lon": 24.829439, "lat": 35.295021}}, {"id": 251250, "name": "Zar\u00f3s", "state": "", "country": "GR", "coord": {"lon": 24.904631, "lat": 35.13163}}, {"id": 251253, "name": "Z\u00e1rkos", "state": "", "country": "GR", "coord": {"lon": 22.133329, "lat": 39.616669}}, {"id": 251276, "name": "Nom\u00f3s Zak\u00fdnthou", "state": "", "country": "GR", "coord": {"lon": 20.75, "lat": 37.75}}, {"id": 251280, "name": "Zakynthos", "state": "", "country": "GR", "coord": {"lon": 20.895281, "lat": 37.791389}}, {"id": 251283, "name": "Zach\u00e1ro", "state": "", "country": "GR", "coord": {"lon": 21.65, "lat": 37.48333}}, {"id": 251292, "name": "Zagor\u00e1", "state": "", "country": "GR", "coord": {"lon": 23.1, "lat": 39.450001}}, {"id": 251297, "name": "G\u00fdtheio", "state": "", "country": "GR", "coord": {"lon": 22.564171, "lat": 36.755001}}, {"id": 251317, "name": "Yimn\u00f3n", "state": "", "country": "GR", "coord": {"lon": 23.883329, "lat": 38.433331}}, {"id": 251332, "name": "Gi\u00e1nnouli", "state": "", "country": "GR", "coord": {"lon": 22.383329, "lat": 39.666672}}, {"id": 251366, "name": "G\u00e9rgeri", "state": "", "country": "GR", "coord": {"lon": 24.950001, "lat": 35.133331}}, {"id": 251411, "name": "Ger\u00e1ki", "state": "", "country": "GR", "coord": {"lon": 22.700001, "lat": 37}}, {"id": 251465, "name": "G\u00e9fyra", "state": "", "country": "GR", "coord": {"lon": 23.036421, "lat": 36.686901}}, {"id": 251525, "name": "Xyl\u00f3kastro", "state": "", "country": "GR", "coord": {"lon": 22.63166, "lat": 38.077621}}, {"id": 251606, "name": "Vront\u00e1dos", "state": "", "country": "GR", "coord": {"lon": 26.13278, "lat": 38.40889}}, {"id": 251667, "name": "Vravrona", "state": "", "country": "GR", "coord": {"lon": 24.01259, "lat": 37.920158}}, {"id": 251681, "name": "Vrachna\u00edika", "state": "", "country": "GR", "coord": {"lon": 21.66667, "lat": 38.166672}}, {"id": 251685, "name": "Vrakh\u00e1ti", "state": "", "country": "GR", "coord": {"lon": 22.805731, "lat": 37.95895}}, {"id": 251773, "name": "Vouliagm\u00e9ni", "state": "", "country": "GR", "coord": {"lon": 23.783331, "lat": 37.816669}}, {"id": 251780, "name": "Vo\u00fala", "state": "", "country": "GR", "coord": {"lon": 23.77651, "lat": 37.842209}}, {"id": 251823, "name": "V\u00f3nitsa", "state": "", "country": "GR", "coord": {"lon": 20.886391, "lat": 38.916389}}, {"id": 251833, "name": "Volos", "state": "", "country": "GR", "coord": {"lon": 22.945829, "lat": 39.366669}}, {"id": 251851, "name": "Nom\u00f3s Voiot\u00edas", "state": "", "country": "GR", "coord": {"lon": 23, "lat": 38.333328}}, {"id": 251888, "name": "Vlach\u00f3poulo", "state": "", "country": "GR", "coord": {"lon": 21.783331, "lat": 37.033329}}, {"id": 251896, "name": "Vlachi\u00f3tis", "state": "", "country": "GR", "coord": {"lon": 22.700001, "lat": 36.866669}}, {"id": 251948, "name": "V\u00fdronas", "state": "", "country": "GR", "coord": {"lon": 23.75, "lat": 37.966671}}, {"id": 251959, "name": "V\u00edlia", "state": "", "country": "GR", "coord": {"lon": 23.33333, "lat": 38.166672}}, {"id": 252030, "name": "Verdiko\u00fassa", "state": "", "country": "GR", "coord": {"lon": 21.972219, "lat": 39.780281}}, {"id": 252062, "name": "V\u00e9lo", "state": "", "country": "GR", "coord": {"lon": 22.76667, "lat": 37.966671}}, {"id": 252074, "name": "Velest\u00edno", "state": "", "country": "GR", "coord": {"lon": 22.75, "lat": 39.383331}}, {"id": 252101, "name": "V\u00e1gia", "state": "", "country": "GR", "coord": {"lon": 23.183331, "lat": 38.316669}}, {"id": 252164, "name": "Vath\u00ed", "state": "", "country": "GR", "coord": {"lon": 23.6, "lat": 38.400002}}, {"id": 252165, "name": "Vath\u00fd", "state": "", "country": "GR", "coord": {"lon": 23.481199, "lat": 37.765671}}, {"id": 252166, "name": "Vath\u00fd", "state": "", "country": "GR", "coord": {"lon": 26.98333, "lat": 37.75}}, {"id": 252190, "name": "Vasilik\u00f3n", "state": "", "country": "GR", "coord": {"lon": 23.66667, "lat": 38.433331}}, {"id": 252200, "name": "Vasilik\u00ed", "state": "", "country": "GR", "coord": {"lon": 21.70472, "lat": 39.638889}}, {"id": 252232, "name": "Varv\u00e1saina", "state": "", "country": "GR", "coord": {"lon": 21.5, "lat": 37.683331}}, {"id": 252239, "name": "Vartholomi\u00f3", "state": "", "country": "GR", "coord": {"lon": 21.200001, "lat": 37.866669}}, {"id": 252244, "name": "Varn\u00e1vas", "state": "", "country": "GR", "coord": {"lon": 23.91667, "lat": 38.216671}}, {"id": 252267, "name": "Varei\u00e1", "state": "", "country": "GR", "coord": {"lon": 26.566669, "lat": 39.083328}}, {"id": 252270, "name": "V\u00e1ri", "state": "", "country": "GR", "coord": {"lon": 23.80809, "lat": 37.8312}}, {"id": 252271, "name": "V\u00e1ri", "state": "", "country": "GR", "coord": {"lon": 24.950001, "lat": 37.400002}}, {"id": 252291, "name": "V\u00e1rda", "state": "", "country": "GR", "coord": {"lon": 21.366671, "lat": 38.033329}}, {"id": 252303, "name": "Vamvako\u00fa", "state": "", "country": "GR", "coord": {"lon": 22.41667, "lat": 39.333328}}, {"id": 252327, "name": "Valsam\u00e1ta", "state": "", "country": "GR", "coord": {"lon": 20.6, "lat": 38.166672}}, {"id": 252486, "name": "Tsikalari\u00e1", "state": "", "country": "GR", "coord": {"lon": 24.066669, "lat": 35.48333}}, {"id": 252523, "name": "Tsar\u00edtsani", "state": "", "country": "GR", "coord": {"lon": 22.23333, "lat": 39.883331}}, {"id": 252601, "name": "Tr\u00edpoli", "state": "", "country": "GR", "coord": {"lon": 22.37944, "lat": 37.508888}}, {"id": 252626, "name": "Triovas\u00e1los", "state": "", "country": "GR", "coord": {"lon": 24.433331, "lat": 36.75}}, {"id": 252655, "name": "Tr\u00edkeri", "state": "", "country": "GR", "coord": {"lon": 23.08333, "lat": 39.099998}}, {"id": 252661, "name": "Trikala", "state": "", "country": "GR", "coord": {"lon": 21.5, "lat": 39.666672}}, {"id": 252664, "name": "Tr\u00edkala", "state": "", "country": "GR", "coord": {"lon": 21.7675, "lat": 39.555279}}, {"id": 252685, "name": "Ialys\u00f3s", "state": "", "country": "GR", "coord": {"lon": 28.16552, "lat": 36.410431}}, {"id": 252747, "name": "Tragan\u00f3n", "state": "", "country": "GR", "coord": {"lon": 21.31245, "lat": 37.897888}}, {"id": 252750, "name": "Trag\u00e1na", "state": "", "country": "GR", "coord": {"lon": 23.116671, "lat": 38.616669}}, {"id": 252833, "name": "Tol\u00f3n", "state": "", "country": "GR", "coord": {"lon": 22.858601, "lat": 37.52021}}, {"id": 252848, "name": "T\u00fdrnavos", "state": "", "country": "GR", "coord": {"lon": 22.289169, "lat": 39.737782}}, {"id": 252854, "name": "T\u00ednos", "state": "", "country": "GR", "coord": {"lon": 25.163429, "lat": 37.537529}}, {"id": 252862, "name": "Tymp\u00e1ki", "state": "", "country": "GR", "coord": {"lon": 24.768511, "lat": 35.072861}}, {"id": 252864, "name": "T\u00edlisos", "state": "", "country": "GR", "coord": {"lon": 25.015869, "lat": 35.29607}}, {"id": 252889, "name": "Thrapsan\u00f3n", "state": "", "country": "GR", "coord": {"lon": 25.28091, "lat": 35.187981}}, {"id": 252891, "name": "Thour\u00eda", "state": "", "country": "GR", "coord": {"lon": 22.049999, "lat": 37.083328}}, {"id": 252910, "name": "Th\u00edvai", "state": "", "country": "GR", "coord": {"lon": 23.31889, "lat": 38.325001}}, {"id": 252920, "name": "Fir\u00e1", "state": "", "country": "GR", "coord": {"lon": 25.43087, "lat": 36.42107}}, {"id": 252927, "name": "Thymian\u00e1", "state": "", "country": "GR", "coord": {"lon": 26.13361, "lat": 38.314999}}, {"id": 252939, "name": "Thesprotik\u00f3", "state": "", "country": "GR", "coord": {"lon": 20.784719, "lat": 39.25}}, {"id": 252941, "name": "Nom\u00f3s Thesprot\u00edas", "state": "", "country": "GR", "coord": {"lon": 20.33333, "lat": 39.5}}, {"id": 252942, "name": "Thespi\u00e9s", "state": "", "country": "GR", "coord": {"lon": 23.15, "lat": 38.299999}}, {"id": 252946, "name": "Th\u00e9rmo", "state": "", "country": "GR", "coord": {"lon": 21.66667, "lat": 38.583328}}, {"id": 252952, "name": "Th\u00e9rissos", "state": "", "country": "GR", "coord": {"lon": 25.116671, "lat": 35.333328}}, {"id": 252989, "name": "Terpsith\u00e9a", "state": "", "country": "GR", "coord": {"lon": 22.366671, "lat": 39.616669}}, {"id": 253003, "name": "T\u00e9meni", "state": "", "country": "GR", "coord": {"lon": 22.116671, "lat": 38.23333}}, {"id": 253045, "name": "Tan\u00e1gra", "state": "", "country": "GR", "coord": {"lon": 23.533331, "lat": 38.316669}}, {"id": 253075, "name": "Strov\u00edki", "state": "", "country": "GR", "coord": {"lon": 23.1, "lat": 38.48333}}, {"id": 253130, "name": "Str\u00e1tos", "state": "", "country": "GR", "coord": {"lon": 21.316669, "lat": 38.666672}}, {"id": 253158, "name": "Ste\u00edri", "state": "", "country": "GR", "coord": {"lon": 22.716669, "lat": 38.400002}}, {"id": 253164, "name": "St\u00fdpsi", "state": "", "country": "GR", "coord": {"lon": 26.219721, "lat": 39.311668}}, {"id": 253170, "name": "Styl\u00edda", "state": "", "country": "GR", "coord": {"lon": 22.616671, "lat": 38.916672}}, {"id": 253218, "name": "Stefanov\u00edkeio", "state": "", "country": "GR", "coord": {"lon": 22.73333, "lat": 39.466671}}, {"id": 253286, "name": "St\u00e1nos", "state": "", "country": "GR", "coord": {"lon": 21.16667, "lat": 38.799999}}, {"id": 253302, "name": "Stam\u00e1ta", "state": "", "country": "GR", "coord": {"lon": 23.883329, "lat": 38.133331}}, {"id": 253305, "name": "Stal\u00eds", "state": "", "country": "GR", "coord": {"lon": 25.43292, "lat": 35.292568}}, {"id": 253343, "name": "L\u00e1ssi", "state": "", "country": "GR", "coord": {"lon": 20.48333, "lat": 38.166672}}, {"id": 253356, "name": "Sp\u00e9tses", "state": "", "country": "GR", "coord": {"lon": 23.15943, "lat": 37.261909}}, {"id": 253357, "name": "Sperch\u00f3geia", "state": "", "country": "GR", "coord": {"lon": 22.066669, "lat": 37.066669}}, {"id": 253360, "name": "Sperchei\u00e1da", "state": "", "country": "GR", "coord": {"lon": 22.116671, "lat": 38.900002}}, {"id": 253376, "name": "Sp\u00e1ta", "state": "", "country": "GR", "coord": {"lon": 23.91514, "lat": 37.961632}}, {"id": 253394, "name": "Sp\u00e1rti", "state": "", "country": "GR", "coord": {"lon": 22.42972, "lat": 37.07333}}, {"id": 253419, "name": "So\u00farpi", "state": "", "country": "GR", "coord": {"lon": 22.9, "lat": 39.099998}}, {"id": 253420, "name": "So\u00farmena", "state": "", "country": "GR", "coord": {"lon": 23.75, "lat": 37.883331}}, {"id": 253456, "name": "So\u00fada", "state": "", "country": "GR", "coord": {"lon": 24.07444, "lat": 35.48444}}, {"id": 253494, "name": "Sofik\u00f3n", "state": "", "country": "GR", "coord": {"lon": 23.049999, "lat": 37.799999}}, {"id": 253581, "name": "Sk\u00f3pelos", "state": "", "country": "GR", "coord": {"lon": 23.72472, "lat": 39.124722}}, {"id": 253582, "name": "Sk\u00f3pelos", "state": "", "country": "GR", "coord": {"lon": 26.44833, "lat": 39.02972}}, {"id": 253614, "name": "Sk\u00fdros", "state": "", "country": "GR", "coord": {"lon": 24.563061, "lat": 38.904171}}, {"id": 253643, "name": "Ski\u00e1thos", "state": "", "country": "GR", "coord": {"lon": 23.490891, "lat": 39.16227}}, {"id": 253666, "name": "Sch\u00edsma Elo\u00fandas", "state": "", "country": "GR", "coord": {"lon": 25.716669, "lat": 35.26667}}, {"id": 253673, "name": "Schimat\u00e1ri", "state": "", "country": "GR", "coord": {"lon": 23.58333, "lat": 38.349998}}, {"id": 253676, "name": "Skepast\u00f3", "state": "", "country": "GR", "coord": {"lon": 22.066669, "lat": 38.049999}}, {"id": 253716, "name": "Sk\u00e1la Oropo\u00fa", "state": "", "country": "GR", "coord": {"lon": 23.791241, "lat": 38.319908}}, {"id": 253717, "name": "Skal\u00e1nion", "state": "", "country": "GR", "coord": {"lon": 25.18684, "lat": 35.282619}}, {"id": 253739, "name": "Sk\u00e1la", "state": "", "country": "GR", "coord": {"lon": 22.66667, "lat": 36.849998}}, {"id": 253759, "name": "Sitia", "state": "", "country": "GR", "coord": {"lon": 26.09861, "lat": 35.200001}}, {"id": 253817, "name": "Synoikism\u00f3s Chavar\u00edou", "state": "", "country": "GR", "coord": {"lon": 21.383329, "lat": 37.849998}}, {"id": 253858, "name": "S\u00fdmi", "state": "", "country": "GR", "coord": {"lon": 27.837799, "lat": 36.612461}}, {"id": 253866, "name": "Sylivaini\u00f3tika", "state": "", "country": "GR", "coord": {"lon": 22.33333, "lat": 38.166672}}, {"id": 253871, "name": "Syko\u00fario", "state": "", "country": "GR", "coord": {"lon": 22.578609, "lat": 39.758331}}, {"id": 253878, "name": "Siky\u00f3n", "state": "", "country": "GR", "coord": {"lon": 22.73333, "lat": 37.98333}}, {"id": 253880, "name": "S\u00edkinos", "state": "", "country": "GR", "coord": {"lon": 25.116671, "lat": 36.700001}}, {"id": 253908, "name": "Syki\u00e1", "state": "", "country": "GR", "coord": {"lon": 22.94878, "lat": 36.76556}}, {"id": 253996, "name": "S\u00e9rifos", "state": "", "country": "GR", "coord": {"lon": 24.5, "lat": 37.150002}}, {"id": 254030, "name": "Sel\u00ednia", "state": "", "country": "GR", "coord": {"lon": 23.533609, "lat": 37.933609}}, {"id": 254032, "name": "Selian\u00edtika", "state": "", "country": "GR", "coord": {"lon": 22.033331, "lat": 38.283329}}, {"id": 254045, "name": "Sav\u00e1lia", "state": "", "country": "GR", "coord": {"lon": 21.29425, "lat": 37.821579}}, {"id": 254064, "name": "Sard\u00ednia", "state": "", "country": "GR", "coord": {"lon": 21.200001, "lat": 38.883331}}, {"id": 254112, "name": "Nom\u00f3s S\u00e1mou", "state": "", "country": "GR", "coord": {"lon": 26.75, "lat": 37.75}}, {"id": 254115, "name": "Samos", "state": "", "country": "GR", "coord": {"lon": 26.97694, "lat": 37.757221}}, {"id": 254123, "name": "S\u00e1mi", "state": "", "country": "GR", "coord": {"lon": 20.65139, "lat": 38.254169}}, {"id": 254144, "name": "Salam\u00edna", "state": "", "country": "GR", "coord": {"lon": 23.49649, "lat": 37.964272}}, {"id": 254165, "name": "Roy\u00edtika", "state": "", "country": "GR", "coord": {"lon": 21.683331, "lat": 38.183331}}, {"id": 254170, "name": "Rovi\u00e9s", "state": "", "country": "GR", "coord": {"lon": 23.23333, "lat": 38.816669}}, {"id": 254253, "name": "Rodot\u00f3pi", "state": "", "country": "GR", "coord": {"lon": 20.72583, "lat": 39.708328}}, {"id": 254283, "name": "Riz\u00f3mylos", "state": "", "country": "GR", "coord": {"lon": 22.75, "lat": 39.433331}}, {"id": 254286, "name": "R\u00edzoma", "state": "", "country": "GR", "coord": {"lon": 21.735001, "lat": 39.665001}}, {"id": 254315, "name": "R\u00edo", "state": "", "country": "GR", "coord": {"lon": 21.783331, "lat": 38.299999}}, {"id": 254352, "name": "Rethymno", "state": "", "country": "GR", "coord": {"lon": 24.47139, "lat": 35.364719}}, {"id": 254353, "name": "Nom\u00f3s Reth\u00fdmnis", "state": "", "country": "GR", "coord": {"lon": 24.58333, "lat": 35.25}}, {"id": 254425, "name": "Raf\u00edna", "state": "", "country": "GR", "coord": {"lon": 24.005989, "lat": 38.01812}}, {"id": 254442, "name": "Ptele\u00f3s", "state": "", "country": "GR", "coord": {"lon": 22.950001, "lat": 39.049999}}, {"id": 254505, "name": "Psychik\u00f3", "state": "", "country": "GR", "coord": {"lon": 23.76667, "lat": 38.01667}}, {"id": 254546, "name": "Psachn\u00e1", "state": "", "country": "GR", "coord": {"lon": 23.633329, "lat": 38.583328}}, {"id": 254584, "name": "Prok\u00f3pi", "state": "", "country": "GR", "coord": {"lon": 23.48333, "lat": 38.73333}}, {"id": 254599, "name": "Prof\u00edtis Il\u00edas", "state": "", "country": "GR", "coord": {"lon": 25.09985, "lat": 35.205551}}, {"id": 254695, "name": "Nom\u00f3s Prev\u00e9zis", "state": "", "country": "GR", "coord": {"lon": 20.66667, "lat": 39.166672}}, {"id": 254698, "name": "Pr\u00e9veza", "state": "", "country": "GR", "coord": {"lon": 20.75, "lat": 38.950001}}, {"id": 254746, "name": "Pr\u00e1manta", "state": "", "country": "GR", "coord": {"lon": 21.101391, "lat": 39.52306}}, {"id": 254842, "name": "P\u00f3rto Ch\u00e9li", "state": "", "country": "GR", "coord": {"lon": 23.14152, "lat": 37.324829}}, {"id": 254849, "name": "Portari\u00e1", "state": "", "country": "GR", "coord": {"lon": 23, "lat": 39.383331}}, {"id": 254864, "name": "P\u00f3ros", "state": "", "country": "GR", "coord": {"lon": 20.783331, "lat": 38.150002}}, {"id": 254865, "name": "P\u00f3ros", "state": "", "country": "GR", "coord": {"lon": 23.453609, "lat": 37.499439}}, {"id": 254898, "name": "Politik\u00e1", "state": "", "country": "GR", "coord": {"lon": 23.549999, "lat": 38.599998}}, {"id": 254917, "name": "Polichn\u00edtos", "state": "", "country": "GR", "coord": {"lon": 26.183331, "lat": 39.081108}}, {"id": 254949, "name": "Plom\u00e1ri", "state": "", "country": "GR", "coord": {"lon": 26.368059, "lat": 38.976669}}, {"id": 254955, "name": "Plig\u00f3nion", "state": "", "country": "GR", "coord": {"lon": 26.58333, "lat": 39.066669}}, {"id": 254990, "name": "Plat\u00fdkampos", "state": "", "country": "GR", "coord": {"lon": 22.533331, "lat": 39.616669}}, {"id": 255013, "name": "Platari\u00e1", "state": "", "country": "GR", "coord": {"lon": 20.27611, "lat": 39.452499}}, {"id": 255027, "name": "Pl\u00e1tanos Kaliv\u00edon", "state": "", "country": "GR", "coord": {"lon": 21.316669, "lat": 38.599998}}, {"id": 255030, "name": "Pl\u00e1tanos", "state": "", "country": "GR", "coord": {"lon": 21.616671, "lat": 37.666672}}, {"id": 255036, "name": "Pl\u00e1tanos", "state": "", "country": "GR", "coord": {"lon": 23.6, "lat": 35.466671}}, {"id": 255093, "name": "Platai\u00e9s", "state": "", "country": "GR", "coord": {"lon": 23.26667, "lat": 38.216671}}, {"id": 255096, "name": "Pl\u00e1nos", "state": "", "country": "GR", "coord": {"lon": 20.85, "lat": 37.816669}}, {"id": 255138, "name": "Pig\u00ed", "state": "", "country": "GR", "coord": {"lon": 21.701111, "lat": 39.51194}}, {"id": 255161, "name": "Pith\u00e1ri", "state": "", "country": "GR", "coord": {"lon": 24.08333, "lat": 35.51667}}, {"id": 255163, "name": "Pythag\u00f3reio", "state": "", "country": "GR", "coord": {"lon": 26.94833, "lat": 37.69194}}, {"id": 255188, "name": "Pyrg\u00edon", "state": "", "country": "GR", "coord": {"lon": 25.995279, "lat": 38.22583}}, {"id": 255195, "name": "Pyrget\u00f3s", "state": "", "country": "GR", "coord": {"lon": 22.592779, "lat": 39.91861}}, {"id": 255196, "name": "Pyrget\u00f3s", "state": "", "country": "GR", "coord": {"lon": 21.74806, "lat": 39.551941}}, {"id": 255229, "name": "P\u00fdrgos", "state": "", "country": "GR", "coord": {"lon": 21.441019, "lat": 37.675129}}, {"id": 255242, "name": "P\u00fdrgos", "state": "", "country": "GR", "coord": {"lon": 25.15, "lat": 35}}, {"id": 255274, "name": "Piraeus", "state": "", "country": "GR", "coord": {"lon": 23.637079, "lat": 37.947449}}, {"id": 255293, "name": "P\u00fdlos", "state": "", "country": "GR", "coord": {"lon": 21.69639, "lat": 36.913441}}, {"id": 255301, "name": "Pyl\u00ed", "state": "", "country": "GR", "coord": {"lon": 27.16139, "lat": 36.847778}}, {"id": 255305, "name": "P\u00fdli", "state": "", "country": "GR", "coord": {"lon": 21.618891, "lat": 39.458061}}, {"id": 255319, "name": "Pik\u00e9rmi", "state": "", "country": "GR", "coord": {"lon": 23.950001, "lat": 38}}, {"id": 255377, "name": "Petro\u00fapolis", "state": "", "country": "GR", "coord": {"lon": 23.68494, "lat": 38.04187}}, {"id": 255398, "name": "Mago\u00fala", "state": "", "country": "GR", "coord": {"lon": 22.98333, "lat": 38.5}}, {"id": 255439, "name": "P\u00e9tra", "state": "", "country": "GR", "coord": {"lon": 26.183331, "lat": 39.333328}}, {"id": 255458, "name": "P\u00e9ta", "state": "", "country": "GR", "coord": {"lon": 21.034719, "lat": 39.166672}}, {"id": 255495, "name": "Periyi\u00e1li", "state": "", "country": "GR", "coord": {"lon": 22.83333, "lat": 37.950001}}, {"id": 255498, "name": "Periv\u00f3li", "state": "", "country": "GR", "coord": {"lon": 20.014721, "lat": 39.420559}}, {"id": 255507, "name": "Periv\u00f3lia", "state": "", "country": "GR", "coord": {"lon": 23.98333, "lat": 35.48333}}, {"id": 255524, "name": "Perist\u00e9ri", "state": "", "country": "GR", "coord": {"lon": 23.700001, "lat": 38.01667}}, {"id": 255562, "name": "P\u00e9rdika", "state": "", "country": "GR", "coord": {"lon": 20.30389, "lat": 39.368889}}, {"id": 255585, "name": "P\u00e9rama", "state": "", "country": "GR", "coord": {"lon": 20.84861, "lat": 39.695278}}, {"id": 255588, "name": "P\u00e9rama", "state": "", "country": "GR", "coord": {"lon": 23.5721, "lat": 37.967751}}, {"id": 255589, "name": "P\u00e9rama", "state": "", "country": "GR", "coord": {"lon": 24.703449, "lat": 35.3703}}, {"id": 255594, "name": "Perach\u00f3ra", "state": "", "country": "GR", "coord": {"lon": 22.950001, "lat": 38.033329}}, {"id": 255621, "name": "Pel\u00f3pi", "state": "", "country": "GR", "coord": {"lon": 21.58333, "lat": 37.683331}}, {"id": 255638, "name": "Pelasg\u00eda", "state": "", "country": "GR", "coord": {"lon": 22.83333, "lat": 38.950001}}, {"id": 255646, "name": "Pedin\u00ed", "state": "", "country": "GR", "coord": {"lon": 20.84333, "lat": 39.59972}}, {"id": 255683, "name": "P\u00e1tra", "state": "", "country": "GR", "coord": {"lon": 21.73444, "lat": 38.244438}}, {"id": 255689, "name": "Patit\u00edrion", "state": "", "country": "GR", "coord": {"lon": 23.866671, "lat": 39.150002}}, {"id": 255709, "name": "P\u00e1sion", "state": "", "country": "GR", "coord": {"lon": 22.73333, "lat": 38.01667}}, {"id": 255713, "name": "P\u00e1rtira", "state": "", "country": "GR", "coord": {"lon": 25.216669, "lat": 35.116669}}, {"id": 255718, "name": "Parth\u00e9ni", "state": "", "country": "GR", "coord": {"lon": 26.799999, "lat": 37.166672}}, {"id": 255721, "name": "P\u00e1ros", "state": "", "country": "GR", "coord": {"lon": 25.15, "lat": 37.083328}}, {"id": 255736, "name": "P\u00e1rga", "state": "", "country": "GR", "coord": {"lon": 20.396391, "lat": 39.283058}}, {"id": 255739, "name": "Parav\u00f3la", "state": "", "country": "GR", "coord": {"lon": 21.51667, "lat": 38.616669}}, {"id": 255750, "name": "Pro\u00e1stio", "state": "", "country": "GR", "coord": {"lon": 21.9025, "lat": 39.488609}}, {"id": 255753, "name": "Parap\u00f3tamos", "state": "", "country": "GR", "coord": {"lon": 20.322781, "lat": 39.549171}}, {"id": 255760, "name": "Paramythi\u00e1", "state": "", "country": "GR", "coord": {"lon": 20.51111, "lat": 39.471111}}, {"id": 255777, "name": "Paral\u00eda", "state": "", "country": "GR", "coord": {"lon": 21.700001, "lat": 38.200001}}, {"id": 255798, "name": "Papp\u00e1dos", "state": "", "country": "GR", "coord": {"lon": 26.45472, "lat": 39.03944}}, {"id": 255807, "name": "Pappad\u00e1tes", "state": "", "country": "GR", "coord": {"lon": 20.7925, "lat": 39.313332}}, {"id": 255849, "name": "P\u00e1normos", "state": "", "country": "GR", "coord": {"lon": 24.69091, "lat": 35.418152}}, {"id": 255945, "name": "Panait\u00f3lion", "state": "", "country": "GR", "coord": {"lon": 21.450001, "lat": 38.583328}}, {"id": 255959, "name": "P\u00e1mfila", "state": "", "country": "GR", "coord": {"lon": 26.521669, "lat": 39.15667}}, {"id": 255971, "name": "Pall\u00edni", "state": "", "country": "GR", "coord": {"lon": 23.87723, "lat": 37.997021}}, {"id": 256047, "name": "Palam\u00e1s", "state": "", "country": "GR", "coord": {"lon": 22.08333, "lat": 39.466671}}, {"id": 256054, "name": "P\u00e1lairos", "state": "", "country": "GR", "coord": {"lon": 20.883329, "lat": 38.783329}}, {"id": 256066, "name": "Palai\u00f3pyrgos", "state": "", "country": "GR", "coord": {"lon": 21.817221, "lat": 39.60722}}, {"id": 256075, "name": "Palai\u00f3 F\u00e1liro", "state": "", "country": "GR", "coord": {"lon": 23.70916, "lat": 37.920658}}, {"id": 256079, "name": "Palaiomon\u00e1stiro", "state": "", "country": "GR", "coord": {"lon": 21.658609, "lat": 39.462502}}, {"id": 256093, "name": "Palai\u00f3kipos", "state": "", "country": "GR", "coord": {"lon": 26.451111, "lat": 39.055828}}, {"id": 256131, "name": "Palai\u00f3chora", "state": "", "country": "GR", "coord": {"lon": 23.683331, "lat": 35.23333}}, {"id": 256155, "name": "Palekastro", "state": "", "country": "GR", "coord": {"lon": 26.25, "lat": 35.200001}}, {"id": 256173, "name": "Palai\u00e1 F\u00f3kaia", "state": "", "country": "GR", "coord": {"lon": 23.94626, "lat": 37.719952}}, {"id": 256175, "name": "Palai\u00e1 Ep\u00eddavros", "state": "", "country": "GR", "coord": {"lon": 23.156179, "lat": 37.64043}}, {"id": 256197, "name": "Paian\u00eda", "state": "", "country": "GR", "coord": {"lon": 23.854429, "lat": 37.955269}}, {"id": 256210, "name": "Ox\u00edlithos", "state": "", "country": "GR", "coord": {"lon": 24.116671, "lat": 38.583328}}, {"id": 256223, "name": "Ovri\u00e1", "state": "", "country": "GR", "coord": {"lon": 21.716669, "lat": 38.183331}}, {"id": 256257, "name": "Orop\u00f3s", "state": "", "country": "GR", "coord": {"lon": 23.75, "lat": 38.299999}}, {"id": 256268, "name": "Orchomen\u00f3s", "state": "", "country": "GR", "coord": {"lon": 22.97962, "lat": 38.492901}}, {"id": 256284, "name": "Oreo\u00ed", "state": "", "country": "GR", "coord": {"lon": 23.1, "lat": 38.950001}}, {"id": 256296, "name": "Omvriak\u00ed", "state": "", "country": "GR", "coord": {"lon": 22.26667, "lat": 39.099998}}, {"id": 256297, "name": "Omorfoch\u00f3ri", "state": "", "country": "GR", "coord": {"lon": 22.48333, "lat": 39.666672}}, {"id": 256329, "name": "Oino\u00fasses", "state": "", "country": "GR", "coord": {"lon": 26.22028, "lat": 38.514172}}, {"id": 256339, "name": "Oin\u00f3fyta", "state": "", "country": "GR", "coord": {"lon": 23.633329, "lat": 38.316669}}, {"id": 256342, "name": "Pap\u00e1gou", "state": "", "country": "GR", "coord": {"lon": 23.816669, "lat": 37.98333}}, {"id": 256428, "name": "N\u00edkaia", "state": "", "country": "GR", "coord": {"lon": 22.466669, "lat": 39.566669}}, {"id": 256429, "name": "N\u00edkaia", "state": "", "country": "GR", "coord": {"lon": 23.65, "lat": 37.966671}}, {"id": 256449, "name": "Neroko\u00faros", "state": "", "country": "GR", "coord": {"lon": 24.033331, "lat": 35.48333}}, {"id": 256485, "name": "N\u00e9on Monast\u00edrion", "state": "", "country": "GR", "coord": {"lon": 22.25, "lat": 39.23333}}, {"id": 256492, "name": "N\u00e9on Karlov\u00e1sion", "state": "", "country": "GR", "coord": {"lon": 26.704439, "lat": 37.790279}}, {"id": 256499, "name": "Neochor\u00f3poulo", "state": "", "country": "GR", "coord": {"lon": 20.834169, "lat": 39.628609}}, {"id": 256504, "name": "Oichal\u00eda", "state": "", "country": "GR", "coord": {"lon": 21.980829, "lat": 39.60667}}, {"id": 256508, "name": "Neoch\u00f3ri", "state": "", "country": "GR", "coord": {"lon": 21.733061, "lat": 39.276939}}, {"id": 256509, "name": "Neoch\u00f3ri", "state": "", "country": "GR", "coord": {"lon": 21.01889, "lat": 39.069439}}, {"id": 256520, "name": "Neoch\u00f3rion", "state": "", "country": "GR", "coord": {"lon": 21.283331, "lat": 38.416672}}, {"id": 256527, "name": "Neoch\u00f3ri", "state": "", "country": "GR", "coord": {"lon": 21.200001, "lat": 37.916672}}, {"id": 256554, "name": "N\u00e9nita", "state": "", "country": "GR", "coord": {"lon": 26.09306, "lat": 38.238892}}, {"id": 256558, "name": "Nem\u00e9a", "state": "", "country": "GR", "coord": {"lon": 22.66667, "lat": 37.816669}}, {"id": 256571, "name": "N\u00e9a T\u00edrins", "state": "", "country": "GR", "coord": {"lon": 22.816669, "lat": 37.599998}}, {"id": 256572, "name": "N\u00e9a St\u00edra", "state": "", "country": "GR", "coord": {"lon": 24.200001, "lat": 38.183331}}, {"id": 256574, "name": "N\u00e9a Sm\u00edrni", "state": "", "country": "GR", "coord": {"lon": 22.433331, "lat": 39.650002}}, {"id": 256575, "name": "N\u00e9a Sm\u00fdrni", "state": "", "country": "GR", "coord": {"lon": 23.716669, "lat": 37.950001}}, {"id": 256580, "name": "N\u00e9a Sel\u00e9fkeia", "state": "", "country": "GR", "coord": {"lon": 20.25861, "lat": 39.525558}}, {"id": 256589, "name": "Ne\u00e1poli", "state": "", "country": "GR", "coord": {"lon": 25.60972, "lat": 35.253891}}, {"id": 256592, "name": "N\u00e9a P\u00e9ramos", "state": "", "country": "GR", "coord": {"lon": 23.422951, "lat": 38.007629}}, {"id": 256593, "name": "N\u00e9a Pal\u00e1tia", "state": "", "country": "GR", "coord": {"lon": 23.799999, "lat": 38.316669}}, {"id": 256596, "name": "N\u00e9a Manol\u00e1da", "state": "", "country": "GR", "coord": {"lon": 21.383329, "lat": 38.049999}}, {"id": 256598, "name": "N\u00e9a M\u00e1kri", "state": "", "country": "GR", "coord": {"lon": 23.98333, "lat": 38.083328}}, {"id": 256601, "name": "\u00cdlion", "state": "", "country": "GR", "coord": {"lon": 23.700001, "lat": 38.033329}}, {"id": 256606, "name": "N\u00e9a K\u00edos", "state": "", "country": "GR", "coord": {"lon": 22.74144, "lat": 37.591019}}, {"id": 256614, "name": "N\u00e9a Ion\u00eda", "state": "", "country": "GR", "coord": {"lon": 23.75, "lat": 38.033329}}, {"id": 256621, "name": "N\u00e9a Filad\u00e9lfeia", "state": "", "country": "GR", "coord": {"lon": 23.73333, "lat": 38.033329}}, {"id": 256622, "name": "N\u00e9a Erythra\u00eda", "state": "", "country": "GR", "coord": {"lon": 23.816669, "lat": 38.099998}}, {"id": 256626, "name": "N\u00e9a Art\u00e1ki", "state": "", "country": "GR", "coord": {"lon": 23.633329, "lat": 38.51667}}, {"id": 256627, "name": "N\u00e9a Anchi\u00e1los", "state": "", "country": "GR", "coord": {"lon": 22.816669, "lat": 39.283329}}, {"id": 256632, "name": "N\u00e1xos", "state": "", "country": "GR", "coord": {"lon": 25.37639, "lat": 37.10556}}, {"id": 256637, "name": "N\u00e1fplio", "state": "", "country": "GR", "coord": {"lon": 22.805281, "lat": 37.568279}}, {"id": 256639, "name": "N\u00e1fpaktos", "state": "", "country": "GR", "coord": {"lon": 21.827499, "lat": 38.39167}}, {"id": 256653, "name": "N\u00e1ousa", "state": "", "country": "GR", "coord": {"lon": 25.23333, "lat": 37.116669}}, {"id": 256660, "name": "Mouzour\u00e1s", "state": "", "country": "GR", "coord": {"lon": 24.15, "lat": 35.533329}}, {"id": 256662, "name": "Mouz\u00e1ki", "state": "", "country": "GR", "coord": {"lon": 21.66361, "lat": 39.429722}}, {"id": 256664, "name": "Mouzaki", "state": "", "country": "GR", "coord": {"lon": 20.816669, "lat": 37.73333}}, {"id": 256696, "name": "Mourni\u00e9s", "state": "", "country": "GR", "coord": {"lon": 24.009171, "lat": 35.476391}}, {"id": 256728, "name": "Mo\u00falki", "state": "", "country": "GR", "coord": {"lon": 22.73333, "lat": 38}}, {"id": 256750, "name": "Moskh\u00e1ton", "state": "", "country": "GR", "coord": {"lon": 23.66667, "lat": 37.950001}}, {"id": 256757, "name": "M\u00f3ria", "state": "", "country": "GR", "coord": {"lon": 26.51667, "lat": 39.133331}}, {"id": 256759, "name": "Morfovo\u00fani", "state": "", "country": "GR", "coord": {"lon": 21.75, "lat": 39.352501}}, {"id": 256769, "name": "Mon\u00f3lithos", "state": "", "country": "GR", "coord": {"lon": 25.479959, "lat": 36.413132}}, {"id": 256808, "name": "Monastir\u00e1ki", "state": "", "country": "GR", "coord": {"lon": 20.950001, "lat": 38.849998}}, {"id": 256824, "name": "M\u00f3los", "state": "", "country": "GR", "coord": {"lon": 22.65, "lat": 38.816669}}, {"id": 256833, "name": "Mol\u00e1oi", "state": "", "country": "GR", "coord": {"lon": 22.85132, "lat": 36.807571}}, {"id": 256838, "name": "Mokh\u00f3s", "state": "", "country": "GR", "coord": {"lon": 25.42305, "lat": 35.26342}}, {"id": 256842, "name": "Mo\u00edres", "state": "", "country": "GR", "coord": {"lon": 24.87442, "lat": 35.053188}}, {"id": 256860, "name": "Mitr\u00f3poli", "state": "", "country": "GR", "coord": {"lon": 21.836941, "lat": 39.339439}}, {"id": 256865, "name": "Mytilinio\u00ed", "state": "", "country": "GR", "coord": {"lon": 26.908331, "lat": 37.728611}}, {"id": 256866, "name": "Mytilene", "state": "", "country": "GR", "coord": {"lon": 26.55472, "lat": 39.110001}}, {"id": 256872, "name": "Mytikas", "state": "", "country": "GR", "coord": {"lon": 23.65365, "lat": 38.443729}}, {"id": 256879, "name": "M\u00edthymna", "state": "", "country": "GR", "coord": {"lon": 26.17639, "lat": 39.367809}}, {"id": 256883, "name": "Mit\u00e1ta", "state": "", "country": "GR", "coord": {"lon": 23, "lat": 36.25}}, {"id": 256914, "name": "Myrs\u00edni", "state": "", "country": "GR", "coord": {"lon": 21.23333, "lat": 37.916672}}, {"id": 256930, "name": "M\u00fdrina", "state": "", "country": "GR", "coord": {"lon": 25.074169, "lat": 39.879719}}, {"id": 256952, "name": "M\u00edlos", "state": "", "country": "GR", "coord": {"lon": 24.433331, "lat": 36.75}}, {"id": 256968, "name": "M\u00fdloi", "state": "", "country": "GR", "coord": {"lon": 21.75, "lat": 38.216671}}, {"id": 256985, "name": "Mil\u00e9sion", "state": "", "country": "GR", "coord": {"lon": 23.799999, "lat": 38.283329}}, {"id": 257035, "name": "Mikrom\u00e1ni", "state": "", "country": "GR", "coord": {"lon": 22.033331, "lat": 37.083328}}, {"id": 257056, "name": "Mykonos", "state": "", "country": "GR", "coord": {"lon": 25.32872, "lat": 37.44529}}, {"id": 257080, "name": "Meg\u00edsti", "state": "", "country": "GR", "coord": {"lon": 29.593611, "lat": 36.148891}}, {"id": 257083, "name": "Metsovo", "state": "", "country": "GR", "coord": {"lon": 21.18222, "lat": 39.76944}}, {"id": 257122, "name": "Meth\u00f3ni", "state": "", "country": "GR", "coord": {"lon": 21.704861, "lat": 36.819729}}, {"id": 257126, "name": "M\u00e9thana", "state": "", "country": "GR", "coord": {"lon": 23.39142, "lat": 37.58234}}, {"id": 257141, "name": "Metam\u00f3rfosi Troiz\u00ednos", "state": "", "country": "GR", "coord": {"lon": 23.35, "lat": 37.533329}}, {"id": 257149, "name": "Nom\u00f3s Messin\u00edas", "state": "", "country": "GR", "coord": {"lon": 21.83333, "lat": 37.25}}, {"id": 257152, "name": "Mess\u00edni", "state": "", "country": "GR", "coord": {"lon": 22.00778, "lat": 37.051109}}, {"id": 257186, "name": "Mesol\u00f3ngi", "state": "", "country": "GR", "coord": {"lon": 21.429171, "lat": 38.369171}}, {"id": 257224, "name": "Mesari\u00e1", "state": "", "country": "GR", "coord": {"lon": 25.44589, "lat": 36.398479}}, {"id": 257243, "name": "Mertika\u00edika", "state": "", "country": "GR", "coord": {"lon": 22.633329, "lat": 38.066669}}, {"id": 257258, "name": "Ag\u00eda Tri\u00e1da", "state": "", "country": "GR", "coord": {"lon": 21.898609, "lat": 39.463329}}, {"id": 257268, "name": "Men\u00eddi", "state": "", "country": "GR", "coord": {"lon": 21.117781, "lat": 39.041939}}, {"id": 257282, "name": "Mel\u00edvoia", "state": "", "country": "GR", "coord": {"lon": 22.799999, "lat": 39.75}}, {"id": 257302, "name": "Mel\u00edssia", "state": "", "country": "GR", "coord": {"lon": 23.83333, "lat": 38.049999}}, {"id": 257322, "name": "Meligal\u00e1s", "state": "", "country": "GR", "coord": {"lon": 21.966669, "lat": 37.216671}}, {"id": 257365, "name": "M\u00e9gara", "state": "", "country": "GR", "coord": {"lon": 23.34556, "lat": 38}}, {"id": 257395, "name": "Megal\u00f3poli", "state": "", "country": "GR", "coord": {"lon": 22.14222, "lat": 37.401112}}, {"id": 257400, "name": "Meg\u00e1lo Chori\u00f3", "state": "", "country": "GR", "coord": {"lon": 27.34833, "lat": 36.449169}}, {"id": 257406, "name": "Megaloch\u00f3ri", "state": "", "country": "GR", "coord": {"lon": 21.84083, "lat": 39.559441}}, {"id": 257434, "name": "Meg\u00e1li Kh\u00f3ra", "state": "", "country": "GR", "coord": {"lon": 21.366671, "lat": 38.633331}}, {"id": 257448, "name": "Meg\u00e1la Kal\u00fdvia", "state": "", "country": "GR", "coord": {"lon": 21.7875, "lat": 39.5}}, {"id": 257535, "name": "Mavromm\u00e1ti", "state": "", "country": "GR", "coord": {"lon": 21.69556, "lat": 39.423889}}, {"id": 257621, "name": "Mart\u00ednon", "state": "", "country": "GR", "coord": {"lon": 23.216669, "lat": 38.566669}}, {"id": 257643, "name": "Marm\u00e1rion", "state": "", "country": "GR", "coord": {"lon": 24.320391, "lat": 38.048389}}, {"id": 257669, "name": "Mark\u00f3poulo Oropo\u00fa", "state": "", "country": "GR", "coord": {"lon": 23.83333, "lat": 38.283329}}, {"id": 257671, "name": "Mark\u00f3poulo", "state": "", "country": "GR", "coord": {"lon": 23.933331, "lat": 37.883331}}, {"id": 257717, "name": "Marath\u00f3nas", "state": "", "country": "GR", "coord": {"lon": 23.966669, "lat": 38.150002}}, {"id": 257721, "name": "Marath\u00f3kampos", "state": "", "country": "GR", "coord": {"lon": 26.690001, "lat": 37.726391}}, {"id": 257762, "name": "Manol\u00e1da", "state": "", "country": "GR", "coord": {"lon": 21.35, "lat": 38.049999}}, {"id": 257804, "name": "Mandr\u00e1ki", "state": "", "country": "GR", "coord": {"lon": 27.133329, "lat": 36.611389}}, {"id": 257811, "name": "M\u00e1ndra", "state": "", "country": "GR", "coord": {"lon": 23.5, "lat": 38.066669}}, {"id": 257814, "name": "Manto\u00fadi", "state": "", "country": "GR", "coord": {"lon": 23.48333, "lat": 38.799999}}, {"id": 257827, "name": "Mantam\u00e1dos", "state": "", "country": "GR", "coord": {"lon": 26.333891, "lat": 39.311668}}, {"id": 257859, "name": "M\u00e1lia", "state": "", "country": "GR", "coord": {"lon": 25.466669, "lat": 35.283329}}, {"id": 257868, "name": "Males\u00edna", "state": "", "country": "GR", "coord": {"lon": 23.23333, "lat": 38.616669}}, {"id": 257923, "name": "Makr\u00edsia", "state": "", "country": "GR", "coord": {"lon": 21.6, "lat": 37.616669}}, {"id": 257936, "name": "Makrin\u00edtsa", "state": "", "country": "GR", "coord": {"lon": 22.98333, "lat": 39.400002}}, {"id": 257948, "name": "Makrych\u00f3ri", "state": "", "country": "GR", "coord": {"lon": 22.48333, "lat": 39.799999}}, {"id": 257949, "name": "Makrych\u00f3ri", "state": "", "country": "GR", "coord": {"lon": 21.966391, "lat": 39.439999}}, {"id": 257975, "name": "Makrak\u00f3mi", "state": "", "country": "GR", "coord": {"lon": 22.116671, "lat": 38.933331}}, {"id": 258004, "name": "Mago\u00fala", "state": "", "country": "GR", "coord": {"lon": 23.83333, "lat": 38.416672}}, {"id": 258007, "name": "Mago\u00fala", "state": "", "country": "GR", "coord": {"lon": 23.51667, "lat": 38.083328}}, {"id": 258011, "name": "Mago\u00fala", "state": "", "country": "GR", "coord": {"lon": 22.41667, "lat": 37.083328}}, {"id": 258013, "name": "Nom\u00f3s Magnis\u00edas", "state": "", "country": "GR", "coord": {"lon": 22.75, "lat": 39.25}}, {"id": 258066, "name": "Loutr\u00e1ki", "state": "", "country": "GR", "coord": {"lon": 22.97781, "lat": 37.978298}}, {"id": 258076, "name": "Loutr\u00e1", "state": "", "country": "GR", "coord": {"lon": 26.545, "lat": 39.056938}}, {"id": 258091, "name": "Lo\u00faros", "state": "", "country": "GR", "coord": {"lon": 20.75194, "lat": 39.162781}}, {"id": 258108, "name": "Louk\u00edsia", "state": "", "country": "GR", "coord": {"lon": 23.450001, "lat": 38.48333}}, {"id": 258175, "name": "Lixo\u00fari", "state": "", "country": "GR", "coord": {"lon": 20.431391, "lat": 38.201939}}, {"id": 258182, "name": "Livan\u00e1tes", "state": "", "country": "GR", "coord": {"lon": 23.049999, "lat": 38.716671}}, {"id": 258198, "name": "Liv\u00e1dia", "state": "", "country": "GR", "coord": {"lon": 24.933331, "lat": 37.833328}}, {"id": 258241, "name": "Lithaki\u00e1", "state": "", "country": "GR", "coord": {"lon": 20.83333, "lat": 37.716671}}, {"id": 258261, "name": "Leipso\u00ed", "state": "", "country": "GR", "coord": {"lon": 26.76667, "lat": 37.283329}}, {"id": 258306, "name": "L\u00edmni", "state": "", "country": "GR", "coord": {"lon": 23.316669, "lat": 38.76667}}, {"id": 258312, "name": "L\u00edmnes", "state": "", "country": "GR", "coord": {"lon": 22.883329, "lat": 37.716671}}, {"id": 258315, "name": "Lim\u00edn Kherson\u00edsou", "state": "", "country": "GR", "coord": {"lon": 25.39279, "lat": 35.316212}}, {"id": 258332, "name": "Lyk\u00f3vrysi", "state": "", "country": "GR", "coord": {"lon": 23.783331, "lat": 38.066669}}, {"id": 258377, "name": "Ligouri\u00f3n", "state": "", "country": "GR", "coord": {"lon": 23.033331, "lat": 37.616669}}, {"id": 258427, "name": "Lefk\u00edmmi", "state": "", "country": "GR", "coord": {"lon": 20.06889, "lat": 39.423328}}, {"id": 258438, "name": "Lefk\u00e1da", "state": "", "country": "GR", "coord": {"lon": 20.701941, "lat": 38.827499}}, {"id": 258445, "name": "Lefkada", "state": "", "country": "GR", "coord": {"lon": 20.66667, "lat": 38.75}}, {"id": 258463, "name": "Livadei\u00e1", "state": "", "country": "GR", "coord": {"lon": 22.87389, "lat": 38.435001}}, {"id": 258465, "name": "Lesbos", "state": "", "country": "GR", "coord": {"lon": 26.33333, "lat": 39.166672}}, {"id": 258497, "name": "Lepeno\u00fa", "state": "", "country": "GR", "coord": {"lon": 21.283331, "lat": 38.700001}}, {"id": 258500, "name": "Leon\u00eddio", "state": "", "country": "GR", "coord": {"lon": 22.857731, "lat": 37.16679}}, {"id": 258521, "name": "L\u00e9khaio", "state": "", "country": "GR", "coord": {"lon": 22.85, "lat": 37.933331}}, {"id": 258522, "name": "Lechain\u00e1", "state": "", "country": "GR", "coord": {"lon": 21.26667, "lat": 37.933331}}, {"id": 258543, "name": "L\u00e1vrio", "state": "", "country": "GR", "coord": {"lon": 24.05648, "lat": 37.714451}}, {"id": 258569, "name": "Nom\u00f3s Lasith\u00edou", "state": "", "country": "GR", "coord": {"lon": 25.83333, "lat": 35.083328}}, {"id": 258575, "name": "Nom\u00f3s Lar\u00edsis", "state": "", "country": "GR", "coord": {"lon": 22.5, "lat": 39.5}}, {"id": 258576, "name": "L\u00e1risa", "state": "", "country": "GR", "coord": {"lon": 22.42028, "lat": 39.637218}}, {"id": 258577, "name": "L\u00e1rimna", "state": "", "country": "GR", "coord": {"lon": 23.283331, "lat": 38.566669}}, {"id": 258584, "name": "L\u00e1pas", "state": "", "country": "GR", "coord": {"lon": 21.41667, "lat": 38.099998}}, {"id": 258610, "name": "Lagk\u00e1da", "state": "", "country": "GR", "coord": {"lon": 26.120831, "lat": 38.47583}}, {"id": 258620, "name": "Lam\u00eda", "state": "", "country": "GR", "coord": {"lon": 22.433331, "lat": 38.900002}}, {"id": 258634, "name": "Lamb\u00edrion", "state": "", "country": "GR", "coord": {"lon": 21.98333, "lat": 38.316669}}, {"id": 258655, "name": "L\u00e1las", "state": "", "country": "GR", "coord": {"lon": 21.716669, "lat": 37.716671}}, {"id": 258657, "name": "Nom\u00f3s Lakon\u00edas", "state": "", "country": "GR", "coord": {"lon": 22.58333, "lat": 37}}, {"id": 258672, "name": "Lakk\u00ed", "state": "", "country": "GR", "coord": {"lon": 26.85, "lat": 37.133331}}, {"id": 258744, "name": "Krous\u00f3n", "state": "", "country": "GR", "coord": {"lon": 24.98291, "lat": 35.230621}}, {"id": 258754, "name": "Kroke\u00e9s", "state": "", "country": "GR", "coord": {"lon": 22.549999, "lat": 36.883331}}, {"id": 258757, "name": "Taxi\u00e1rches", "state": "", "country": "GR", "coord": {"lon": 21.8925, "lat": 39.575001}}, {"id": 258759, "name": "Krits\u00e1", "state": "", "country": "GR", "coord": {"lon": 25.65, "lat": 35.166672}}, {"id": 258793, "name": "Kryon\u00e9ri", "state": "", "country": "GR", "coord": {"lon": 23.83333, "lat": 38.150002}}, {"id": 258819, "name": "Kr\u00edkellos", "state": "", "country": "GR", "coord": {"lon": 21.183331, "lat": 38.950001}}, {"id": 258842, "name": "Kr\u00e9stena", "state": "", "country": "GR", "coord": {"lon": 21.633329, "lat": 37.616669}}, {"id": 258873, "name": "Kran\u00eddi", "state": "", "country": "GR", "coord": {"lon": 23.155279, "lat": 37.381672}}, {"id": 258882, "name": "Krani\u00e1 Elass\u00f3nas", "state": "", "country": "GR", "coord": {"lon": 21.96583, "lat": 39.94833}}, {"id": 258912, "name": "Kouvar\u00e1s", "state": "", "country": "GR", "coord": {"lon": 23.966669, "lat": 37.833328}}, {"id": 258949, "name": "Koutseli\u00f3", "state": "", "country": "GR", "coord": {"lon": 20.914169, "lat": 39.58889}}, {"id": 258998, "name": "Kouro\u00fapi", "state": "", "country": "GR", "coord": {"lon": 24.950001, "lat": 37.416672}}, {"id": 259229, "name": "Kostakio\u00ed", "state": "", "country": "GR", "coord": {"lon": 20.958891, "lat": 39.137501}}, {"id": 259245, "name": "Kos", "state": "", "country": "GR", "coord": {"lon": 27.288891, "lat": 36.89333}}, {"id": 259251, "name": "Korop\u00ed", "state": "", "country": "GR", "coord": {"lon": 23.871811, "lat": 37.898861}}, {"id": 259265, "name": "Kor\u00f3ni", "state": "", "country": "GR", "coord": {"lon": 21.950001, "lat": 36.799999}}, {"id": 259289, "name": "K\u00f3rinthos", "state": "", "country": "GR", "coord": {"lon": 22.95734, "lat": 37.940681}}, {"id": 259290, "name": "Nom\u00f3s Korinth\u00edas", "state": "", "country": "GR", "coord": {"lon": 22.66667, "lat": 37.916672}}, {"id": 259292, "name": "Domvra\u00edna", "state": "", "country": "GR", "coord": {"lon": 22.98333, "lat": 38.25}}, {"id": 259452, "name": "Komp\u00f3ti", "state": "", "country": "GR", "coord": {"lon": 21.085279, "lat": 39.102219}}, {"id": 259508, "name": "Kolymp\u00e1ri", "state": "", "country": "GR", "coord": {"lon": 23.783331, "lat": 35.549999}}, {"id": 259537, "name": "Kokk\u00f3nion", "state": "", "country": "GR", "coord": {"lon": 22.783331, "lat": 37.966671}}, {"id": 259578, "name": "Kokk\u00edni Ch\u00e1ni", "state": "", "country": "GR", "coord": {"lon": 25.258261, "lat": 35.327942}}, {"id": 259595, "name": "Kokk\u00e1ri", "state": "", "country": "GR", "coord": {"lon": 26.89389, "lat": 37.77639}}, {"id": 259618, "name": "Koil\u00e1s", "state": "", "country": "GR", "coord": {"lon": 23.11471, "lat": 37.409458}}, {"id": 259707, "name": "K\u00fdthnos", "state": "", "country": "GR", "coord": {"lon": 24.433331, "lat": 37.416672}}, {"id": 259710, "name": "K\u00fdthira", "state": "", "country": "GR", "coord": {"lon": 22.9925, "lat": 36.150002}}, {"id": 259718, "name": "K\u00edssamos", "state": "", "country": "GR", "coord": {"lon": 23.65694, "lat": 35.493889}}, {"id": 259720, "name": "K\u00edrra", "state": "", "country": "GR", "coord": {"lon": 22.450001, "lat": 38.433331}}, {"id": 259730, "name": "Kyri\u00e1ki", "state": "", "country": "GR", "coord": {"lon": 22.783331, "lat": 38.349998}}, {"id": 259734, "name": "Kyr\u00e1s Vr\u00fdsi", "state": "", "country": "GR", "coord": {"lon": 22.986, "lat": 37.91468}}, {"id": 259745, "name": "Kips\u00e9li", "state": "", "country": "GR", "coord": {"lon": 23.74107, "lat": 38.00272}}, {"id": 259754, "name": "Kiprian\u00f3s", "state": "", "country": "GR", "coord": {"lon": 24.049999, "lat": 37.716671}}, {"id": 259782, "name": "Kypariss\u00eda", "state": "", "country": "GR", "coord": {"lon": 21.673611, "lat": 37.25111}}, {"id": 259796, "name": "Kin\u00e9ta", "state": "", "country": "GR", "coord": {"lon": 23.218321, "lat": 37.97094}}, {"id": 259802, "name": "K\u00edmolos", "state": "", "country": "GR", "coord": {"lon": 24.58333, "lat": 36.799999}}, {"id": 259806, "name": "K\u00fdmi", "state": "", "country": "GR", "coord": {"lon": 24.1, "lat": 38.633331}}, {"id": 259813, "name": "Kyll\u00edni", "state": "", "country": "GR", "coord": {"lon": 21.15, "lat": 37.933331}}, {"id": 259819, "name": "Nom\u00f3s Kykl\u00e1don", "state": "", "country": "GR", "coord": {"lon": 24.91667, "lat": 37.416672}}, {"id": 259824, "name": "Kifisi\u00e1", "state": "", "country": "GR", "coord": {"lon": 23.81106, "lat": 38.074379}}, {"id": 259830, "name": "Ki\u00e1to", "state": "", "country": "GR", "coord": {"lon": 22.75, "lat": 38.01667}}, {"id": 259917, "name": "Ch\u00f3ra", "state": "", "country": "GR", "coord": {"lon": 26.90556, "lat": 37.703609}}, {"id": 259919, "name": "Ch\u00f3ra", "state": "", "country": "GR", "coord": {"lon": 21.716669, "lat": 37.049999}}, {"id": 259949, "name": "Cholarg\u00f3s", "state": "", "country": "GR", "coord": {"lon": 23.799999, "lat": 38}}, {"id": 259970, "name": "Chios", "state": "", "country": "GR", "coord": {"lon": 26, "lat": 38.416672}}, {"id": 259973, "name": "Chios", "state": "", "country": "GR", "coord": {"lon": 26.13583, "lat": 38.367779}}, {"id": 259993, "name": "Khiliom\u00f3dhi", "state": "", "country": "GR", "coord": {"lon": 22.866671, "lat": 37.816669}}, {"id": 260037, "name": "Ch\u00e1vari", "state": "", "country": "GR", "coord": {"lon": 21.383329, "lat": 37.849998}}, {"id": 260093, "name": "Chaniotis", "state": "", "country": "GR", "coord": {"lon": 23.580009, "lat": 39.999081}}, {"id": 260096, "name": "Nom\u00f3s Chani\u00e1s", "state": "", "country": "GR", "coord": {"lon": 24, "lat": 35.333328}}, {"id": 260114, "name": "Chani\u00e1", "state": "", "country": "GR", "coord": {"lon": 24.01556, "lat": 35.512218}}, {"id": 260128, "name": "Khalko\u00fatsion", "state": "", "country": "GR", "coord": {"lon": 23.73333, "lat": 38.333328}}, {"id": 260133, "name": "Chalk\u00edda", "state": "", "country": "GR", "coord": {"lon": 23.59944, "lat": 38.463612}}, {"id": 260142, "name": "Chalki\u00e1des", "state": "", "country": "GR", "coord": {"lon": 20.932501, "lat": 39.159168}}, {"id": 260144, "name": "Ch\u00e1lki", "state": "", "country": "GR", "coord": {"lon": 22.533331, "lat": 39.566669}}, {"id": 260145, "name": "Ch\u00e1lki", "state": "", "country": "GR", "coord": {"lon": 27.61191, "lat": 36.222431}}, {"id": 260171, "name": "Chalandr\u00edtsa", "state": "", "country": "GR", "coord": {"lon": 21.783331, "lat": 38.116669}}, {"id": 260172, "name": "Khal\u00e1ndrion", "state": "", "country": "GR", "coord": {"lon": 23.79793, "lat": 38.030579}}, {"id": 260183, "name": "Cha\u00efd\u00e1ri", "state": "", "country": "GR", "coord": {"lon": 23.66667, "lat": 38.01667}}, {"id": 260204, "name": "Kerats\u00edni", "state": "", "country": "GR", "coord": {"lon": 23.61972, "lat": 37.962502}}, {"id": 260210, "name": "Kerat\u00e9a", "state": "", "country": "GR", "coord": {"lon": 23.976919, "lat": 37.807331}}, {"id": 260220, "name": "Kerasoch\u00f3ri", "state": "", "country": "GR", "coord": {"lon": 21.637779, "lat": 39.005562}}, {"id": 260308, "name": "K\u00e9falos", "state": "", "country": "GR", "coord": {"lon": 26.958891, "lat": 36.745281}}, {"id": 260310, "name": "Nom\u00f3s Kefallin\u00edas", "state": "", "country": "GR", "coord": {"lon": 20.5, "lat": 38.25}}, {"id": 260348, "name": "K\u00e9a", "state": "", "country": "GR", "coord": {"lon": 24.35, "lat": 37.633331}}, {"id": 260379, "name": "Kav\u00e1sila", "state": "", "country": "GR", "coord": {"lon": 21.26667, "lat": 37.866669}}, {"id": 260420, "name": "Katsik\u00e1s", "state": "", "country": "GR", "coord": {"lon": 20.887501, "lat": 39.622501}}, {"id": 260451, "name": "K\u00e1to Vlas\u00eda", "state": "", "country": "GR", "coord": {"lon": 21.91667, "lat": 38}}, {"id": 260468, "name": "Kato\u00fana", "state": "", "country": "GR", "coord": {"lon": 21.116671, "lat": 38.783329}}, {"id": 260473, "name": "K\u00e1to Tithor\u00e9a", "state": "", "country": "GR", "coord": {"lon": 22.716669, "lat": 38.599998}}, {"id": 260478, "name": "K\u00e1to So\u00falion", "state": "", "country": "GR", "coord": {"lon": 24, "lat": 38.166672}}, {"id": 260506, "name": "K\u00e1to Pat\u00edsia", "state": "", "country": "GR", "coord": {"lon": 23.73333, "lat": 38.01667}}, {"id": 260531, "name": "K\u00e1to Mazar\u00e1ki", "state": "", "country": "GR", "coord": {"lon": 21.65, "lat": 38.066669}}, {"id": 260542, "name": "K\u00e1to Lekh\u00f3nia", "state": "", "country": "GR", "coord": {"lon": 23.033331, "lat": 39.333328}}, {"id": 260567, "name": "K\u00e1to Chori\u00f3", "state": "", "country": "GR", "coord": {"lon": 25.783331, "lat": 35.049999}}, {"id": 260604, "name": "K\u00e1to Glyk\u00f3vrysi", "state": "", "country": "GR", "coord": {"lon": 22.783331, "lat": 36.833328}}, {"id": 260629, "name": "K\u00e1to \u00c1ssos", "state": "", "country": "GR", "coord": {"lon": 22.83333, "lat": 37.950001}}, {"id": 260630, "name": "K\u00e1to As\u00edtai", "state": "", "country": "GR", "coord": {"lon": 25, "lat": 35.200001}}, {"id": 260644, "name": "K\u00e1to Acha\u1e2fa", "state": "", "country": "GR", "coord": {"lon": 21.549999, "lat": 38.150002}}, {"id": 260674, "name": "Katast\u00e1rion", "state": "", "country": "GR", "coord": {"lon": 20.76667, "lat": 37.833328}}, {"id": 260705, "name": "Kat\u00e1kali", "state": "", "country": "GR", "coord": {"lon": 21.67861, "lat": 39.901112}}, {"id": 260780, "name": "Kastr\u00e1ki", "state": "", "country": "GR", "coord": {"lon": 21.618059, "lat": 39.715561}}, {"id": 260804, "name": "Kast\u00e9lli", "state": "", "country": "GR", "coord": {"lon": 25.33773, "lat": 35.209019}}, {"id": 260811, "name": "Kast\u00e9lla", "state": "", "country": "GR", "coord": {"lon": 23.633329, "lat": 38.566669}}, {"id": 260821, "name": "Kastani\u00f3tissa", "state": "", "country": "GR", "coord": {"lon": 23.16667, "lat": 38.900002}}, {"id": 260886, "name": "Karpoch\u00f3ri", "state": "", "country": "GR", "coord": {"lon": 22.01667, "lat": 39.333328}}, {"id": 260891, "name": "Karpen\u00edsi", "state": "", "country": "GR", "coord": {"lon": 21.783331, "lat": 38.916672}}, {"id": 260895, "name": "Karpathos", "state": "", "country": "GR", "coord": {"lon": 27.213221, "lat": 35.507011}}, {"id": 260897, "name": "Karp\u00e1sion", "state": "", "country": "GR", "coord": {"lon": 25.23333, "lat": 39.933331}}, {"id": 260935, "name": "K\u00e1rystos", "state": "", "country": "GR", "coord": {"lon": 24.416109, "lat": 38.013329}}, {"id": 260956, "name": "Kary\u00e9s", "state": "", "country": "GR", "coord": {"lon": 22.5, "lat": 37.299999}}, {"id": 260979, "name": "Kar\u00e9s Apokorr\u00f3nou", "state": "", "country": "GR", "coord": {"lon": 24.1, "lat": 35.383331}}, {"id": 260987, "name": "Karditsomago\u00fala", "state": "", "country": "GR", "coord": {"lon": 21.92417, "lat": 39.391941}}, {"id": 260988, "name": "Nom\u00f3s Kardh\u00edtsas", "state": "", "country": "GR", "coord": {"lon": 21.75, "lat": 39.333328}}, {"id": 260989, "name": "Kard\u00edtsa", "state": "", "country": "GR", "coord": {"lon": 21.921671, "lat": 39.365559}}, {"id": 261002, "name": "Kardam\u00e1s", "state": "", "country": "GR", "coord": {"lon": 21.33333, "lat": 37.76667}}, {"id": 261003, "name": "Kard\u00e1maina", "state": "", "country": "GR", "coord": {"lon": 27.1425, "lat": 36.781391}}, {"id": 261039, "name": "Kar\u00e1toula", "state": "", "country": "GR", "coord": {"lon": 21.533331, "lat": 37.73333}}, {"id": 261132, "name": "Kapar\u00e9llion", "state": "", "country": "GR", "coord": {"lon": 23.216669, "lat": 38.23333}}, {"id": 261133, "name": "Kapandr\u00edti", "state": "", "country": "GR", "coord": {"lon": 23.883329, "lat": 38.216671}}, {"id": 261150, "name": "Kand\u00edla", "state": "", "country": "GR", "coord": {"lon": 20.933331, "lat": 38.700001}}, {"id": 261167, "name": "Kanal\u00e1ki", "state": "", "country": "GR", "coord": {"lon": 20.6, "lat": 39.233608}}, {"id": 261169, "name": "Kan\u00e1lia", "state": "", "country": "GR", "coord": {"lon": 22.883329, "lat": 39.5}}, {"id": 261211, "name": "Kam\u00e9na Vo\u00farla", "state": "", "country": "GR", "coord": {"lon": 22.78573, "lat": 38.778439}}, {"id": 261242, "name": "Kamp\u00ed", "state": "", "country": "GR", "coord": {"lon": 20.9, "lat": 39.216671}}, {"id": 261259, "name": "Kam\u00e1ri", "state": "", "country": "GR", "coord": {"lon": 22.58333, "lat": 38.099998}}, {"id": 261263, "name": "Kam\u00e1rion", "state": "", "country": "GR", "coord": {"lon": 25.816669, "lat": 36.799999}}, {"id": 261283, "name": "Kam\u00e1rai", "state": "", "country": "GR", "coord": {"lon": 22, "lat": 38.299999}}, {"id": 261396, "name": "Kallon\u00ed", "state": "", "country": "GR", "coord": {"lon": 26.208059, "lat": 39.23278}}, {"id": 261401, "name": "Kall\u00edthiro", "state": "", "country": "GR", "coord": {"lon": 21.906111, "lat": 39.28167}}, {"id": 261414, "name": "Kallith\u00e9a", "state": "", "country": "GR", "coord": {"lon": 23.700001, "lat": 37.950001}}, {"id": 261431, "name": "Kallif\u00f3ni", "state": "", "country": "GR", "coord": {"lon": 21.95611, "lat": 39.272499}}, {"id": 261445, "name": "Kal\u00fdvia Thoriko\u00fa", "state": "", "country": "GR", "coord": {"lon": 23.92766, "lat": 37.84066}}, {"id": 261490, "name": "Kaliv\u00e1ri", "state": "", "country": "GR", "coord": {"lon": 24.75, "lat": 37.966671}}, {"id": 261497, "name": "Kal\u00fdves", "state": "", "country": "GR", "coord": {"lon": 24.173531, "lat": 35.45116}}, {"id": 261507, "name": "K\u00e1lymnos", "state": "", "country": "GR", "coord": {"lon": 26.98333, "lat": 36.950001}}, {"id": 261537, "name": "Kal\u00e1vryta", "state": "", "country": "GR", "coord": {"lon": 22.112499, "lat": 38.032219}}, {"id": 261571, "name": "K\u00e1lamos", "state": "", "country": "GR", "coord": {"lon": 23.866671, "lat": 38.283329}}, {"id": 261596, "name": "Kalami\u00e1", "state": "", "country": "GR", "coord": {"lon": 20.931669, "lat": 39.165562}}, {"id": 261601, "name": "Kalamp\u00e1ka", "state": "", "country": "GR", "coord": {"lon": 21.62694, "lat": 39.704441}}, {"id": 261604, "name": "Kalamata", "state": "", "country": "GR", "coord": {"lon": 22.11417, "lat": 37.038891}}, {"id": 261614, "name": "\u00c1limos", "state": "", "country": "GR", "coord": {"lon": 23.72361, "lat": 37.910332}}, {"id": 261678, "name": "Kaisarian\u00ed", "state": "", "country": "GR", "coord": {"lon": 23.799999, "lat": 37.966671}}, {"id": 261680, "name": "Kaino\u00faryion", "state": "", "country": "GR", "coord": {"lon": 22.716669, "lat": 38.799999}}, {"id": 261681, "name": "Kaino\u00faryion", "state": "", "country": "GR", "coord": {"lon": 21.5, "lat": 38.599998}}, {"id": 261702, "name": "Micsi", "state": "", "country": "GR", "coord": {"lon": 28.183331, "lat": 36.416672}}, {"id": 261708, "name": "Ith\u00e1ki", "state": "", "country": "GR", "coord": {"lon": 20.718479, "lat": 38.364208}}, {"id": 261714, "name": "It\u00e9a", "state": "", "country": "GR", "coord": {"lon": 22.16667, "lat": 39.466671}}, {"id": 261715, "name": "It\u00e9a", "state": "", "country": "GR", "coord": {"lon": 22.41667, "lat": 38.433331}}, {"id": 261720, "name": "Istia\u00eda", "state": "", "country": "GR", "coord": {"lon": 23.152781, "lat": 38.95583}}, {"id": 261721, "name": "Isthm\u00eda", "state": "", "country": "GR", "coord": {"lon": 22.99988, "lat": 37.912109}}, {"id": 261723, "name": "Yst\u00e9rnia", "state": "", "country": "GR", "coord": {"lon": 25.053301, "lat": 37.621799}}, {"id": 261741, "name": "Nom\u00f3s Irakle\u00edou", "state": "", "country": "GR", "coord": {"lon": 25.16667, "lat": 35.166672}}, {"id": 261743, "name": "Ir\u00e1kleio", "state": "", "country": "GR", "coord": {"lon": 23.76667, "lat": 38.066669}}, {"id": 261745, "name": "Ir\u00e1kleion", "state": "", "country": "GR", "coord": {"lon": 25.14341, "lat": 35.327869}}, {"id": 261763, "name": "Ippoforv\u00edon", "state": "", "country": "GR", "coord": {"lon": 21.283331, "lat": 37.916672}}, {"id": 261772, "name": "\u00cdos", "state": "", "country": "GR", "coord": {"lon": 25.283331, "lat": 36.73333}}, {"id": 261777, "name": "Nom\u00f3s Ioann\u00ednon", "state": "", "country": "GR", "coord": {"lon": 20.66667, "lat": 39.75}}, {"id": 261779, "name": "Io\u00e1nnina", "state": "", "country": "GR", "coord": {"lon": 20.85083, "lat": 39.6675}}, {"id": 261797, "name": "Nom\u00f3s Ile\u00edas", "state": "", "country": "GR", "coord": {"lon": 21.58333, "lat": 37.75}}, {"id": 261807, "name": "Igoumen\u00edtsa", "state": "", "country": "GR", "coord": {"lon": 20.26556, "lat": 39.503891}}, {"id": 261814, "name": "Ier\u00e1petra", "state": "", "country": "GR", "coord": {"lon": 25.735279, "lat": 35.009998}}, {"id": 261816, "name": "Ydro\u00fassa", "state": "", "country": "GR", "coord": {"lon": 26.751671, "lat": 37.779442}}, {"id": 261822, "name": "\u00dddra", "state": "", "country": "GR", "coord": {"lon": 23.46697, "lat": 37.350948}}, {"id": 261842, "name": "Griz\u00e1no", "state": "", "country": "GR", "coord": {"lon": 22.049999, "lat": 39.633331}}, {"id": 261895, "name": "Grammen\u00edtsa", "state": "", "country": "GR", "coord": {"lon": 20.98056, "lat": 39.18306}}, {"id": 261900, "name": "Grammatiko\u00fa", "state": "", "country": "GR", "coord": {"lon": 21.5, "lat": 38.533329}}, {"id": 261903, "name": "Grammatik\u00f3", "state": "", "country": "GR", "coord": {"lon": 23.966669, "lat": 38.200001}}, {"id": 261910, "name": "Gra Liyi\u00e1", "state": "", "country": "GR", "coord": {"lon": 25.683331, "lat": 35.01667}}, {"id": 261912, "name": "Graik\u00f3s", "state": "", "country": "GR", "coord": {"lon": 22.23333, "lat": 37.316669}}, {"id": 261913, "name": "Graikoch\u00f3ri", "state": "", "country": "GR", "coord": {"lon": 20.295, "lat": 39.478889}}, {"id": 261921, "name": "Go\u00faves", "state": "", "country": "GR", "coord": {"lon": 25.313271, "lat": 35.310501}}, {"id": 261935, "name": "Go\u00farnes", "state": "", "country": "GR", "coord": {"lon": 25.277399, "lat": 35.32626}}, {"id": 261941, "name": "Gouri\u00e1", "state": "", "country": "GR", "coord": {"lon": 21.26667, "lat": 38.466671}}, {"id": 261956, "name": "Go\u00famero", "state": "", "country": "GR", "coord": {"lon": 21.616671, "lat": 37.76667}}, {"id": 261996, "name": "G\u00f3nnoi", "state": "", "country": "GR", "coord": {"lon": 22.466669, "lat": 39.866669}}, {"id": 262007, "name": "G\u00f3mfoi", "state": "", "country": "GR", "coord": {"lon": 21.692499, "lat": 39.463612}}, {"id": 262036, "name": "Glyf\u00e1da", "state": "", "country": "GR", "coord": {"lon": 23.769159, "lat": 37.858582}}, {"id": 262067, "name": "G\u00e1zi", "state": "", "country": "GR", "coord": {"lon": 25.06694, "lat": 35.32531}}, {"id": 262091, "name": "Gavalo\u00fa", "state": "", "country": "GR", "coord": {"lon": 21.533331, "lat": 38.533329}}, {"id": 262098, "name": "Gasto\u00fani", "state": "", "country": "GR", "coord": {"lon": 21.25, "lat": 37.849998}}, {"id": 262104, "name": "Gargali\u00e1noi", "state": "", "country": "GR", "coord": {"lon": 21.633329, "lat": 37.066669}}, {"id": 262135, "name": "Gal\u00e1tsi", "state": "", "country": "GR", "coord": {"lon": 23.75, "lat": 38.01667}}, {"id": 262140, "name": "Galat\u00e1s", "state": "", "country": "GR", "coord": {"lon": 21.566669, "lat": 38.349998}}, {"id": 262143, "name": "Galat\u00e1s", "state": "", "country": "GR", "coord": {"lon": 23.44886, "lat": 37.496181}}, {"id": 262144, "name": "Galat\u00e1s", "state": "", "country": "GR", "coord": {"lon": 23.966669, "lat": 35.5}}, {"id": 262159, "name": "Ga\u00eft\u00e1nion", "state": "", "country": "GR", "coord": {"lon": 20.866671, "lat": 37.783329}}, {"id": 262187, "name": "Nom\u00f3s Fthi\u00f3tidos", "state": "", "country": "GR", "coord": {"lon": 22.41667, "lat": 38.833328}}, {"id": 262217, "name": "Fry", "state": "", "country": "GR", "coord": {"lon": 26.933331, "lat": 35.416672}}, {"id": 262319, "name": "Fol\u00e9gandros", "state": "", "country": "GR", "coord": {"lon": 24.91667, "lat": 36.633331}}, {"id": 262322, "name": "Nom\u00f3s Fok\u00eddos", "state": "", "country": "GR", "coord": {"lon": 22.25, "lat": 38.5}}, {"id": 262383, "name": "Fyte\u00edes", "state": "", "country": "GR", "coord": {"lon": 21.183331, "lat": 38.700001}}, {"id": 262397, "name": "Fil\u00f3tion", "state": "", "country": "GR", "coord": {"lon": 25.5, "lat": 37.049999}}, {"id": 262402, "name": "F\u00edlla", "state": "", "country": "GR", "coord": {"lon": 23.683331, "lat": 38.433331}}, {"id": 262411, "name": "Filippi\u00e1da", "state": "", "country": "GR", "coord": {"lon": 20.882219, "lat": 39.20472}}, {"id": 262418, "name": "Filiatr\u00e1", "state": "", "country": "GR", "coord": {"lon": 21.58333, "lat": 37.150002}}, {"id": 262420, "name": "Fili\u00e1tes", "state": "", "country": "GR", "coord": {"lon": 20.311939, "lat": 39.601109}}, {"id": 262426, "name": "Fyl\u00ed", "state": "", "country": "GR", "coord": {"lon": 23.66667, "lat": 38.099998}}, {"id": 262433, "name": "F\u00edki", "state": "", "country": "GR", "coord": {"lon": 21.65556, "lat": 39.516941}}, {"id": 262462, "name": "F\u00e1rsala", "state": "", "country": "GR", "coord": {"lon": 22.38472, "lat": 39.29472}}, {"id": 262465, "name": "F\u00e1ros", "state": "", "country": "GR", "coord": {"lon": 23.616671, "lat": 38.400002}}, {"id": 262503, "name": "Mago\u00fala", "state": "", "country": "GR", "coord": {"lon": 21.80278, "lat": 39.455559}}, {"id": 262525, "name": "F\u00e1lanna", "state": "", "country": "GR", "coord": {"lon": 22.4, "lat": 39.716671}}, {"id": 262558, "name": "Exam\u00edlia", "state": "", "country": "GR", "coord": {"lon": 22.933331, "lat": 37.900002}}, {"id": 262564, "name": "Nom\u00f3s Evvo\u00edas", "state": "", "country": "GR", "coord": {"lon": 24, "lat": 38.5}}, {"id": 262572, "name": "Nom\u00f3s Evrytan\u00edas", "state": "", "country": "GR", "coord": {"lon": 21.66667, "lat": 39}}, {"id": 262603, "name": "Ermo\u00fapolis", "state": "", "country": "GR", "coord": {"lon": 24.94248, "lat": 37.442268}}, {"id": 262607, "name": "Ermi\u00f3ni", "state": "", "country": "GR", "coord": {"lon": 23.24423, "lat": 37.386902}}, {"id": 262609, "name": "Erythr\u00e9s", "state": "", "country": "GR", "coord": {"lon": 23.316669, "lat": 38.216671}}, {"id": 262628, "name": "Er\u00e9tria", "state": "", "country": "GR", "coord": {"lon": 23.799999, "lat": 38.400002}}, {"id": 262629, "name": "Eres\u00f3s", "state": "", "country": "GR", "coord": {"lon": 25.933331, "lat": 39.166672}}, {"id": 262636, "name": "Epit\u00e1lio", "state": "", "country": "GR", "coord": {"lon": 21.5, "lat": 37.633331}}, {"id": 262683, "name": "Ano Arhanes", "state": "", "country": "GR", "coord": {"lon": 25.16667, "lat": 35.23333}}, {"id": 262687, "name": "Enipi\u00e1s", "state": "", "country": "GR", "coord": {"lon": 22.566669, "lat": 39.216671}}, {"id": 262696, "name": "Empore\u00edo", "state": "", "country": "GR", "coord": {"lon": 25.44393, "lat": 36.358131}}, {"id": 262698, "name": "\u00c9mponas", "state": "", "country": "GR", "coord": {"lon": 27.856371, "lat": 36.226879}}, {"id": 262719, "name": "Ellinik\u00f3", "state": "", "country": "GR", "coord": {"lon": 23.73333, "lat": 37.883331}}, {"id": 262752, "name": "Elefs\u00edna", "state": "", "country": "GR", "coord": {"lon": 23.54295, "lat": 38.041351}}, {"id": 262757, "name": "Eleo\u00fasa", "state": "", "country": "GR", "coord": {"lon": 20.7925, "lat": 39.70639}}, {"id": 262776, "name": "El\u00e1teia", "state": "", "country": "GR", "coord": {"lon": 22.76667, "lat": 38.633331}}, {"id": 262784, "name": "Elass\u00f3na", "state": "", "country": "GR", "coord": {"lon": 22.18861, "lat": 39.894718}}, {"id": 262833, "name": "Ek\u00e1li", "state": "", "country": "GR", "coord": {"lon": 23.83333, "lat": 38.116669}}, {"id": 262862, "name": "Voulgar\u00e9li", "state": "", "country": "GR", "coord": {"lon": 21.183331, "lat": 39.371941}}, {"id": 262920, "name": "Dr\u00e9panon", "state": "", "country": "GR", "coord": {"lon": 22.89419, "lat": 37.542549}}, {"id": 262969, "name": "Dhr\u00e1fi", "state": "", "country": "GR", "coord": {"lon": 23.91667, "lat": 38.033329}}, {"id": 263000, "name": "Domok\u00f3s", "state": "", "country": "GR", "coord": {"lon": 22.30028, "lat": 39.12722}}, {"id": 263020, "name": "Dod\u00f3ni", "state": "", "country": "GR", "coord": {"lon": 20.775, "lat": 39.543331}}, {"id": 263021, "name": "Dodecanese", "state": "", "country": "GR", "coord": {"lon": 27.08333, "lat": 36.833328}}, {"id": 263034, "name": "D\u00edstomo", "state": "", "country": "GR", "coord": {"lon": 22.66667, "lat": 38.433331}}, {"id": 263075, "name": "Dimits\u00e1na", "state": "", "country": "GR", "coord": {"lon": 22.04417, "lat": 37.593609}}, {"id": 263166, "name": "Desk\u00e1ti", "state": "", "country": "GR", "coord": {"lon": 21.80278, "lat": 39.922501}}, {"id": 263178, "name": "Dherv\u00e9ni", "state": "", "country": "GR", "coord": {"lon": 22.41667, "lat": 38.133331}}, {"id": 263219, "name": "Delphi", "state": "", "country": "GR", "coord": {"lon": 22.5, "lat": 38.48333}}, {"id": 263257, "name": "Dar\u00e1tsos", "state": "", "country": "GR", "coord": {"lon": 23.98333, "lat": 35.5}}, {"id": 263471, "name": "Bendev\u00eds", "state": "", "country": "GR", "coord": {"lon": 25.133329, "lat": 35.333328}}, {"id": 263535, "name": "Rod\u00f3poli", "state": "", "country": "GR", "coord": {"lon": 23.883329, "lat": 38.116669}}, {"id": 263544, "name": "B\u00e1fra", "state": "", "country": "GR", "coord": {"lon": 20.87833, "lat": 39.599998}}, {"id": 263646, "name": "\u00c1gios Ge\u00f3rgios", "state": "", "country": "GR", "coord": {"lon": 22.933331, "lat": 38.400002}}, {"id": 263698, "name": "\u00c1yios Vas\u00edlios", "state": "", "country": "GR", "coord": {"lon": 22.799999, "lat": 37.799999}}, {"id": 263714, "name": "\u00c1yios Thom\u00e1s", "state": "", "country": "GR", "coord": {"lon": 23.58823, "lat": 38.281399}}, {"id": 263725, "name": "\u00c1gios St\u00e9fanos", "state": "", "country": "GR", "coord": {"lon": 23.85, "lat": 38.150002}}, {"id": 263730, "name": "\u00c1gios Spyr\u00eddon", "state": "", "country": "GR", "coord": {"lon": 20.86306, "lat": 39.14444}}, {"id": 263751, "name": "\u00c1yios Seraf\u00edm", "state": "", "country": "GR", "coord": {"lon": 22.700001, "lat": 38.799999}}, {"id": 263805, "name": "\u00c1yios Nik\u00f3laos", "state": "", "country": "GR", "coord": {"lon": 23.65, "lat": 38.416672}}, {"id": 263809, "name": "Arko\u00fadi", "state": "", "country": "GR", "coord": {"lon": 21.116671, "lat": 37.849998}}, {"id": 263824, "name": "\u00c1gios Nik\u00f3laos", "state": "", "country": "GR", "coord": {"lon": 25.713329, "lat": 35.191391}}, {"id": 263854, "name": "\u00c1yios Konstand\u00ednos", "state": "", "country": "GR", "coord": {"lon": 21.4, "lat": 38.633331}}, {"id": 263870, "name": "Agios Kirykos", "state": "", "country": "GR", "coord": {"lon": 26.294439, "lat": 37.614719}}, {"id": 263897, "name": "\u00c1gios Io\u00e1nnis", "state": "", "country": "GR", "coord": {"lon": 20.80722, "lat": 39.701389}}, {"id": 263978, "name": "Agios Dimitrios", "state": "", "country": "GR", "coord": {"lon": 21.08333, "lat": 39.400002}}, {"id": 263986, "name": "Agios Dimitrios", "state": "", "country": "GR", "coord": {"lon": 23.73333, "lat": 37.933331}}, {"id": 263997, "name": "\u00c1yios Athan\u00e1sios", "state": "", "country": "GR", "coord": {"lon": 22.76667, "lat": 39.23333}}, {"id": 264022, "name": "\u00c1gios Andr\u00e9as", "state": "", "country": "GR", "coord": {"lon": 22.76667, "lat": 37.349998}}, {"id": 264083, "name": "\u00c1gioi D\u00e9ka", "state": "", "country": "GR", "coord": {"lon": 24.966669, "lat": 35.066669}}, {"id": 264111, "name": "Ag\u00eda Varv\u00e1ra", "state": "", "country": "GR", "coord": {"lon": 23.66667, "lat": 37.98333}}, {"id": 264114, "name": "Ag\u00eda Varv\u00e1ra", "state": "", "country": "GR", "coord": {"lon": 25, "lat": 35.133331}}, {"id": 264128, "name": "Ag\u00eda Tri\u00e1da", "state": "", "country": "GR", "coord": {"lon": 22.91667, "lat": 38.349998}}, {"id": 264146, "name": "Agi\u00e1sos", "state": "", "country": "GR", "coord": {"lon": 26.370001, "lat": 39.084999}}, {"id": 264181, "name": "Ag\u00eda Paraskev\u00ed", "state": "", "country": "GR", "coord": {"lon": 26.271669, "lat": 39.248058}}, {"id": 264194, "name": "Ag\u00eda Paraskev\u00ed", "state": "", "country": "GR", "coord": {"lon": 23.83333, "lat": 38.01667}}, {"id": 264220, "name": "Ay\u00eda Mar\u00edna", "state": "", "country": "GR", "coord": {"lon": 23.533331, "lat": 37.75}}, {"id": 264221, "name": "Ag\u00eda Mar\u00edna", "state": "", "country": "GR", "coord": {"lon": 26.866671, "lat": 37.150002}}, {"id": 264223, "name": "Ag\u00eda Mar\u00edna", "state": "", "country": "GR", "coord": {"lon": 23.933331, "lat": 35.51667}}, {"id": 264260, "name": "Ag\u00eda Gal\u00edni", "state": "", "country": "GR", "coord": {"lon": 24.683331, "lat": 35.099998}}, {"id": 264283, "name": "Agi\u00e1", "state": "", "country": "GR", "coord": {"lon": 22.763611, "lat": 39.717781}}, {"id": 264353, "name": "Nom\u00f3s Attik\u00eds", "state": "", "country": "GR", "coord": {"lon": 23.5, "lat": 38.083328}}, {"id": 264359, "name": "Atsip\u00f3poulo", "state": "", "country": "GR", "coord": {"lon": 24.433331, "lat": 35.349998}}, {"id": 264371, "name": "Athens", "state": "", "country": "GR", "coord": {"lon": 23.716221, "lat": 37.97945}}, {"id": 264374, "name": "Ath\u00edkia", "state": "", "country": "GR", "coord": {"lon": 22.933331, "lat": 37.816669}}, {"id": 264390, "name": "Atal\u00e1nti", "state": "", "country": "GR", "coord": {"lon": 22.99917, "lat": 38.651112}}, {"id": 264396, "name": "\u00c1stros", "state": "", "country": "GR", "coord": {"lon": 22.730301, "lat": 37.403172}}, {"id": 264408, "name": "Astyp\u00e1laia", "state": "", "country": "GR", "coord": {"lon": 26.35, "lat": 36.549999}}, {"id": 264416, "name": "Astak\u00f3s", "state": "", "country": "GR", "coord": {"lon": 21.08135, "lat": 38.535561}}, {"id": 264421, "name": "\u00c1ssos", "state": "", "country": "GR", "coord": {"lon": 22.83333, "lat": 37.933331}}, {"id": 264445, "name": "Aspr\u00f3pyrgos", "state": "", "country": "GR", "coord": {"lon": 23.58333, "lat": 38.066669}}, {"id": 264481, "name": "Asop\u00f3s", "state": "", "country": "GR", "coord": {"lon": 22.866671, "lat": 36.73333}}, {"id": 264482, "name": "Asop\u00eda", "state": "", "country": "GR", "coord": {"lon": 23.5, "lat": 38.299999}}, {"id": 264496, "name": "As\u00edni", "state": "", "country": "GR", "coord": {"lon": 22.86207, "lat": 37.545399}}, {"id": 264501, "name": "As\u00edmion", "state": "", "country": "GR", "coord": {"lon": 25.1, "lat": 35.049999}}, {"id": 264516, "name": "Argyro\u00fapoli", "state": "", "country": "GR", "coord": {"lon": 23.75, "lat": 37.900002}}, {"id": 264519, "name": "Argyropo\u00fali", "state": "", "country": "GR", "coord": {"lon": 22.299999, "lat": 39.833328}}, {"id": 264545, "name": "Nom\u00f3s \u00c1rtas", "state": "", "country": "GR", "coord": {"lon": 21, "lat": 39.166672}}, {"id": 264547, "name": "Artesian\u00f3", "state": "", "country": "GR", "coord": {"lon": 21.89472, "lat": 39.402779}}, {"id": 264559, "name": "\u00c1rta", "state": "", "country": "GR", "coord": {"lon": 20.985279, "lat": 39.160561}}, {"id": 264604, "name": "\u00c1rma", "state": "", "country": "GR", "coord": {"lon": 23.48333, "lat": 38.349998}}, {"id": 264618, "name": "Archontoch\u00f3ri", "state": "", "country": "GR", "coord": {"lon": 21.033331, "lat": 38.700001}}, {"id": 264637, "name": "Archa\u00eda Olymp\u00eda", "state": "", "country": "GR", "coord": {"lon": 21.6271, "lat": 37.647881}}, {"id": 264638, "name": "Arkha\u00eda K\u00f3rinthos", "state": "", "country": "GR", "coord": {"lon": 22.883329, "lat": 37.916672}}, {"id": 264641, "name": "Ark\u00e1sa", "state": "", "country": "GR", "coord": {"lon": 27.133329, "lat": 35.466671}}, {"id": 264642, "name": "Arkaloch\u00f3ri", "state": "", "country": "GR", "coord": {"lon": 25.26667, "lat": 35.150002}}, {"id": 264644, "name": "Nom\u00f3s Arkad\u00edas", "state": "", "country": "GR", "coord": {"lon": 22.25, "lat": 37.583328}}, {"id": 264650, "name": "\u00c1ris", "state": "", "country": "GR", "coord": {"lon": 22, "lat": 37.099998}}, {"id": 264662, "name": "Aria", "state": "", "country": "GR", "coord": {"lon": 22.83539, "lat": 37.573719}}, {"id": 264668, "name": "Argost\u00f3lion", "state": "", "country": "GR", "coord": {"lon": 20.489031, "lat": 38.181091}}, {"id": 264670, "name": "\u00c1rgos", "state": "", "country": "GR", "coord": {"lon": 22.73333, "lat": 37.633331}}, {"id": 264673, "name": "Nom\u00f3s Argol\u00eddos", "state": "", "country": "GR", "coord": {"lon": 22.83333, "lat": 37.666672}}, {"id": 264677, "name": "Argalast\u00ed", "state": "", "country": "GR", "coord": {"lon": 23.216669, "lat": 39.23333}}, {"id": 264679, "name": "Arfar\u00e1", "state": "", "country": "GR", "coord": {"lon": 22.033331, "lat": 37.150002}}, {"id": 264694, "name": "\u00c1raxos", "state": "", "country": "GR", "coord": {"lon": 21.41667, "lat": 38.166672}}, {"id": 264714, "name": "Ar\u00e1chova", "state": "", "country": "GR", "coord": {"lon": 22.58333, "lat": 38.48333}}, {"id": 264748, "name": "Apollon\u00eda", "state": "", "country": "GR", "coord": {"lon": 24.723101, "lat": 36.97163}}, {"id": 264793, "name": "Anth\u00edli", "state": "", "country": "GR", "coord": {"lon": 22.466669, "lat": 38.849998}}, {"id": 264806, "name": "An\u00f3geia", "state": "", "country": "GR", "coord": {"lon": 24.88172, "lat": 35.29047}}, {"id": 264839, "name": "\u00c1no S\u00fdros", "state": "", "country": "GR", "coord": {"lon": 24.933331, "lat": 37.450001}}, {"id": 264878, "name": "\u00c1no Mer\u00e1", "state": "", "country": "GR", "coord": {"lon": 25.4, "lat": 37.450001}}, {"id": 264888, "name": "\u00c1no Li\u00f3sia", "state": "", "country": "GR", "coord": {"lon": 23.700001, "lat": 38.083328}}, {"id": 264890, "name": "\u00c1no Lekh\u00f3nia", "state": "", "country": "GR", "coord": {"lon": 23.049999, "lat": 39.333328}}, {"id": 264897, "name": "Kopan\u00e1ki", "state": "", "country": "GR", "coord": {"lon": 21.816669, "lat": 37.283329}}, {"id": 264909, "name": "\u00c1no Kastr\u00edtsi", "state": "", "country": "GR", "coord": {"lon": 21.83333, "lat": 38.26667}}, {"id": 264928, "name": "\u00c1no Kalent\u00edni", "state": "", "country": "GR", "coord": {"lon": 21.18528, "lat": 39.25}}, {"id": 264929, "name": "Anoixi", "state": "", "country": "GR", "coord": {"lon": 23.85, "lat": 38.133331}}, {"id": 265001, "name": "Megaloch\u00f3ri", "state": "", "country": "GR", "coord": {"lon": 23.34634, "lat": 37.712009}}, {"id": 265007, "name": "Agk\u00eddia", "state": "", "country": "GR", "coord": {"lon": 25.4, "lat": 37.099998}}, {"id": 265013, "name": "Angel\u00f3kastro", "state": "", "country": "GR", "coord": {"lon": 21.299999, "lat": 38.566669}}, {"id": 265028, "name": "An\u00e9za", "state": "", "country": "GR", "coord": {"lon": 20.92333, "lat": 39.08667}}, {"id": 265040, "name": "Andros", "state": "", "country": "GR", "coord": {"lon": 24.933331, "lat": 37.833328}}, {"id": 265056, "name": "Andrav\u00edda", "state": "", "country": "GR", "coord": {"lon": 21.26936, "lat": 37.90588}}, {"id": 265075, "name": "Ant\u00edparos", "state": "", "country": "GR", "coord": {"lon": 25.08333, "lat": 37.033329}}, {"id": 265078, "name": "Antim\u00e1cheia", "state": "", "country": "GR", "coord": {"lon": 27.09972, "lat": 36.810829}}, {"id": 265095, "name": "An\u00e1vra", "state": "", "country": "GR", "coord": {"lon": 22.08333, "lat": 39.200001}}, {"id": 265096, "name": "An\u00e1vra", "state": "", "country": "GR", "coord": {"lon": 22.549999, "lat": 39.066669}}, {"id": 265100, "name": "An\u00e1vyssos", "state": "", "country": "GR", "coord": {"lon": 23.950001, "lat": 37.73333}}, {"id": 265107, "name": "Anatol\u00ed", "state": "", "country": "GR", "coord": {"lon": 20.86528, "lat": 39.638889}}, {"id": 265127, "name": "Paral\u00eda Mil\u00e1tou", "state": "", "country": "GR", "coord": {"lon": 25.566669, "lat": 35.316669}}, {"id": 265133, "name": "An\u00e1fi", "state": "", "country": "GR", "coord": {"lon": 25.76667, "lat": 36.349998}}, {"id": 265142, "name": "Amorg\u00f3s", "state": "", "country": "GR", "coord": {"lon": 25.9, "lat": 36.833328}}, {"id": 265187, "name": "\u00c1mfissa", "state": "", "country": "GR", "coord": {"lon": 22.37306, "lat": 38.525002}}, {"id": 265189, "name": "Amfiloch\u00eda", "state": "", "country": "GR", "coord": {"lon": 21.166389, "lat": 38.85944}}, {"id": 265191, "name": "Amf\u00edkleia", "state": "", "country": "GR", "coord": {"lon": 22.58333, "lat": 38.633331}}, {"id": 265206, "name": "Ampel\u00f3na", "state": "", "country": "GR", "coord": {"lon": 22.366671, "lat": 39.75}}, {"id": 265210, "name": "Ambel\u00f3kipoi", "state": "", "country": "GR", "coord": {"lon": 20.866671, "lat": 37.76667}}, {"id": 265240, "name": "Ampel\u00e1kia", "state": "", "country": "GR", "coord": {"lon": 23.52445, "lat": 37.94902}}, {"id": 265243, "name": "Maro\u00fasi", "state": "", "country": "GR", "coord": {"lon": 23.799999, "lat": 38.049999}}, {"id": 265245, "name": "Am\u00e1rynthos", "state": "", "country": "GR", "coord": {"lon": 23.883329, "lat": 38.400002}}, {"id": 265252, "name": "Amali\u00e1da", "state": "", "country": "GR", "coord": {"lon": 21.35, "lat": 37.799999}}, {"id": 265292, "name": "Almyr\u00f3s", "state": "", "country": "GR", "coord": {"lon": 22.759439, "lat": 39.18222}}, {"id": 265300, "name": "\u00c1lli Meri\u00e1", "state": "", "country": "GR", "coord": {"lon": 22.98333, "lat": 39.366669}}, {"id": 265309, "name": "Aliv\u00e9ri", "state": "", "country": "GR", "coord": {"lon": 24.033331, "lat": 38.416672}}, {"id": 265342, "name": "Al\u00edartos", "state": "", "country": "GR", "coord": {"lon": 23.1, "lat": 38.366669}}, {"id": 265344, "name": "Alfeio\u00fasa", "state": "", "country": "GR", "coord": {"lon": 21.533331, "lat": 37.650002}}, {"id": 265417, "name": "Akr\u00e1ta", "state": "", "country": "GR", "coord": {"lon": 22.316669, "lat": 38.150002}}, {"id": 265420, "name": "Akraifn\u00eda", "state": "", "country": "GR", "coord": {"lon": 23.216669, "lat": 38.450001}}, {"id": 265488, "name": "Acharn\u00e9s", "state": "", "country": "GR", "coord": {"lon": 23.73333, "lat": 38.083328}}, {"id": 265491, "name": "Nom\u00f3s Acha\u1e2fas", "state": "", "country": "GR", "coord": {"lon": 22, "lat": 38}}, {"id": 265498, "name": "A\u00edyira", "state": "", "country": "GR", "coord": {"lon": 22.35, "lat": 38.150002}}, {"id": 265500, "name": "A\u00edgio", "state": "", "country": "GR", "coord": {"lon": 22.08194, "lat": 38.248611}}, {"id": 265502, "name": "Aegina", "state": "", "country": "GR", "coord": {"lon": 23.4275, "lat": 37.74667}}, {"id": 265507, "name": "Aitolik\u00f3", "state": "", "country": "GR", "coord": {"lon": 21.35, "lat": 38.433331}}, {"id": 265508, "name": "Nom\u00f3s Aitol\u00edas kai Akarnan\u00edas", "state": "", "country": "GR", "coord": {"lon": 21.5, "lat": 38.5}}, {"id": 265533, "name": "Aig\u00e1leo", "state": "", "country": "GR", "coord": {"lon": 23.683331, "lat": 37.98333}}, {"id": 265546, "name": "Ai\u00e1nteio", "state": "", "country": "GR", "coord": {"lon": 23.466129, "lat": 37.922779}}, {"id": 265560, "name": "Agr\u00ednio", "state": "", "country": "GR", "coord": {"lon": 21.40778, "lat": 38.621391}}, {"id": 265601, "name": "Agri\u00e1", "state": "", "country": "GR", "coord": {"lon": 23.01667, "lat": 39.333328}}, {"id": 265627, "name": "Agnanter\u00f3", "state": "", "country": "GR", "coord": {"lon": 21.84556, "lat": 39.487221}}, {"id": 265650, "name": "Afr\u00e1tion", "state": "", "country": "GR", "coord": {"lon": 23.683331, "lat": 38.450001}}, {"id": 265711, "name": "Ad\u00e1mas", "state": "", "country": "GR", "coord": {"lon": 24.433331, "lat": 36.73333}}, {"id": 265846, "name": "Zghart\u0101", "state": "", "country": "LB", "coord": {"lon": 35.893608, "lat": 34.399719}}, {"id": 266045, "name": "Zahl\u00e9", "state": "", "country": "LB", "coord": {"lon": 35.904171, "lat": 33.84972}}, {"id": 266826, "name": "Tripoli", "state": "", "country": "LB", "coord": {"lon": 35.84972, "lat": 34.436668}}, {"id": 267008, "name": "Tyre", "state": "", "country": "LB", "coord": {"lon": 35.19389, "lat": 33.273331}}, {"id": 267156, "name": "S\u00eer ed Danniy\u00e9", "state": "", "country": "LB", "coord": {"lon": 36.031109, "lat": 34.385281}}, {"id": 268064, "name": "Sidon", "state": "", "country": "LB", "coord": {"lon": 35.368889, "lat": 33.563061}}, {"id": 268743, "name": "Ra\u2019s Bayr\u016bt", "state": "", "country": "LB", "coord": {"lon": 35.48333, "lat": 33.900002}}, {"id": 271226, "name": "Marjayo\u00fbn", "state": "", "country": "LB", "coord": {"lon": 35.59111, "lat": 33.360279}}, {"id": 272103, "name": "Lebanon", "state": "", "country": "LB", "coord": {"lon": 35.833328, "lat": 33.833328}}, {"id": 273140, "name": "Jounieh", "state": "", "country": "LB", "coord": {"lon": 35.617779, "lat": 33.980831}}, {"id": 273185, "name": "Joubb Jann\u00eene", "state": "", "country": "LB", "coord": {"lon": 35.784168, "lat": 33.626942}}, {"id": 273203, "name": "Jba\u00efl", "state": "", "country": "LB", "coord": {"lon": 35.64806, "lat": 34.121109}}, {"id": 273360, "name": "Jezz\u00eene", "state": "", "country": "LB", "coord": {"lon": 35.584438, "lat": 33.541672}}, {"id": 273607, "name": "Mohafazat Mont-Liban", "state": "", "country": "LB", "coord": {"lon": 35.666672, "lat": 33.916672}}, {"id": 274219, "name": "Houra", "state": "", "country": "LB", "coord": {"lon": 35.554169, "lat": 33.29417}}, {"id": 274313, "name": "H\u00e2sba\u00efya", "state": "", "country": "LB", "coord": {"lon": 35.685001, "lat": 33.397781}}, {"id": 274723, "name": "Halba", "state": "", "country": "LB", "coord": {"lon": 36.07972, "lat": 34.542782}}, {"id": 274874, "name": "Habbo\u00fbch", "state": "", "country": "LB", "coord": {"lon": 35.48278, "lat": 33.407501}}, {"id": 276359, "name": "Bcharr\u00e9", "state": "", "country": "LB", "coord": {"lon": 36.010559, "lat": 34.250832}}, {"id": 276592, "name": "Bent Jba\u00efl", "state": "", "country": "LB", "coord": {"lon": 35.433331, "lat": 33.119438}}, {"id": 276632, "name": "Bhamdo\u00fbn el Mhatta", "state": "", "country": "LB", "coord": {"lon": 35.659721, "lat": 33.808609}}, {"id": 276633, "name": "Bhamdoun", "state": "", "country": "LB", "coord": {"lon": 35.651112, "lat": 33.794998}}, {"id": 276771, "name": "Be\u00eft ed D\u00eene", "state": "", "country": "LB", "coord": {"lon": 35.58083, "lat": 33.694172}}, {"id": 276780, "name": "Beyrouth", "state": "", "country": "LB", "coord": {"lon": 35.5, "lat": 33.883331}}, {"id": 276781, "name": "Beirut", "state": "", "country": "LB", "coord": {"lon": 35.494419, "lat": 33.888939}}, {"id": 277130, "name": "Baalbek", "state": "", "country": "LB", "coord": {"lon": 36.21806, "lat": 34.005829}}, {"id": 277226, "name": "Baabda", "state": "", "country": "LB", "coord": {"lon": 35.54417, "lat": 33.833889}}, {"id": 277467, "name": "Ain Ebel", "state": "", "country": "LB", "coord": {"lon": 35.402512, "lat": 33.110229}}, {"id": 278297, "name": "Mohafazat Liban-Nord", "state": "", "country": "LB", "coord": {"lon": 35.916672, "lat": 34.333328}}, {"id": 278913, "name": "Nabat\u00eey\u00e9 et Tahta", "state": "", "country": "LB", "coord": {"lon": 35.483891, "lat": 33.378891}}, {"id": 278936, "name": "Amio\u00fbn", "state": "", "country": "LB", "coord": {"lon": 35.808891, "lat": 34.299999}}, {"id": 279854, "name": "Jdaidet el Matn", "state": "", "country": "LB", "coord": {"lon": 35.566391, "lat": 33.89056}}, {"id": 279894, "name": "Mohafazat Liban-Sud", "state": "", "country": "LB", "coord": {"lon": 35.333328, "lat": 33.416672}}, {"id": 279997, "name": "El Hermel", "state": "", "country": "LB", "coord": {"lon": 36.38472, "lat": 34.394169}}, {"id": 280282, "name": "Mohafazat B\u00e9qaa", "state": "", "country": "LB", "coord": {"lon": 35.833328, "lat": 33.666672}}, {"id": 280328, "name": "Batro\u00fbn", "state": "", "country": "LB", "coord": {"lon": 35.658058, "lat": 34.25528}}, {"id": 280425, "name": "Aaley", "state": "", "country": "LB", "coord": {"lon": 35.599998, "lat": 33.805279}}, {"id": 281093, "name": "Sh\u016bkat a\u015f \u015e\u016bf\u012b", "state": "", "country": "PS", "coord": {"lon": 34.2826, "lat": 31.25997}}, {"id": 281102, "name": "Rafa\u1e29", "state": "", "country": "PS", "coord": {"lon": 34.259521, "lat": 31.287001}}, {"id": 281109, "name": "An Nu\u015fayr\u0101t", "state": "", "country": "PS", "coord": {"lon": 34.392502, "lat": 31.44861}}, {"id": 281119, "name": "Khuz\u0101\u2018ah", "state": "", "country": "PS", "coord": {"lon": 34.361099, "lat": 31.306749}}, {"id": 281124, "name": "Kh\u0101n Y\u016bnis", "state": "", "country": "PS", "coord": {"lon": 34.306271, "lat": 31.340179}}, {"id": 281129, "name": "Jab\u0101ly\u0101", "state": "", "country": "PS", "coord": {"lon": 34.48634, "lat": 31.52722}}, {"id": 281132, "name": "Gaza Strip", "state": "", "country": "PS", "coord": {"lon": 34.333328, "lat": 31.41667}}, {"id": 281133, "name": "Gaza", "state": "", "country": "PS", "coord": {"lon": 34.466671, "lat": 31.5}}, {"id": 281141, "name": "Dayr al Bala\u1e29", "state": "", "country": "PS", "coord": {"lon": 34.345249, "lat": 31.41655}}, {"id": 281145, "name": "Bayt L\u0101hy\u0101", "state": "", "country": "PS", "coord": {"lon": 34.49514, "lat": 31.5464}}, {"id": 281146, "name": "Bayt \u1e28\u0101n\u016bn", "state": "", "country": "PS", "coord": {"lon": 34.535789, "lat": 31.535299}}, {"id": 281148, "name": "Ban\u012b Suhayl\u0101", "state": "", "country": "PS", "coord": {"lon": 34.323372, "lat": 31.34337}}, {"id": 281160, "name": "Al Fukhkh\u0101r\u012b", "state": "", "country": "PS", "coord": {"lon": 34.330608, "lat": 31.29278}}, {"id": 281161, "name": "Al Burayj", "state": "", "country": "PS", "coord": {"lon": 34.403061, "lat": 31.43944}}, {"id": 281165, "name": "\u2018Abas\u0101n al Kab\u012brah", "state": "", "country": "PS", "coord": {"lon": 34.34005, "lat": 31.31913}}, {"id": 281184, "name": "Jerusalem", "state": "", "country": "IL", "coord": {"lon": 35.216331, "lat": 31.769039}}, {"id": 281207, "name": "Zub\u016bbah", "state": "", "country": "PS", "coord": {"lon": 35.22274, "lat": 32.543461}}, {"id": 281226, "name": "Zayt\u0101", "state": "", "country": "PS", "coord": {"lon": 35.05122, "lat": 32.385601}}, {"id": 281227, "name": "Zayt\u0101 Jamm\u0101\u2018\u012bn", "state": "", "country": "PS", "coord": {"lon": 35.185951, "lat": 32.136978}}, {"id": 281236, "name": "Zaw\u0101t\u0101", "state": "", "country": "PS", "coord": {"lon": 35.226501, "lat": 32.246101}}, {"id": 281240, "name": "Za\u2018tarah", "state": "", "country": "PS", "coord": {"lon": 35.256618, "lat": 31.673611}}, {"id": 281292, "name": "Yuta", "state": "", "country": "PS", "coord": {"lon": 35.083328, "lat": 31.450001}}, {"id": 281293, "name": "Yatm\u0101", "state": "", "country": "PS", "coord": {"lon": 35.269089, "lat": 32.108891}}, {"id": 281295, "name": "Y\u0101s\u016bf", "state": "", "country": "PS", "coord": {"lon": 35.237839, "lat": 32.10841}}, {"id": 281297, "name": "Y\u0101\u015f\u012bd", "state": "", "country": "PS", "coord": {"lon": 35.277569, "lat": 32.296879}}, {"id": 281318, "name": "Ya\u2018bad", "state": "", "country": "PS", "coord": {"lon": 35.168221, "lat": 32.44566}}, {"id": 281356, "name": "W\u0101d\u012b F\u016bk\u012bn", "state": "", "country": "PS", "coord": {"lon": 35.103661, "lat": 31.70702}}, {"id": 281408, "name": "\u2018\u016ar\u012bf", "state": "", "country": "PS", "coord": {"lon": 35.222279, "lat": 32.159489}}, {"id": 281548, "name": "\u016adalah", "state": "", "country": "PS", "coord": {"lon": 35.276459, "lat": 32.153629}}, {"id": 281560, "name": "Turmus\u2018ayy\u0101", "state": "", "country": "PS", "coord": {"lon": 35.285641, "lat": 32.035381}}, {"id": 281577, "name": "\u0162\u016blkarm", "state": "", "country": "PS", "coord": {"lon": 35.028629, "lat": 32.310371}}, {"id": 281581, "name": "\u0162\u016bb\u0101s", "state": "", "country": "PS", "coord": {"lon": 35.369888, "lat": 32.320911}}, {"id": 281623, "name": "Tay\u0101s\u012br", "state": "", "country": "PS", "coord": {"lon": 35.396042, "lat": 32.34042}}, {"id": 281637, "name": "Tarq\u016bmy\u0101", "state": "", "country": "PS", "coord": {"lon": 35.01223, "lat": 31.57551}}, {"id": 281657, "name": "\u0162amm\u016bn", "state": "", "country": "PS", "coord": {"lon": 35.383671, "lat": 32.28347}}, {"id": 281662, "name": "\u0162all\u016bzah", "state": "", "country": "PS", "coord": {"lon": 35.29496, "lat": 32.270561}}, {"id": 281674, "name": "Till", "state": "", "country": "PS", "coord": {"lon": 35.212929, "lat": 32.20068}}, {"id": 281675, "name": "Talf\u012bt", "state": "", "country": "PS", "coord": {"lon": 35.290939, "lat": 32.086639}}, {"id": 281690, "name": "Taff\u016b\u1e29", "state": "", "country": "PS", "coord": {"lon": 35.04966, "lat": 31.538549}}, {"id": 281715, "name": "\u015e\u016br\u012bf", "state": "", "country": "PS", "coord": {"lon": 35.064388, "lat": 31.65078}}, {"id": 281716, "name": "Surd\u0101", "state": "", "country": "PS", "coord": {"lon": 35.203209, "lat": 31.93709}}, {"id": 281764, "name": "S\u012br\u012bs", "state": "", "country": "PS", "coord": {"lon": 35.29134, "lat": 32.328281}}, {"id": 281778, "name": "Sinjil", "state": "", "country": "PS", "coord": {"lon": 35.26545, "lat": 32.03334}}, {"id": 281789, "name": "Silw\u0101d", "state": "", "country": "PS", "coord": {"lon": 35.261299, "lat": 31.97625}}, {"id": 281790, "name": "S\u012blat az\u0327 Z\u0327ahr", "state": "", "country": "PS", "coord": {"lon": 35.184181, "lat": 32.31934}}, {"id": 281791, "name": "S\u012blat al \u1e28\u0101rith\u012byah", "state": "", "country": "PS", "coord": {"lon": 35.22752, "lat": 32.508469}}, {"id": 281793, "name": "Sa\u2018\u012br", "state": "", "country": "PS", "coord": {"lon": 35.140171, "lat": 31.57855}}, {"id": 281808, "name": "Shuqb\u0101", "state": "", "country": "PS", "coord": {"lon": 35.040119, "lat": 31.986959}}, {"id": 281819, "name": "Sh\u016bfah", "state": "", "country": "PS", "coord": {"lon": 35.081348, "lat": 32.275509}}, {"id": 281965, "name": "\u015eayd\u0101", "state": "", "country": "PS", "coord": {"lon": 35.118561, "lat": 32.384892}}, {"id": 281979, "name": "\u015ear\u0163ah", "state": "", "country": "PS", "coord": {"lon": 35.09198, "lat": 32.104469}}, {"id": 281982, "name": "\u015earrah", "state": "", "country": "PS", "coord": {"lon": 35.191471, "lat": 32.209702}}, {"id": 281997, "name": "\u015e\u0101n\u016br", "state": "", "country": "PS", "coord": {"lon": 35.245369, "lat": 32.356079}}, {"id": 281998, "name": "Sann\u012bry\u0101", "state": "", "country": "PS", "coord": {"lon": 35.04652, "lat": 32.128769}}, {"id": 282034, "name": "S\u0101lim", "state": "", "country": "PS", "coord": {"lon": 35.330341, "lat": 32.209621}}, {"id": 282039, "name": "Salf\u012bt", "state": "", "country": "PS", "coord": {"lon": 35.18079, "lat": 32.083698}}, {"id": 282069, "name": "\u015eaff\u0101", "state": "", "country": "PS", "coord": {"lon": 35.06094, "lat": 31.90563}}, {"id": 282108, "name": "Sabas\u0163\u012byah", "state": "", "country": "PS", "coord": {"lon": 35.19873, "lat": 32.27562}}, {"id": 282119, "name": "Rummanah", "state": "", "country": "PS", "coord": {"lon": 35.2048, "lat": 32.524509}}, {"id": 282140, "name": "R\u016bjayb", "state": "", "country": "PS", "coord": {"lon": 35.29332, "lat": 32.190609}}, {"id": 282185, "name": "R\u0101s Karkar", "state": "", "country": "PS", "coord": {"lon": 35.107731, "lat": 31.9424}}, {"id": 282230, "name": "Rant\u012bs", "state": "", "country": "PS", "coord": {"lon": 35.018791, "lat": 32.027969}}, {"id": 282234, "name": "Ramm\u016bn", "state": "", "country": "PS", "coord": {"lon": 35.298222, "lat": 31.93342}}, {"id": 282237, "name": "R\u0101m\u012bn", "state": "", "country": "PS", "coord": {"lon": 35.149509, "lat": 32.285198}}, {"id": 282239, "name": "Ramallah", "state": "", "country": "PS", "coord": {"lon": 35.184589, "lat": 31.89502}}, {"id": 282264, "name": "R\u0101f\u0101t", "state": "", "country": "PS", "coord": {"lon": 35.04417, "lat": 32.07806}},