[{"id": 4678005, "name": "Caddo Mills", "state": "TX", "country": "US", "coord": {"lon": -96.22776, "lat": 33.06567}}, {"id": 4678111, "name": "Caldwell", "state": "TX", "country": "US", "coord": {"lon": -96.693031, "lat": 30.531321}}, {"id": 4678165, "name": "Calhoun County", "state": "TX", "country": "US", "coord": {"lon": -96.61692, "lat": 28.466949}}, {"id": 4678322, "name": "Calvert", "state": "TX", "country": "US", "coord": {"lon": -96.673859, "lat": 30.97797}}, {"id": 4678357, "name": "Cameron", "state": "TX", "country": "US", "coord": {"lon": -96.976929, "lat": 30.853251}}, {"id": 4678364, "name": "Cameron County", "state": "TX", "country": "US", "coord": {"lon": -97.51693, "lat": 26.11702}}, {"id": 4678379, "name": "Cameron Park", "state": "TX", "country": "US", "coord": {"lon": -97.476646, "lat": 25.96452}}, {"id": 4678381, "name": "Cameron Park Colonia", "state": "TX", "country": "US", "coord": {"lon": -97.478317, "lat": 25.97147}}, {"id": 4678497, "name": "Camp Hulen", "state": "TX", "country": "US", "coord": {"lon": -96.243301, "lat": 28.706659}}, {"id": 4678565, "name": "Camp Swift", "state": "TX", "country": "US", "coord": {"lon": -97.292213, "lat": 30.190769}}, {"id": 4678723, "name": "Caney", "state": "TX", "country": "US", "coord": {"lon": -95.854683, "lat": 28.963591}}, {"id": 4678858, "name": "Canton", "state": "TX", "country": "US", "coord": {"lon": -95.863297, "lat": 32.556519}}, {"id": 4678901, "name": "Canyon Lake", "state": "TX", "country": "US", "coord": {"lon": -98.262512, "lat": 29.875219}}, {"id": 4679148, "name": "Carrizo Springs", "state": "TX", "country": "US", "coord": {"lon": -99.860611, "lat": 28.521931}}, {"id": 4679195, "name": "Carrollton", "state": "TX", "country": "US", "coord": {"lon": -96.890282, "lat": 32.953732}}, {"id": 4679272, "name": "Carthage", "state": "TX", "country": "US", "coord": {"lon": -94.337418, "lat": 32.157379}}, {"id": 4679435, "name": "Cass County", "state": "TX", "country": "US", "coord": {"lon": -94.350189, "lat": 33.066799}}, {"id": 4679437, "name": "Castle Hills", "state": "TX", "country": "US", "coord": {"lon": -98.516411, "lat": 29.523291}}, {"id": 4679459, "name": "Castroville", "state": "TX", "country": "US", "coord": {"lon": -98.878639, "lat": 29.355789}}, {"id": 4679642, "name": "Cedar Bayou", "state": "TX", "country": "US", "coord": {"lon": -94.942146, "lat": 29.775499}}, {"id": 4679803, "name": "Cedar Hill", "state": "TX", "country": "US", "coord": {"lon": -96.956123, "lat": 32.58847}}, {"id": 4679867, "name": "Cedar Park", "state": "TX", "country": "US", "coord": {"lon": -97.82029, "lat": 30.505199}}, {"id": 4679930, "name": "Cego", "state": "TX", "country": "US", "coord": {"lon": -97.162498, "lat": 31.24518}}, {"id": 4679944, "name": "Celina", "state": "TX", "country": "US", "coord": {"lon": -96.784439, "lat": 33.324558}}, {"id": 4679987, "name": "Center", "state": "TX", "country": "US", "coord": {"lon": -96.424698, "lat": 31.510731}}, {"id": 4679988, "name": "Center", "state": "TX", "country": "US", "coord": {"lon": -94.179092, "lat": 31.79545}}, {"id": 4680036, "name": "Center Point", "state": "TX", "country": "US", "coord": {"lon": -96.061081, "lat": 33.092339}}, {"id": 4680082, "name": "Centerville", "state": "TX", "country": "US", "coord": {"lon": -95.978287, "lat": 31.257959}}, {"id": 4680165, "name": "Central Gardens", "state": "TX", "country": "US", "coord": {"lon": -94.014061, "lat": 29.995489}}, {"id": 4680258, "name": "C\u00e9sar Ch\u00e1vez", "state": "TX", "country": "US", "coord": {"lon": -98.115288, "lat": 26.3034}}, {"id": 4680367, "name": "Chances Store", "state": "TX", "country": "US", "coord": {"lon": -96.3908, "lat": 30.521311}}, {"id": 4680369, "name": "Chandler", "state": "TX", "country": "US", "coord": {"lon": -95.479958, "lat": 32.30793}}, {"id": 4680388, "name": "Channelview", "state": "TX", "country": "US", "coord": {"lon": -95.114647, "lat": 29.77606}}, {"id": 4680560, "name": "Charlotte", "state": "TX", "country": "US", "coord": {"lon": -98.706413, "lat": 28.861919}}, {"id": 4680611, "name": "Cherokee County", "state": "TX", "country": "US", "coord": {"lon": -95.200218, "lat": 31.85017}}, {"id": 4680702, "name": "Chico", "state": "TX", "country": "US", "coord": {"lon": -97.79892, "lat": 33.295952}}, {"id": 4680774, "name": "China", "state": "TX", "country": "US", "coord": {"lon": -94.335739, "lat": 30.047991}}, {"id": 4680782, "name": "China Grove", "state": "TX", "country": "US", "coord": {"lon": -98.3489, "lat": 29.388849}}, {"id": 4681462, "name": "Cibolo", "state": "TX", "country": "US", "coord": {"lon": -98.226959, "lat": 29.561621}}, {"id": 4681485, "name": "Cinco Ranch", "state": "TX", "country": "US", "coord": {"lon": -95.758003, "lat": 29.73884}}, {"id": 4681521, "name": "Cisco", "state": "TX", "country": "US", "coord": {"lon": -98.979233, "lat": 32.388191}}, {"id": 4681542, "name": "Citrus City", "state": "TX", "country": "US", "coord": {"lon": -98.3853, "lat": 26.32646}}, {"id": 4681758, "name": "Clarksville", "state": "TX", "country": "US", "coord": {"lon": -95.052719, "lat": 33.610661}}, {"id": 4681782, "name": "Clay County", "state": "TX", "country": "US", "coord": {"lon": -98.216988, "lat": 33.766769}}, {"id": 4681806, "name": "Clayton", "state": "TX", "country": "US", "coord": {"lon": -94.474922, "lat": 32.098221}}, {"id": 4681951, "name": "Clear Lake Shores", "state": "TX", "country": "US", "coord": {"lon": -95.03215, "lat": 29.547449}}, {"id": 4681976, "name": "Cleburne", "state": "TX", "country": "US", "coord": {"lon": -97.386681, "lat": 32.347641}}, {"id": 4682031, "name": "Cleveland", "state": "TX", "country": "US", "coord": {"lon": -99.25367, "lat": 31.676821}}, {"id": 4682032, "name": "Cleveland", "state": "TX", "country": "US", "coord": {"lon": -95.085487, "lat": 30.34132}}, {"id": 4682066, "name": "Clifton", "state": "TX", "country": "US", "coord": {"lon": -97.576691, "lat": 31.782379}}, {"id": 4682127, "name": "Cloverleaf", "state": "TX", "country": "US", "coord": {"lon": -95.171883, "lat": 29.77828}}, {"id": 4682163, "name": "Clute", "state": "TX", "country": "US", "coord": {"lon": -95.398827, "lat": 29.024691}}, {"id": 4682169, "name": "Clyde", "state": "TX", "country": "US", "coord": {"lon": -99.49369, "lat": 32.40596}}, {"id": 4682251, "name": "Cockrell Hill", "state": "TX", "country": "US", "coord": {"lon": -96.886948, "lat": 32.73624}}, {"id": 4682352, "name": "Coldspring", "state": "TX", "country": "US", "coord": {"lon": -95.129379, "lat": 30.592421}}, {"id": 4682380, "name": "Coleman", "state": "TX", "country": "US", "coord": {"lon": -99.426453, "lat": 31.82737}}, {"id": 4682392, "name": "Coleman County", "state": "TX", "country": "US", "coord": {"lon": -99.45034, "lat": 31.78348}}, {"id": 4682464, "name": "College Station", "state": "TX", "country": "US", "coord": {"lon": -96.334412, "lat": 30.627979}}, {"id": 4682478, "name": "Colleyville", "state": "TX", "country": "US", "coord": {"lon": -97.155006, "lat": 32.880959}}, {"id": 4682500, "name": "Collin County", "state": "TX", "country": "US", "coord": {"lon": -96.566933, "lat": 33.200119}}, {"id": 4682536, "name": "Collinsville", "state": "TX", "country": "US", "coord": {"lon": -96.91111, "lat": 33.561501}}, {"id": 4682665, "name": "Columbus", "state": "TX", "country": "US", "coord": {"lon": -96.539688, "lat": 29.706619}}, {"id": 4682688, "name": "Comal County", "state": "TX", "country": "US", "coord": {"lon": -98.300293, "lat": 29.816891}}, {"id": 4682698, "name": "Comanche", "state": "TX", "country": "US", "coord": {"lon": -98.603661, "lat": 31.897369}}, {"id": 4682742, "name": "Combes", "state": "TX", "country": "US", "coord": {"lon": -97.733879, "lat": 26.24869}}, {"id": 4682745, "name": "Combine", "state": "TX", "country": "US", "coord": {"lon": -96.508598, "lat": 32.58847}}, {"id": 4682748, "name": "Comfort", "state": "TX", "country": "US", "coord": {"lon": -98.905029, "lat": 29.96772}}, {"id": 4682762, "name": "Commerce", "state": "TX", "country": "US", "coord": {"lon": -95.899971, "lat": 33.247059}}, {"id": 4682991, "name": "Conroe", "state": "TX", "country": "US", "coord": {"lon": -95.456047, "lat": 30.31188}}, {"id": 4683021, "name": "Converse", "state": "TX", "country": "US", "coord": {"lon": -98.316116, "lat": 29.518009}}, {"id": 4683066, "name": "Cooke County", "state": "TX", "country": "US", "coord": {"lon": -97.216957, "lat": 33.633438}}, {"id": 4683141, "name": "Cooper", "state": "TX", "country": "US", "coord": {"lon": -95.688293, "lat": 33.37344}}, {"id": 4683142, "name": "Cooper", "state": "TX", "country": "US", "coord": {"lon": -95.582169, "lat": 31.24324}}, {"id": 4683191, "name": "Copano Village", "state": "TX", "country": "US", "coord": {"lon": -97.058319, "lat": 28.08807}}, {"id": 4683195, "name": "Copeland", "state": "TX", "country": "US", "coord": {"lon": -95.271889, "lat": 32.23988}}, {"id": 4683217, "name": "Coppell", "state": "TX", "country": "US", "coord": {"lon": -97.015007, "lat": 32.954571}}, {"id": 4683230, "name": "Copper Canyon", "state": "TX", "country": "US", "coord": {"lon": -97.09668, "lat": 33.095951}}, {"id": 4683244, "name": "Copperas Cove", "state": "TX", "country": "US", "coord": {"lon": -97.903084, "lat": 31.12406}}, {"id": 4683317, "name": "Corinth", "state": "TX", "country": "US", "coord": {"lon": -97.064728, "lat": 33.154011}}, {"id": 4683416, "name": "Corpus Christi", "state": "TX", "country": "US", "coord": {"lon": -97.396378, "lat": 27.800579}}, {"id": 4683453, "name": "Corrigan", "state": "TX", "country": "US", "coord": {"lon": -94.827148, "lat": 30.996861}}, {"id": 4683462, "name": "Corsicana", "state": "TX", "country": "US", "coord": {"lon": -96.468872, "lat": 32.095428}}, {"id": 4683477, "name": "Coryell County", "state": "TX", "country": "US", "coord": {"lon": -97.800301, "lat": 31.383499}}, {"id": 4683689, "name": "Cottonwood Shores", "state": "TX", "country": "US", "coord": {"lon": -98.323914, "lat": 30.55575}}, {"id": 4683696, "name": "Cotulla", "state": "TX", "country": "US", "coord": {"lon": -99.235031, "lat": 28.43693}}, {"id": 4684056, "name": "Crandall", "state": "TX", "country": "US", "coord": {"lon": -96.455818, "lat": 32.627911}}, {"id": 4684064, "name": "Cranell", "state": "TX", "country": "US", "coord": {"lon": -97.392769, "lat": 28.16807}}, {"id": 4684202, "name": "Crisp", "state": "TX", "country": "US", "coord": {"lon": -96.5811, "lat": 32.397919}}, {"id": 4684218, "name": "Crockett", "state": "TX", "country": "US", "coord": {"lon": -95.456612, "lat": 31.318239}}, {"id": 4684301, "name": "Crosby", "state": "TX", "country": "US", "coord": {"lon": -95.062149, "lat": 29.91189}}, {"id": 4684330, "name": "Cross Mountain", "state": "TX", "country": "US", "coord": {"lon": -98.65947, "lat": 29.6455}}, {"id": 4684396, "name": "Crossroads Community Centery", "state": "TX", "country": "US", "coord": {"lon": -94.581871, "lat": 33.072899}}, {"id": 4684431, "name": "Crowell", "state": "TX", "country": "US", "coord": {"lon": -99.724823, "lat": 33.983971}}, {"id": 4684434, "name": "Crowley", "state": "TX", "country": "US", "coord": {"lon": -97.362518, "lat": 32.579029}}, {"id": 4684480, "name": "Crystal City", "state": "TX", "country": "US", "coord": {"lon": -99.82811, "lat": 28.677481}}, {"id": 4684547, "name": "Cuero", "state": "TX", "country": "US", "coord": {"lon": -97.289162, "lat": 29.09387}}, {"id": 4684590, "name": "Culleoka", "state": "TX", "country": "US", "coord": {"lon": -96.491928, "lat": 33.131229}}, {"id": 4684663, "name": "Curtis", "state": "TX", "country": "US", "coord": {"lon": -94.064629, "lat": 30.92131}}, {"id": 4684698, "name": "Cut and Shoot", "state": "TX", "country": "US", "coord": {"lon": -95.357986, "lat": 30.333269}}, {"id": 4684724, "name": "Cypress", "state": "TX", "country": "US", "coord": {"lon": -95.697166, "lat": 29.96911}}, {"id": 4684858, "name": "Daingerfield", "state": "TX", "country": "US", "coord": {"lon": -94.72187, "lat": 33.031792}}, {"id": 4684888, "name": "Dallas", "state": "TX", "country": "US", "coord": {"lon": -96.806671, "lat": 32.783058}}, {"id": 4684904, "name": "Dallas County", "state": "TX", "country": "US", "coord": {"lon": -96.783607, "lat": 32.7668}}, {"id": 4684955, "name": "Dalworthington Gardens", "state": "TX", "country": "US", "coord": {"lon": -97.155289, "lat": 32.702911}}, {"id": 4685160, "name": "Danbury", "state": "TX", "country": "US", "coord": {"lon": -95.34494, "lat": 29.2283}}, {"id": 4685449, "name": "Dayton", "state": "TX", "country": "US", "coord": {"lon": -94.885201, "lat": 30.04661}}, {"id": 4685467, "name": "De Kalb", "state": "TX", "country": "US", "coord": {"lon": -94.616318, "lat": 33.508732}}, {"id": 4685478, "name": "De Leon", "state": "TX", "country": "US", "coord": {"lon": -98.535881, "lat": 32.11097}}, {"id": 4685515, "name": "DeCordova", "state": "TX", "country": "US", "coord": {"lon": -97.69503, "lat": 32.429859}}, {"id": 4685524, "name": "DeSoto", "state": "TX", "country": "US", "coord": {"lon": -96.856949, "lat": 32.589859}}, {"id": 4685617, "name": "Decatur", "state": "TX", "country": "US", "coord": {"lon": -97.586143, "lat": 33.23428}}, {"id": 4685737, "name": "Deer Park", "state": "TX", "country": "US", "coord": {"lon": -95.123817, "lat": 29.705231}}, {"id": 4685773, "name": "Del Mar", "state": "TX", "country": "US", "coord": {"lon": -99.48587, "lat": 27.56974}}, {"id": 4685892, "name": "Denison", "state": "TX", "country": "US", "coord": {"lon": -96.536659, "lat": 33.755661}}, {"id": 4685907, "name": "Denton", "state": "TX", "country": "US", "coord": {"lon": -97.133072, "lat": 33.21484}}, {"id": 4685912, "name": "Denton County", "state": "TX", "country": "US", "coord": {"lon": -97.133621, "lat": 33.200119}}, {"id": 4686085, "name": "Deweyville", "state": "TX", "country": "US", "coord": {"lon": -93.7435, "lat": 30.29771}}, {"id": 4686131, "name": "Diboll", "state": "TX", "country": "US", "coord": {"lon": -94.781036, "lat": 31.18713}}, {"id": 4686163, "name": "Dickinson", "state": "TX", "country": "US", "coord": {"lon": -95.051323, "lat": 29.460791}}, {"id": 4686472, "name": "Doffing", "state": "TX", "country": "US", "coord": {"lon": -98.385849, "lat": 26.274521}}, {"id": 4686593, "name": "Donna", "state": "TX", "country": "US", "coord": {"lon": -98.051949, "lat": 26.170349}}, {"id": 4686621, "name": "Doolittle", "state": "TX", "country": "US", "coord": {"lon": -98.12056, "lat": 26.34701}}, {"id": 4686709, "name": "Double Oak", "state": "TX", "country": "US", "coord": {"lon": -97.110573, "lat": 33.065121}}, {"id": 4686837, "name": "Draco", "state": "TX", "country": "US", "coord": {"lon": -97.744476, "lat": 33.104839}}, {"id": 4686903, "name": "Dripping Springs", "state": "TX", "country": "US", "coord": {"lon": -98.086678, "lat": 30.19021}}, {"id": 4687151, "name": "Dublin", "state": "TX", "country": "US", "coord": {"lon": -98.341988, "lat": 32.08514}}, {"id": 4687331, "name": "Duncanville", "state": "TX", "country": "US", "coord": {"lon": -96.90834, "lat": 32.651798}}, {"id": 4687579, "name": "Eagle Lake", "state": "TX", "country": "US", "coord": {"lon": -96.33358, "lat": 29.58968}}, {"id": 4687588, "name": "Eagle Mountain", "state": "TX", "country": "US", "coord": {"lon": -97.444458, "lat": 32.893459}}, {"id": 4687635, "name": "Early", "state": "TX", "country": "US", "coord": {"lon": -98.94561, "lat": 31.7421}}, {"id": 4687678, "name": "East Bernard", "state": "TX", "country": "US", "coord": {"lon": -96.071068, "lat": 29.531071}}, {"id": 4688071, "name": "Eastland", "state": "TX", "country": "US", "coord": {"lon": -98.817558, "lat": 32.40152}}, {"id": 4688216, "name": "Edcouch", "state": "TX", "country": "US", "coord": {"lon": -97.960564, "lat": 26.293961}}, {"id": 4688222, "name": "Eden", "state": "TX", "country": "US", "coord": {"lon": -99.845627, "lat": 31.21628}}, {"id": 4688248, "name": "Edgecliff Village", "state": "TX", "country": "US", "coord": {"lon": -97.342789, "lat": 32.657631}}, {"id": 4688254, "name": "Edgewood", "state": "TX", "country": "US", "coord": {"lon": -95.885239, "lat": 32.698181}}, {"id": 4688275, "name": "Edinburg", "state": "TX", "country": "US", "coord": {"lon": -98.163338, "lat": 26.301741}}, {"id": 4688506, "name": "El Campo", "state": "TX", "country": "US", "coord": {"lon": -96.269691, "lat": 29.19664}}, {"id": 4688520, "name": "El Cenizo", "state": "TX", "country": "US", "coord": {"lon": -99.492538, "lat": 27.35224}}, {"id": 4688582, "name": "El Lago", "state": "TX", "country": "US", "coord": {"lon": -95.045212, "lat": 29.56356}}, {"id": 4688739, "name": "Electra", "state": "TX", "country": "US", "coord": {"lon": -98.918961, "lat": 34.029259}}, {"id": 4688756, "name": "Elgin", "state": "TX", "country": "US", "coord": {"lon": -97.37027, "lat": 30.349649}}, {"id": 4688795, "name": "Elkhart", "state": "TX", "country": "US", "coord": {"lon": -95.579399, "lat": 31.62517}}, {"id": 4688864, "name": "Ellis County", "state": "TX", "country": "US", "coord": {"lon": -96.80027, "lat": 32.35014}}, {"id": 4689077, "name": "Elmendorf", "state": "TX", "country": "US", "coord": {"lon": -98.332787, "lat": 29.256069}}, {"id": 4689120, "name": "Elsa", "state": "TX", "country": "US", "coord": {"lon": -97.993057, "lat": 26.2934}}, {"id": 4689236, "name": "Emory", "state": "TX", "country": "US", "coord": {"lon": -95.765518, "lat": 32.874569}}, {"id": 4689240, "name": "Encantada-Ranchito-El Calaboz", "state": "TX", "country": "US", "coord": {"lon": -97.633072, "lat": 26.03344}}, {"id": 4689311, "name": "Ennis", "state": "TX", "country": "US", "coord": {"lon": -96.625267, "lat": 32.329311}}, {"id": 4689391, "name": "Erath County", "state": "TX", "country": "US", "coord": {"lon": -98.23365, "lat": 32.233471}}, {"id": 4689429, "name": "Escobares", "state": "TX", "country": "US", "coord": {"lon": -98.962532, "lat": 26.41062}}, {"id": 4689550, "name": "Euless", "state": "TX", "country": "US", "coord": {"lon": -97.081947, "lat": 32.83707}}, {"id": 4689569, "name": "Evadale", "state": "TX", "country": "US", "coord": {"lon": -94.072678, "lat": 30.354931}}, {"id": 4689708, "name": "Everman", "state": "TX", "country": "US", "coord": {"lon": -97.289177, "lat": 32.63097}}, {"id": 4689803, "name": "Fair Oaks Ranch", "state": "TX", "country": "US", "coord": {"lon": -98.643356, "lat": 29.745781}}, {"id": 4689837, "name": "Fairfield", "state": "TX", "country": "US", "coord": {"lon": -96.165253, "lat": 31.724609}}, {"id": 4689871, "name": "Fairview", "state": "TX", "country": "US", "coord": {"lon": -96.63166, "lat": 33.157902}}, {"id": 4689877, "name": "Fairview", "state": "TX", "country": "US", "coord": {"lon": -97.54586, "lat": 33.019291}}, {"id": 4690057, "name": "Falcon Lake Estates", "state": "TX", "country": "US", "coord": {"lon": -99.25531, "lat": 26.87282}}, {"id": 4690070, "name": "Falfurrias", "state": "TX", "country": "US", "coord": {"lon": -98.144173, "lat": 27.22699}}, {"id": 4690103, "name": "Falls County", "state": "TX", "country": "US", "coord": {"lon": -96.933601, "lat": 31.26684}}, {"id": 4690136, "name": "Fannett", "state": "TX", "country": "US", "coord": {"lon": -94.25074, "lat": 29.92605}}, {"id": 4690140, "name": "Fannin County", "state": "TX", "country": "US", "coord": {"lon": -96.11692, "lat": 33.600101}}, {"id": 4690198, "name": "Farmers Branch", "state": "TX", "country": "US", "coord": {"lon": -96.896118, "lat": 32.92651}}, {"id": 4690218, "name": "Farmersville", "state": "TX", "country": "US", "coord": {"lon": -96.359978, "lat": 33.163448}}, {"id": 4690257, "name": "Fate", "state": "TX", "country": "US", "coord": {"lon": -96.381371, "lat": 32.941509}}, {"id": 4690393, "name": "Ferguson Crossing", "state": "TX", "country": "US", "coord": {"lon": -96.181633, "lat": 30.6077}}, {"id": 4690428, "name": "Ferris", "state": "TX", "country": "US", "coord": {"lon": -96.66555, "lat": 32.534031}}, {"id": 4690506, "name": "Fifth Street", "state": "TX", "country": "US", "coord": {"lon": -95.551331, "lat": 29.598289}}, {"id": 4691441, "name": "Flatonia", "state": "TX", "country": "US", "coord": {"lon": -97.108597, "lat": 29.687731}}, {"id": 4691520, "name": "Flora", "state": "TX", "country": "US", "coord": {"lon": -95.433281, "lat": 33.254559}}, {"id": 4691524, "name": "Florence", "state": "TX", "country": "US", "coord": {"lon": -97.793633, "lat": 30.841299}}, {"id": 4691553, "name": "Floresville", "state": "TX", "country": "US", "coord": {"lon": -98.15612, "lat": 29.133579}}, {"id": 4691572, "name": "Flour Bluff", "state": "TX", "country": "US", "coord": {"lon": -97.278877, "lat": 27.67392}}, {"id": 4691576, "name": "Flour Bluff Junction", "state": "TX", "country": "US", "coord": {"lon": -97.492767, "lat": 27.785299}}, {"id": 4691585, "name": "Flower Mound", "state": "TX", "country": "US", "coord": {"lon": -97.096962, "lat": 33.014568}}, {"id": 4691611, "name": "Flugrath", "state": "TX", "country": "US", "coord": {"lon": -98.519753, "lat": 30.102989}}, {"id": 4691766, "name": "Forest Hill", "state": "TX", "country": "US", "coord": {"lon": -97.26918, "lat": 32.672081}}, {"id": 4691833, "name": "Forney", "state": "TX", "country": "US", "coord": {"lon": -96.471931, "lat": 32.74818}}, {"id": 4691851, "name": "Fort Bend County", "state": "TX", "country": "US", "coord": {"lon": -95.783562, "lat": 29.55024}}, {"id": 4691865, "name": "Fort Crockett", "state": "TX", "country": "US", "coord": {"lon": -94.81575, "lat": 29.2719}}, {"id": 4691930, "name": "Fort Worth", "state": "TX", "country": "US", "coord": {"lon": -97.320847, "lat": 32.72541}}, {"id": 4692051, "name": "Four Corners", "state": "TX", "country": "US", "coord": {"lon": -95.657722, "lat": 29.66857}}, {"id": 4692193, "name": "Franklin", "state": "TX", "country": "US", "coord": {"lon": -96.485237, "lat": 31.02602}}, {"id": 4692252, "name": "Frankston", "state": "TX", "country": "US", "coord": {"lon": -95.506348, "lat": 32.052662}}, {"id": 4692279, "name": "Fredericksburg", "state": "TX", "country": "US", "coord": {"lon": -98.871979, "lat": 30.2752}}, {"id": 4692292, "name": "Fredonia Hill", "state": "TX", "country": "US", "coord": {"lon": -94.66465, "lat": 31.5924}}, {"id": 4692355, "name": "Freeport", "state": "TX", "country": "US", "coord": {"lon": -95.359657, "lat": 28.95414}}, {"id": 4692359, "name": "Freer", "state": "TX", "country": "US", "coord": {"lon": -98.61779, "lat": 27.882799}}, {"id": 4692400, "name": "Fresno", "state": "TX", "country": "US", "coord": {"lon": -95.447441, "lat": 29.538851}}, {"id": 4692521, "name": "Friendswood", "state": "TX", "country": "US", "coord": {"lon": -95.201042, "lat": 29.5294}}, {"id": 4692559, "name": "Frisco", "state": "TX", "country": "US", "coord": {"lon": -96.823608, "lat": 33.150669}}, {"id": 4692658, "name": "Fulshear", "state": "TX", "country": "US", "coord": {"lon": -95.899681, "lat": 29.68996}}, {"id": 4692661, "name": "Fulton", "state": "TX", "country": "US", "coord": {"lon": -97.0411, "lat": 28.061399}}, {"id": 4692746, "name": "Gainesville", "state": "TX", "country": "US", "coord": {"lon": -97.133347, "lat": 33.625938}}, {"id": 4692748, "name": "Gainesville", "state": "TX", "country": "US", "coord": {"lon": -98.521423, "lat": 30.677679}}, {"id": 4692771, "name": "Galena Park", "state": "TX", "country": "US", "coord": {"lon": -95.230209, "lat": 29.733561}}, {"id": 4692856, "name": "Galveston County", "state": "TX", "country": "US", "coord": {"lon": -94.966873, "lat": 29.366899}}, {"id": 4692883, "name": "Galveston", "state": "TX", "country": "US", "coord": {"lon": -94.797699, "lat": 29.30135}}, {"id": 4692898, "name": "Ganado", "state": "TX", "country": "US", "coord": {"lon": -96.51358, "lat": 29.040541}}, {"id": 4692962, "name": "Garden Ridge", "state": "TX", "country": "US", "coord": {"lon": -98.30529, "lat": 29.63467}}, {"id": 4692983, "name": "Gardendale", "state": "TX", "country": "US", "coord": {"lon": -99.216141, "lat": 28.51693}}, {"id": 4692997, "name": "Garfield", "state": "TX", "country": "US", "coord": {"lon": -97.557777, "lat": 30.187441}}, {"id": 4693003, "name": "Garland", "state": "TX", "country": "US", "coord": {"lon": -96.638878, "lat": 32.912621}}, {"id": 4693150, "name": "Gatesville", "state": "TX", "country": "US", "coord": {"lon": -97.743912, "lat": 31.43516}}, {"id": 4693325, "name": "George West", "state": "TX", "country": "US", "coord": {"lon": -98.117508, "lat": 28.3325}}, {"id": 4693342, "name": "Georgetown", "state": "TX", "country": "US", "coord": {"lon": -97.677231, "lat": 30.63269}}, {"id": 4693389, "name": "Geronimo", "state": "TX", "country": "US", "coord": {"lon": -97.966949, "lat": 29.663}}, {"id": 4693426, "name": "Gholson", "state": "TX", "country": "US", "coord": {"lon": -97.2164, "lat": 31.701}}, {"id": 4693472, "name": "Giddings", "state": "TX", "country": "US", "coord": {"lon": -96.936371, "lat": 30.18272}}, {"id": 4693569, "name": "Gilmer", "state": "TX", "country": "US", "coord": {"lon": -94.942436, "lat": 32.728748}}, {"id": 4693621, "name": "Gladewater", "state": "TX", "country": "US", "coord": {"lon": -94.942719, "lat": 32.53653}}, {"id": 4693696, "name": "Glen Rose", "state": "TX", "country": "US", "coord": {"lon": -97.75531, "lat": 32.234589}}, {"id": 4693726, "name": "Glenn Heights", "state": "TX", "country": "US", "coord": {"lon": -96.856667, "lat": 32.548752}}, {"id": 4693832, "name": "Godley", "state": "TX", "country": "US", "coord": {"lon": -97.526688, "lat": 32.449032}}, {"id": 4693906, "name": "Goldthwaite", "state": "TX", "country": "US", "coord": {"lon": -98.570877, "lat": 31.44989}}, {"id": 4693921, "name": "Goliad", "state": "TX", "country": "US", "coord": {"lon": -97.388329, "lat": 28.668329}}, {"id": 4693922, "name": "Goliad County", "state": "TX", "country": "US", "coord": {"lon": -97.433601, "lat": 28.65027}}, {"id": 4693940, "name": "Gonzales", "state": "TX", "country": "US", "coord": {"lon": -97.452492, "lat": 29.501631}}, {"id": 4694156, "name": "Gorman", "state": "TX", "country": "US", "coord": {"lon": -98.670609, "lat": 32.213749}}, {"id": 4694420, "name": "Graham", "state": "TX", "country": "US", "coord": {"lon": -98.5895, "lat": 33.107059}}, {"id": 4694459, "name": "Granbury", "state": "TX", "country": "US", "coord": {"lon": -97.794197, "lat": 32.442081}}, {"id": 4694482, "name": "Grand Prairie", "state": "TX", "country": "US", "coord": {"lon": -96.99778, "lat": 32.74596}}, {"id": 4694488, "name": "Grand Saline", "state": "TX", "country": "US", "coord": {"lon": -95.709412, "lat": 32.673458}}, {"id": 4694503, "name": "Grandview", "state": "TX", "country": "US", "coord": {"lon": -97.179176, "lat": 32.27042}}, {"id": 4694521, "name": "Granger", "state": "TX", "country": "US", "coord": {"lon": -97.44278, "lat": 30.71769}}, {"id": 4694535, "name": "Granite Shoals", "state": "TX", "country": "US", "coord": {"lon": -98.383919, "lat": 30.589081}}, {"id": 4694562, "name": "Grapeland", "state": "TX", "country": "US", "coord": {"lon": -95.478561, "lat": 31.49184}}, {"id": 4694568, "name": "Grapevine", "state": "TX", "country": "US", "coord": {"lon": -97.078072, "lat": 32.934292}}, {"id": 4694710, "name": "Grayson County", "state": "TX", "country": "US", "coord": {"lon": -96.683601, "lat": 33.616772}}, {"id": 4694896, "name": "Greatwood", "state": "TX", "country": "US", "coord": {"lon": -95.675781, "lat": 29.554131}}, {"id": 4694990, "name": "Green Valley Farms", "state": "TX", "country": "US", "coord": {"lon": -97.560539, "lat": 26.122021}}, {"id": 4695066, "name": "Greenville", "state": "TX", "country": "US", "coord": {"lon": -96.110809, "lat": 33.138451}}, {"id": 4695096, "name": "Greenwood", "state": "TX", "country": "US", "coord": {"lon": -97.474472, "lat": 33.380951}}, {"id": 4695143, "name": "Gregg County", "state": "TX", "country": "US", "coord": {"lon": -94.816879, "lat": 32.516811}}, {"id": 4695155, "name": "Gregory", "state": "TX", "country": "US", "coord": {"lon": -97.289993, "lat": 27.922239}}, {"id": 4695236, "name": "Grimes County", "state": "TX", "country": "US", "coord": {"lon": -95.966904, "lat": 30.533529}}, {"id": 4695270, "name": "Groesbeck", "state": "TX", "country": "US", "coord": {"lon": -96.533867, "lat": 31.52434}}, {"id": 4695317, "name": "Groves", "state": "TX", "country": "US", "coord": {"lon": -93.917122, "lat": 29.948271}}, {"id": 4695325, "name": "Groveton", "state": "TX", "country": "US", "coord": {"lon": -95.125771, "lat": 31.054911}}, {"id": 4695361, "name": "Guadalupe County", "state": "TX", "country": "US", "coord": {"lon": -97.966949, "lat": 29.5669}}, {"id": 4695535, "name": "Gun Barrel City", "state": "TX", "country": "US", "coord": {"lon": -96.15136, "lat": 32.334591}}, {"id": 4695553, "name": "Gunter", "state": "TX", "country": "US", "coord": {"lon": -96.74749, "lat": 33.447891}}, {"id": 4695554, "name": "Gunter", "state": "TX", "country": "US", "coord": {"lon": -95.629677, "lat": 32.868729}}, {"id": 4695866, "name": "Hallettsville", "state": "TX", "country": "US", "coord": {"lon": -96.941093, "lat": 29.44385}}, {"id": 4695894, "name": "Hallsville", "state": "TX", "country": "US", "coord": {"lon": -94.574089, "lat": 32.504318}}, {"id": 4695912, "name": "Haltom City", "state": "TX", "country": "US", "coord": {"lon": -97.26918, "lat": 32.799568}}, {"id": 4695938, "name": "Hamilton", "state": "TX", "country": "US", "coord": {"lon": -98.123917, "lat": 31.70377}}, {"id": 4695945, "name": "Hamilton County", "state": "TX", "country": "US", "coord": {"lon": -98.083641, "lat": 31.71682}}, {"id": 4696202, "name": "Harker Heights", "state": "TX", "country": "US", "coord": {"lon": -97.659737, "lat": 31.083509}}, {"id": 4696233, "name": "Harlingen", "state": "TX", "country": "US", "coord": {"lon": -97.696098, "lat": 26.19063}}, {"id": 4696310, "name": "Harper", "state": "TX", "country": "US", "coord": {"lon": -99.244209, "lat": 30.299919}}, {"id": 4696376, "name": "Harris County", "state": "TX", "country": "US", "coord": {"lon": -95.400223, "lat": 29.833561}}, {"id": 4696450, "name": "Harrison County", "state": "TX", "country": "US", "coord": {"lon": -94.366859, "lat": 32.550152}}, {"id": 4696593, "name": "Haskell", "state": "TX", "country": "US", "coord": {"lon": -99.733704, "lat": 33.1576}}, {"id": 4696605, "name": "Haslet", "state": "TX", "country": "US", "coord": {"lon": -97.347801, "lat": 32.97485}}, {"id": 4696686, "name": "Hawkins", "state": "TX", "country": "US", "coord": {"lon": -95.204109, "lat": 32.58847}}, {"id": 4696788, "name": "Hays County", "state": "TX", "country": "US", "coord": {"lon": -98.033623, "lat": 30.050211}}, {"id": 4696862, "name": "Hearne", "state": "TX", "country": "US", "coord": {"lon": -96.593033, "lat": 30.878519}}, {"id": 4696876, "name": "Heath", "state": "TX", "country": "US", "coord": {"lon": -96.474991, "lat": 32.83651}}, {"id": 4696922, "name": "Hebbronville", "state": "TX", "country": "US", "coord": {"lon": -98.678352, "lat": 27.306709}}, {"id": 4696924, "name": "Hedwig Village", "state": "TX", "country": "US", "coord": {"lon": -95.517159, "lat": 29.777451}}, {"id": 4696940, "name": "Hegar", "state": "TX", "country": "US", "coord": {"lon": -95.827728, "lat": 30.116051}}, {"id": 4696953, "name": "Heidelberg", "state": "TX", "country": "US", "coord": {"lon": -97.88028, "lat": 26.19702}}, {"id": 4697038, "name": "Helotes", "state": "TX", "country": "US", "coord": {"lon": -98.689751, "lat": 29.578011}}, {"id": 4697054, "name": "Hemphill", "state": "TX", "country": "US", "coord": {"lon": -93.846848, "lat": 31.34074}}, {"id": 4697060, "name": "Hempstead", "state": "TX", "country": "US", "coord": {"lon": -96.078293, "lat": 30.097441}}, {"id": 4697070, "name": "Henderson County", "state": "TX", "country": "US", "coord": {"lon": -95.83358, "lat": 32.20015}}, {"id": 4697128, "name": "Henrietta", "state": "TX", "country": "US", "coord": {"lon": -98.19532, "lat": 33.817322}}, {"id": 4697330, "name": "Hewitt", "state": "TX", "country": "US", "coord": {"lon": -97.195839, "lat": 31.462391}}, {"id": 4697379, "name": "Hickory Creek", "state": "TX", "country": "US", "coord": {"lon": -95.321327, "lat": 31.37879}}, {"id": 4697440, "name": "Hico", "state": "TX", "country": "US", "coord": {"lon": -98.033653, "lat": 31.982929}}, {"id": 4697442, "name": "Hidalgo", "state": "TX", "country": "US", "coord": {"lon": -98.263069, "lat": 26.100349}}, {"id": 4697444, "name": "Hidalgo County", "state": "TX", "country": "US", "coord": {"lon": -98.200287, "lat": 26.333679}}, {"id": 4697485, "name": "Hideaway", "state": "TX", "country": "US", "coord": {"lon": -95.457458, "lat": 32.490421}}, {"id": 4697616, "name": "Highland Park", "state": "TX", "country": "US", "coord": {"lon": -96.791946, "lat": 32.833462}}, {"id": 4697645, "name": "Highland Village", "state": "TX", "country": "US", "coord": {"lon": -97.046677, "lat": 33.091789}}, {"id": 4697652, "name": "Highlands", "state": "TX", "country": "US", "coord": {"lon": -95.056038, "lat": 29.81884}}, {"id": 4697867, "name": "Hillsboro", "state": "TX", "country": "US", "coord": {"lon": -97.130013, "lat": 32.01099}}, {"id": 4697909, "name": "Hilltop Lakes", "state": "TX", "country": "US", "coord": {"lon": -96.20385, "lat": 31.07935}}, {"id": 4697988, "name": "Hitchcock", "state": "TX", "country": "US", "coord": {"lon": -95.016037, "lat": 29.348289}}, {"id": 4698041, "name": "Hockley", "state": "TX", "country": "US", "coord": {"lon": -95.844398, "lat": 30.02689}}, {"id": 4698241, "name": "Holiday Lakes", "state": "TX", "country": "US", "coord": {"lon": -95.516891, "lat": 29.20969}}, {"id": 4698254, "name": "Holland", "state": "TX", "country": "US", "coord": {"lon": -97.401672, "lat": 30.878241}}, {"id": 4698296, "name": "Holliday", "state": "TX", "country": "US", "coord": {"lon": -98.695061, "lat": 33.816212}}, {"id": 4698384, "name": "Hollywood Park", "state": "TX", "country": "US", "coord": {"lon": -98.487244, "lat": 29.6005}}, {"id": 4698562, "name": "Hondo", "state": "TX", "country": "US", "coord": {"lon": -99.141418, "lat": 29.34746}}, {"id": 4698610, "name": "Honey Grove", "state": "TX", "country": "US", "coord": {"lon": -95.909973, "lat": 33.583439}}, {"id": 4698632, "name": "Hood County", "state": "TX", "country": "US", "coord": {"lon": -97.866982, "lat": 32.433472}}, {"id": 4698646, "name": "Hooks", "state": "TX", "country": "US", "coord": {"lon": -94.288528, "lat": 33.466228}}, {"id": 4698747, "name": "Hopkins County", "state": "TX", "country": "US", "coord": {"lon": -95.583572, "lat": 33.150108}}, {"id": 4698809, "name": "Hornsby Bend", "state": "TX", "country": "US", "coord": {"lon": -97.583328, "lat": 30.247431}}, {"id": 4698864, "name": "Horseshoe Bay", "state": "TX", "country": "US", "coord": {"lon": -98.337799, "lat": 30.54825}}, {"id": 4699066, "name": "Houston", "state": "TX", "country": "US", "coord": {"lon": -95.363274, "lat": 29.763281}}, {"id": 4699204, "name": "Howe", "state": "TX", "country": "US", "coord": {"lon": -96.612213, "lat": 33.50872}}, {"id": 4699235, "name": "Hubbard", "state": "TX", "country": "US", "coord": {"lon": -96.797218, "lat": 31.84849}}, {"id": 4699302, "name": "Hudson", "state": "TX", "country": "US", "coord": {"lon": -94.778259, "lat": 31.32268}}, {"id": 4699303, "name": "Hudson", "state": "TX", "country": "US", "coord": {"lon": -95.502441, "lat": 29.902451}}, {"id": 4699304, "name": "Hudson Bend", "state": "TX", "country": "US", "coord": {"lon": -97.929176, "lat": 30.417139}}, {"id": 4699323, "name": "Hudson Oaks", "state": "TX", "country": "US", "coord": {"lon": -97.706703, "lat": 32.757069}}, {"id": 4699392, "name": "Hughes Springs", "state": "TX", "country": "US", "coord": {"lon": -94.63076, "lat": 32.998459}}, {"id": 4699442, "name": "Humble", "state": "TX", "country": "US", "coord": {"lon": -95.262161, "lat": 29.998831}}, {"id": 4699487, "name": "Hunt County", "state": "TX", "country": "US", "coord": {"lon": -96.066917, "lat": 33.15012}}, {"id": 4699531, "name": "Hunters Creek Village", "state": "TX", "country": "US", "coord": {"lon": -95.495499, "lat": 29.77051}}, {"id": 4699533, "name": "Huntington", "state": "TX", "country": "US", "coord": {"lon": -94.576591, "lat": 31.277691}}, {"id": 4699540, "name": "Huntsville", "state": "TX", "country": "US", "coord": {"lon": -95.550781, "lat": 30.72353}}, {"id": 4699575, "name": "Hurst", "state": "TX", "country": "US", "coord": {"lon": -97.17057, "lat": 32.82346}}, {"id": 4699608, "name": "Hutchins", "state": "TX", "country": "US", "coord": {"lon": -96.713051, "lat": 32.6493}}, {"id": 4699626, "name": "Hutto", "state": "TX", "country": "US", "coord": {"lon": -97.546669, "lat": 30.5427}}, {"id": 4699938, "name": "Indian Hills", "state": "TX", "country": "US", "coord": {"lon": -97.916389, "lat": 26.212851}}, {"id": 4700024, "name": "Inez", "state": "TX", "country": "US", "coord": {"lon": -96.78804, "lat": 28.903879}}, {"id": 4700033, "name": "Ingleside", "state": "TX", "country": "US", "coord": {"lon": -97.211662, "lat": 27.8778}}, {"id": 4700044, "name": "Ingram", "state": "TX", "country": "US", "coord": {"lon": -99.240318, "lat": 30.077431}}, {"id": 4700120, "name": "Iowa Colony", "state": "TX", "country": "US", "coord": {"lon": -95.415497, "lat": 29.48246}}, {"id": 4700122, "name": "Iowa Park", "state": "TX", "country": "US", "coord": {"lon": -98.668671, "lat": 33.951481}}, {"id": 4700128, "name": "Ireland", "state": "TX", "country": "US", "coord": {"lon": -97.965309, "lat": 31.56683}}, {"id": 4700168, "name": "Irving", "state": "TX", "country": "US", "coord": {"lon": -96.948891, "lat": 32.814018}}, {"id": 4700234, "name": "Italy", "state": "TX", "country": "US", "coord": {"lon": -96.88472, "lat": 32.18404}}, {"id": 4700235, "name": "Itasca", "state": "TX", "country": "US", "coord": {"lon": -97.150009, "lat": 32.159592}}, {"id": 4700401, "name": "Jacinto City", "state": "TX", "country": "US", "coord": {"lon": -95.233818, "lat": 29.76745}}, {"id": 4700455, "name": "Jacksboro", "state": "TX", "country": "US", "coord": {"lon": -98.158661, "lat": 33.218449}}, {"id": 4700550, "name": "Jacksonville", "state": "TX", "country": "US", "coord": {"lon": -95.2705, "lat": 31.963779}}, {"id": 4700591, "name": "Jakes Colony", "state": "TX", "country": "US", "coord": {"lon": -97.97139, "lat": 29.44079}}, {"id": 4700729, "name": "Jasper County", "state": "TX", "country": "US", "coord": {"lon": -94.016853, "lat": 30.73354}}, {"id": 4700731, "name": "Jasper", "state": "TX", "country": "US", "coord": {"lon": -93.996582, "lat": 30.9202}}, {"id": 4700744, "name": "Jasper Heights", "state": "TX", "country": "US", "coord": {"lon": -94.324081, "lat": 32.545712}}, {"id": 4700817, "name": "Jefferson", "state": "TX", "country": "US", "coord": {"lon": -94.345192, "lat": 32.757359}}, {"id": 4700821, "name": "Jefferson County", "state": "TX", "country": "US", "coord": {"lon": -94.150177, "lat": 29.883551}}, {"id": 4700967, "name": "Jersey Village", "state": "TX", "country": "US", "coord": {"lon": -95.563004, "lat": 29.88772}}, {"id": 4701046, "name": "Jewett", "state": "TX", "country": "US", "coord": {"lon": -96.144127, "lat": 31.36157}}, {"id": 4701084, "name": "Jim Wells County", "state": "TX", "country": "US", "coord": {"lon": -98.100281, "lat": 27.76697}}, {"id": 4701346, "name": "Johnson City", "state": "TX", "country": "US", "coord": {"lon": -98.411972, "lat": 30.276871}}, {"id": 4701348, "name": "Johnson County", "state": "TX", "country": "US", "coord": {"lon": -97.366959, "lat": 32.38348}}, {"id": 4701458, "name": "Jollyville", "state": "TX", "country": "US", "coord": {"lon": -97.775009, "lat": 30.442699}}, {"id": 4701510, "name": "Jones Creek", "state": "TX", "country": "US", "coord": {"lon": -95.455223, "lat": 28.96858}}, {"id": 4701592, "name": "Jonestown", "state": "TX", "country": "US", "coord": {"lon": -97.923347, "lat": 30.49547}}, {"id": 4701659, "name": "Joshua", "state": "TX", "country": "US", "coord": {"lon": -97.388069, "lat": 32.461529}}, {"id": 4701686, "name": "Jourdanton", "state": "TX", "country": "US", "coord": {"lon": -98.54641, "lat": 28.91803}}, {"id": 4701791, "name": "Junction", "state": "TX", "country": "US", "coord": {"lon": -99.772011, "lat": 30.489361}}, {"id": 4701814, "name": "Justin", "state": "TX", "country": "US", "coord": {"lon": -97.296127, "lat": 33.084839}}, {"id": 4702664, "name": "Karnes City", "state": "TX", "country": "US", "coord": {"lon": -97.900841, "lat": 28.884979}}, {"id": 4702728, "name": "Kaufman", "state": "TX", "country": "US", "coord": {"lon": -96.308868, "lat": 32.58902}}, {"id": 4702732, "name": "Katy", "state": "TX", "country": "US", "coord": {"lon": -95.824402, "lat": 29.785789}}, {"id": 4702735, "name": "Kaufman County", "state": "TX", "country": "US", "coord": {"lon": -96.300262, "lat": 32.600128}}, {"id": 4702785, "name": "Keene", "state": "TX", "country": "US", "coord": {"lon": -97.323898, "lat": 32.396809}}, {"id": 4702828, "name": "Keller", "state": "TX", "country": "US", "coord": {"lon": -97.251678, "lat": 32.93457}}, {"id": 4702913, "name": "Kemah", "state": "TX", "country": "US", "coord": {"lon": -95.020477, "lat": 29.54273}}, {"id": 4702914, "name": "Kemp", "state": "TX", "country": "US", "coord": {"lon": -96.22998, "lat": 32.442638}}, {"id": 4702965, "name": "Kenedy", "state": "TX", "country": "US", "coord": {"lon": -97.84861, "lat": 28.819151}}, {"id": 4702986, "name": "Kennedale", "state": "TX", "country": "US", "coord": {"lon": -97.225853, "lat": 32.646801}}, {"id": 4702998, "name": "Kempner", "state": "TX", "country": "US", "coord": {"lon": -98.002518, "lat": 31.081011}}, {"id": 4703063, "name": "Kerens", "state": "TX", "country": "US", "coord": {"lon": -96.227753, "lat": 32.133209}}, {"id": 4703071, "name": "Kerr County", "state": "TX", "country": "US", "coord": {"lon": -99.300323, "lat": 30.050211}}, {"id": 4703078, "name": "Kerrville", "state": "TX", "country": "US", "coord": {"lon": -99.14032, "lat": 30.04743}}, {"id": 4703199, "name": "Kilgore", "state": "TX", "country": "US", "coord": {"lon": -94.875771, "lat": 32.386261}}, {"id": 4703223, "name": "Killeen", "state": "TX", "country": "US", "coord": {"lon": -97.727798, "lat": 31.117121}}, {"id": 4703372, "name": "Kingsland", "state": "TX", "country": "US", "coord": {"lon": -98.440582, "lat": 30.658239}}, {"id": 4703384, "name": "Kingsville", "state": "TX", "country": "US", "coord": {"lon": -97.85611, "lat": 27.515869}}, {"id": 4703415, "name": "Kirby", "state": "TX", "country": "US", "coord": {"lon": -98.385567, "lat": 29.463289}}, {"id": 4703438, "name": "Kirbyville", "state": "TX", "country": "US", "coord": {"lon": -93.892677, "lat": 30.66048}}, {"id": 4703486, "name": "Kleberg County", "state": "TX", "country": "US", "coord": {"lon": -97.716942, "lat": 27.433649}}, {"id": 4703578, "name": "Knox City", "state": "TX", "country": "US", "coord": {"lon": -99.818977, "lat": 33.418152}}, {"id": 4703726, "name": "Kountze", "state": "TX", "country": "US", "coord": {"lon": -94.312408, "lat": 30.371599}}, {"id": 4703759, "name": "Krugerville", "state": "TX", "country": "US", "coord": {"lon": -96.990562, "lat": 33.281509}}, {"id": 4703760, "name": "Krum", "state": "TX", "country": "US", "coord": {"lon": -97.238068, "lat": 33.261509}}, {"id": 4703811, "name": "Kyle", "state": "TX", "country": "US", "coord": {"lon": -97.871529, "lat": 29.99835}}, {"id": 4703882, "name": "La Blanca", "state": "TX", "country": "US", "coord": {"lon": -98.037781, "lat": 26.29285}}, {"id": 4703925, "name": "La Coste", "state": "TX", "country": "US", "coord": {"lon": -98.810028, "lat": 29.310789}}, {"id": 4703938, "name": "La Feria", "state": "TX", "country": "US", "coord": {"lon": -97.823891, "lat": 26.15896}}, {"id": 4703958, "name": "La Grange", "state": "TX", "country": "US", "coord": {"lon": -96.876648, "lat": 29.9055}}, {"id": 4703965, "name": "La Grulla", "state": "TX", "country": "US", "coord": {"lon": -98.647247, "lat": 26.26951}}, {"id": 4703972, "name": "La Homa", "state": "TX", "country": "US", "coord": {"lon": -98.363632, "lat": 26.250071}}, {"id": 4703997, "name": "La Joya", "state": "TX", "country": "US", "coord": {"lon": -98.481407, "lat": 26.247021}}, {"id": 4704027, "name": "La Marque", "state": "TX", "country": "US", "coord": {"lon": -94.971313, "lat": 29.36857}}, {"id": 4704067, "name": "La Paloma", "state": "TX", "country": "US", "coord": {"lon": -97.667488, "lat": 26.04591}}, {"id": 4704108, "name": "La Porte", "state": "TX", "country": "US", "coord": {"lon": -95.019371, "lat": 29.665779}}, {"id": 4704131, "name": "La Pryor", "state": "TX", "country": "US", "coord": {"lon": -99.849777, "lat": 28.94108}}, {"id": 4704157, "name": "La Salle County", "state": "TX", "country": "US", "coord": {"lon": -99.100311, "lat": 28.350269}}, {"id": 4704180, "name": "La Vernia", "state": "TX", "country": "US", "coord": {"lon": -98.115562, "lat": 29.35635}}, {"id": 4704188, "name": "La Villa", "state": "TX", "country": "US", "coord": {"lon": -97.928612, "lat": 26.298679}}, {"id": 4704238, "name": "Lacy-Lakeview", "state": "TX", "country": "US", "coord": {"lon": -97.102783, "lat": 31.62933}}, {"id": 4704276, "name": "Lago Vista", "state": "TX", "country": "US", "coord": {"lon": -97.98835, "lat": 30.460199}}, {"id": 4704298, "name": "Laguna Heights", "state": "TX", "country": "US", "coord": {"lon": -97.25386, "lat": 26.08008}}, {"id": 4704303, "name": "Laguna Park", "state": "TX", "country": "US", "coord": {"lon": -97.379738, "lat": 31.85932}}, {"id": 4704307, "name": "Laguna Vista", "state": "TX", "country": "US", "coord": {"lon": -97.290253, "lat": 26.10091}}, {"id": 4704395, "name": "Lake Brownwood", "state": "TX", "country": "US", "coord": {"lon": -99.007828, "lat": 31.835699}}, {"id": 4704482, "name": "Lake Dallas", "state": "TX", "country": "US", "coord": {"lon": -97.025558, "lat": 33.119289}}, {"id": 4704628, "name": "Lake Jackson", "state": "TX", "country": "US", "coord": {"lon": -95.434387, "lat": 29.033859}}, {"id": 4704655, "name": "Lake Kiowa", "state": "TX", "country": "US", "coord": {"lon": -97.013062, "lat": 33.577049}}, {"id": 4704829, "name": "Lake Dunlap", "state": "TX", "country": "US", "coord": {"lon": -98.072227, "lat": 29.675779}}, {"id": 4704931, "name": "Lake Worth", "state": "TX", "country": "US", "coord": {"lon": -97.445023, "lat": 32.804852}}, {"id": 4704940, "name": "Lakehills", "state": "TX", "country": "US", "coord": {"lon": -98.943092, "lat": 29.60467}}, {"id": 4704970, "name": "Lakeside", "state": "TX", "country": "US", "coord": {"lon": -97.493347, "lat": 32.82235}}, {"id": 4705000, "name": "Lakeview", "state": "TX", "country": "US", "coord": {"lon": -93.898499, "lat": 29.913549}}, {"id": 4705041, "name": "Lakeway", "state": "TX", "country": "US", "coord": {"lon": -97.979591, "lat": 30.36377}}, {"id": 4705086, "name": "Lamar County", "state": "TX", "country": "US", "coord": {"lon": -95.583572, "lat": 33.666771}}, {"id": 4705176, "name": "Lampasas", "state": "TX", "country": "US", "coord": {"lon": -98.181702, "lat": 31.06378}}, {"id": 4705179, "name": "Lampasas County", "state": "TX", "country": "US", "coord": {"lon": -98.233643, "lat": 31.216829}}, {"id": 4705191, "name": "Lancaster", "state": "TX", "country": "US", "coord": {"lon": -96.756111, "lat": 32.592079}}, {"id": 4705349, "name": "Laredo", "state": "TX", "country": "US", "coord": {"lon": -99.507538, "lat": 27.506411}}, {"id": 4705417, "name": "Las Lomas", "state": "TX", "country": "US", "coord": {"lon": -98.775299, "lat": 26.36479}}, {"id": 4705494, "name": "Lasara", "state": "TX", "country": "US", "coord": {"lon": -97.91111, "lat": 26.46479}}, {"id": 4705564, "name": "Laureles", "state": "TX", "country": "US", "coord": {"lon": -97.494148, "lat": 26.10924}}, {"id": 4705575, "name": "Lavaca County", "state": "TX", "country": "US", "coord": {"lon": -96.950256, "lat": 29.383579}}, {"id": 4705584, "name": "Lavon", "state": "TX", "country": "US", "coord": {"lon": -96.434151, "lat": 33.027618}}, {"id": 4705692, "name": "League City", "state": "TX", "country": "US", "coord": {"lon": -95.094933, "lat": 29.50745}}, {"id": 4705702, "name": "Leakey", "state": "TX", "country": "US", "coord": {"lon": -99.761452, "lat": 29.72884}}, {"id": 4705708, "name": "Leander", "state": "TX", "country": "US", "coord": {"lon": -97.853073, "lat": 30.57881}}, {"id": 4705758, "name": "Lee County", "state": "TX", "country": "US", "coord": {"lon": -96.950256, "lat": 30.28355}}, {"id": 4705923, "name": "Leon Valley", "state": "TX", "country": "US", "coord": {"lon": -98.618629, "lat": 29.49523}}, {"id": 4705943, "name": "Leonard", "state": "TX", "country": "US", "coord": {"lon": -96.247482, "lat": 33.379551}}, {"id": 4706057, "name": "Lewisville", "state": "TX", "country": "US", "coord": {"lon": -96.994171, "lat": 33.04623}}, {"id": 4706068, "name": "Lexington", "state": "TX", "country": "US", "coord": {"lon": -97.01165, "lat": 30.4191}}, {"id": 4706088, "name": "Liberty", "state": "TX", "country": "US", "coord": {"lon": -94.795479, "lat": 30.057989}}, {"id": 4706141, "name": "Liberty City", "state": "TX", "country": "US", "coord": {"lon": -94.948547, "lat": 32.445431}}, {"id": 4706143, "name": "Liberty County", "state": "TX", "country": "US", "coord": {"lon": -94.800201, "lat": 30.133551}}, {"id": 4706335, "name": "Limestone County", "state": "TX", "country": "US", "coord": {"lon": -96.566933, "lat": 31.550171}}, {"id": 4706386, "name": "Lindale", "state": "TX", "country": "US", "coord": {"lon": -95.409401, "lat": 32.515701}}, {"id": 4706404, "name": "Linden", "state": "TX", "country": "US", "coord": {"lon": -94.365471, "lat": 33.012348}}, {"id": 4706431, "name": "Lindsay", "state": "TX", "country": "US", "coord": {"lon": -97.222794, "lat": 33.635941}}, {"id": 4706736, "name": "Little Elm", "state": "TX", "country": "US", "coord": {"lon": -96.937508, "lat": 33.162621}}, {"id": 4706919, "name": "Little River-Academy", "state": "TX", "country": "US", "coord": {"lon": -97.358612, "lat": 30.98629}}, {"id": 4707055, "name": "Live Oak", "state": "TX", "country": "US", "coord": {"lon": -98.336403, "lat": 29.565229}}, {"id": 4707173, "name": "Livingston", "state": "TX", "country": "US", "coord": {"lon": -94.932991, "lat": 30.711029}}, {"id": 4707191, "name": "Llano", "state": "TX", "country": "US", "coord": {"lon": -98.675041, "lat": 30.75935}}, {"id": 4707196, "name": "Llano County", "state": "TX", "country": "US", "coord": {"lon": -98.666977, "lat": 30.70018}}, {"id": 4707203, "name": "Llano Grande", "state": "TX", "country": "US", "coord": {"lon": -97.968063, "lat": 26.129801}}, {"id": 4707295, "name": "Lockhart", "state": "TX", "country": "US", "coord": {"lon": -97.669998, "lat": 29.884939}}, {"id": 4707479, "name": "Lone Star", "state": "TX", "country": "US", "coord": {"lon": -94.707153, "lat": 32.944019}}, {"id": 4707535, "name": "Lone Willow", "state": "TX", "country": "US", "coord": {"lon": -97.474739, "lat": 32.268761}}, {"id": 4707814, "name": "Longview", "state": "TX", "country": "US", "coord": {"lon": -94.740494, "lat": 32.500702}}, {"id": 4707859, "name": "Lopezville", "state": "TX", "country": "US", "coord": {"lon": -98.159729, "lat": 26.238131}}, {"id": 4707868, "name": "Lorena", "state": "TX", "country": "US", "coord": {"lon": -97.215561, "lat": 31.38656}}, {"id": 4707932, "name": "Los Fresnos", "state": "TX", "country": "US", "coord": {"lon": -97.476372, "lat": 26.071739}}, {"id": 4707945, "name": "Los Indios", "state": "TX", "country": "US", "coord": {"lon": -97.744987, "lat": 26.04924}}, {"id": 4708016, "name": "Lost Creek", "state": "TX", "country": "US", "coord": {"lon": -97.844452, "lat": 30.295481}}, {"id": 4708236, "name": "Lowry Crossing", "state": "TX", "country": "US", "coord": {"lon": -96.547211, "lat": 33.154839}}, {"id": 4708255, "name": "Lucas", "state": "TX", "country": "US", "coord": {"lon": -96.57666, "lat": 33.08429}}, {"id": 4708308, "name": "Lufkin", "state": "TX", "country": "US", "coord": {"lon": -94.729103, "lat": 31.33824}}, {"id": 4708320, "name": "Luling", "state": "TX", "country": "US", "coord": {"lon": -97.647499, "lat": 29.68051}}, {"id": 4708328, "name": "Lumberton", "state": "TX", "country": "US", "coord": {"lon": -94.199631, "lat": 30.26577}}, {"id": 4708350, "name": "Lund", "state": "TX", "country": "US", "coord": {"lon": -97.396393, "lat": 30.406601}}, {"id": 4708403, "name": "Lyford", "state": "TX", "country": "US", "coord": {"lon": -97.789719, "lat": 26.412291}}, {"id": 4708477, "name": "Lytle", "state": "TX", "country": "US", "coord": {"lon": -98.79641, "lat": 29.23329}}, {"id": 4708535, "name": "Mabank", "state": "TX", "country": "US", "coord": {"lon": -96.100807, "lat": 32.366531}}, {"id": 4708703, "name": "Madisonville", "state": "TX", "country": "US", "coord": {"lon": -95.911621, "lat": 30.949909}}, {"id": 4708747, "name": "Magnolia", "state": "TX", "country": "US", "coord": {"lon": -95.750778, "lat": 30.209379}}, {"id": 4708877, "name": "Malakoff", "state": "TX", "country": "US", "coord": {"lon": -96.012466, "lat": 32.169601}}, {"id": 4708936, "name": "Manchaca", "state": "TX", "country": "US", "coord": {"lon": -97.833061, "lat": 30.14077}}, {"id": 4708989, "name": "Manor", "state": "TX", "country": "US", "coord": {"lon": -97.556953, "lat": 30.340759}}, {"id": 4709013, "name": "Mansfield", "state": "TX", "country": "US", "coord": {"lon": -97.141678, "lat": 32.56319}}, {"id": 4709027, "name": "Manvel", "state": "TX", "country": "US", "coord": {"lon": -95.357986, "lat": 29.46274}}, {"id": 4709090, "name": "Marble Falls", "state": "TX", "country": "US", "coord": {"lon": -98.272797, "lat": 30.578239}}, {"id": 4709145, "name": "Marilee", "state": "TX", "country": "US", "coord": {"lon": -96.761383, "lat": 33.403721}}, {"id": 4709161, "name": "Marion", "state": "TX", "country": "US", "coord": {"lon": -98.140289, "lat": 29.571341}}, {"id": 4709193, "name": "Markham", "state": "TX", "country": "US", "coord": {"lon": -96.065239, "lat": 28.96026}}, {"id": 4709215, "name": "Marlin", "state": "TX", "country": "US", "coord": {"lon": -96.898041, "lat": 31.30629}}, {"id": 4709229, "name": "Marlow", "state": "TX", "country": "US", "coord": {"lon": -96.921654, "lat": 30.848801}}, {"id": 4709272, "name": "Marshall", "state": "TX", "country": "US", "coord": {"lon": -94.367416, "lat": 32.544868}}, {"id": 4709320, "name": "Mart", "state": "TX", "country": "US", "coord": {"lon": -96.833603, "lat": 31.542391}}, {"id": 4709410, "name": "Martindale", "state": "TX", "country": "US", "coord": {"lon": -97.840843, "lat": 29.845501}}, {"id": 4709501, "name": "Mason", "state": "TX", "country": "US", "coord": {"lon": -99.230614, "lat": 30.748791}}, {"id": 4709522, "name": "Mason Crossing", "state": "TX", "country": "US", "coord": {"lon": -97.715569, "lat": 31.20545}}, {"id": 4709580, "name": "Matagorda County", "state": "TX", "country": "US", "coord": {"lon": -95.950241, "lat": 28.85026}}, {"id": 4709615, "name": "Mathis", "state": "TX", "country": "US", "coord": {"lon": -97.828049, "lat": 28.09446}}, {"id": 4709652, "name": "Maud", "state": "TX", "country": "US", "coord": {"lon": -94.342697, "lat": 33.332901}}, {"id": 4709663, "name": "Mauriceville", "state": "TX", "country": "US", "coord": {"lon": -93.86628, "lat": 30.203541}}, {"id": 4709796, "name": "McAllen", "state": "TX", "country": "US", "coord": {"lon": -98.230011, "lat": 26.203409}}, {"id": 4710129, "name": "McGregor", "state": "TX", "country": "US", "coord": {"lon": -97.40918, "lat": 31.444059}}, {"id": 4710178, "name": "McKinney", "state": "TX", "country": "US", "coord": {"lon": -96.615273, "lat": 33.19762}}, {"id": 4710227, "name": "McLendon-Chisholm", "state": "TX", "country": "US", "coord": {"lon": -96.380539, "lat": 32.84235}}, {"id": 4710229, "name": "McLennan County", "state": "TX", "country": "US", "coord": {"lon": -97.183617, "lat": 31.550171}}, {"id": 4710317, "name": "McQueeney", "state": "TX", "country": "US", "coord": {"lon": -98.03334, "lat": 29.592171}}, {"id": 4710414, "name": "Meadowlakes", "state": "TX", "country": "US", "coord": {"lon": -98.29641, "lat": 30.56241}}, {"id": 4710433, "name": "Meadows Place", "state": "TX", "country": "US", "coord": {"lon": -95.587997, "lat": 29.65134}}, {"id": 4710484, "name": "Medina", "state": "TX", "country": "US", "coord": {"lon": -99.246429, "lat": 29.79661}}, {"id": 4710485, "name": "Medina", "state": "TX", "country": "US", "coord": {"lon": -99.259483, "lat": 26.92115}}, {"id": 4710490, "name": "Medina County", "state": "TX", "country": "US", "coord": {"lon": -99.100311, "lat": 29.366899}}, {"id": 4710574, "name": "Melissa", "state": "TX", "country": "US", "coord": {"lon": -96.572769, "lat": 33.28595}}, {"id": 4710697, "name": "Menard", "state": "TX", "country": "US", "coord": {"lon": -99.786461, "lat": 30.917669}}, {"id": 4710749, "name": "Mercedes", "state": "TX", "country": "US", "coord": {"lon": -97.913612, "lat": 26.149799}}, {"id": 4710782, "name": "Meridian", "state": "TX", "country": "US", "coord": {"lon": -97.656693, "lat": 31.92321}}, {"id": 4710826, "name": "Mesquite", "state": "TX", "country": "US", "coord": {"lon": -96.599159, "lat": 32.7668}}, {"id": 4710963, "name": "Mexia", "state": "TX", "country": "US", "coord": {"lon": -96.482201, "lat": 31.67989}}, {"id": 4711156, "name": "Midlothian", "state": "TX", "country": "US", "coord": {"lon": -96.994453, "lat": 32.482361}}, {"id": 4711160, "name": "Midway", "state": "TX", "country": "US", "coord": {"lon": -97.411118, "lat": 31.078791}}, {"id": 4711212, "name": "Midway North", "state": "TX", "country": "US", "coord": {"lon": -98.017082, "lat": 26.187759}}, {"id": 4711221, "name": "Midway South", "state": "TX", "country": "US", "coord": {"lon": -98.020111, "lat": 26.15694}}, {"id": 4711253, "name": "Mila Doce", "state": "TX", "country": "US", "coord": {"lon": -97.958893, "lat": 26.226179}}, {"id": 4711255, "name": "Milam", "state": "TX", "country": "US", "coord": {"lon": -93.845741, "lat": 31.4324}}, {"id": 4711286, "name": "Milam County", "state": "TX", "country": "US", "coord": {"lon": -96.950256, "lat": 30.80019}}, {"id": 4711291, "name": "Mildred", "state": "TX", "country": "US", "coord": {"lon": -96.376923, "lat": 32.03516}}, {"id": 4711437, "name": "Mill Town", "state": "TX", "country": "US", "coord": {"lon": -95.373833, "lat": 30.958799}}, {"id": 4711628, "name": "Mineola", "state": "TX", "country": "US", "coord": {"lon": -95.488289, "lat": 32.663189}}, {"id": 4711647, "name": "Mineral Wells", "state": "TX", "country": "US", "coord": {"lon": -98.112823, "lat": 32.80846}}, {"id": 4711725, "name": "Mission", "state": "TX", "country": "US", "coord": {"lon": -98.325287, "lat": 26.21591}}, {"id": 4711729, "name": "Mission Bend", "state": "TX", "country": "US", "coord": {"lon": -95.664948, "lat": 29.69384}}, {"id": 4711801, "name": "Missouri City", "state": "TX", "country": "US", "coord": {"lon": -95.53772, "lat": 29.61857}}, {"id": 4711868, "name": "Mittie", "state": "TX", "country": "US", "coord": {"lon": -95.229111, "lat": 31.97183}}, {"id": 4711967, "name": "Mont Belvieu", "state": "TX", "country": "US", "coord": {"lon": -94.890762, "lat": 29.847719}}, {"id": 4711972, "name": "Montague", "state": "TX", "country": "US", "coord": {"lon": -97.720589, "lat": 33.664829}}, {"id": 4711974, "name": "Montague County", "state": "TX", "country": "US", "coord": {"lon": -97.716972, "lat": 33.683441}}, {"id": 4711991, "name": "Monte Alto", "state": "TX", "country": "US", "coord": {"lon": -97.971672, "lat": 26.373119}}, {"id": 4712041, "name": "Montgomery County", "state": "TX", "country": "US", "coord": {"lon": -95.466881, "lat": 30.316879}}, {"id": 4712097, "name": "Moody", "state": "TX", "country": "US", "coord": {"lon": -97.361397, "lat": 31.308229}}, {"id": 4712319, "name": "Morgans Point Resort", "state": "TX", "country": "US", "coord": {"lon": -97.463341, "lat": 31.14823}}, {"id": 4712711, "name": "Mount Enterprise", "state": "TX", "country": "US", "coord": {"lon": -94.681038, "lat": 31.91795}}, {"id": 4712933, "name": "Mount Pleasant", "state": "TX", "country": "US", "coord": {"lon": -94.968269, "lat": 33.156792}}, {"id": 4713030, "name": "Mount Union", "state": "TX", "country": "US", "coord": {"lon": -94.022408, "lat": 30.699089}}, {"id": 4713032, "name": "Mount Vernon", "state": "TX", "country": "US", "coord": {"lon": -95.221329, "lat": 33.188728}}, {"id": 4713351, "name": "Muenster", "state": "TX", "country": "US", "coord": {"lon": -97.376411, "lat": 33.651772}}, {"id": 4713452, "name": "Munday", "state": "TX", "country": "US", "coord": {"lon": -99.622864, "lat": 33.449261}}, {"id": 4713474, "name": "Muniz", "state": "TX", "country": "US", "coord": {"lon": -98.089447, "lat": 26.25646}}, {"id": 4713506, "name": "Murillo Colonia", "state": "TX", "country": "US", "coord": {"lon": -98.113342, "lat": 26.25646}}, {"id": 4713507, "name": "Murphy", "state": "TX", "country": "US", "coord": {"lon": -96.613052, "lat": 33.015121}}, {"id": 4713577, "name": "Mustang", "state": "TX", "country": "US", "coord": {"lon": -96.903061, "lat": 33.320671}}, {"id": 4713735, "name": "Nacogdoches", "state": "TX", "country": "US", "coord": {"lon": -94.655487, "lat": 31.60351}}, {"id": 4713738, "name": "Nacogdoches County", "state": "TX", "country": "US", "coord": {"lon": -94.633537, "lat": 31.60018}}, {"id": 4713782, "name": "Naples", "state": "TX", "country": "US", "coord": {"lon": -94.680206, "lat": 33.203178}}, {"id": 4713800, "name": "Nash", "state": "TX", "country": "US", "coord": {"lon": -94.130753, "lat": 33.442348}}, {"id": 4713805, "name": "Nash", "state": "TX", "country": "US", "coord": {"lon": -96.812767, "lat": 32.265701}}, {"id": 4713813, "name": "Nassau Bay", "state": "TX", "country": "US", "coord": {"lon": -95.091042, "lat": 29.54468}}, {"id": 4713849, "name": "Navarro County", "state": "TX", "country": "US", "coord": {"lon": -96.466927, "lat": 32.050152}}, {"id": 4713866, "name": "Navasota", "state": "TX", "country": "US", "coord": {"lon": -96.08773, "lat": 30.38798}}, {"id": 4713932, "name": "Nederland", "state": "TX", "country": "US", "coord": {"lon": -93.992401, "lat": 29.97438}}, {"id": 4713946, "name": "Needville", "state": "TX", "country": "US", "coord": {"lon": -95.83773, "lat": 29.39941}}, {"id": 4714126, "name": "New Boston", "state": "TX", "country": "US", "coord": {"lon": -94.415482, "lat": 33.459839}}, {"id": 4714131, "name": "New Braunfels", "state": "TX", "country": "US", "coord": {"lon": -98.124451, "lat": 29.702999}}, {"id": 4714570, "name": "New Summerfield", "state": "TX", "country": "US", "coord": {"lon": -95.093826, "lat": 31.980721}}, {"id": 4714582, "name": "New Territory", "state": "TX", "country": "US", "coord": {"lon": -95.680779, "lat": 29.59412}}, {"id": 4714603, "name": "New Waverly", "state": "TX", "country": "US", "coord": {"lon": -95.483276, "lat": 30.537701}}, {"id": 4714660, "name": "Newark", "state": "TX", "country": "US", "coord": {"lon": -97.484467, "lat": 33.00124}}, {"id": 4714713, "name": "Newton", "state": "TX", "country": "US", "coord": {"lon": -93.757401, "lat": 30.84853}}, {"id": 4714829, "name": "Nixon", "state": "TX", "country": "US", "coord": {"lon": -97.764442, "lat": 29.26746}}, {"id": 4714865, "name": "Nocona", "state": "TX", "country": "US", "coord": {"lon": -97.725861, "lat": 33.78677}}, {"id": 4714895, "name": "Nolanville", "state": "TX", "country": "US", "coord": {"lon": -97.605568, "lat": 31.078791}}, {"id": 4714912, "name": "Noonday", "state": "TX", "country": "US", "coord": {"lon": -95.406067, "lat": 32.23571}}, {"id": 4714936, "name": "Noria Willie", "state": "TX", "country": "US", "coord": {"lon": -98.127228, "lat": 27.0856}}, {"id": 4714990, "name": "North Alamo", "state": "TX", "country": "US", "coord": {"lon": -98.128899, "lat": 26.2173}}, {"id": 4715292, "name": "North Richland Hills", "state": "TX", "country": "US", "coord": {"lon": -97.228897, "lat": 32.834301}}, {"id": 4715410, "name": "Northcliff", "state": "TX", "country": "US", "coord": {"lon": -98.224731, "lat": 29.621059}}, {"id": 4715411, "name": "Northcrest", "state": "TX", "country": "US", "coord": {"lon": -97.099716, "lat": 31.636551}}, {"id": 4715447, "name": "Northlake", "state": "TX", "country": "US", "coord": {"lon": -97.265572, "lat": 33.127338}}, {"id": 4715635, "name": "Nueces County", "state": "TX", "country": "US", "coord": {"lon": -97.633614, "lat": 27.733641}}, {"id": 4715696, "name": "Nurillo", "state": "TX", "country": "US", "coord": {"lon": -98.121399, "lat": 26.267019}}, {"id": 4715915, "name": "Oak Leaf", "state": "TX", "country": "US", "coord": {"lon": -96.854721, "lat": 32.52042}}, {"id": 4715931, "name": "Oak Point", "state": "TX", "country": "US", "coord": {"lon": -96.991669, "lat": 33.190121}}, {"id": 4715944, "name": "Oak Ridge North", "state": "TX", "country": "US", "coord": {"lon": -95.444382, "lat": 30.160219}}, {"id": 4715957, "name": "Oak Trail Shores", "state": "TX", "country": "US", "coord": {"lon": -97.834198, "lat": 32.48875}}, {"id": 4716128, "name": "Odem", "state": "TX", "country": "US", "coord": {"lon": -97.582222, "lat": 27.950569}}, {"id": 4716202, "name": "Oklaunion", "state": "TX", "country": "US", "coord": {"lon": -99.142853, "lat": 34.129532}}, {"id": 4716207, "name": "Olcott", "state": "TX", "country": "US", "coord": {"lon": -95.170769, "lat": 29.59495}}, {"id": 4716479, "name": "Old River-Winfree", "state": "TX", "country": "US", "coord": {"lon": -94.832703, "lat": 29.86828}}, {"id": 4716571, "name": "Oldham", "state": "TX", "country": "US", "coord": {"lon": -96.881111, "lat": 32.872631}}, {"id": 4716599, "name": "Olivarez", "state": "TX", "country": "US", "coord": {"lon": -97.992233, "lat": 26.228411}}, {"id": 4716655, "name": "Olmito", "state": "TX", "country": "US", "coord": {"lon": -97.534149, "lat": 26.02174}}, {"id": 4716663, "name": "Olmos", "state": "TX", "country": "US", "coord": {"lon": -98.03389, "lat": 29.44079}}, {"id": 4716676, "name": "Olmos Park", "state": "TX", "country": "US", "coord": {"lon": -98.487518, "lat": 29.47884}}, {"id": 4716683, "name": "Olney", "state": "TX", "country": "US", "coord": {"lon": -98.752838, "lat": 33.370659}}, {"id": 4716696, "name": "Omaha", "state": "TX", "country": "US", "coord": {"lon": -94.744102, "lat": 33.180679}}, {"id": 4716701, "name": "Onalaska", "state": "TX", "country": "US", "coord": {"lon": -95.116333, "lat": 30.80575}}, {"id": 4716734, "name": "Onion Creek", "state": "TX", "country": "US", "coord": {"lon": -97.784172, "lat": 30.1366}}, {"id": 4716805, "name": "Orange", "state": "TX", "country": "US", "coord": {"lon": -93.736549, "lat": 30.092991}}, {"id": 4716812, "name": "Orange Grove", "state": "TX", "country": "US", "coord": {"lon": -97.936943, "lat": 27.95668}}, {"id": 4716826, "name": "Orange County", "state": "TX", "country": "US", "coord": {"lon": -93.900169, "lat": 30.133539}}, {"id": 4716833, "name": "Ore City", "state": "TX", "country": "US", "coord": {"lon": -94.720757, "lat": 32.80014}}, {"id": 4716998, "name": "Overton", "state": "TX", "country": "US", "coord": {"lon": -94.978554, "lat": 32.274601}}, {"id": 4717006, "name": "Ovilla", "state": "TX", "country": "US", "coord": {"lon": -96.886391, "lat": 32.526531}}, {"id": 4717084, "name": "Oyster Creek", "state": "TX", "country": "US", "coord": {"lon": -95.331879, "lat": 29.003019}}, {"id": 4717199, "name": "Paint Rock", "state": "TX", "country": "US", "coord": {"lon": -99.920082, "lat": 31.50849}}, {"id": 4717218, "name": "Palacios", "state": "TX", "country": "US", "coord": {"lon": -96.217468, "lat": 28.70805}}, {"id": 4717232, "name": "Palestine", "state": "TX", "country": "US", "coord": {"lon": -95.630791, "lat": 31.762119}}, {"id": 4717275, "name": "Palm Valley", "state": "TX", "country": "US", "coord": {"lon": -97.754158, "lat": 26.20174}}, {"id": 4717283, "name": "Palmer", "state": "TX", "country": "US", "coord": {"lon": -96.66777, "lat": 32.431252}}, {"id": 4717326, "name": "Palmhurst", "state": "TX", "country": "US", "coord": {"lon": -98.318069, "lat": 26.25841}}, {"id": 4717339, "name": "Palmview", "state": "TX", "country": "US", "coord": {"lon": -98.37085, "lat": 26.23341}}, {"id": 4717341, "name": "Palmview South", "state": "TX", "country": "US", "coord": {"lon": -98.378632, "lat": 26.21563}}, {"id": 4717376, "name": "Palo Pinto", "state": "TX", "country": "US", "coord": {"lon": -98.29866, "lat": 32.767349}}, {"id": 4717377, "name": "Palo Pinto County", "state": "TX", "country": "US", "coord": {"lon": -98.300331, "lat": 32.750679}}, {"id": 4717434, "name": "Panola County", "state": "TX", "country": "US", "coord": {"lon": -94.300201, "lat": 32.166828}}, {"id": 4717446, "name": "Panorama Village", "state": "TX", "country": "US", "coord": {"lon": -95.493553, "lat": 30.381041}}, {"id": 4717448, "name": "Pantego", "state": "TX", "country": "US", "coord": {"lon": -97.156403, "lat": 32.714298}}, {"id": 4717560, "name": "Paris", "state": "TX", "country": "US", "coord": {"lon": -95.555511, "lat": 33.660938}}, {"id": 4717624, "name": "Parker", "state": "TX", "country": "US", "coord": {"lon": -96.621941, "lat": 33.055401}}, {"id": 4717644, "name": "Parker County", "state": "TX", "country": "US", "coord": {"lon": -97.800308, "lat": 32.7668}}, {"id": 4717770, "name": "Parsley Crossing", "state": "TX", "country": "US", "coord": {"lon": -98.112259, "lat": 31.567659}}, {"id": 4717782, "name": "Pasadena", "state": "TX", "country": "US", "coord": {"lon": -95.209099, "lat": 29.691059}}, {"id": 4717929, "name": "Patton Village", "state": "TX", "country": "US", "coord": {"lon": -95.168823, "lat": 30.192989}}, {"id": 4718097, "name": "Pearland", "state": "TX", "country": "US", "coord": {"lon": -95.286049, "lat": 29.56357}}, {"id": 4718107, "name": "Pearsall", "state": "TX", "country": "US", "coord": {"lon": -99.095032, "lat": 28.892191}}, {"id": 4718153, "name": "Pecan Acres", "state": "TX", "country": "US", "coord": {"lon": -97.474739, "lat": 32.970131}}, {"id": 4718209, "name": "Pecan Grove", "state": "TX", "country": "US", "coord": {"lon": -95.731621, "lat": 29.62607}}, {"id": 4718236, "name": "Pecan Plantation", "state": "TX", "country": "US", "coord": {"lon": -97.675583, "lat": 32.36042}}, {"id": 4718267, "name": "Pecan Wells", "state": "TX", "country": "US", "coord": {"lon": -98.371429, "lat": 31.57655}}, {"id": 4718330, "name": "Pelican Bay", "state": "TX", "country": "US", "coord": {"lon": -97.518356, "lat": 32.920959}}, {"id": 4718381, "name": "Penitas", "state": "TX", "country": "US", "coord": {"lon": -98.44474, "lat": 26.230631}}, {"id": 4718491, "name": "Perezville", "state": "TX", "country": "US", "coord": {"lon": -98.400574, "lat": 26.22452}}, {"id": 4718711, "name": "Pflugerville", "state": "TX", "country": "US", "coord": {"lon": -97.620003, "lat": 30.439369}}, {"id": 4718721, "name": "Pharr", "state": "TX", "country": "US", "coord": {"lon": -98.183617, "lat": 26.194799}}, {"id": 4719006, "name": "Pilot Grove", "state": "TX", "country": "US", "coord": {"lon": -96.424713, "lat": 33.437889}}, {"id": 4719021, "name": "Pilot Point", "state": "TX", "country": "US", "coord": {"lon": -96.960564, "lat": 33.3965}}, {"id": 4719246, "name": "Pinehurst", "state": "TX", "country": "US", "coord": {"lon": -95.682449, "lat": 30.171049}}, {"id": 4719247, "name": "Pinehurst", "state": "TX", "country": "US", "coord": {"lon": -93.774612, "lat": 30.107149}}, {"id": 4719261, "name": "Pinewood Estates", "state": "TX", "country": "US", "coord": {"lon": -94.321579, "lat": 30.164379}}, {"id": 4719310, "name": "Piney Point Village", "state": "TX", "country": "US", "coord": {"lon": -95.517159, "lat": 29.759951}}, {"id": 4719416, "name": "Pittsburg", "state": "TX", "country": "US", "coord": {"lon": -94.965767, "lat": 32.995399}}, {"id": 4719457, "name": "Plano", "state": "TX", "country": "US", "coord": {"lon": -96.698891, "lat": 33.01984}}, {"id": 4719481, "name": "Pleak", "state": "TX", "country": "US", "coord": {"lon": -95.807732, "lat": 29.48913}}, {"id": 4719720, "name": "Pleasanton", "state": "TX", "country": "US", "coord": {"lon": -98.47863, "lat": 28.96719}}, {"id": 4719781, "name": "Plum Grove", "state": "TX", "country": "US", "coord": {"lon": -96.989449, "lat": 32.195702}}, {"id": 4719903, "name": "Polk County", "state": "TX", "country": "US", "coord": {"lon": -94.850212, "lat": 30.783529}}, {"id": 4719966, "name": "Ponder", "state": "TX", "country": "US", "coord": {"lon": -97.287239, "lat": 33.182899}}, {"id": 4720036, "name": "Port Aransas", "state": "TX", "country": "US", "coord": {"lon": -97.061096, "lat": 27.83392}}, {"id": 4720039, "name": "Port Arthur", "state": "TX", "country": "US", "coord": {"lon": -93.92878, "lat": 29.89883}}, {"id": 4720060, "name": "Port Isabel", "state": "TX", "country": "US", "coord": {"lon": -97.20858, "lat": 26.07341}}, {"id": 4720067, "name": "Port Lavaca", "state": "TX", "country": "US", "coord": {"lon": -96.626091, "lat": 28.615}}, {"id": 4720072, "name": "Port Neches", "state": "TX", "country": "US", "coord": {"lon": -93.958511, "lat": 29.99132}}, {"id": 4720080, "name": "Port O'Connor", "state": "TX", "country": "US", "coord": {"lon": -96.405807, "lat": 28.448339}}, {"id": 4720105, "name": "Porter Heights", "state": "TX", "country": "US", "coord": {"lon": -95.321877, "lat": 30.15188}}, {"id": 4720131, "name": "Portland", "state": "TX", "country": "US", "coord": {"lon": -97.323883, "lat": 27.877251}}, {"id": 4720270, "name": "Poteet", "state": "TX", "country": "US", "coord": {"lon": -98.568069, "lat": 29.04052}}, {"id": 4720272, "name": "Poth", "state": "TX", "country": "US", "coord": {"lon": -98.081947, "lat": 29.069691}}, {"id": 4720275, "name": "Potosi", "state": "TX", "country": "US", "coord": {"lon": -99.656471, "lat": 32.3293}}, {"id": 4720314, "name": "Pottsboro", "state": "TX", "country": "US", "coord": {"lon": -96.669441, "lat": 33.75927}}, {"id": 4720327, "name": "Powderly", "state": "TX", "country": "US", "coord": {"lon": -95.524399, "lat": 33.811218}}, {"id": 4720493, "name": "Prairie View", "state": "TX", "country": "US", "coord": {"lon": -95.987732, "lat": 30.093269}}, {"id": 4720529, "name": "Premont", "state": "TX", "country": "US", "coord": {"lon": -98.123619, "lat": 27.36059}}, {"id": 4720583, "name": "Preston", "state": "TX", "country": "US", "coord": {"lon": -96.633049, "lat": 33.88232}}, {"id": 4720672, "name": "Primera", "state": "TX", "country": "US", "coord": {"lon": -97.758049, "lat": 26.22591}}, {"id": 4720725, "name": "Primrose", "state": "TX", "country": "US", "coord": {"lon": -95.604134, "lat": 32.433479}}, {"id": 4720743, "name": "Princeton", "state": "TX", "country": "US", "coord": {"lon": -96.498039, "lat": 33.180119}}, {"id": 4720789, "name": "Progreso", "state": "TX", "country": "US", "coord": {"lon": -97.957222, "lat": 26.0923}}, {"id": 4720833, "name": "Prosper", "state": "TX", "country": "US", "coord": {"lon": -96.801109, "lat": 33.236229}}, {"id": 4721023, "name": "Quanah", "state": "TX", "country": "US", "coord": {"lon": -99.740372, "lat": 34.297859}}, {"id": 4721041, "name": "Queen City", "state": "TX", "country": "US", "coord": {"lon": -94.150192, "lat": 33.148739}}, {"id": 4721089, "name": "Quinlan", "state": "TX", "country": "US", "coord": {"lon": -96.135529, "lat": 32.9104}}, {"id": 4721115, "name": "Quitman", "state": "TX", "country": "US", "coord": {"lon": -95.451057, "lat": 32.795959}}, {"id": 4721416, "name": "Rancho Alegre", "state": "TX", "country": "US", "coord": {"lon": -98.094727, "lat": 27.74169}}, {"id": 4721444, "name": "Rancho Viejo", "state": "TX", "country": "US", "coord": {"lon": -97.556381, "lat": 26.03952}}, {"id": 4721504, "name": "Ranger", "state": "TX", "country": "US", "coord": {"lon": -98.678947, "lat": 32.469849}}, {"id": 4721703, "name": "Raymondville", "state": "TX", "country": "US", "coord": {"lon": -97.783051, "lat": 26.481461}}, {"id": 4721912, "name": "Red Lick", "state": "TX", "country": "US", "coord": {"lon": -94.171028, "lat": 33.464851}}, {"id": 4721921, "name": "Red Oak", "state": "TX", "country": "US", "coord": {"lon": -96.804443, "lat": 32.517639}}, {"id": 4722038, "name": "Redland", "state": "TX", "country": "US", "coord": {"lon": -94.721321, "lat": 31.40435}}, {"id": 4722062, "name": "Redwater", "state": "TX", "country": "US", "coord": {"lon": -94.254356, "lat": 33.358181}}, {"id": 4722065, "name": "Redwood", "state": "TX", "country": "US", "coord": {"lon": -97.911392, "lat": 29.810221}}, {"id": 4722145, "name": "Refugio", "state": "TX", "country": "US", "coord": {"lon": -97.275269, "lat": 28.305281}}, {"id": 4722147, "name": "Refugio County", "state": "TX", "country": "US", "coord": {"lon": -97.166939, "lat": 28.33362}}, {"id": 4722231, "name": "Rendon", "state": "TX", "country": "US", "coord": {"lon": -97.241402, "lat": 32.576248}}, {"id": 4722241, "name": "Reno", "state": "TX", "country": "US", "coord": {"lon": -95.462448, "lat": 33.663158}}, {"id": 4722242, "name": "Reno", "state": "TX", "country": "US", "coord": {"lon": -97.577248, "lat": 32.94429}}, {"id": 4722503, "name": "Rhea Mills", "state": "TX", "country": "US", "coord": {"lon": -96.733047, "lat": 33.262341}}, {"id": 4722533, "name": "Rhome", "state": "TX", "country": "US", "coord": {"lon": -97.47197, "lat": 33.053459}}, {"id": 4722542, "name": "Ricardo", "state": "TX", "country": "US", "coord": {"lon": -97.851112, "lat": 27.421431}}, {"id": 4722625, "name": "Richardson", "state": "TX", "country": "US", "coord": {"lon": -96.729721, "lat": 32.948181}}, {"id": 4722668, "name": "Richland Hills", "state": "TX", "country": "US", "coord": {"lon": -97.228073, "lat": 32.81596}}, {"id": 4722684, "name": "Richmond", "state": "TX", "country": "US", "coord": {"lon": -95.76078, "lat": 29.58218}}, {"id": 4722697, "name": "Richwood", "state": "TX", "country": "US", "coord": {"lon": -95.409943, "lat": 29.05608}}, {"id": 4722757, "name": "Riesel", "state": "TX", "country": "US", "coord": {"lon": -96.923332, "lat": 31.47489}}, {"id": 4722782, "name": "Rincon", "state": "TX", "country": "US", "coord": {"lon": -98.592796, "lat": 26.514509}}, {"id": 4722831, "name": "Rio Bravo", "state": "TX", "country": "US", "coord": {"lon": -99.480042, "lat": 27.364189}}, {"id": 4722837, "name": "Rio Grande City", "state": "TX", "country": "US", "coord": {"lon": -98.820297, "lat": 26.379789}}, {"id": 4722843, "name": "Rio Hondo", "state": "TX", "country": "US", "coord": {"lon": -97.581932, "lat": 26.23535}}, {"id": 4722925, "name": "River Oaks", "state": "TX", "country": "US", "coord": {"lon": -97.394463, "lat": 32.777069}}, {"id": 4723024, "name": "Roanoke", "state": "TX", "country": "US", "coord": {"lon": -97.225853, "lat": 33.004009}}, {"id": 4723147, "name": "Robertson County", "state": "TX", "country": "US", "coord": {"lon": -96.500801, "lat": 31.03352}}, {"id": 4723165, "name": "Robinson", "state": "TX", "country": "US", "coord": {"lon": -97.114723, "lat": 31.46767}}, {"id": 4723212, "name": "Robstown", "state": "TX", "country": "US", "coord": {"lon": -97.668877, "lat": 27.7903}}, {"id": 4723369, "name": "Rockdale", "state": "TX", "country": "US", "coord": {"lon": -97.001373, "lat": 30.655479}}, {"id": 4723406, "name": "Rockwall", "state": "TX", "country": "US", "coord": {"lon": -96.459709, "lat": 32.931229}}, {"id": 4723410, "name": "Rockwall County", "state": "TX", "country": "US", "coord": {"lon": -96.400261, "lat": 32.90012}}, {"id": 4723416, "name": "Rockwell", "state": "TX", "country": "US", "coord": {"lon": -95.549683, "lat": 33.591221}}, {"id": 4723422, "name": "Rockport", "state": "TX", "country": "US", "coord": {"lon": -97.054428, "lat": 28.020571}}, {"id": 4723670, "name": "Rogers", "state": "TX", "country": "US", "coord": {"lon": -97.226662, "lat": 30.93157}}, {"id": 4723734, "name": "Rollingwood", "state": "TX", "country": "US", "coord": {"lon": -97.791122, "lat": 30.276871}}, {"id": 4723755, "name": "Roman Forest", "state": "TX", "country": "US", "coord": {"lon": -95.16243, "lat": 30.1791}}, {"id": 4723761, "name": "Romayor", "state": "TX", "country": "US", "coord": {"lon": -94.843262, "lat": 30.451321}}, {"id": 4723763, "name": "Roma-Los Saenz", "state": "TX", "country": "US", "coord": {"lon": -99.015862, "lat": 26.40506}}, {"id": 4723869, "name": "Rosebud", "state": "TX", "country": "US", "coord": {"lon": -96.9786, "lat": 31.07296}}, {"id": 4723914, "name": "Rosenberg", "state": "TX", "country": "US", "coord": {"lon": -95.808563, "lat": 29.55718}}, {"id": 4723944, "name": "Rosharon", "state": "TX", "country": "US", "coord": {"lon": -95.46022, "lat": 29.35218}}, {"id": 4724129, "name": "Round Rock", "state": "TX", "country": "US", "coord": {"lon": -97.678902, "lat": 30.508261}}, {"id": 4724194, "name": "Rowlett", "state": "TX", "country": "US", "coord": {"lon": -96.563881, "lat": 32.902901}}, {"id": 4724241, "name": "Royse City", "state": "TX", "country": "US", "coord": {"lon": -96.332481, "lat": 32.975121}}, {"id": 4724298, "name": "Runaway Bay", "state": "TX", "country": "US", "coord": {"lon": -97.878372, "lat": 33.167889}}, {"id": 4724309, "name": "Runge", "state": "TX", "country": "US", "coord": {"lon": -97.713051, "lat": 28.88331}}, {"id": 4724359, "name": "Rusk", "state": "TX", "country": "US", "coord": {"lon": -95.150223, "lat": 31.796009}}, {"id": 4724363, "name": "Rusk County", "state": "TX", "country": "US", "coord": {"lon": -94.783546, "lat": 32.116829}}, {"id": 4724530, "name": "Sabinal", "state": "TX", "country": "US", "coord": {"lon": -99.466438, "lat": 29.317459}}, {"id": 4724564, "name": "Sachse", "state": "TX", "country": "US", "coord": {"lon": -96.595268, "lat": 32.976231}}, {"id": 4724642, "name": "Saginaw", "state": "TX", "country": "US", "coord": {"lon": -97.363907, "lat": 32.86013}}, {"id": 4724892, "name": "Saint Hedwig", "state": "TX", "country": "US", "coord": {"lon": -98.200012, "lat": 29.4144}}, {"id": 4724966, "name": "Saint Jo", "state": "TX", "country": "US", "coord": {"lon": -97.522522, "lat": 33.694832}}, {"id": 4725484, "name": "Saint Paul", "state": "TX", "country": "US", "coord": {"lon": -96.55027, "lat": 33.041229}}, {"id": 4725807, "name": "Salado", "state": "TX", "country": "US", "coord": {"lon": -97.53862, "lat": 30.94713}}, {"id": 4726133, "name": "Sam Rayburn", "state": "TX", "country": "US", "coord": {"lon": -94.035744, "lat": 31.064079}}, {"id": 4726206, "name": "San Antonio", "state": "TX", "country": "US", "coord": {"lon": -98.493629, "lat": 29.42412}}, {"id": 4726256, "name": "San Augustine", "state": "TX", "country": "US", "coord": {"lon": -94.106033, "lat": 31.5299}}, {"id": 4726259, "name": "San Augustine County", "state": "TX", "country": "US", "coord": {"lon": -94.166862, "lat": 31.400181}}, {"id": 4726290, "name": "San Benito", "state": "TX", "country": "US", "coord": {"lon": -97.631104, "lat": 26.13258}}, {"id": 4726293, "name": "San Carlos", "state": "TX", "country": "US", "coord": {"lon": -98.071953, "lat": 26.29563}}, {"id": 4726311, "name": "San Diego", "state": "TX", "country": "US", "coord": {"lon": -98.238899, "lat": 27.76391}}, {"id": 4726440, "name": "San Juan", "state": "TX", "country": "US", "coord": {"lon": -98.155289, "lat": 26.18924}}, {"id": 4726477, "name": "San Leon", "state": "TX", "country": "US", "coord": {"lon": -94.92215, "lat": 29.48329}}, {"id": 4726491, "name": "San Marcos", "state": "TX", "country": "US", "coord": {"lon": -97.941391, "lat": 29.88327}}, {"id": 4726521, "name": "San Patricio County", "state": "TX", "country": "US", "coord": {"lon": -97.516937, "lat": 28.01696}}, {"id": 4726582, "name": "San Saba", "state": "TX", "country": "US", "coord": {"lon": -98.718102, "lat": 31.195721}}, {"id": 4726957, "name": "Sanger", "state": "TX", "country": "US", "coord": {"lon": -97.173897, "lat": 33.363171}}, {"id": 4726971, "name": "Sansom Park", "state": "TX", "country": "US", "coord": {"lon": -97.403069, "lat": 32.805962}}, {"id": 4726982, "name": "Santa Anna", "state": "TX", "country": "US", "coord": {"lon": -99.321732, "lat": 31.74209}}, {"id": 4727022, "name": "Santa Fe", "state": "TX", "country": "US", "coord": {"lon": -95.105759, "lat": 29.37801}}, {"id": 4727076, "name": "Santa Rosa", "state": "TX", "country": "US", "coord": {"lon": -97.824997, "lat": 26.256741}}, {"id": 4727159, "name": "Sarita", "state": "TX", "country": "US", "coord": {"lon": -97.789162, "lat": 27.22171}}, {"id": 4727290, "name": "Scenic Oaks", "state": "TX", "country": "US", "coord": {"lon": -98.675858, "lat": 29.710779}}, {"id": 4727326, "name": "Schertz", "state": "TX", "country": "US", "coord": {"lon": -98.26973, "lat": 29.55217}}, {"id": 4727403, "name": "Schroeder", "state": "TX", "country": "US", "coord": {"lon": -97.224426, "lat": 28.81554}}, {"id": 4727417, "name": "Schulenburg", "state": "TX", "country": "US", "coord": {"lon": -96.903038, "lat": 29.6819}}, {"id": 4727466, "name": "Scissors", "state": "TX", "country": "US", "coord": {"lon": -98.053886, "lat": 26.139799}}, {"id": 4727596, "name": "Seabrook", "state": "TX", "country": "US", "coord": {"lon": -95.025482, "lat": 29.564119}}, {"id": 4727602, "name": "Seadrift", "state": "TX", "country": "US", "coord": {"lon": -96.713593, "lat": 28.415279}}, {"id": 4727605, "name": "Seagoville", "state": "TX", "country": "US", "coord": {"lon": -96.538322, "lat": 32.63958}}, {"id": 4727629, "name": "Sealy", "state": "TX", "country": "US", "coord": {"lon": -96.157181, "lat": 29.78079}}, {"id": 4727651, "name": "Sebastian", "state": "TX", "country": "US", "coord": {"lon": -97.790268, "lat": 26.34285}}, {"id": 4727756, "name": "Seguin", "state": "TX", "country": "US", "coord": {"lon": -97.964729, "lat": 29.56884}}, {"id": 4727778, "name": "Selfs", "state": "TX", "country": "US", "coord": {"lon": -95.914413, "lat": 33.692322}}, {"id": 4727785, "name": "Selma", "state": "TX", "country": "US", "coord": {"lon": -98.305847, "lat": 29.584391}}, {"id": 4727831, "name": "Serenada", "state": "TX", "country": "US", "coord": {"lon": -97.691948, "lat": 30.69936}}, {"id": 4727873, "name": "Seven Points", "state": "TX", "country": "US", "coord": {"lon": -96.213028, "lat": 32.320419}}, {"id": 4727948, "name": "Seymour", "state": "TX", "country": "US", "coord": {"lon": -99.260353, "lat": 33.594261}}, {"id": 4727999, "name": "Shady Grove", "state": "TX", "country": "US", "coord": {"lon": -95.132721, "lat": 32.68153}}, {"id": 4728052, "name": "Shady Hollow", "state": "TX", "country": "US", "coord": {"lon": -97.862228, "lat": 30.16493}}, {"id": 4728064, "name": "Shady Shores", "state": "TX", "country": "US", "coord": {"lon": -97.029449, "lat": 33.165119}}, {"id": 4728083, "name": "Shamrock", "state": "TX", "country": "US", "coord": {"lon": -96.887497, "lat": 32.5993}}, {"id": 4728096, "name": "Shannon", "state": "TX", "country": "US", "coord": {"lon": -98.258942, "lat": 33.473999}}, {"id": 4728147, "name": "Shavano Park", "state": "TX", "country": "US", "coord": {"lon": -98.552521, "lat": 29.584949}}, {"id": 4728238, "name": "Sheldon", "state": "TX", "country": "US", "coord": {"lon": -95.128258, "lat": 29.868}}, {"id": 4728287, "name": "Shenandoah", "state": "TX", "country": "US", "coord": {"lon": -95.455772, "lat": 30.18022}}, {"id": 4728298, "name": "Shepherd", "state": "TX", "country": "US", "coord": {"lon": -94.996597, "lat": 30.49798}}, {"id": 4728328, "name": "Sherman", "state": "TX", "country": "US", "coord": {"lon": -96.608879, "lat": 33.635658}}, {"id": 4728357, "name": "Sherwood Shores", "state": "TX", "country": "US", "coord": {"lon": -96.81778, "lat": 33.852322}}, {"id": 4728482, "name": "Shiner", "state": "TX", "country": "US", "coord": {"lon": -97.17054, "lat": 29.429131}}, {"id": 4728557, "name": "Shoreacres", "state": "TX", "country": "US", "coord": {"lon": -95.009933, "lat": 29.62023}}, {"id": 4728608, "name": "Sienna Plantation", "state": "TX", "country": "US", "coord": {"lon": -95.508003, "lat": 29.486071}}, {"id": 4728616, "name": "Siesta Shores", "state": "TX", "country": "US", "coord": {"lon": -99.253647, "lat": 26.858101}}, {"id": 4728653, "name": "Silsbee", "state": "TX", "country": "US", "coord": {"lon": -94.177963, "lat": 30.3491}}, {"id": 4728826, "name": "Sinton", "state": "TX", "country": "US", "coord": {"lon": -97.509163, "lat": 28.03668}}, {"id": 4729130, "name": "Smith County", "state": "TX", "country": "US", "coord": {"lon": -95.233559, "lat": 32.366821}}, {"id": 4729284, "name": "Smithville", "state": "TX", "country": "US", "coord": {"lon": -97.159431, "lat": 30.008551}}, {"id": 4732801, "name": "Somerset", "state": "TX", "country": "US", "coord": {"lon": -98.657799, "lat": 29.226351}}, {"id": 4732809, "name": "Somerville", "state": "TX", "country": "US", "coord": {"lon": -96.528297, "lat": 30.346041}}, {"id": 4732826, "name": "Sonoma", "state": "TX", "country": "US", "coord": {"lon": -96.609993, "lat": 32.34042}}, {"id": 4732862, "name": "Sour Lake", "state": "TX", "country": "US", "coord": {"lon": -94.411018, "lat": 30.140209}}, {"id": 4732870, "name": "South Alamo", "state": "TX", "country": "US", "coord": {"lon": -98.10862, "lat": 26.157021}}, {"id": 4733042, "name": "South Houston", "state": "TX", "country": "US", "coord": {"lon": -95.235489, "lat": 29.66301}}, {"id": 4733103, "name": "South Padre Island", "state": "TX", "country": "US", "coord": {"lon": -97.164688, "lat": 26.103689}}, {"id": 4733129, "name": "South Point", "state": "TX", "country": "US", "coord": {"lon": -97.383591, "lat": 25.86869}}, {"id": 4733313, "name": "Southlake", "state": "TX", "country": "US", "coord": {"lon": -97.134178, "lat": 32.941238}}, {"id": 4733362, "name": "Southside Place", "state": "TX", "country": "US", "coord": {"lon": -95.436882, "lat": 29.70606}}, {"id": 4733485, "name": "Sparks", "state": "TX", "country": "US", "coord": {"lon": -97.359718, "lat": 30.92852}}, {"id": 4733487, "name": "Sparks Crossing", "state": "TX", "country": "US", "coord": {"lon": -98.135307, "lat": 31.071011}}, {"id": 4733497, "name": "Spear", "state": "TX", "country": "US", "coord": {"lon": -96.336906, "lat": 30.601589}}, {"id": 4733544, "name": "Spicewood", "state": "TX", "country": "US", "coord": {"lon": -98.15641, "lat": 30.47547}}, {"id": 4733593, "name": "Splendora", "state": "TX", "country": "US", "coord": {"lon": -95.161041, "lat": 30.23299}}, {"id": 4733624, "name": "Spring", "state": "TX", "country": "US", "coord": {"lon": -95.41716, "lat": 30.079941}}, {"id": 4733891, "name": "Spring Valley", "state": "TX", "country": "US", "coord": {"lon": -95.503548, "lat": 29.789671}}, {"id": 4733920, "name": "Springfield", "state": "TX", "country": "US", "coord": {"lon": -96.482758, "lat": 31.659611}}, {"id": 4733940, "name": "Springtown", "state": "TX", "country": "US", "coord": {"lon": -97.68364, "lat": 32.965961}}, {"id": 4734005, "name": "Stafford", "state": "TX", "country": "US", "coord": {"lon": -95.557716, "lat": 29.61607}}, {"id": 4734041, "name": "Stamford", "state": "TX", "country": "US", "coord": {"lon": -99.802872, "lat": 32.945389}}, {"id": 4734150, "name": "Starr County", "state": "TX", "country": "US", "coord": {"lon": -98.766968, "lat": 26.566999}}, {"id": 4734350, "name": "Stephenville", "state": "TX", "country": "US", "coord": {"lon": -98.202263, "lat": 32.220699}}, {"id": 4734523, "name": "Stockdale", "state": "TX", "country": "US", "coord": {"lon": -97.959999, "lat": 29.23691}}, {"id": 4734646, "name": "Stowell", "state": "TX", "country": "US", "coord": {"lon": -94.38324, "lat": 29.78994}}, {"id": 4734789, "name": "Sturdivant", "state": "TX", "country": "US", "coord": {"lon": -98.066711, "lat": 32.765411}}, {"id": 4734825, "name": "Sugar Land", "state": "TX", "country": "US", "coord": {"lon": -95.634949, "lat": 29.61968}}, {"id": 4734864, "name": "Sullivan City", "state": "TX", "country": "US", "coord": {"lon": -98.563629, "lat": 26.277571}}, {"id": 4734909, "name": "Sulphur Springs", "state": "TX", "country": "US", "coord": {"lon": -95.601067, "lat": 33.138451}}, {"id": 4735013, "name": "Sunnyvale", "state": "TX", "country": "US", "coord": {"lon": -96.560822, "lat": 32.79652}}, {"id": 4735190, "name": "Sweeny", "state": "TX", "country": "US", "coord": {"lon": -95.698563, "lat": 29.03886}}, {"id": 4735328, "name": "Sylvan", "state": "TX", "country": "US", "coord": {"lon": -95.43412, "lat": 33.644272}}, {"id": 4735458, "name": "Taft", "state": "TX", "country": "US", "coord": {"lon": -97.398598, "lat": 27.97891}}, {"id": 4735467, "name": "Taft Southwest (historical)", "state": "TX", "country": "US", "coord": {"lon": -97.403053, "lat": 27.973909}}, {"id": 4735524, "name": "Talty", "state": "TX", "country": "US", "coord": {"lon": -96.385536, "lat": 32.683189}}, {"id": 4735636, "name": "Tarrant", "state": "TX", "country": "US", "coord": {"lon": -97.077232, "lat": 32.816799}}, {"id": 4735638, "name": "Tarrant County", "state": "TX", "country": "US", "coord": {"lon": -97.300293, "lat": 32.7668}}, {"id": 4735674, "name": "Tatum", "state": "TX", "country": "US", "coord": {"lon": -94.516586, "lat": 32.31599}}, {"id": 4735702, "name": "Taylor", "state": "TX", "country": "US", "coord": {"lon": -97.409439, "lat": 30.570761}}, {"id": 4735729, "name": "Taylor County", "state": "TX", "country": "US", "coord": {"lon": -99.833702, "lat": 32.300129}}, {"id": 4735771, "name": "Taylor Lake Village", "state": "TX", "country": "US", "coord": {"lon": -95.050209, "lat": 29.57523}}, {"id": 4735813, "name": "Teague", "state": "TX", "country": "US", "coord": {"lon": -96.283859, "lat": 31.62711}}, {"id": 4735964, "name": "Tenaha", "state": "TX", "country": "US", "coord": {"lon": -94.244087, "lat": 31.943781}}, {"id": 4735966, "name": "Temple", "state": "TX", "country": "US", "coord": {"lon": -97.342781, "lat": 31.09823}}, {"id": 4736028, "name": "Terrell", "state": "TX", "country": "US", "coord": {"lon": -96.275261, "lat": 32.735958}}, {"id": 4736043, "name": "Terrell Hills", "state": "TX", "country": "US", "coord": {"lon": -98.450851, "lat": 29.474951}}, {"id": 4736096, "name": "Texarkana", "state": "TX", "country": "US", "coord": {"lon": -94.047691, "lat": 33.425121}}, {"id": 4736134, "name": "Texas City", "state": "TX", "country": "US", "coord": {"lon": -94.902702, "lat": 29.383841}}, {"id": 4736286, "name": "Texas", "state": "TX", "country": "US", "coord": {"lon": -99.25061, "lat": 31.250441}}, {"id": 4736388, "name": "The Colony", "state": "TX", "country": "US", "coord": {"lon": -96.886391, "lat": 33.089008}}, {"id": 4736420, "name": "The Hills", "state": "TX", "country": "US", "coord": {"lon": -97.985008, "lat": 30.34798}}, {"id": 4736476, "name": "The Woodlands", "state": "TX", "country": "US", "coord": {"lon": -95.48938, "lat": 30.15799}}, {"id": 4736681, "name": "Thorndale", "state": "TX", "country": "US", "coord": {"lon": -97.205551, "lat": 30.61381}}, {"id": 4736721, "name": "Three Rivers", "state": "TX", "country": "US", "coord": {"lon": -98.18251, "lat": 28.46027}}, {"id": 4736741, "name": "Throckmorton", "state": "TX", "country": "US", "coord": {"lon": -99.177582, "lat": 33.178719}}, {"id": 4736889, "name": "Tilden", "state": "TX", "country": "US", "coord": {"lon": -98.549179, "lat": 28.461941}}, {"id": 4736922, "name": "Timberwood Park", "state": "TX", "country": "US", "coord": {"lon": -98.478348, "lat": 29.70578}}, {"id": 4736933, "name": "Timpson", "state": "TX", "country": "US", "coord": {"lon": -94.395203, "lat": 31.90378}}, {"id": 4736982, "name": "Titus County", "state": "TX", "country": "US", "coord": {"lon": -94.983551, "lat": 33.233452}}, {"id": 4737052, "name": "Tom Bean", "state": "TX", "country": "US", "coord": {"lon": -96.483871, "lat": 33.520111}}, {"id": 4737094, "name": "Tomball", "state": "TX", "country": "US", "coord": {"lon": -95.616051, "lat": 30.09716}}, {"id": 4737151, "name": "Tool", "state": "TX", "country": "US", "coord": {"lon": -96.17025, "lat": 32.267921}}, {"id": 4737254, "name": "Townsend", "state": "TX", "country": "US", "coord": {"lon": -94.311867, "lat": 31.351021}}, {"id": 4737316, "name": "Travis County", "state": "TX", "country": "US", "coord": {"lon": -97.800293, "lat": 30.33354}}, {"id": 4737506, "name": "Trinity", "state": "TX", "country": "US", "coord": {"lon": -95.375504, "lat": 30.94519}}, {"id": 4737562, "name": "Trinity County", "state": "TX", "country": "US", "coord": {"lon": -95.216881, "lat": 31.10018}}, {"id": 4737676, "name": "Trophy Club", "state": "TX", "country": "US", "coord": {"lon": -97.183617, "lat": 32.997898}}, {"id": 4737691, "name": "Troup", "state": "TX", "country": "US", "coord": {"lon": -95.120499, "lat": 32.1446}}, {"id": 4737704, "name": "Troy", "state": "TX", "country": "US", "coord": {"lon": -97.30278, "lat": 31.206841}}, {"id": 4738207, "name": "Tye", "state": "TX", "country": "US", "coord": {"lon": -99.871483, "lat": 32.457619}}, {"id": 4738214, "name": "Tyler", "state": "TX", "country": "US", "coord": {"lon": -95.301064, "lat": 32.351261}}, {"id": 4738279, "name": "Uhland", "state": "TX", "country": "US", "coord": {"lon": -97.78611, "lat": 29.95772}}, {"id": 4738574, "name": "Universal City", "state": "TX", "country": "US", "coord": {"lon": -98.291122, "lat": 29.54801}}, {"id": 4738606, "name": "University Park", "state": "TX", "country": "US", "coord": {"lon": -96.800278, "lat": 32.850128}}, {"id": 4738689, "name": "Upshur County", "state": "TX", "country": "US", "coord": {"lon": -94.950218, "lat": 32.733471}}, {"id": 4738721, "name": "Uvalde", "state": "TX", "country": "US", "coord": {"lon": -99.786171, "lat": 29.209681}}, {"id": 4738723, "name": "Uvalde County", "state": "TX", "country": "US", "coord": {"lon": -99.766998, "lat": 29.366899}}, {"id": 4738725, "name": "Uvalde Estates", "state": "TX", "country": "US", "coord": {"lon": -99.832283, "lat": 29.165239}}, {"id": 4738749, "name": "Vahlsing", "state": "TX", "country": "US", "coord": {"lon": -97.800003, "lat": 28.123899}}, {"id": 4738810, "name": "Valley Farms", "state": "TX", "country": "US", "coord": {"lon": -96.40554, "lat": 32.307919}}, {"id": 4738825, "name": "Valley Mills", "state": "TX", "country": "US", "coord": {"lon": -97.472237, "lat": 31.65933}}, {"id": 4738851, "name": "Valley View", "state": "TX", "country": "US", "coord": {"lon": -97.244453, "lat": 31.631001}}, {"id": 4738883, "name": "Van", "state": "TX", "country": "US", "coord": {"lon": -95.637177, "lat": 32.52486}}, {"id": 4738884, "name": "Van Alstyne", "state": "TX", "country": "US", "coord": {"lon": -96.577209, "lat": 33.421501}}, {"id": 4738908, "name": "Van Vleck", "state": "TX", "country": "US", "coord": {"lon": -95.889397, "lat": 29.01775}}, {"id": 4738915, "name": "Van Zandt County", "state": "TX", "country": "US", "coord": {"lon": -95.850243, "lat": 32.566799}}, {"id": 4738978, "name": "Vashti", "state": "TX", "country": "US", "coord": {"lon": -98.040871, "lat": 33.55566}}, {"id": 4739052, "name": "Venus", "state": "TX", "country": "US", "coord": {"lon": -97.102509, "lat": 32.433472}}, {"id": 4739078, "name": "Vernon", "state": "TX", "country": "US", "coord": {"lon": -99.265083, "lat": 34.15453}}, {"id": 4739157, "name": "Victoria", "state": "TX", "country": "US", "coord": {"lon": -97.003601, "lat": 28.805269}}, {"id": 4739167, "name": "Victoria County", "state": "TX", "country": "US", "coord": {"lon": -96.950256, "lat": 28.7836}}, {"id": 4739226, "name": "Vidor", "state": "TX", "country": "US", "coord": {"lon": -94.01545, "lat": 30.131599}}, {"id": 4739232, "name": "Vienna", "state": "TX", "country": "US", "coord": {"lon": -96.79248, "lat": 29.3783}}, {"id": 4739414, "name": "Von Ormy", "state": "TX", "country": "US", "coord": {"lon": -98.644463, "lat": 29.289129}}, {"id": 4739526, "name": "Waco", "state": "TX", "country": "US", "coord": {"lon": -97.146667, "lat": 31.54933}}, {"id": 4739641, "name": "Wake Village", "state": "TX", "country": "US", "coord": {"lon": -94.1063, "lat": 33.426788}}, {"id": 4739690, "name": "Walker County", "state": "TX", "country": "US", "coord": {"lon": -95.566887, "lat": 30.73353}}, {"id": 4739748, "name": "Walker Village", "state": "TX", "country": "US", "coord": {"lon": -97.724457, "lat": 31.136009}}, {"id": 4739799, "name": "Waller", "state": "TX", "country": "US", "coord": {"lon": -95.926903, "lat": 30.05661}}, {"id": 4739804, "name": "Waller County", "state": "TX", "country": "US", "coord": {"lon": -96.000793, "lat": 30.00078}}, {"id": 4740157, "name": "Washington County", "state": "TX", "country": "US", "coord": {"lon": -96.400238, "lat": 30.233549}}, {"id": 4740200, "name": "Waskom", "state": "TX", "country": "US", "coord": {"lon": -94.059631, "lat": 32.47876}}, {"id": 4740214, "name": "Watauga", "state": "TX", "country": "US", "coord": {"lon": -97.254738, "lat": 32.85791}}, {"id": 4740328, "name": "Waxahachie", "state": "TX", "country": "US", "coord": {"lon": -96.848328, "lat": 32.386532}}, {"id": 4740364, "name": "Weatherford", "state": "TX", "country": "US", "coord": {"lon": -97.797249, "lat": 32.7593}}, {"id": 4740399, "name": "Webb County", "state": "TX", "country": "US", "coord": {"lon": -99.333649, "lat": 27.66696}}, {"id": 4740423, "name": "Webster", "state": "TX", "country": "US", "coord": {"lon": -95.118263, "lat": 29.537729}}, {"id": 4740482, "name": "Weimar", "state": "TX", "country": "US", "coord": {"lon": -96.780533, "lat": 29.703011}}, {"id": 4740533, "name": "Waelder", "state": "", "country": "US", "coord": {"lon": -97.299156, "lat": 29.693291}}, {"id": 4740584, "name": "Wells Branch", "state": "TX", "country": "US", "coord": {"lon": -97.679451, "lat": 30.446039}}, {"id": 4740629, "name": "Weslaco", "state": "TX", "country": "US", "coord": {"lon": -97.990837, "lat": 26.159519}}, {"id": 4740686, "name": "West", "state": "TX", "country": "US", "coord": {"lon": -97.091667, "lat": 31.80238}}, {"id": 4740759, "name": "West Columbia", "state": "TX", "country": "US", "coord": {"lon": -95.645218, "lat": 29.14386}}, {"id": 4740928, "name": "West Lake Hills", "state": "TX", "country": "US", "coord": {"lon": -97.801949, "lat": 30.297979}}, {"id": 4740941, "name": "West Livingston", "state": "TX", "country": "US", "coord": {"lon": -95.001877, "lat": 30.69825}}, {"id": 4740987, "name": "West Orange", "state": "TX", "country": "US", "coord": {"lon": -93.758217, "lat": 30.08215}}, {"id": 4741057, "name": "West Sharyland", "state": "TX", "country": "US", "coord": {"lon": -98.328629, "lat": 26.27257}}, {"id": 4741087, "name": "West Tawakoni", "state": "TX", "country": "US", "coord": {"lon": -96.029411, "lat": 32.89373}}, {"id": 4741100, "name": "West University Place", "state": "TX", "country": "US", "coord": {"lon": -95.43383, "lat": 29.71801}}, {"id": 4741291, "name": "Westwood Park", "state": "TX", "country": "US", "coord": {"lon": -96.878059, "lat": 32.701801}}, {"id": 4741304, "name": "Westworth", "state": "TX", "country": "US", "coord": {"lon": -97.410851, "lat": 32.757351}}, {"id": 4741325, "name": "Wharton", "state": "TX", "country": "US", "coord": {"lon": -96.102737, "lat": 29.31164}}, {"id": 4741501, "name": "White Oak", "state": "TX", "country": "US", "coord": {"lon": -94.861328, "lat": 32.52792}}, {"id": 4741616, "name": "White Settlement", "state": "TX", "country": "US", "coord": {"lon": -97.458351, "lat": 32.759571}}, {"id": 4741641, "name": "Whitehouse", "state": "TX", "country": "US", "coord": {"lon": -95.225502, "lat": 32.226822}}, {"id": 4741677, "name": "Whitesboro", "state": "TX", "country": "US", "coord": {"lon": -96.906952, "lat": 33.656219}}, {"id": 4741691, "name": "Whitewright", "state": "TX", "country": "US", "coord": {"lon": -96.392479, "lat": 33.51289}}, {"id": 4741714, "name": "Whitney", "state": "TX", "country": "US", "coord": {"lon": -97.321404, "lat": 31.95182}}, {"id": 4741751, "name": "Wichita County", "state": "TX", "country": "US", "coord": {"lon": -98.71701, "lat": 33.966759}}, {"id": 4741752, "name": "Wichita Falls", "state": "TX", "country": "US", "coord": {"lon": -98.493393, "lat": 33.913712}}, {"id": 4741797, "name": "Wilbarger County", "state": "TX", "country": "US", "coord": {"lon": -99.267021, "lat": 34.06675}}, {"id": 4741838, "name": "Wild Peach Village", "state": "TX", "country": "US", "coord": {"lon": -95.633842, "lat": 29.08358}}, {"id": 4741898, "name": "Wildwood", "state": "TX", "country": "US", "coord": {"lon": -94.441582, "lat": 30.524099}}, {"id": 4742143, "name": "Williamson County", "state": "TX", "country": "US", "coord": {"lon": -97.600281, "lat": 30.65019}}, {"id": 4742170, "name": "Willis", "state": "TX", "country": "US", "coord": {"lon": -95.479942, "lat": 30.424931}}, {"id": 4742296, "name": "Willow Park", "state": "TX", "country": "US", "coord": {"lon": -97.650581, "lat": 32.76263}}, {"id": 4742380, "name": "Wills Point", "state": "TX", "country": "US", "coord": {"lon": -96.008301, "lat": 32.709301}}, {"id": 4742385, "name": "Wilmer", "state": "TX", "country": "US", "coord": {"lon": -96.685272, "lat": 32.58902}}, {"id": 4742503, "name": "Wimberley", "state": "TX", "country": "US", "coord": {"lon": -98.098618, "lat": 29.99744}}, {"id": 4742527, "name": "Windemere", "state": "TX", "country": "US", "coord": {"lon": -97.64917, "lat": 30.459089}}, {"id": 4742537, "name": "Windcrest", "state": "TX", "country": "US", "coord": {"lon": -98.380287, "lat": 29.515511}}, {"id": 4742616, "name": "Winnie", "state": "TX", "country": "US", "coord": {"lon": -94.384079, "lat": 29.820221}}, {"id": 4742620, "name": "Winnsboro", "state": "TX", "country": "US", "coord": {"lon": -95.290222, "lat": 32.95734}}, {"id": 4742656, "name": "Winters", "state": "TX", "country": "US", "coord": {"lon": -99.962311, "lat": 31.95653}}, {"id": 4742676, "name": "Wise County", "state": "TX", "country": "US", "coord": {"lon": -97.666969, "lat": 33.200119}}, {"id": 4742800, "name": "Wolfe City", "state": "TX", "country": "US", "coord": {"lon": -96.068863, "lat": 33.37067}}, {"id": 4742897, "name": "Woodbranch", "state": "TX", "country": "US", "coord": {"lon": -95.18882, "lat": 30.181049}}, {"id": 4742902, "name": "Woodcreek", "state": "TX", "country": "US", "coord": {"lon": -98.111122, "lat": 30.028271}}, {"id": 4743057, "name": "Woodsboro", "state": "TX", "country": "US", "coord": {"lon": -97.319992, "lat": 28.23834}}, {"id": 4743079, "name": "Woodville", "state": "TX", "country": "US", "coord": {"lon": -94.415482, "lat": 30.7752}}, {"id": 4743093, "name": "Woodstock", "state": "TX", "country": "US", "coord": {"lon": -94.462982, "lat": 33.55817}}, {"id": 4743105, "name": "Woodway", "state": "TX", "country": "US", "coord": {"lon": -97.205009, "lat": 31.506001}}, {"id": 4743176, "name": "Wortham", "state": "TX", "country": "US", "coord": {"lon": -96.462479, "lat": 31.787939}}, {"id": 4743274, "name": "Wyldwood", "state": "TX", "country": "US", "coord": {"lon": -97.472771, "lat": 30.129379}}, {"id": 4743275, "name": "Wylie", "state": "TX", "country": "US", "coord": {"lon": -96.538879, "lat": 33.015121}}, {"id": 4743432, "name": "Yoakum", "state": "TX", "country": "US", "coord": {"lon": -97.151932, "lat": 29.28775}}, {"id": 4743453, "name": "Yorktown", "state": "TX", "country": "US", "coord": {"lon": -97.502769, "lat": 28.981091}}, {"id": 4743571, "name": "Zamora Acres Colonia", "state": "TX", "country": "US", "coord": {"lon": -99.227249, "lat": 28.43527}}, {"id": 4743575, "name": "Zapata", "state": "TX", "country": "US", "coord": {"lon": -99.271431, "lat": 26.907261}}, {"id": 4743815, "name": "Abingdon", "state": "VA", "country": "US", "coord": {"lon": -81.977348, "lat": 36.709831}}, {"id": 4743873, "name": "Accomac", "state": "VA", "country": "US", "coord": {"lon": -75.665482, "lat": 37.71957}}, {"id": 4743935, "name": "Addison Heights", "state": "VA", "country": "US", "coord": {"lon": -77.060257, "lat": 38.855671}}, {"id": 4743963, "name": "Adwolf", "state": "VA", "country": "US", "coord": {"lon": -81.582062, "lat": 36.78928}}, {"id": 4744031, "name": "Albemarle County", "state": "VA", "country": "US", "coord": {"lon": -78.549744, "lat": 38.03347}}, {"id": 4744091, "name": "Alexandria", "state": "VA", "country": "US", "coord": {"lon": -77.046921, "lat": 38.80484}}, {"id": 4744106, "name": "City of Alexandria", "state": "VA", "country": "US", "coord": {"lon": -77.046921, "lat": 38.80484}}, {"id": 4744247, "name": "Altavista", "state": "VA", "country": "US", "coord": {"lon": -79.285583, "lat": 37.111809}}, {"id": 4744309, "name": "Amelia Court House", "state": "VA", "country": "US", "coord": {"lon": -77.98056, "lat": 37.34293}}, {"id": 4744326, "name": "Amherst", "state": "VA", "country": "US", "coord": {"lon": -79.051407, "lat": 37.58514}}, {"id": 4744407, "name": "Andersons Corner", "state": "VA", "country": "US", "coord": {"lon": -76.824127, "lat": 37.421261}}, {"id": 4744468, "name": "Annandale", "state": "VA", "country": "US", "coord": {"lon": -77.196373, "lat": 38.830391}}, {"id": 4744575, "name": "Appalachia", "state": "VA", "country": "US", "coord": {"lon": -82.78183, "lat": 36.906761}}, {"id": 4744589, "name": "Apple Mountain Lake", "state": "VA", "country": "US", "coord": {"lon": -78.101387, "lat": 38.924278}}, {"id": 4744609, "name": "Appomattox", "state": "VA", "country": "US", "coord": {"lon": -78.825287, "lat": 37.35709}}, {"id": 4744645, "name": "Aquia Harbour", "state": "VA", "country": "US", "coord": {"lon": -77.38887, "lat": 38.46262}}, {"id": 4744709, "name": "Arlington", "state": "VA", "country": "US", "coord": {"lon": -77.104279, "lat": 38.881008}}, {"id": 4744725, "name": "Arlington County", "state": "VA", "country": "US", "coord": {"lon": -77.099701, "lat": 38.866779}}, {"id": 4744870, "name": "Ashburn", "state": "VA", "country": "US", "coord": {"lon": -77.487488, "lat": 39.04372}}, {"id": 4744896, "name": "Ashbys Corner", "state": "VA", "country": "US", "coord": {"lon": -78.234169, "lat": 38.632069}}, {"id": 4744905, "name": "Ashland", "state": "VA", "country": "US", "coord": {"lon": -77.47998, "lat": 37.759029}}, {"id": 4744971, "name": "Atkins", "state": "VA", "country": "US", "coord": {"lon": -81.423439, "lat": 36.86734}}, {"id": 4745272, "name": "Baileys Crossroads", "state": "VA", "country": "US", "coord": {"lon": -77.1297, "lat": 38.850391}}, {"id": 4745591, "name": "Barker Land", "state": "VA", "country": "US", "coord": {"lon": -77.889442, "lat": 39.073719}}, {"id": 4745753, "name": "Bassett", "state": "VA", "country": "US", "coord": {"lon": -79.990318, "lat": 36.7593}}, {"id": 4745764, "name": "Basye", "state": "VA", "country": "US", "coord": {"lon": -78.792236, "lat": 38.80706}}, {"id": 4745934, "name": "Bealeton", "state": "VA", "country": "US", "coord": {"lon": -77.763878, "lat": 38.571789}}, {"id": 4746265, "name": "Bedford", "state": "VA", "country": "US", "coord": {"lon": -79.523087, "lat": 37.334309}}, {"id": 4746457, "name": "Belle Haven", "state": "VA", "country": "US", "coord": {"lon": -77.063026, "lat": 38.785389}}, {"id": 4746526, "name": "Bellwood", "state": "VA", "country": "US", "coord": {"lon": -77.437477, "lat": 37.42181}}, {"id": 4746535, "name": "Belmont", "state": "VA", "country": "US", "coord": {"lon": -77.509987, "lat": 39.064831}}, {"id": 4746664, "name": "Bensley", "state": "VA", "country": "US", "coord": {"lon": -77.443321, "lat": 37.446812}}, {"id": 4746795, "name": "Berryville", "state": "VA", "country": "US", "coord": {"lon": -77.982224, "lat": 39.151772}}, {"id": 4747554, "name": "Big Stone Gap", "state": "VA", "country": "US", "coord": {"lon": -82.774467, "lat": 36.86771}}, {"id": 4747839, "name": "Blackstone", "state": "VA", "country": "US", "coord": {"lon": -77.997231, "lat": 37.080429}}, {"id": 4747845, "name": "Blacksburg", "state": "VA", "country": "US", "coord": {"lon": -80.41394, "lat": 37.229568}}, {"id": 4747930, "name": "Bland", "state": "VA", "country": "US", "coord": {"lon": -81.116203, "lat": 37.102058}}, {"id": 4748050, "name": "Blue Ridge", "state": "VA", "country": "US", "coord": {"lon": -79.806976, "lat": 37.378471}}, {"id": 4748125, "name": "Bluefield", "state": "VA", "country": "US", "coord": {"lon": -81.27121, "lat": 37.252621}}, {"id": 4748305, "name": "Bon Air", "state": "VA", "country": "US", "coord": {"lon": -77.55777, "lat": 37.524872}}, {"id": 4748550, "name": "Bowling Green", "state": "VA", "country": "US", "coord": {"lon": -77.346649, "lat": 38.04958}}, {"id": 4748560, "name": "Bowling Springs (historical)", "state": "VA", "country": "US", "coord": {"lon": -80.238663, "lat": 36.722359}}, {"id": 4748634, "name": "Boydton", "state": "VA", "country": "US", "coord": {"lon": -78.387497, "lat": 36.667641}}, {"id": 4748646, "name": "Bracey", "state": "VA", "country": "US", "coord": {"lon": -78.143051, "lat": 36.59959}}, {"id": 4748703, "name": "Brambleton", "state": "VA", "country": "US", "coord": {"lon": -77.538597, "lat": 38.982052}}, {"id": 4748726, "name": "Brandermill", "state": "VA", "country": "US", "coord": {"lon": -77.649712, "lat": 37.432091}}, {"id": 4748806, "name": "Breaks", "state": "VA", "country": "US", "coord": {"lon": -82.280983, "lat": 37.29594}}, {"id": 4748925, "name": "Bridgewater", "state": "VA", "country": "US", "coord": {"lon": -78.9767, "lat": 38.382069}}, {"id": 4748980, "name": "Brightwood", "state": "VA", "country": "US", "coord": {"lon": -78.193611, "lat": 38.42152}}, {"id": 4748993, "name": "Bristol", "state": "VA", "country": "US", "coord": {"lon": -82.188469, "lat": 36.596489}}, {"id": 4749005, "name": "City of Bristol", "state": "VA", "country": "US", "coord": {"lon": -82.188469, "lat": 36.596489}}, {"id": 4749007, "name": "Bristow", "state": "VA", "country": "US", "coord": {"lon": -77.536102, "lat": 38.722889}}, {"id": 4749103, "name": "Broadlands", "state": "VA", "country": "US", "coord": {"lon": -77.520271, "lat": 39.018162}}, {"id": 4749117, "name": "Broadway", "state": "VA", "country": "US", "coord": {"lon": -78.798912, "lat": 38.613171}}, {"id": 4749193, "name": "Brookneal", "state": "VA", "country": "US", "coord": {"lon": -78.944183, "lat": 37.05014}}, {"id": 4749523, "name": "Buchanan", "state": "VA", "country": "US", "coord": {"lon": -79.679764, "lat": 37.527359}}, {"id": 4749627, "name": "Buckhall", "state": "VA", "country": "US", "coord": {"lon": -77.431099, "lat": 38.731781}}, {"id": 4749652, "name": "Buckingham", "state": "VA", "country": "US", "coord": {"lon": -78.555557, "lat": 37.550152}}, {"id": 4749715, "name": "Buena Vista", "state": "VA", "country": "US", "coord": {"lon": -79.35392, "lat": 37.734299}}, {"id": 4749854, "name": "Bull Run", "state": "VA", "country": "US", "coord": {"lon": -77.520554, "lat": 38.78373}}, {"id": 4749866, "name": "Bull Run Mountain Estates", "state": "VA", "country": "US", "coord": {"lon": -77.661659, "lat": 38.903721}}, {"id": 4749950, "name": "Burke", "state": "VA", "country": "US", "coord": {"lon": -77.271652, "lat": 38.793449}}, {"id": 4750107, "name": "Burtons", "state": "VA", "country": "US", "coord": {"lon": -76.19577, "lat": 36.885429}}, {"id": 4750738, "name": "Campbell County", "state": "VA", "country": "US", "coord": {"lon": -79.099739, "lat": 37.233479}}, {"id": 4750786, "name": "Cana", "state": "VA", "country": "US", "coord": {"lon": -80.67173, "lat": 36.589581}}, {"id": 4750892, "name": "Cape Charles", "state": "VA", "country": "US", "coord": {"lon": -76.017433, "lat": 37.267921}}, {"id": 4751013, "name": "Caroline County", "state": "VA", "country": "US", "coord": {"lon": -77.349701, "lat": 38.03347}}, {"id": 4751066, "name": "Carrollton", "state": "VA", "country": "US", "coord": {"lon": -76.560509, "lat": 36.946819}}, {"id": 4751296, "name": "Castlewood", "state": "VA", "country": "US", "coord": {"lon": -82.279587, "lat": 36.890099}}, {"id": 4751421, "name": "Cave Spring", "state": "VA", "country": "US", "coord": {"lon": -80.012817, "lat": 37.227638}}, {"id": 4751445, "name": "Cedar Bluff", "state": "VA", "country": "US", "coord": {"lon": -79.935318, "lat": 37.26403}}, {"id": 4751446, "name": "Cedar Bluff", "state": "VA", "country": "US", "coord": {"lon": -81.759003, "lat": 37.087608}}, {"id": 4751778, "name": "Central Garage", "state": "VA", "country": "US", "coord": {"lon": -77.131638, "lat": 37.74403}}, {"id": 4751839, "name": "Centreville", "state": "VA", "country": "US", "coord": {"lon": -77.428879, "lat": 38.840389}}, {"id": 4751886, "name": "Chamberlayne", "state": "VA", "country": "US", "coord": {"lon": -77.428589, "lat": 37.62653}}, {"id": 4751935, "name": "Chantilly", "state": "VA", "country": "US", "coord": {"lon": -77.431099, "lat": 38.894279}}, {"id": 4752001, "name": "Charles City", "state": "VA", "country": "US", "coord": {"lon": -77.073029, "lat": 37.343479}}, {"id": 4752027, "name": "Charlotte Court House", "state": "VA", "country": "US", "coord": {"lon": -78.638329, "lat": 37.056541}}, {"id": 4752031, "name": "Charlottesville", "state": "VA", "country": "US", "coord": {"lon": -78.476677, "lat": 38.029308}}, {"id": 4752046, "name": "City of Charlottesville", "state": "VA", "country": "US", "coord": {"lon": -78.476677, "lat": 38.029308}}, {"id": 4752052, "name": "Chase City", "state": "VA", "country": "US", "coord": {"lon": -78.458328, "lat": 36.799309}}, {"id": 4752060, "name": "Chatham", "state": "VA", "country": "US", "coord": {"lon": -79.398079, "lat": 36.825691}}, {"id": 4752081, "name": "Chatmoss", "state": "VA", "country": "US", "coord": {"lon": -79.812263, "lat": 36.656799}}, {"id": 4752136, "name": "Cherry Hill", "state": "VA", "country": "US", "coord": {"lon": -77.26693, "lat": 38.569839}}, {"id": 4752186, "name": "Chesapeake", "state": "VA", "country": "US", "coord": {"lon": -76.27494, "lat": 36.819038}}, {"id": 4752215, "name": "City of Chesapeake", "state": "VA", "country": "US", "coord": {"lon": -76.312157, "lat": 36.687649}}, {"id": 4752229, "name": "Chester", "state": "VA", "country": "US", "coord": {"lon": -77.44165, "lat": 37.356819}}, {"id": 4752250, "name": "Chesterfield", "state": "VA", "country": "US", "coord": {"lon": -77.505821, "lat": 37.37709}}, {"id": 4752255, "name": "Chesterfield County", "state": "VA", "country": "US", "coord": {"lon": -77.599709, "lat": 37.38348}}, {"id": 4752261, "name": "Chesterfield Court House", "state": "VA", "country": "US", "coord": {"lon": -77.50499, "lat": 37.37709}}, {"id": 4752449, "name": "Chilhowie", "state": "VA", "country": "US", "coord": {"lon": -81.682343, "lat": 36.79845}}, {"id": 4752495, "name": "Chincoteague", "state": "VA", "country": "US", "coord": {"lon": -75.378807, "lat": 37.933182}}, {"id": 4752665, "name": "Christiansburg", "state": "VA", "country": "US", "coord": {"lon": -80.408943, "lat": 37.129848}}]