[{"id": 4929501, "name": "Ayer", "state": "MA", "country": "US", "coord": {"lon": -71.58979, "lat": 42.561199}}, {"id": 4929657, "name": "Baldwinville", "state": "MA", "country": "US", "coord": {"lon": -72.075912, "lat": 42.608421}}, {"id": 4929771, "name": "Barnstable", "state": "MA", "country": "US", "coord": {"lon": -70.299469, "lat": 41.700111}}, {"id": 4929772, "name": "Barnstable County", "state": "MA", "country": "US", "coord": {"lon": -70.249458, "lat": 41.666779}}, {"id": 4929785, "name": "Barre", "state": "MA", "country": "US", "coord": {"lon": -72.10508, "lat": 42.422871}}, {"id": 4930173, "name": "Becket", "state": "MA", "country": "US", "coord": {"lon": -73.082878, "lat": 42.332031}}, {"id": 4930183, "name": "Bedford", "state": "MA", "country": "US", "coord": {"lon": -71.276169, "lat": 42.49065}}, {"id": 4930215, "name": "Beechwood Estates", "state": "MA", "country": "US", "coord": {"lon": -73.111214, "lat": 42.475639}}, {"id": 4930231, "name": "Belchertown", "state": "MA", "country": "US", "coord": {"lon": -72.400917, "lat": 42.277039}}, {"id": 4930266, "name": "Bellingham", "state": "MA", "country": "US", "coord": {"lon": -71.47451, "lat": 42.086761}}, {"id": 4930282, "name": "Belmont", "state": "MA", "country": "US", "coord": {"lon": -71.178673, "lat": 42.395931}}, {"id": 4930385, "name": "Berkley", "state": "MA", "country": "US", "coord": {"lon": -71.082817, "lat": 41.845928}}, {"id": 4930396, "name": "Berkshire County", "state": "MA", "country": "US", "coord": {"lon": -73.24955, "lat": 42.33342}}, {"id": 4930431, "name": "Berlin", "state": "MA", "country": "US", "coord": {"lon": -71.637009, "lat": 42.381199}}, {"id": 4930437, "name": "Bernardston", "state": "MA", "country": "US", "coord": {"lon": -72.54953, "lat": 42.670921}}, {"id": 4930505, "name": "Beverly", "state": "MA", "country": "US", "coord": {"lon": -70.880051, "lat": 42.55843}}, {"id": 4930511, "name": "Beverly Cove", "state": "MA", "country": "US", "coord": {"lon": -70.853661, "lat": 42.553429}}, {"id": 4930577, "name": "Billerica", "state": "MA", "country": "US", "coord": {"lon": -71.268951, "lat": 42.55843}}, {"id": 4930738, "name": "Blackstone", "state": "MA", "country": "US", "coord": {"lon": -71.541168, "lat": 42.017879}}, {"id": 4930804, "name": "Bliss Corner", "state": "MA", "country": "US", "coord": {"lon": -70.93837, "lat": 41.611771}}, {"id": 4930907, "name": "Bolton", "state": "MA", "country": "US", "coord": {"lon": -71.607841, "lat": 42.43343}}, {"id": 4930921, "name": "Bondsville", "state": "MA", "country": "US", "coord": {"lon": -72.34536, "lat": 42.212589}}, {"id": 4930956, "name": "Boston", "state": "MA", "country": "US", "coord": {"lon": -71.059769, "lat": 42.358429}}, {"id": 4931050, "name": "Bourne", "state": "MA", "country": "US", "coord": {"lon": -70.598923, "lat": 41.741219}}, {"id": 4931108, "name": "Boxford", "state": "MA", "country": "US", "coord": {"lon": -70.996719, "lat": 42.661201}}, {"id": 4931127, "name": "Boylston", "state": "MA", "country": "US", "coord": {"lon": -71.703682, "lat": 42.391762}}, {"id": 4931181, "name": "North Braintree", "state": "MA", "country": "US", "coord": {"lon": -70.999489, "lat": 42.222321}}, {"id": 4931273, "name": "Brewster", "state": "MA", "country": "US", "coord": {"lon": -70.082802, "lat": 41.760109}}, {"id": 4931303, "name": "Bridgewater", "state": "MA", "country": "US", "coord": {"lon": -70.975037, "lat": 41.990379}}, {"id": 4931363, "name": "Brimfield", "state": "MA", "country": "US", "coord": {"lon": -72.200912, "lat": 42.122871}}, {"id": 4931378, "name": "Bristol County", "state": "MA", "country": "US", "coord": {"lon": -71.166161, "lat": 41.833431}}, {"id": 4931429, "name": "Brockton", "state": "MA", "country": "US", "coord": {"lon": -71.018379, "lat": 42.083431}}, {"id": 4931482, "name": "Brookline", "state": "MA", "country": "US", "coord": {"lon": -71.121162, "lat": 42.33176}}, {"id": 4931520, "name": "Brookside", "state": "MA", "country": "US", "coord": {"lon": -73.357338, "lat": 42.16898}}, {"id": 4931627, "name": "Buckland", "state": "MA", "country": "US", "coord": {"lon": -72.791763, "lat": 42.592312}}, {"id": 4931737, "name": "Burlington", "state": "MA", "country": "US", "coord": {"lon": -71.19561, "lat": 42.504822}}, {"id": 4931875, "name": "Buzzards Bay", "state": "MA", "country": "US", "coord": {"lon": -70.618088, "lat": 41.74538}}, {"id": 4931972, "name": "Cambridge", "state": "MA", "country": "US", "coord": {"lon": -71.105614, "lat": 42.375099}}, {"id": 4932049, "name": "Camp Edwards", "state": "MA", "country": "US", "coord": {"lon": -70.543922, "lat": 41.657051}}, {"id": 4932165, "name": "Camp Wyoma", "state": "MA", "country": "US", "coord": {"lon": -73.125381, "lat": 42.428421}}, {"id": 4932214, "name": "Canton", "state": "MA", "country": "US", "coord": {"lon": -71.144768, "lat": 42.158428}}, {"id": 4932328, "name": "Carlisle", "state": "MA", "country": "US", "coord": {"lon": -71.349503, "lat": 42.529259}}, {"id": 4932388, "name": "Carver", "state": "MA", "country": "US", "coord": {"lon": -70.762543, "lat": 41.883438}}, {"id": 4932587, "name": "Centerville", "state": "MA", "country": "US", "coord": {"lon": -70.348083, "lat": 41.64872}}, {"id": 4932757, "name": "Charlemont", "state": "MA", "country": "US", "coord": {"lon": -72.86982, "lat": 42.627861}}, {"id": 4932823, "name": "Charlton", "state": "MA", "country": "US", "coord": {"lon": -71.97007, "lat": 42.135651}}, {"id": 4932844, "name": "Chatham", "state": "MA", "country": "US", "coord": {"lon": -69.95974, "lat": 41.68206}}, {"id": 4932869, "name": "Chelmsford", "state": "MA", "country": "US", "coord": {"lon": -71.367279, "lat": 42.599812}}, {"id": 4932879, "name": "Chelsea", "state": "MA", "country": "US", "coord": {"lon": -71.032829, "lat": 42.391762}}, {"id": 4932943, "name": "Chesterfield", "state": "MA", "country": "US", "coord": {"lon": -72.839821, "lat": 42.39175}}, {"id": 4933002, "name": "Chicopee", "state": "MA", "country": "US", "coord": {"lon": -72.59491, "lat": 42.172562}}, {"id": 4933426, "name": "Clinton", "state": "MA", "country": "US", "coord": {"lon": -71.682854, "lat": 42.416759}}, {"id": 4933493, "name": "Cochituate", "state": "MA", "country": "US", "coord": {"lon": -71.364227, "lat": 42.32093}}, {"id": 4933533, "name": "Cohasset", "state": "MA", "country": "US", "coord": {"lon": -70.80365, "lat": 42.241772}}, {"id": 4933660, "name": "Colrain", "state": "MA", "country": "US", "coord": {"lon": -72.696762, "lat": 42.673141}}, {"id": 4933743, "name": "Concord", "state": "MA", "country": "US", "coord": {"lon": -71.348953, "lat": 42.460369}}, {"id": 4933841, "name": "Conway", "state": "MA", "country": "US", "coord": {"lon": -72.699532, "lat": 42.509811}}, {"id": 4933937, "name": "Cordaville", "state": "MA", "country": "US", "coord": {"lon": -71.523949, "lat": 42.268978}}, {"id": 4933989, "name": "Cotuit", "state": "MA", "country": "US", "coord": {"lon": -70.436974, "lat": 41.616779}}, {"id": 4934429, "name": "Dalton", "state": "MA", "country": "US", "coord": {"lon": -73.166206, "lat": 42.473701}}, {"id": 4934500, "name": "Danvers", "state": "MA", "country": "US", "coord": {"lon": -70.930054, "lat": 42.575089}}, {"id": 4934664, "name": "Dedham", "state": "MA", "country": "US", "coord": {"lon": -71.166161, "lat": 42.241772}}, {"id": 4934749, "name": "Dennis", "state": "MA", "country": "US", "coord": {"lon": -70.193909, "lat": 41.73539}}, {"id": 4934753, "name": "Dennis Port", "state": "MA", "country": "US", "coord": {"lon": -70.128632, "lat": 41.65844}}, {"id": 4934827, "name": "Dighton", "state": "MA", "country": "US", "coord": {"lon": -71.120323, "lat": 41.813992}}, {"id": 4934999, "name": "Douglas", "state": "MA", "country": "US", "coord": {"lon": -71.73951, "lat": 42.05426}}, {"id": 4935010, "name": "Dover", "state": "MA", "country": "US", "coord": {"lon": -71.282829, "lat": 42.24593}}, {"id": 4935038, "name": "Dracut", "state": "MA", "country": "US", "coord": {"lon": -71.30201, "lat": 42.670368}}, {"id": 4935125, "name": "Dudley", "state": "MA", "country": "US", "coord": {"lon": -71.930069, "lat": 42.045101}}, {"id": 4935195, "name": "Dunstable", "state": "MA", "country": "US", "coord": {"lon": -71.482841, "lat": 42.675091}}, {"id": 4935211, "name": "Duxbury", "state": "MA", "country": "US", "coord": {"lon": -70.672256, "lat": 42.041771}}, {"id": 4935330, "name": "East Bridgewater", "state": "MA", "country": "US", "coord": {"lon": -70.959213, "lat": 42.033428}}, {"id": 4935347, "name": "East Brookfield", "state": "MA", "country": "US", "coord": {"lon": -72.046738, "lat": 42.227871}}, {"id": 4935370, "name": "East Dennis", "state": "MA", "country": "US", "coord": {"lon": -70.161957, "lat": 41.742611}}, {"id": 4935372, "name": "East Douglas", "state": "MA", "country": "US", "coord": {"lon": -71.713402, "lat": 42.072319}}, {"id": 4935398, "name": "East Harwich", "state": "MA", "country": "US", "coord": {"lon": -70.027237, "lat": 41.700111}}, {"id": 4935434, "name": "East Longmeadow", "state": "MA", "country": "US", "coord": {"lon": -72.512589, "lat": 42.064541}}, {"id": 4935482, "name": "East Pepperell", "state": "MA", "country": "US", "coord": {"lon": -71.57312, "lat": 42.665371}}, {"id": 4935495, "name": "East Sandwich", "state": "MA", "country": "US", "coord": {"lon": -70.451691, "lat": 41.741772}}, {"id": 4935578, "name": "Eastham", "state": "MA", "country": "US", "coord": {"lon": -69.973907, "lat": 41.830109}}, {"id": 4935582, "name": "Easthampton", "state": "MA", "country": "US", "coord": {"lon": -72.668983, "lat": 42.266762}}, {"id": 4935623, "name": "Easton", "state": "MA", "country": "US", "coord": {"lon": -71.128662, "lat": 42.02454}}, {"id": 4935645, "name": "Edgartown", "state": "MA", "country": "US", "coord": {"lon": -70.513359, "lat": 41.389011}}, {"id": 4935939, "name": "Erving", "state": "MA", "country": "US", "coord": {"lon": -72.39814, "lat": 42.60009}}, {"id": 4935946, "name": "Essex", "state": "MA", "country": "US", "coord": {"lon": -70.782829, "lat": 42.632038}}, {"id": 4935951, "name": "Essex County", "state": "MA", "country": "US", "coord": {"lon": -70.832832, "lat": 42.666759}}, {"id": 4936008, "name": "Everett", "state": "MA", "country": "US", "coord": {"lon": -71.053658, "lat": 42.408428}}, {"id": 4936087, "name": "Fairhaven", "state": "MA", "country": "US", "coord": {"lon": -70.903648, "lat": 41.6376}}, {"id": 4936159, "name": "Fall River", "state": "MA", "country": "US", "coord": {"lon": -71.155052, "lat": 41.701488}}, {"id": 4936174, "name": "Falmouth", "state": "MA", "country": "US", "coord": {"lon": -70.614754, "lat": 41.551498}}, {"id": 4936231, "name": "Farnams", "state": "MA", "country": "US", "coord": {"lon": -73.185661, "lat": 42.541752}}, {"id": 4936792, "name": "Fiskdale", "state": "MA", "country": "US", "coord": {"lon": -72.113411, "lat": 42.116211}}, {"id": 4936812, "name": "Fitchburg", "state": "MA", "country": "US", "coord": {"lon": -71.802299, "lat": 42.58342}}, {"id": 4937033, "name": "Forestdale", "state": "MA", "country": "US", "coord": {"lon": -70.499474, "lat": 41.691769}}, {"id": 4937222, "name": "Foxborough", "state": "MA", "country": "US", "coord": {"lon": -71.247833, "lat": 42.06538}}, {"id": 4937230, "name": "Framingham", "state": "MA", "country": "US", "coord": {"lon": -71.416168, "lat": 42.279259}}, {"id": 4937232, "name": "Framingham Center", "state": "MA", "country": "US", "coord": {"lon": -71.437012, "lat": 42.297321}}, {"id": 4937276, "name": "Franklin", "state": "MA", "country": "US", "coord": {"lon": -71.396721, "lat": 42.083431}}, {"id": 4937280, "name": "Franklin County", "state": "MA", "country": "US", "coord": {"lon": -72.58287, "lat": 42.58342}}, {"id": 4937355, "name": "Freetown", "state": "MA", "country": "US", "coord": {"lon": -71.032822, "lat": 41.766769}}, {"id": 4937557, "name": "Gardner", "state": "MA", "country": "US", "coord": {"lon": -71.998131, "lat": 42.575089}}, {"id": 4937751, "name": "Gill", "state": "MA", "country": "US", "coord": {"lon": -72.499527, "lat": 42.640362}}, {"id": 4937829, "name": "Gloucester", "state": "MA", "country": "US", "coord": {"lon": -70.661987, "lat": 42.615929}}, {"id": 4938048, "name": "Grafton", "state": "MA", "country": "US", "coord": {"lon": -71.685623, "lat": 42.207039}}, {"id": 4938064, "name": "Granby", "state": "MA", "country": "US", "coord": {"lon": -72.516197, "lat": 42.256481}}, {"id": 4938092, "name": "Granville", "state": "MA", "country": "US", "coord": {"lon": -72.861488, "lat": 42.066761}}, {"id": 4938157, "name": "Great Barrington", "state": "MA", "country": "US", "coord": {"lon": -73.362061, "lat": 42.195919}}, {"id": 4938378, "name": "Greenfield", "state": "MA", "country": "US", "coord": {"lon": -72.599533, "lat": 42.587589}}, {"id": 4938501, "name": "Groveland", "state": "MA", "country": "US", "coord": {"lon": -71.031448, "lat": 42.760368}}, {"id": 4938574, "name": "Hadley", "state": "MA", "country": "US", "coord": {"lon": -72.588417, "lat": 42.341759}}, {"id": 4938625, "name": "Hales Crossing", "state": "MA", "country": "US", "coord": {"lon": -72.56398, "lat": 42.654251}}, {"id": 4938652, "name": "Halifax", "state": "MA", "country": "US", "coord": {"lon": -70.861977, "lat": 41.991211}}, {"id": 4938697, "name": "Hamilton Worcester", "state": "MA", "country": "US", "coord": {"lon": -71.76757, "lat": 42.256199}}, {"id": 4938738, "name": "Hampden", "state": "MA", "country": "US", "coord": {"lon": -72.413422, "lat": 42.06398}}, {"id": 4938741, "name": "Hampden County", "state": "MA", "country": "US", "coord": {"lon": -72.58287, "lat": 42.166759}}, {"id": 4938757, "name": "Hampshire County", "state": "MA", "country": "US", "coord": {"lon": -72.58287, "lat": 42.33342}}, {"id": 4938829, "name": "Hanson", "state": "MA", "country": "US", "coord": {"lon": -70.880043, "lat": 42.0751}}, {"id": 4938836, "name": "Hanover", "state": "MA", "country": "US", "coord": {"lon": -70.811989, "lat": 42.113159}}, {"id": 4938862, "name": "Hardwick", "state": "MA", "country": "US", "coord": {"lon": -72.199516, "lat": 42.35009}}, {"id": 4938957, "name": "Harvard", "state": "MA", "country": "US", "coord": {"lon": -71.58284, "lat": 42.500092}}, {"id": 4939004, "name": "Harwich", "state": "MA", "country": "US", "coord": {"lon": -70.075851, "lat": 41.686218}}, {"id": 4939008, "name": "Harwich Port", "state": "MA", "country": "US", "coord": {"lon": -70.078629, "lat": 41.666779}}, {"id": 4939048, "name": "Hatfield", "state": "MA", "country": "US", "coord": {"lon": -72.598137, "lat": 42.370918}}, {"id": 4939085, "name": "Haverhill", "state": "MA", "country": "US", "coord": {"lon": -71.077278, "lat": 42.776199}}, {"id": 4939191, "name": "Head of Westport", "state": "MA", "country": "US", "coord": {"lon": -71.061989, "lat": 41.620941}}, {"id": 4939549, "name": "Hingham", "state": "MA", "country": "US", "coord": {"lon": -70.889771, "lat": 42.241772}}, {"id": 4939561, "name": "Hinsdale", "state": "MA", "country": "US", "coord": {"lon": -73.125381, "lat": 42.438702}}, {"id": 4939637, "name": "Holbrook", "state": "MA", "country": "US", "coord": {"lon": -71.008659, "lat": 42.155102}}, {"id": 4939647, "name": "Holden", "state": "MA", "country": "US", "coord": {"lon": -71.863411, "lat": 42.351761}}, {"id": 4939671, "name": "Holland", "state": "MA", "country": "US", "coord": {"lon": -72.157303, "lat": 42.06398}}, {"id": 4939693, "name": "Holliston", "state": "MA", "country": "US", "coord": {"lon": -71.4245, "lat": 42.2001}}, {"id": 4939783, "name": "Holyoke", "state": "MA", "country": "US", "coord": {"lon": -72.616203, "lat": 42.204262}}, {"id": 4939862, "name": "Hopedale", "state": "MA", "country": "US", "coord": {"lon": -71.541168, "lat": 42.13065}}, {"id": 4939881, "name": "Hopkinton", "state": "MA", "country": "US", "coord": {"lon": -71.52256, "lat": 42.22871}}, {"id": 4939991, "name": "Housatonic", "state": "MA", "country": "US", "coord": {"lon": -73.366219, "lat": 42.25425}}, {"id": 4940075, "name": "Hubbardston", "state": "MA", "country": "US", "coord": {"lon": -72.006187, "lat": 42.473701}}, {"id": 4940094, "name": "Hudson", "state": "MA", "country": "US", "coord": {"lon": -71.566177, "lat": 42.391762}}, {"id": 4940134, "name": "Hull", "state": "MA", "country": "US", "coord": {"lon": -70.907822, "lat": 42.30204}}, {"id": 4940190, "name": "Hyannis", "state": "MA", "country": "US", "coord": {"lon": -70.282799, "lat": 41.652889}}, {"id": 4940625, "name": "Ipswich", "state": "MA", "country": "US", "coord": {"lon": -70.841164, "lat": 42.67926}}, {"id": 4940764, "name": "Jamaica Plain", "state": "MA", "country": "US", "coord": {"lon": -71.120331, "lat": 42.309818}}, {"id": 4941188, "name": "Kempton Croft", "state": "MA", "country": "US", "coord": {"lon": -71.009209, "lat": 41.640381}}, {"id": 4941383, "name": "Kingston", "state": "MA", "country": "US", "coord": {"lon": -70.72448, "lat": 41.994549}}, {"id": 4941425, "name": "Knights Crossing", "state": "MA", "country": "US", "coord": {"lon": -70.88839, "lat": 42.775089}}, {"id": 4941635, "name": "Lancaster", "state": "MA", "country": "US", "coord": {"lon": -71.673119, "lat": 42.45565}}, {"id": 4941659, "name": "Lanesborough", "state": "MA", "country": "US", "coord": {"lon": -73.228157, "lat": 42.517311}}, {"id": 4941720, "name": "Lawrence", "state": "MA", "country": "US", "coord": {"lon": -71.163109, "lat": 42.707039}}, {"id": 4941797, "name": "Lee", "state": "MA", "country": "US", "coord": {"lon": -73.248161, "lat": 42.304249}}, {"id": 4941835, "name": "Leicester", "state": "MA", "country": "US", "coord": {"lon": -71.908684, "lat": 42.24593}}, {"id": 4941853, "name": "Lenox", "state": "MA", "country": "US", "coord": {"lon": -73.284828, "lat": 42.35648}}, {"id": 4941873, "name": "Leominster", "state": "MA", "country": "US", "coord": {"lon": -71.759789, "lat": 42.525089}}, {"id": 4941899, "name": "Leverett", "state": "MA", "country": "US", "coord": {"lon": -72.50148, "lat": 42.45203}}, {"id": 4941935, "name": "Lexington", "state": "MA", "country": "US", "coord": {"lon": -71.224503, "lat": 42.447319}}, {"id": 4942021, "name": "Lincoln", "state": "MA", "country": "US", "coord": {"lon": -71.303947, "lat": 42.42593}}, {"id": 4942301, "name": "Littleton Common", "state": "MA", "country": "US", "coord": {"lon": -71.47451, "lat": 42.545929}}, {"id": 4942508, "name": "Longmeadow", "state": "MA", "country": "US", "coord": {"lon": -72.58287, "lat": 42.050098}}, {"id": 4942618, "name": "Lowell", "state": "MA", "country": "US", "coord": {"lon": -71.31617, "lat": 42.633419}}, {"id": 4942744, "name": "Ludlow", "state": "MA", "country": "US", "coord": {"lon": -72.475922, "lat": 42.160091}}, {"id": 4942767, "name": "Lunenburg", "state": "MA", "country": "US", "coord": {"lon": -71.724518, "lat": 42.594528}}, {"id": 4942807, "name": "Lynn", "state": "MA", "country": "US", "coord": {"lon": -70.949493, "lat": 42.466759}}, {"id": 4942821, "name": "Lynnfield", "state": "MA", "country": "US", "coord": {"lon": -71.048111, "lat": 42.538979}}, {"id": 4942939, "name": "Malden", "state": "MA", "country": "US", "coord": {"lon": -71.066162, "lat": 42.425098}}, {"id": 4943021, "name": "Mansfield", "state": "MA", "country": "US", "coord": {"lon": -71.218941, "lat": 42.033428}}, {"id": 4943097, "name": "Marblehead", "state": "MA", "country": "US", "coord": {"lon": -70.857826, "lat": 42.500099}}, {"id": 4943144, "name": "Marion", "state": "MA", "country": "US", "coord": {"lon": -70.76281, "lat": 41.7001}}, {"id": 4943170, "name": "Marlborough", "state": "MA", "country": "US", "coord": {"lon": -71.545464, "lat": 42.349091}}, {"id": 4943204, "name": "Marshfield", "state": "MA", "country": "US", "coord": {"lon": -70.705589, "lat": 42.09177}}, {"id": 4943213, "name": "Marshfield Hills", "state": "MA", "country": "US", "coord": {"lon": -70.739761, "lat": 42.145939}}, {"id": 4943227, "name": "Marstons Mills", "state": "MA", "country": "US", "coord": {"lon": -70.416138, "lat": 41.656219}}, {"id": 4943297, "name": "Mashpee", "state": "MA", "country": "US", "coord": {"lon": -70.48114, "lat": 41.648441}}, {"id": 4943432, "name": "Mattapoisett", "state": "MA", "country": "US", "coord": {"lon": -70.816147, "lat": 41.65844}}, {"id": 4943490, "name": "Maynard", "state": "MA", "country": "US", "coord": {"lon": -71.449509, "lat": 42.43343}}, {"id": 4943616, "name": "Medfield", "state": "MA", "country": "US", "coord": {"lon": -71.30645, "lat": 42.187599}}, {"id": 4943629, "name": "Medford", "state": "MA", "country": "US", "coord": {"lon": -71.106163, "lat": 42.41843}}, {"id": 4943648, "name": "Medway", "state": "MA", "country": "US", "coord": {"lon": -71.396729, "lat": 42.141762}}, {"id": 4943677, "name": "Melrose", "state": "MA", "country": "US", "coord": {"lon": -71.066162, "lat": 42.458431}}, {"id": 4943746, "name": "Mendon", "state": "MA", "country": "US", "coord": {"lon": -71.552292, "lat": 42.105652}}, {"id": 4943784, "name": "Merrimac", "state": "MA", "country": "US", "coord": {"lon": -71.002281, "lat": 42.83065}}, {"id": 4943828, "name": "Methuen", "state": "MA", "country": "US", "coord": {"lon": -71.190887, "lat": 42.7262}}, {"id": 4943909, "name": "Middlesex County", "state": "MA", "country": "US", "coord": {"lon": -71.33284, "lat": 42.499821}}, {"id": 4943926, "name": "Middleton", "state": "MA", "country": "US", "coord": {"lon": -71.016159, "lat": 42.595089}}, {"id": 4943958, "name": "Milford", "state": "MA", "country": "US", "coord": {"lon": -71.516167, "lat": 42.13982}}, {"id": 4944122, "name": "Millbury", "state": "MA", "country": "US", "coord": {"lon": -71.760071, "lat": 42.193981}}, {"id": 4944154, "name": "Millers Falls", "state": "MA", "country": "US", "coord": {"lon": -72.492592, "lat": 42.582031}}, {"id": 4944173, "name": "Millis", "state": "MA", "country": "US", "coord": {"lon": -71.357841, "lat": 42.167599}}, {"id": 4944189, "name": "Millville", "state": "MA", "country": "US", "coord": {"lon": -71.580902, "lat": 42.027882}}, {"id": 4944193, "name": "Milton", "state": "MA", "country": "US", "coord": {"lon": -71.066162, "lat": 42.249538}}, {"id": 4944350, "name": "Monson", "state": "MA", "country": "US", "coord": {"lon": -72.31897, "lat": 42.104259}}, {"id": 4944405, "name": "Monument Beach", "state": "MA", "country": "US", "coord": {"lon": -70.611977, "lat": 41.719551}}, {"id": 4944413, "name": "Montague", "state": "MA", "country": "US", "coord": {"lon": -72.535088, "lat": 42.535641}}, {"id": 4944875, "name": "Nahant", "state": "MA", "country": "US", "coord": {"lon": -70.918938, "lat": 42.426491}}, {"id": 4944903, "name": "Nantucket", "state": "MA", "country": "US", "coord": {"lon": -70.099457, "lat": 41.283459}}, {"id": 4944994, "name": "Natick", "state": "MA", "country": "US", "coord": {"lon": -71.349503, "lat": 42.283428}}, {"id": 4945055, "name": "Needham", "state": "MA", "country": "US", "coord": {"lon": -71.232826, "lat": 42.283428}}, {"id": 4945121, "name": "New Bedford", "state": "MA", "country": "US", "coord": {"lon": -70.934196, "lat": 41.636219}}, {"id": 4945217, "name": "New Marlborough", "state": "MA", "country": "US", "coord": {"lon": -73.228722, "lat": 42.122871}}, {"id": 4945256, "name": "Newburyport", "state": "MA", "country": "US", "coord": {"lon": -70.877281, "lat": 42.812592}}, {"id": 4945283, "name": "Newton", "state": "MA", "country": "US", "coord": {"lon": -71.209221, "lat": 42.33704}}, {"id": 4945453, "name": "Norfolk", "state": "MA", "country": "US", "coord": {"lon": -71.325058, "lat": 42.119541}}, {"id": 4945455, "name": "Norfolk County", "state": "MA", "country": "US", "coord": {"lon": -71.249496, "lat": 42.166771}}, {"id": 4945486, "name": "North Adams", "state": "MA", "country": "US", "coord": {"lon": -73.108711, "lat": 42.70092}}, {"id": 4945497, "name": "North Amherst", "state": "MA", "country": "US", "coord": {"lon": -72.530922, "lat": 42.41037}}, {"id": 4945548, "name": "North Brookfield", "state": "MA", "country": "US", "coord": {"lon": -72.082848, "lat": 42.266762}}, {"id": 4945588, "name": "North Chicopee", "state": "MA", "country": "US", "coord": {"lon": -72.599533, "lat": 42.18343}}, {"id": 4945608, "name": "North Eastham", "state": "MA", "country": "US", "coord": {"lon": -69.991127, "lat": 41.865108}}, {"id": 4945622, "name": "North Falmouth", "state": "MA", "country": "US", "coord": {"lon": -70.618362, "lat": 41.645939}}, {"id": 4945659, "name": "North Lakeville", "state": "MA", "country": "US", "coord": {"lon": -70.942261, "lat": 41.857601}}, {"id": 4945700, "name": "North Pembroke", "state": "MA", "country": "US", "coord": {"lon": -70.792542, "lat": 42.093159}}, {"id": 4945707, "name": "North Plymouth", "state": "MA", "country": "US", "coord": {"lon": -70.682808, "lat": 41.97094}}, {"id": 4945734, "name": "North Reading", "state": "MA", "country": "US", "coord": {"lon": -71.078667, "lat": 42.575089}}, {"id": 4945764, "name": "North Scituate", "state": "MA", "country": "US", "coord": {"lon": -70.785599, "lat": 42.21899}}, {"id": 4945769, "name": "North Seekonk", "state": "MA", "country": "US", "coord": {"lon": -71.330048, "lat": 41.889271}}, {"id": 4945808, "name": "North Westport", "state": "MA", "country": "US", "coord": {"lon": -71.088379, "lat": 41.660381}}, {"id": 4945819, "name": "Northampton", "state": "MA", "country": "US", "coord": {"lon": -72.641197, "lat": 42.325089}}, {"id": 4945840, "name": "Northborough", "state": "MA", "country": "US", "coord": {"lon": -71.641182, "lat": 42.319538}}, {"id": 4945848, "name": "Northbridge", "state": "MA", "country": "US", "coord": {"lon": -71.649513, "lat": 42.151482}}, {"id": 4945878, "name": "Northfield", "state": "MA", "country": "US", "coord": {"lon": -72.452873, "lat": 42.695919}}, {"id": 4945911, "name": "Norton", "state": "MA", "country": "US", "coord": {"lon": -71.186989, "lat": 41.96677}}, {"id": 4945936, "name": "Norwell", "state": "MA", "country": "US", "coord": {"lon": -70.79393, "lat": 42.16177}}, {"id": 4945952, "name": "Norwood", "state": "MA", "country": "US", "coord": {"lon": -71.199501, "lat": 42.194538}}, {"id": 4946056, "name": "Oak Bluffs", "state": "MA", "country": "US", "coord": {"lon": -70.561974, "lat": 41.454281}}, {"id": 4946136, "name": "Oakham", "state": "MA", "country": "US", "coord": {"lon": -72.045349, "lat": 42.352871}}, {"id": 4946160, "name": "Ocean Grove", "state": "MA", "country": "US", "coord": {"lon": -71.209213, "lat": 41.729271}}, {"id": 4946372, "name": "Onset", "state": "MA", "country": "US", "coord": {"lon": -70.657806, "lat": 41.741772}}, {"id": 4946383, "name": "Orange", "state": "MA", "country": "US", "coord": {"lon": -72.309807, "lat": 42.590359}}, {"id": 4946410, "name": "Orleans", "state": "MA", "country": "US", "coord": {"lon": -69.989738, "lat": 41.789829}}, {"id": 4946441, "name": "Osterville", "state": "MA", "country": "US", "coord": {"lon": -70.386971, "lat": 41.628441}}, {"id": 4946445, "name": "Otis", "state": "MA", "country": "US", "coord": {"lon": -73.091766, "lat": 42.19315}}, {"id": 4946546, "name": "Oxford", "state": "MA", "country": "US", "coord": {"lon": -71.864792, "lat": 42.11676}}, {"id": 4946620, "name": "Palmer", "state": "MA", "country": "US", "coord": {"lon": -72.32869, "lat": 42.158428}}, {"id": 4946853, "name": "Paxton", "state": "MA", "country": "US", "coord": {"lon": -71.928131, "lat": 42.311199}}, {"id": 4946863, "name": "Peabody", "state": "MA", "country": "US", "coord": {"lon": -70.928658, "lat": 42.52787}}, {"id": 4946938, "name": "Pelham", "state": "MA", "country": "US", "coord": {"lon": -72.403702, "lat": 42.39315}}, {"id": 4946990, "name": "Pepperell", "state": "MA", "country": "US", "coord": {"lon": -71.588402, "lat": 42.66592}}, {"id": 4947124, "name": "Phillipston", "state": "MA", "country": "US", "coord": {"lon": -72.132858, "lat": 42.548698}}, {"id": 4947397, "name": "Pinehurst", "state": "MA", "country": "US", "coord": {"lon": -71.228111, "lat": 42.529259}}, {"id": 4947459, "name": "Pittsfield", "state": "MA", "country": "US", "coord": {"lon": -73.245377, "lat": 42.450081}}, {"id": 4947488, "name": "Plainville", "state": "MA", "country": "US", "coord": {"lon": -70.960602, "lat": 41.682049}}, {"id": 4947490, "name": "Plainville", "state": "MA", "country": "US", "coord": {"lon": -71.332832, "lat": 42.004269}}, {"id": 4947597, "name": "Plymouth", "state": "MA", "country": "US", "coord": {"lon": -70.667259, "lat": 41.958439}}, {"id": 4947607, "name": "Plymouth County", "state": "MA", "country": "US", "coord": {"lon": -70.832817, "lat": 41.833439}}, {"id": 4947641, "name": "Plympton", "state": "MA", "country": "US", "coord": {"lon": -70.814484, "lat": 41.952881}}, {"id": 4947655, "name": "Pocasset", "state": "MA", "country": "US", "coord": {"lon": -70.616142, "lat": 41.686218}}, {"id": 4947998, "name": "Princeton", "state": "MA", "country": "US", "coord": {"lon": -71.877296, "lat": 42.4487}}, {"id": 4948087, "name": "Provincetown", "state": "MA", "country": "US", "coord": {"lon": -70.178642, "lat": 42.058441}}, {"id": 4948247, "name": "Quincy", "state": "MA", "country": "US", "coord": {"lon": -71.002274, "lat": 42.25288}}, {"id": 4948403, "name": "Randolph", "state": "MA", "country": "US", "coord": {"lon": -71.041161, "lat": 42.162601}}, {"id": 4948449, "name": "Raynham", "state": "MA", "country": "US", "coord": {"lon": -71.073097, "lat": 41.948711}}, {"id": 4948451, "name": "Raynham Center", "state": "MA", "country": "US", "coord": {"lon": -71.052269, "lat": 41.92371}}, {"id": 4948462, "name": "Reading", "state": "MA", "country": "US", "coord": {"lon": -71.095329, "lat": 42.52565}}, {"id": 4948545, "name": "Rehoboth", "state": "MA", "country": "US", "coord": {"lon": -71.249489, "lat": 41.840382}}, {"id": 4948667, "name": "Richmond", "state": "MA", "country": "US", "coord": {"lon": -73.367607, "lat": 42.373138}}, {"id": 4948875, "name": "Rochester", "state": "MA", "country": "US", "coord": {"lon": -70.820038, "lat": 41.73177}}, {"id": 4948924, "name": "Rockland", "state": "MA", "country": "US", "coord": {"lon": -70.916161, "lat": 42.130661}}, {"id": 4948936, "name": "Rockport", "state": "MA", "country": "US", "coord": {"lon": -70.620323, "lat": 42.655651}}, {"id": 4949144, "name": "Rowley", "state": "MA", "country": "US", "coord": {"lon": -70.878662, "lat": 42.716759}}, {"id": 4949161, "name": "Royalston", "state": "MA", "country": "US", "coord": {"lon": -72.187859, "lat": 42.677589}}, {"id": 4949245, "name": "Rutland", "state": "MA", "country": "US", "coord": {"lon": -71.948128, "lat": 42.369541}}, {"id": 4949344, "name": "Sagamore", "state": "MA", "country": "US", "coord": {"lon": -70.528358, "lat": 41.770111}}, {"id": 4950065, "name": "Salem", "state": "MA", "country": "US", "coord": {"lon": -70.896721, "lat": 42.519539}}, {"id": 4950092, "name": "Salisbury", "state": "MA", "country": "US", "coord": {"lon": -70.860611, "lat": 42.841759}}, {"id": 4950191, "name": "Sandwich", "state": "MA", "country": "US", "coord": {"lon": -70.493919, "lat": 41.758999}}, {"id": 4950267, "name": "Saugus", "state": "MA", "country": "US", "coord": {"lon": -71.010048, "lat": 42.464821}}, {"id": 4950395, "name": "Scituate", "state": "MA", "country": "US", "coord": {"lon": -70.725868, "lat": 42.19593}}, {"id": 4950452, "name": "Scott Corners", "state": "MA", "country": "US", "coord": {"lon": -72.505638, "lat": 42.182041}}, {"id": 4950541, "name": "Seekonk", "state": "MA", "country": "US", "coord": {"lon": -71.336998, "lat": 41.80843}}, {"id": 4950654, "name": "Sharon", "state": "MA", "country": "US", "coord": {"lon": -71.178658, "lat": 42.123711}}, {"id": 4950747, "name": "Shelburne", "state": "MA", "country": "US", "coord": {"lon": -72.688423, "lat": 42.589809}}, {"id": 4950749, "name": "Shelburne Falls", "state": "MA", "country": "US", "coord": {"lon": -72.739258, "lat": 42.604252}}, {"id": 4950790, "name": "Sherborn", "state": "MA", "country": "US", "coord": {"lon": -71.369781, "lat": 42.238991}}, {"id": 4950848, "name": "Shirley", "state": "MA", "country": "US", "coord": {"lon": -71.649513, "lat": 42.543701}}, {"id": 4950898, "name": "Shrewsbury", "state": "MA", "country": "US", "coord": {"lon": -71.712852, "lat": 42.295929}}, {"id": 4950922, "name": "Shutesbury", "state": "MA", "country": "US", "coord": {"lon": -72.409813, "lat": 42.456478}}, {"id": 4951133, "name": "Smith Mills", "state": "MA", "country": "US", "coord": {"lon": -70.99115, "lat": 41.638988}}, {"id": 4951248, "name": "Somerset", "state": "MA", "country": "US", "coord": {"lon": -71.128662, "lat": 41.76955}}, {"id": 4951257, "name": "Somerville", "state": "MA", "country": "US", "coord": {"lon": -71.099503, "lat": 42.3876}}, {"id": 4951281, "name": "South Amherst", "state": "MA", "country": "US", "coord": {"lon": -72.505089, "lat": 42.34037}}, {"id": 4951282, "name": "South Ashburnham", "state": "MA", "country": "US", "coord": {"lon": -71.938972, "lat": 42.610371}}, {"id": 4951305, "name": "South Boston", "state": "MA", "country": "US", "coord": {"lon": -71.049492, "lat": 42.333431}}, {"id": 4951357, "name": "South Deerfield", "state": "MA", "country": "US", "coord": {"lon": -72.607872, "lat": 42.47731}}, {"id": 4951359, "name": "South Dennis", "state": "MA", "country": "US", "coord": {"lon": -70.15641, "lat": 41.68956}}, {"id": 4951397, "name": "South Hadley", "state": "MA", "country": "US", "coord": {"lon": -72.574532, "lat": 42.258419}}, {"id": 4951431, "name": "South Lancaster", "state": "MA", "country": "US", "coord": {"lon": -71.687012, "lat": 42.444538}}, {"id": 4951473, "name": "South Peabody", "state": "MA", "country": "US", "coord": {"lon": -70.949493, "lat": 42.509819}}, {"id": 4951579, "name": "South Yarmouth", "state": "MA", "country": "US", "coord": {"lon": -70.184738, "lat": 41.666779}}, {"id": 4951582, "name": "Southampton", "state": "MA", "country": "US", "coord": {"lon": -72.730087, "lat": 42.229259}}, {"id": 4951591, "name": "Southborough", "state": "MA", "country": "US", "coord": {"lon": -71.524513, "lat": 42.305649}}, {"id": 4951594, "name": "Southbridge", "state": "MA", "country": "US", "coord": {"lon": -72.033409, "lat": 42.0751}}, {"id": 4951640, "name": "Southwick", "state": "MA", "country": "US", "coord": {"lon": -72.77037, "lat": 42.054821}}, {"id": 4951699, "name": "Spencer", "state": "MA", "country": "US", "coord": {"lon": -71.992302, "lat": 42.24398}}, {"id": 4951788, "name": "Springfield", "state": "MA", "country": "US", "coord": {"lon": -72.589813, "lat": 42.101479}}, {"id": 4952005, "name": "Sterling", "state": "MA", "country": "US", "coord": {"lon": -71.760628, "lat": 42.437592}}, {"id": 4952078, "name": "Stockbridge", "state": "MA", "country": "US", "coord": {"lon": -73.320389, "lat": 42.28759}}, {"id": 4952121, "name": "Stoneham", "state": "MA", "country": "US", "coord": {"lon": -71.099503, "lat": 42.480099}}, {"id": 4952206, "name": "Stoughton", "state": "MA", "country": "US", "coord": {"lon": -71.102272, "lat": 42.125099}}, {"id": 4952217, "name": "Stow", "state": "MA", "country": "US", "coord": {"lon": -71.505623, "lat": 42.437038}}, {"id": 4952292, "name": "Sturbridge", "state": "MA", "country": "US", "coord": {"lon": -72.07869, "lat": 42.108429}}, {"id": 4952320, "name": "Sudbury", "state": "MA", "country": "US", "coord": {"lon": -71.416168, "lat": 42.38343}}, {"id": 4952349, "name": "Suffolk County", "state": "MA", "country": "US", "coord": {"lon": -71.082832, "lat": 42.333431}}, {"id": 4952388, "name": "Sunderland", "state": "MA", "country": "US", "coord": {"lon": -71.771744, "lat": 42.244541}}, {"id": 4952444, "name": "Sutton", "state": "MA", "country": "US", "coord": {"lon": -71.762848, "lat": 42.150101}}, {"id": 4952468, "name": "Swampscott", "state": "MA", "country": "US", "coord": {"lon": -70.917549, "lat": 42.470928}}, {"id": 4952487, "name": "Swansea", "state": "MA", "country": "US", "coord": {"lon": -71.189774, "lat": 41.748161}}, {"id": 4952629, "name": "Taunton", "state": "MA", "country": "US", "coord": {"lon": -71.089767, "lat": 41.900101}}, {"id": 4952663, "name": "Teaticket", "state": "MA", "country": "US", "coord": {"lon": -70.595863, "lat": 41.564548}}, {"id": 4952731, "name": "Templeton", "state": "MA", "country": "US", "coord": {"lon": -72.067581, "lat": 42.555641}}, {"id": 4952762, "name": "Tewksbury", "state": "MA", "country": "US", "coord": {"lon": -71.234222, "lat": 42.610649}}, {"id": 4953127, "name": "Topsfield", "state": "MA", "country": "US", "coord": {"lon": -70.949501, "lat": 42.637589}}, {"id": 4953221, "name": "Townsend", "state": "MA", "country": "US", "coord": {"lon": -71.70507, "lat": 42.666759}}, {"id": 4953382, "name": "Truro", "state": "MA", "country": "US", "coord": {"lon": -70.049751, "lat": 41.993439}}, {"id": 4953473, "name": "Turners Falls", "state": "MA", "country": "US", "coord": {"lon": -72.55648, "lat": 42.604252}}, {"id": 4953542, "name": "Tyngsboro", "state": "MA", "country": "US", "coord": {"lon": -71.424507, "lat": 42.676762}}, {"id": 4953794, "name": "Upton", "state": "MA", "country": "US", "coord": {"lon": -71.602287, "lat": 42.174541}}, {"id": 4953804, "name": "Uxbridge", "state": "MA", "country": "US", "coord": {"lon": -71.629509, "lat": 42.07732}}, {"id": 4953938, "name": "Vineyard Haven", "state": "MA", "country": "US", "coord": {"lon": -70.603638, "lat": 41.454281}}, {"id": 4954265, "name": "Wakefield", "state": "MA", "country": "US", "coord": {"lon": -71.07283, "lat": 42.506481}}, {"id": 4954292, "name": "Wales", "state": "MA", "country": "US", "coord": {"lon": -72.222298, "lat": 42.069538}}, {"id": 4954364, "name": "Walpole", "state": "MA", "country": "US", "coord": {"lon": -71.249496, "lat": 42.141769}}, {"id": 4954380, "name": "Waltham", "state": "MA", "country": "US", "coord": {"lon": -71.235611, "lat": 42.376492}}, {"id": 4954477, "name": "Ware", "state": "MA", "country": "US", "coord": {"lon": -72.239799, "lat": 42.259811}}, {"id": 4954486, "name": "Wareham Center", "state": "MA", "country": "US", "coord": {"lon": -70.726151, "lat": 41.766769}}, {"id": 4954511, "name": "Warren", "state": "MA", "country": "US", "coord": {"lon": -72.191193, "lat": 42.212589}}, {"id": 4954611, "name": "Watertown", "state": "MA", "country": "US", "coord": {"lon": -71.182831, "lat": 42.37093}}, {"id": 4954654, "name": "Wayland", "state": "MA", "country": "US", "coord": {"lon": -71.36145, "lat": 42.362598}}, {"id": 4954677, "name": "Webster", "state": "MA", "country": "US", "coord": {"lon": -71.880074, "lat": 42.050098}}, {"id": 4954738, "name": "Wellesley", "state": "MA", "country": "US", "coord": {"lon": -71.292557, "lat": 42.29649}}, {"id": 4954763, "name": "Wellfleet", "state": "MA", "country": "US", "coord": {"lon": -70.032799, "lat": 41.937611}}, {"id": 4954794, "name": "Wendell", "state": "MA", "country": "US", "coord": {"lon": -72.396751, "lat": 42.548141}}, {"id": 4954801, "name": "Wenham", "state": "MA", "country": "US", "coord": {"lon": -70.891159, "lat": 42.604259}}, {"id": 4954847, "name": "West Bedford", "state": "MA", "country": "US", "coord": {"lon": -71.315613, "lat": 42.478149}}, {"id": 4954850, "name": "West Boylston", "state": "MA", "country": "US", "coord": {"lon": -71.785629, "lat": 42.36676}}, {"id": 4954886, "name": "West Bridgewater", "state": "MA", "country": "US", "coord": {"lon": -71.00782, "lat": 42.01899}}, {"id": 4954912, "name": "West Chatham", "state": "MA", "country": "US", "coord": {"lon": -69.991127, "lat": 41.681221}}, {"id": 4954923, "name": "West Concord", "state": "MA", "country": "US", "coord": {"lon": -71.39534, "lat": 42.458431}}, {"id": 4954927, "name": "West Brookfield", "state": "MA", "country": "US", "coord": {"lon": -72.14119, "lat": 42.235371}}, {"id": 4954931, "name": "West Dennis", "state": "MA", "country": "US", "coord": {"lon": -70.172798, "lat": 41.664558}}, {"id": 4954944, "name": "West Falmouth", "state": "MA", "country": "US", "coord": {"lon": -70.634468, "lat": 41.604271}}, {"id": 4955030, "name": "West Newbury", "state": "MA", "country": "US", "coord": {"lon": -70.989777, "lat": 42.801479}}, {"id": 4955089, "name": "West Springfield", "state": "MA", "country": "US", "coord": {"lon": -72.620369, "lat": 42.10704}}, {"id": 4955098, "name": "West Stockbridge", "state": "MA", "country": "US", "coord": {"lon": -73.366219, "lat": 42.345921}}, {"id": 4955112, "name": "West Summit", "state": "MA", "country": "US", "coord": {"lon": -73.066208, "lat": 42.696468}}, {"id": 4955114, "name": "West Tatnuck", "state": "MA", "country": "US", "coord": {"lon": -71.871742, "lat": 42.28204}}, {"id": 4955117, "name": "West Tisbury", "state": "MA", "country": "US", "coord": {"lon": -70.674469, "lat": 41.381222}}, {"id": 4955132, "name": "West Wareham", "state": "MA", "country": "US", "coord": {"lon": -70.760307, "lat": 41.789829}}, {"id": 4955143, "name": "West Yarmouth", "state": "MA", "country": "US", "coord": {"lon": -70.241127, "lat": 41.650108}}, {"id": 4955149, "name": "Westborough", "state": "MA", "country": "US", "coord": {"lon": -71.61618, "lat": 42.269539}}, {"id": 4955190, "name": "Westfield", "state": "MA", "country": "US", "coord": {"lon": -72.749542, "lat": 42.125092}}, {"id": 4955219, "name": "Westford", "state": "MA", "country": "US", "coord": {"lon": -71.437843, "lat": 42.579262}}, {"id": 4955236, "name": "Westhampton", "state": "MA", "country": "US", "coord": {"lon": -72.774544, "lat": 42.302872}}, {"id": 4955247, "name": "Westminster", "state": "MA", "country": "US", "coord": {"lon": -71.910629, "lat": 42.545921}}, {"id": 4955259, "name": "Weston", "state": "MA", "country": "US", "coord": {"lon": -71.303108, "lat": 42.36676}}, {"id": 4955317, "name": "Westwood", "state": "MA", "country": "US", "coord": {"lon": -71.224503, "lat": 42.213989}}, {"id": 4955332, "name": "Weweantic", "state": "MA", "country": "US", "coord": {"lon": -70.731979, "lat": 41.735378}}, {"id": 4955336, "name": "Weymouth", "state": "MA", "country": "US", "coord": {"lon": -70.939774, "lat": 42.220928}}, {"id": 4955376, "name": "Whately", "state": "MA", "country": "US", "coord": {"lon": -72.634811, "lat": 42.439812}}, {"id": 4955472, "name": "White Island Shores", "state": "MA", "country": "US", "coord": {"lon": -70.63475, "lat": 41.800098}}, {"id": 4955539, "name": "Whitinsville", "state": "MA", "country": "US", "coord": {"lon": -71.666183, "lat": 42.11121}}, {"id": 4955544, "name": "Whitman", "state": "MA", "country": "US", "coord": {"lon": -70.9356, "lat": 42.080662}}, {"id": 4955635, "name": "Wilbraham", "state": "MA", "country": "US", "coord": {"lon": -72.431473, "lat": 42.123711}}, {"id": 4955778, "name": "Williamsburg", "state": "MA", "country": "US", "coord": {"lon": -72.730087, "lat": 42.393139}}, {"id": 4955786, "name": "Williamstown", "state": "MA", "country": "US", "coord": {"lon": -73.20372, "lat": 42.712021}}, {"id": 4955840, "name": "Wilmington", "state": "MA", "country": "US", "coord": {"lon": -71.173668, "lat": 42.546478}}, {"id": 4955873, "name": "Winchendon", "state": "MA", "country": "US", "coord": {"lon": -72.043968, "lat": 42.686199}}, {"id": 4955884, "name": "Winchester", "state": "MA", "country": "US", "coord": {"lon": -71.137001, "lat": 42.45232}}, {"id": 4955993, "name": "Winthrop", "state": "MA", "country": "US", "coord": {"lon": -70.982826, "lat": 42.375099}}, {"id": 4956032, "name": "Woburn", "state": "MA", "country": "US", "coord": {"lon": -71.152283, "lat": 42.479259}}, {"id": 4956184, "name": "Worcester", "state": "MA", "country": "US", "coord": {"lon": -71.802292, "lat": 42.262589}}, {"id": 4956199, "name": "Worcester County", "state": "MA", "country": "US", "coord": {"lon": -71.832848, "lat": 42.333431}}, {"id": 4956266, "name": "Wrentham", "state": "MA", "country": "US", "coord": {"lon": -71.32811, "lat": 42.066769}}, {"id": 4956292, "name": "Wyben", "state": "MA", "country": "US", "coord": {"lon": -72.777321, "lat": 42.17231}}, {"id": 4956335, "name": "Yarmouth", "state": "MA", "country": "US", "coord": {"lon": -70.22863, "lat": 41.705669}}, {"id": 4956338, "name": "Yarmouth Port", "state": "MA", "country": "US", "coord": {"lon": -70.249458, "lat": 41.702049}}, {"id": 4956462, "name": "Acton", "state": "ME", "country": "US", "coord": {"lon": -70.909782, "lat": 43.534248}}, {"id": 4956470, "name": "Adams", "state": "ME", "country": "US", "coord": {"lon": -68.900589, "lat": 45.327549}}, {"id": 4956485, "name": "Addison", "state": "ME", "country": "US", "coord": {"lon": -67.744164, "lat": 44.618408}}, {"id": 4956545, "name": "Albion", "state": "ME", "country": "US", "coord": {"lon": -69.442543, "lat": 44.532291}}, {"id": 4956755, "name": "Androscoggin County", "state": "ME", "country": "US", "coord": {"lon": -70.166161, "lat": 44.16674}}, {"id": 4956815, "name": "Appleton", "state": "ME", "country": "US", "coord": {"lon": -69.250877, "lat": 44.289242}}, {"id": 4956873, "name": "Aroostook County", "state": "ME", "country": "US", "coord": {"lon": -68.500038, "lat": 46.66671}}, {"id": 4956893, "name": "Arundel", "state": "ME", "country": "US", "coord": {"lon": -70.528061, "lat": 43.440281}}, {"id": 4956915, "name": "Ash Point", "state": "ME", "country": "US", "coord": {"lon": -69.086708, "lat": 44.055641}}, {"id": 4956976, "name": "Auburn", "state": "ME", "country": "US", "coord": {"lon": -70.231171, "lat": 44.097851}}, {"id": 4957003, "name": "Augusta", "state": "ME", "country": "US", "coord": {"lon": -69.779488, "lat": 44.310619}}, {"id": 4957280, "name": "Bangor", "state": "ME", "country": "US", "coord": {"lon": -68.777809, "lat": 44.801182}}, {"id": 4957320, "name": "Bar Harbor", "state": "ME", "country": "US", "coord": {"lon": -68.203903, "lat": 44.387581}}, {"id": 4957570, "name": "Bath", "state": "ME", "country": "US", "coord": {"lon": -69.820602, "lat": 43.910641}}, {"id": 4957956, "name": "Belfast", "state": "ME", "country": "US", "coord": {"lon": -69.006416, "lat": 44.425911}}, {"id": 4957962, "name": "Belgrade", "state": "ME", "country": "US", "coord": {"lon": -69.83255, "lat": 44.447289}}, {"id": 4958037, "name": "Benton", "state": "ME", "country": "US", "coord": {"lon": -69.55088, "lat": 44.586182}}, {"id": 4958084, "name": "Bethel", "state": "ME", "country": "US", "coord": {"lon": -70.790619, "lat": 44.404228}}, {"id": 4958141, "name": "Biddeford", "state": "ME", "country": "US", "coord": {"lon": -70.453377, "lat": 43.49258}}, {"id": 4958507, "name": "Black Corner", "state": "ME", "country": "US", "coord": {"lon": -68.67392, "lat": 44.342861}}, {"id": 4958954, "name": "Boothbay", "state": "ME", "country": "US", "coord": {"lon": -69.633659, "lat": 43.876469}}, {"id": 4958958, "name": "Boothbay Harbor", "state": "ME", "country": "US", "coord": {"lon": -69.628098, "lat": 43.852299}}, {"id": 4959106, "name": "Bradford", "state": "ME", "country": "US", "coord": {"lon": -68.937813, "lat": 45.06673}}, {"id": 4959119, "name": "Bradley", "state": "ME", "country": "US", "coord": {"lon": -68.62809, "lat": 44.920898}}, {"id": 4959233, "name": "Brewer", "state": "ME", "country": "US", "coord": {"lon": -68.761421, "lat": 44.796741}}, {"id": 4959279, "name": "Bridgton", "state": "ME", "country": "US", "coord": {"lon": -70.712837, "lat": 44.05479}}, {"id": 4959312, "name": "Bristol", "state": "ME", "country": "US", "coord": {"lon": -69.509209, "lat": 43.957581}}, {"id": 4959359, "name": "Brooks", "state": "ME", "country": "US", "coord": {"lon": -69.120872, "lat": 44.55035}}, {"id": 4959433, "name": "Brownfield", "state": "ME", "country": "US", "coord": {"lon": -70.908684, "lat": 43.938129}}, {"id": 4959464, "name": "Brownville", "state": "ME", "country": "US", "coord": {"lon": -69.033371, "lat": 45.306999}}, {"id": 4959473, "name": "Brunswick", "state": "ME", "country": "US", "coord": {"lon": -69.965332, "lat": 43.91452}}, {"id": 4959521, "name": "Buckfield", "state": "ME", "country": "US", "coord": {"lon": -70.365341, "lat": 44.289509}}, {"id": 4959551, "name": "Bucksport", "state": "ME", "country": "US", "coord": {"lon": -68.795593, "lat": 44.573689}}, {"id": 4959658, "name": "Burnham", "state": "ME", "country": "US", "coord": {"lon": -69.427551, "lat": 44.692841}}, {"id": 4959799, "name": "Buxton", "state": "ME", "country": "US", "coord": {"lon": -70.518944, "lat": 43.637859}}, {"id": 4959834, "name": "Calais", "state": "ME", "country": "US", "coord": {"lon": -67.278603, "lat": 45.188961}}, {"id": 4959908, "name": "Camden", "state": "ME", "country": "US", "coord": {"lon": -69.064758, "lat": 44.209801}}, {"id": 4960036, "name": "Canaan", "state": "ME", "country": "US", "coord": {"lon": -69.56144, "lat": 44.76173}}, {"id": 4960064, "name": "Canton", "state": "ME", "country": "US", "coord": {"lon": -70.315338, "lat": 44.44062}}, {"id": 4960091, "name": "Cape Neddick", "state": "ME", "country": "US", "coord": {"lon": -70.620888, "lat": 43.193699}}, {"id": 4960105, "name": "Cape Rosier", "state": "ME", "country": "US", "coord": {"lon": -68.79892, "lat": 44.33147}}, {"id": 4960140, "name": "Caribou", "state": "ME", "country": "US", "coord": {"lon": -68.011971, "lat": 46.8606}}, {"id": 4960381, "name": "Castine", "state": "ME", "country": "US", "coord": {"lon": -68.799751, "lat": 44.387852}}, {"id": 4960682, "name": "Charleston", "state": "ME", "country": "US", "coord": {"lon": -69.040588, "lat": 45.08506}}, {"id": 4960753, "name": "Chelsea", "state": "ME", "country": "US", "coord": {"lon": -69.71727, "lat": 44.250351}}, {"id": 4960760, "name": "Cherryfield", "state": "ME", "country": "US", "coord": {"lon": -67.925842, "lat": 44.6073}}, {"id": 4960771, "name": "Chesterville", "state": "ME", "country": "US", "coord": {"lon": -70.086166, "lat": 44.55117}}, {"id": 4960817, "name": "China", "state": "ME", "country": "US", "coord": {"lon": -69.517258, "lat": 44.47868}}, {"id": 4960829, "name": "Chisholm", "state": "ME", "country": "US", "coord": {"lon": -70.199501, "lat": 44.481449}}, {"id": 4961064, "name": "Cleveland", "state": "ME", "country": "US", "coord": {"lon": -68.258926, "lat": 47.26004}}, {"id": 4961093, "name": "Clinton", "state": "ME", "country": "US", "coord": {"lon": -69.503098, "lat": 44.63784}}, {"id": 4961133, "name": "Coburn", "state": "ME", "country": "US", "coord": {"lon": -69.225319, "lat": 44.888119}}, {"id": 4961493, "name": "Corinna", "state": "ME", "country": "US", "coord": {"lon": -69.261711, "lat": 44.921169}}, {"id": 4961511, "name": "Cornish", "state": "ME", "country": "US", "coord": {"lon": -70.80117, "lat": 43.804798}}, {"id": 4961518, "name": "Cornville", "state": "ME", "country": "US", "coord": {"lon": -69.673111, "lat": 44.836731}}, {"id": 4961898, "name": "Cumberland Center", "state": "ME", "country": "US", "coord": {"lon": -70.258942, "lat": 43.796471}}, {"id": 4961900, "name": "Cumberland County", "state": "ME", "country": "US", "coord": {"lon": -70.332832, "lat": 43.850079}}, {"id": 4961976, "name": "Cushing", "state": "ME", "country": "US", "coord": {"lon": -69.239769, "lat": 44.019249}}, {"id": 4962030, "name": "Daaquam", "state": "ME", "country": "US", "coord": {"lon": -70.011192, "lat": 46.59837}}, {"id": 4962045, "name": "Daigle", "state": "ME", "country": "US", "coord": {"lon": -68.460876, "lat": 47.18948}}, {"id": 4962066, "name": "Damariscotta", "state": "ME", "country": "US", "coord": {"lon": -69.518661, "lat": 44.03286}}, {"id": 4962317, "name": "Dedham", "state": "ME", "country": "US", "coord": {"lon": -68.66198, "lat": 44.691738}}, {"id": 4962384, "name": "Deer Isle", "state": "ME", "country": "US", "coord": {"lon": -68.677528, "lat": 44.223969}}, {"id": 4962442, "name": "Denmark", "state": "ME", "country": "US", "coord": {"lon": -70.803398, "lat": 43.970348}}, {"id": 4962502, "name": "Dexter", "state": "ME", "country": "US", "coord": {"lon": -69.289772, "lat": 45.023949}}, {"id": 4962589, "name": "Dixfield", "state": "ME", "country": "US", "coord": {"lon": -70.455902, "lat": 44.533951}}, {"id": 4962596, "name": "Dixmont", "state": "ME", "country": "US", "coord": {"lon": -69.162819, "lat": 44.680351}}, {"id": 4962775, "name": "Dover-Foxcroft", "state": "ME", "country": "US", "coord": {"lon": -69.22699, "lat": 45.183392}}, {"id": 4963306, "name": "East Machias", "state": "ME", "country": "US", "coord": {"lon": -67.389992, "lat": 44.739239}}, {"id": 4963318, "name": "East Millinocket", "state": "ME", "country": "US", "coord": {"lon": -68.574478, "lat": 45.627548}}, {"id": 4963346, "name": "East Peru", "state": "ME", "country": "US", "coord": {"lon": -70.378952, "lat": 44.4884}}, {"id": 4963478, "name": "Easton", "state": "ME", "country": "US", "coord": {"lon": -67.90947, "lat": 46.641151}}, {"id": 4963486, "name": "Eastport", "state": "ME", "country": "US", "coord": {"lon": -66.989983, "lat": 44.906189}}, {"id": 4963547, "name": "Eddington", "state": "ME", "country": "US", "coord": {"lon": -68.693367, "lat": 44.82618}}, {"id": 4963559, "name": "Edgecomb", "state": "ME", "country": "US", "coord": {"lon": -69.6306, "lat": 43.958408}}, {"id": 4963642, "name": "Eliot", "state": "ME", "country": "US", "coord": {"lon": -70.800056, "lat": 43.153141}}, {"id": 4963692, "name": "Ellsworth", "state": "ME", "country": "US", "coord": {"lon": -68.419456, "lat": 44.543411}}, {"id": 4963801, "name": "Enfield", "state": "ME", "country": "US", "coord": {"lon": -68.568359, "lat": 45.24894}}, {"id": 4963848, "name": "Etna", "state": "ME", "country": "US", "coord": {"lon": -69.11116, "lat": 44.8209}}, {"id": 4963932, "name": "Fairfield", "state": "ME", "country": "US", "coord": {"lon": -69.598663, "lat": 44.588402}}, {"id": 4963985, "name": "Falmouth", "state": "ME", "country": "US", "coord": {"lon": -70.241989, "lat": 43.729519}}, {"id": 4963987, "name": "Falmouth Foreside", "state": "ME", "country": "US", "coord": {"lon": -70.207832, "lat": 43.734798}}, {"id": 4964021, "name": "Farmingdale", "state": "ME", "country": "US", "coord": {"lon": -69.771431, "lat": 44.244511}}, {"id": 4964024, "name": "Farmington", "state": "ME", "country": "US", "coord": {"lon": -70.151169, "lat": 44.67062}}, {"id": 4964068, "name": "Fayette", "state": "ME", "country": "US", "coord": {"lon": -70.033669, "lat": 44.408958}}, {"id": 4964605, "name": "Fort Fairfield", "state": "ME", "country": "US", "coord": {"lon": -67.833908, "lat": 46.77227}}, {"id": 4964616, "name": "Fort George", "state": "ME", "country": "US", "coord": {"lon": -68.805313, "lat": 44.390911}}, {"id": 4964627, "name": "Fort Kent", "state": "ME", "country": "US", "coord": {"lon": -68.589493, "lat": 47.258652}}, {"id": 4964813, "name": "Frankfort", "state": "ME", "country": "US", "coord": {"lon": -68.876701, "lat": 44.609798}}, {"id": 4964817, "name": "Franklin", "state": "ME", "country": "US", "coord": {"lon": -68.232239, "lat": 44.587021}}, {"id": 4964821, "name": "Franklin County", "state": "ME", "country": "US", "coord": {"lon": -70.449509, "lat": 44.900059}}, {"id": 4964867, "name": "Freeport", "state": "ME", "country": "US", "coord": {"lon": -70.103111, "lat": 43.857021}}, {"id": 4964943, "name": "Friendship", "state": "ME", "country": "US", "coord": {"lon": -69.333939, "lat": 43.983688}}, {"id": 4964996, "name": "Fryeburg", "state": "ME", "country": "US", "coord": {"lon": -70.980621, "lat": 44.01646}}, {"id": 4965079, "name": "Gardiner", "state": "ME", "country": "US", "coord": {"lon": -69.775322, "lat": 44.230068}}, {"id": 4965101, "name": "Garland", "state": "ME", "country": "US", "coord": {"lon": -69.160316, "lat": 45.038399}}, {"id": 4965481, "name": "Gorham", "state": "ME", "country": "US", "coord": {"lon": -70.444221, "lat": 43.67952}}, {"id": 4965529, "name": "Gouldsboro", "state": "ME", "country": "US", "coord": {"lon": -68.038338, "lat": 44.478409}}, {"id": 4965923, "name": "Greenbush", "state": "ME", "country": "US", "coord": {"lon": -68.650864, "lat": 45.080341}}, {"id": 4965929, "name": "Greene", "state": "ME", "country": "US", "coord": {"lon": -70.140327, "lat": 44.189789}}, {"id": 4965978, "name": "Greenville", "state": "ME", "country": "US", "coord": {"lon": -69.590607, "lat": 45.459492}}, {"id": 4966320, "name": "Hallowell", "state": "ME", "country": "US", "coord": {"lon": -69.790878, "lat": 44.2859}}, {"id": 4966371, "name": "Hampden", "state": "ME", "country": "US", "coord": {"lon": -68.836983, "lat": 44.744518}}, {"id": 4966383, "name": "Hancock", "state": "ME", "country": "US", "coord": {"lon": -68.253632, "lat": 44.52924}}, {"id": 4966407, "name": "Hancock County", "state": "ME", "country": "US", "coord": {"lon": -68.39946, "lat": 44.533409}}, {"id": 4966554, "name": "Harpswell Center", "state": "ME", "country": "US", "coord": {"lon": -69.984207, "lat": 43.80175}}, {"id": 4966598, "name": "Harrison", "state": "ME", "country": "US", "coord": {"lon": -70.67923, "lat": 44.110352}}, {"id": 4966616, "name": "Hartford", "state": "ME", "country": "US", "coord": {"lon": -70.346733, "lat": 44.372841}}, {"id": 4966883, "name": "Hebron", "state": "ME", "country": "US", "coord": {"lon": -70.406448, "lat": 44.198132}}, {"id": 4966992, "name": "Hermon", "state": "ME", "country": "US", "coord": {"lon": -68.913368, "lat": 44.81007}}, {"id": 4967237, "name": "Hiram", "state": "ME", "country": "US", "coord": {"lon": -70.803398, "lat": 43.878681}}, {"id": 4967277, "name": "Hodgdon", "state": "ME", "country": "US", "coord": {"lon": -67.866676, "lat": 46.05394}}, {"id": 4967344, "name": "Holden", "state": "ME", "country": "US", "coord": {"lon": -68.678917, "lat": 44.75285}}, {"id": 4967361, "name": "Hollis Center", "state": "ME", "country": "US", "coord": {"lon": -70.593109, "lat": 43.60508}}, {"id": 4967563, "name": "Houlton", "state": "ME", "country": "US", "coord": {"lon": -67.840302, "lat": 46.12616}}, {"id": 4967652, "name": "Howland", "state": "ME", "country": "US", "coord": {"lon": -68.663643, "lat": 45.23867}}, {"id": 4967690, "name": "Hudson", "state": "ME", "country": "US", "coord": {"lon": -68.880592, "lat": 45.001179}}, {"id": 4968234, "name": "Jay", "state": "ME", "country": "US", "coord": {"lon": -70.216171, "lat": 44.503948}}, {"id": 4968246, "name": "Jefferson", "state": "ME", "country": "US", "coord": {"lon": -69.452538, "lat": 44.206741}}, {"id": 4968499, "name": "Jonesport", "state": "ME", "country": "US", "coord": {"lon": -67.598328, "lat": 44.53286}}, {"id": 4968688, "name": "Kenduskeag", "state": "ME", "country": "US", "coord": {"lon": -68.931702, "lat": 44.91951}}, {"id": 4968714, "name": "Kennebec County", "state": "ME", "country": "US", "coord": {"lon": -69.766159, "lat": 44.466728}}, {"id": 4968729, "name": "Kennebunk", "state": "ME", "country": "US", "coord": {"lon": -70.544777, "lat": 43.383968}}, {"id": 4968747, "name": "Kennebunkport", "state": "ME", "country": "US", "coord": {"lon": -70.476723, "lat": 43.361752}}, {"id": 4968894, "name": "Kingfield", "state": "ME", "country": "US", "coord": {"lon": -70.153954, "lat": 44.959221}}, {"id": 4968933, "name": "Kittery Point", "state": "ME", "country": "US", "coord": {"lon": -70.707832, "lat": 43.08342}}, {"id": 4968937, "name": "Kittery", "state": "ME", "country": "US", "coord": {"lon": -70.73616, "lat": 43.088139}}, {"id": 4968996, "name": "Knox County", "state": "ME", "country": "US", "coord": {"lon": -69.332817, "lat": 43.850079}}, {"id": 4969033, "name": "La Croix Depot", "state": "ME", "country": "US", "coord": {"lon": -70.267303, "lat": 46.084202}}, {"id": 4969045, "name": "Lac Frontiere", "state": "ME", "country": "US", "coord": {"lon": -69.993408, "lat": 46.695309}}, {"id": 4969066, "name": "Lake Arrowhead", "state": "ME", "country": "US", "coord": {"lon": -70.734779, "lat": 43.663689}}, {"id": 4969280, "name": "Lebanon", "state": "ME", "country": "US", "coord": {"lon": -70.850891, "lat": 43.394531}}, {"id": 4969332, "name": "Leeds", "state": "ME", "country": "US", "coord": {"lon": -70.119499, "lat": 44.303398}}, {"id": 4969375, "name": "Levant", "state": "ME", "country": "US", "coord": {"lon": -68.934761, "lat": 44.86924}}, {"id": 4969398, "name": "Lewiston", "state": "ME", "country": "US", "coord": {"lon": -70.214783, "lat": 44.100349}}, {"id": 4969529, "name": "Limerick", "state": "ME", "country": "US", "coord": {"lon": -70.793671, "lat": 43.688412}}, {"id": 4969532, "name": "Limestone", "state": "ME", "country": "US", "coord": {"lon": -67.825851, "lat": 46.908661}}, {"id": 4969542, "name": "Limington", "state": "ME", "country": "US", "coord": {"lon": -70.710892, "lat": 43.731739}}, {"id": 4969547, "name": "Lincoln", "state": "ME", "country": "US", "coord": {"lon": -68.50502, "lat": 45.362282}}, {"id": 4969555, "name": "Lincoln County", "state": "ME", "country": "US", "coord": {"lon": -69.75782, "lat": 44.133411}}, {"id": 4969592, "name": "Lincolnville", "state": "ME", "country": "US", "coord": {"lon": -69.008652, "lat": 44.281189}}, {"id": 4969622, "name": "Lisbon", "state": "ME", "country": "US", "coord": {"lon": -70.1045, "lat": 44.03146}}, {"id": 4969627, "name": "Lisbon Falls", "state": "ME", "country": "US", "coord": {"lon": -70.060608, "lat": 43.996189}}, {"id": 4969889, "name": "Little Italy", "state": "ME", "country": "US", "coord": {"lon": -68.698921, "lat": 45.650879}}, {"id": 4970206, "name": "Littleton", "state": "ME", "country": "US", "coord": {"lon": -67.841133, "lat": 46.230881}}, {"id": 4970214, "name": "Livermore", "state": "ME", "country": "US", "coord": {"lon": -70.249222, "lat": 44.383961}}, {"id": 4970215, "name": "Livermore Falls", "state": "ME", "country": "US", "coord": {"lon": -70.18811, "lat": 44.475342}}, {"id": 4970644, "name": "Lovell", "state": "ME", "country": "US", "coord": {"lon": -70.891731, "lat": 44.12674}}, {"id": 4970888, "name": "Machias", "state": "ME", "country": "US", "coord": {"lon": -67.46138, "lat": 44.71508}}, {"id": 4970903, "name": "Machiasport", "state": "ME", "country": "US", "coord": {"lon": -67.394707, "lat": 44.698689}}, {"id": 4970938, "name": "Madawaska", "state": "ME", "country": "US", "coord": {"lon": -68.328819, "lat": 47.356121}}, {"id": 4970940, "name": "Madawaska", "state": "ME", "country": "US", "coord": {"lon": -67.94725, "lat": 46.884209}}, {"id": 4970954, "name": "Madison", "state": "ME", "country": "US", "coord": {"lon": -69.879784, "lat": 44.797562}}, {"id": 4971068, "name": "Maine", "state": "ME", "country": "US", "coord": {"lon": -69.249771, "lat": 45.50032}}, {"id": 4971094, "name": "Manchester", "state": "ME", "country": "US", "coord": {"lon": -69.860329, "lat": 44.324509}}, {"id": 4971321, "name": "Martells Mobile Home Court", "state": "ME", "country": "US", "coord": {"lon": -68.828651, "lat": 44.79702}}, {"id": 4971699, "name": "Mechanic Falls", "state": "ME", "country": "US", "coord": {"lon": -70.391724, "lat": 44.11174}}, {"id": 4971734, "name": "Medway", "state": "ME", "country": "US", "coord": {"lon": -68.530861, "lat": 45.60894}}, {"id": 4971871, "name": "Mexico", "state": "ME", "country": "US", "coord": {"lon": -70.545341, "lat": 44.560902}}, {"id": 4972002, "name": "Milbridge", "state": "ME", "country": "US", "coord": {"lon": -67.880829, "lat": 44.535358}}, {"id": 4972028, "name": "Milford", "state": "ME", "country": "US", "coord": {"lon": -68.643921, "lat": 44.946178}}, {"id": 4972220, "name": "Millinocket", "state": "ME", "country": "US", "coord": {"lon": -68.709763, "lat": 45.657269}}, {"id": 4972235, "name": "Milo", "state": "ME", "country": "US", "coord": {"lon": -68.98587, "lat": 45.253658}}, {"id": 4972286, "name": "Minot", "state": "ME", "country": "US", "coord": {"lon": -70.320061, "lat": 44.085629}}, {"id": 4972368, "name": "Monmouth", "state": "ME", "country": "US", "coord": {"lon": -70.035606, "lat": 44.238682}}, {"id": 4972619, "name": "Morrison Corner", "state": "ME", "country": "US", "coord": {"lon": -69.577271, "lat": 44.663399}}, {"id": 4972784, "name": "Mount Vernon", "state": "ME", "country": "US", "coord": {"lon": -69.987556, "lat": 44.501179}}, {"id": 4973259, "name": "New Gloucester", "state": "ME", "country": "US", "coord": {"lon": -70.282547, "lat": 43.962849}}, {"id": 4973288, "name": "New Sharon", "state": "ME", "country": "US", "coord": {"lon": -70.01561, "lat": 44.63895}}, {"id": 4973333, "name": "Newport", "state": "ME", "country": "US", "coord": {"lon": -69.273941, "lat": 44.835339}}, {"id": 4973346, "name": "Newfield", "state": "ME", "country": "US", "coord": {"lon": -70.847008, "lat": 43.648129}}, {"id": 4973402, "name": "Nobleboro", "state": "ME", "country": "US", "coord": {"lon": -69.485046, "lat": 44.079521}}, {"id": 4973430, "name": "Norridgewock", "state": "ME", "country": "US", "coord": {"lon": -69.790611, "lat": 44.71312}}, {"id": 4973457, "name": "North Bath", "state": "ME", "country": "US", "coord": {"lon": -69.81588, "lat": 43.934799}}, {"id": 4973463, "name": "North Berwick", "state": "ME", "country": "US", "coord": {"lon": -70.733391, "lat": 43.303699}}, {"id": 4973717, "name": "North Windham", "state": "ME", "country": "US", "coord": {"lon": -70.438393, "lat": 43.83424}}, {"id": 4973781, "name": "Northport", "state": "ME", "country": "US", "coord": {"lon": -68.961418, "lat": 44.33786}}, {"id": 4973840, "name": "Norway", "state": "ME", "country": "US", "coord": {"lon": -70.544777, "lat": 44.213959}}, {"id": 4974071, "name": "Oakland", "state": "ME", "country": "US", "coord": {"lon": -69.721992, "lat": 44.54034}}, {"id": 4974107, "name": "Ogren", "state": "ME", "country": "US", "coord": {"lon": -68.055862, "lat": 46.910881}}, {"id": 4974108, "name": "Ogunquit", "state": "ME", "country": "US", "coord": {"lon": -70.59922, "lat": 43.248981}}, {"id": 4974194, "name": "Old Orchard Beach", "state": "ME", "country": "US", "coord": {"lon": -70.377548, "lat": 43.517311}}, {"id": 4974231, "name": "Old Town", "state": "ME", "country": "US", "coord": {"lon": -68.645309, "lat": 44.934231}}, {"id": 4974306, "name": "Orland", "state": "ME", "country": "US", "coord": {"lon": -68.735863, "lat": 44.570351}}, {"id": 4974313, "name": "Orono", "state": "ME", "country": "US", "coord": {"lon": -68.671982, "lat": 44.883121}}, {"id": 4974328, "name": "Orrington", "state": "ME", "country": "US", "coord": {"lon": -68.826431, "lat": 44.731178}}, {"id": 4974489, "name": "Owls Head", "state": "ME", "country": "US", "coord": {"lon": -69.057259, "lat": 44.082298}}, {"id": 4974522, "name": "Oxford County", "state": "ME", "country": "US", "coord": {"lon": -70.699509, "lat": 44.516731}}, {"id": 4974537, "name": "Oxford", "state": "ME", "country": "US", "coord": {"lon": -70.493111, "lat": 44.131741}}, {"id": 4974546, "name": "Packard Landing", "state": "ME", "country": "US", "coord": {"lon": -69.333656, "lat": 45.296719}}, {"id": 4974578, "name": "Palermo", "state": "ME", "country": "US", "coord": {"lon": -69.47393, "lat": 44.407848}}, {"id": 4974597, "name": "Palmyra", "state": "ME", "country": "US", "coord": {"lon": -69.358658, "lat": 44.846451}}, {"id": 4974617, "name": "Paris", "state": "ME", "country": "US", "coord": {"lon": -70.500618, "lat": 44.259789}}, {"id": 4974703, "name": "Parsonsfield", "state": "ME", "country": "US", "coord": {"lon": -70.92868, "lat": 43.72702}}, {"id": 4974775, "name": "Patten", "state": "ME", "country": "US", "coord": {"lon": -68.446136, "lat": 45.996441}}, {"id": 4974967, "name": "Penobscot", "state": "ME", "country": "US", "coord": {"lon": -68.711143, "lat": 44.46452}}, {"id": 4974977, "name": "Penobscot County", "state": "ME", "country": "US", "coord": {"lon": -68.666138, "lat": 45.25061}}, {"id": 4975080, "name": "Peru", "state": "ME", "country": "US", "coord": {"lon": -70.405342, "lat": 44.506729}}, {"id": 4975157, "name": "Phippsburg", "state": "ME", "country": "US", "coord": {"lon": -69.814774, "lat": 43.820641}}, {"id": 4975418, "name": "Piscataquis County", "state": "ME", "country": "US", "coord": {"lon": -69.2995, "lat": 45.800041}}, {"id": 4975446, "name": "Pittsfield", "state": "ME", "country": "US", "coord": {"lon": -69.383377, "lat": 44.782558}}, {"id": 4975451, "name": "Pittston", "state": "ME", "country": "US", "coord": {"lon": -69.7556, "lat": 44.221741}}, {"id": 4975573, "name": "Plymouth", "state": "ME", "country": "US", "coord": {"lon": -69.210327, "lat": 44.767288}}, {"id": 4975603, "name": "Poland", "state": "ME", "country": "US", "coord": {"lon": -70.393669, "lat": 44.060631}}, {"id": 4975783, "name": "Porter", "state": "ME", "country": "US", "coord": {"lon": -70.932564, "lat": 43.79591}}, {"id": 4975802, "name": "Portland", "state": "ME", "country": "US", "coord": {"lon": -70.255333, "lat": 43.661469}}, {"id": 4975966, "name": "Presque Isle", "state": "ME", "country": "US", "coord": {"lon": -68.015862, "lat": 46.681149}}, {"id": 4976012, "name": "Prides Corner", "state": "ME", "country": "US", "coord": {"lon": -70.333656, "lat": 43.713692}}, {"id": 4976052, "name": "Prospect", "state": "ME", "country": "US", "coord": {"lon": -68.864761, "lat": 44.553131}}, {"id": 4976315, "name": "Randolph", "state": "ME", "country": "US", "coord": {"lon": -69.766708, "lat": 44.23035}}, {"id": 4976361, "name": "Raymond", "state": "ME", "country": "US", "coord": {"lon": -70.470329, "lat": 43.901459}}, {"id": 4976383, "name": "Readfield", "state": "ME", "country": "US", "coord": {"lon": -69.966721, "lat": 44.387852}}, {"id": 4976528, "name": "Richmond", "state": "ME", "country": "US", "coord": {"lon": -69.798927, "lat": 44.087299}}, {"id": 4976817, "name": "Rockport", "state": "ME", "country": "US", "coord": {"lon": -69.076149, "lat": 44.184521}}, {"id": 4976934, "name": "Rome", "state": "ME", "country": "US", "coord": {"lon": -69.869217, "lat": 44.58506}}, {"id": 4977125, "name": "Rumford", "state": "ME", "country": "US", "coord": {"lon": -70.550903, "lat": 44.553669}}, {"id": 4977194, "name": "Sabattus", "state": "ME", "country": "US", "coord": {"lon": -70.107552, "lat": 44.119801}}, {"id": 4977222, "name": "Saco", "state": "ME", "country": "US", "coord": {"lon": -70.442833, "lat": 43.500919}}, {"id": 4977288, "name": "Saint Albans", "state": "ME", "country": "US", "coord": {"lon": -69.410049, "lat": 44.910061}}, {"id": 4977372, "name": "Saint George", "state": "ME", "country": "US", "coord": {"lon": -69.198929, "lat": 44.016472}}, {"id": 4977565, "name": "Salmon Falls", "state": "ME", "country": "US", "coord": {"lon": -70.553673, "lat": 43.596191}}, {"id": 4977762, "name": "Sanford", "state": "ME", "country": "US", "coord": {"lon": -70.774223, "lat": 43.439251}}, {"id": 4977779, "name": "Sangerville", "state": "ME", "country": "US", "coord": {"lon": -69.356438, "lat": 45.16478}}, {"id": 4977882, "name": "Scarborough", "state": "ME", "country": "US", "coord": {"lon": -70.321716, "lat": 43.57814}}, {"id": 4978095, "name": "Searsmont", "state": "ME", "country": "US", "coord": {"lon": -69.195038, "lat": 44.36174}}, {"id": 4978242, "name": "Sedgwick", "state": "ME", "country": "US", "coord": {"lon": -68.616142, "lat": 44.303692}}, {"id": 4978367, "name": "Shapleigh", "state": "ME", "country": "US", "coord": {"lon": -70.848122, "lat": 43.540642}}, {"id": 4978496, "name": "Shermans Corner", "state": "ME", "country": "US", "coord": {"lon": -69.006416, "lat": 44.45813}}, {"id": 4978585, "name": "Sidney", "state": "ME", "country": "US", "coord": {"lon": -69.728928, "lat": 44.41312}}, {"id": 4978701, "name": "Skowhegan", "state": "ME", "country": "US", "coord": {"lon": -69.719223, "lat": 44.76506}}, {"id": 4978972, "name": "Somerset County", "state": "ME", "country": "US", "coord": {"lon": -69.916168, "lat": 45.25061}}, {"id": 4979050, "name": "South Berwick", "state": "ME", "country": "US", "coord": {"lon": -70.809502, "lat": 43.234531}}, {"id": 4979158, "name": "South Eliot", "state": "ME", "country": "US", "coord": {"lon": -70.77755, "lat": 43.108139}}, {"id": 4979200, "name": "South Lewiston", "state": "ME", "country": "US", "coord": {"lon": -70.142548, "lat": 44.065632}}, {"id": 4979220, "name": "South Paris", "state": "ME", "country": "US", "coord": {"lon": -70.51339, "lat": 44.223679}}, {"id": 4979244, "name": "South Portland", "state": "ME", "country": "US", "coord": {"lon": -70.240883, "lat": 43.641472}}, {"id": 4979245, "name": "South Portland Gardens", "state": "ME", "country": "US", "coord": {"lon": -70.315331, "lat": 43.638969}}, {"id": 4979261, "name": "South Sanford", "state": "ME", "country": "US", "coord": {"lon": -70.742561, "lat": 43.41119}}, {"id": 4979277, "name": "South Thomaston", "state": "ME", "country": "US", "coord": {"lon": -69.127823, "lat": 44.051472}}, {"id": 4979291, "name": "South Warren", "state": "ME", "country": "US", "coord": {"lon": -69.222816, "lat": 44.075642}}, {"id": 4979295, "name": "South Windham", "state": "ME", "country": "US", "coord": {"lon": -70.42366, "lat": 43.736191}}, {"id": 4979406, "name": "Spears Corner", "state": "ME", "country": "US", "coord": {"lon": -69.883377, "lat": 44.204521}}, {"id": 4979580, "name": "Springvale", "state": "ME", "country": "US", "coord": {"lon": -70.793671, "lat": 43.466751}}, {"id": 4979819, "name": "Steep Falls", "state": "ME", "country": "US", "coord": {"lon": -70.652557, "lat": 43.793968}}, {"id": 4979840, "name": "Stetson", "state": "ME", "country": "US", "coord": {"lon": -69.142822, "lat": 44.891731}}, {"id": 4979854, "name": "Steuben", "state": "ME", "country": "US", "coord": {"lon": -67.965279, "lat": 44.510632}}, {"id": 4979945, "name": "Stockton Springs", "state": "ME", "country": "US", "coord": {"lon": -68.856979, "lat": 44.489521}}, {"id": 4979975, "name": "Stonington", "state": "ME", "country": "US", "coord": {"lon": -68.666687, "lat": 44.156189}}, {"id": 4980051, "name": "Strong", "state": "ME", "country": "US", "coord": {"lon": -70.220901, "lat": 44.80756}}, {"id": 4980131, "name": "Sugar Hill", "state": "ME", "country": "US", "coord": {"lon": -67.802238, "lat": 46.435879}}, {"id": 4980155, "name": "Sullivan", "state": "ME", "country": "US", "coord": {"lon": -68.196678, "lat": 44.520359}}, {"id": 4980248, "name": "Surry", "state": "ME", "country": "US", "coord": {"lon": -68.501694, "lat": 44.495911}}, {"id": 4980287, "name": "Swanville", "state": "ME", "country": "US", "coord": {"lon": -68.99781, "lat": 44.521191}}, {"id": 4980356, "name": "Tainter Corner", "state": "ME", "country": "US", "coord": {"lon": -70.365341, "lat": 44.587559}}, {"id": 4980629, "name": "Thomaston", "state": "ME", "country": "US", "coord": {"lon": -69.181709, "lat": 44.078972}}, {"id": 4980927, "name": "Topsham", "state": "ME", "country": "US", "coord": {"lon": -69.975883, "lat": 43.927582}}, {"id": 4981071, "name": "Tremont", "state": "ME", "country": "US", "coord": {"lon": -68.35141, "lat": 44.253689}}, {"id": 4981078, "name": "Trenton", "state": "ME", "country": "US", "coord": {"lon": -68.370018, "lat": 44.438969}}, {"id": 4981180, "name": "Troy", "state": "ME", "country": "US", "coord": {"lon": -69.240883, "lat": 44.664791}}, {"id": 4981250, "name": "Turner", "state": "ME", "country": "US", "coord": {"lon": -70.256172, "lat": 44.256458}}, {"id": 4981710, "name": "Van Buren", "state": "ME", "country": "US", "coord": {"lon": -67.935303, "lat": 47.157269}}, {"id": 4981745, "name": "Vassalboro", "state": "ME", "country": "US", "coord": {"lon": -69.677551, "lat": 44.459229}}, {"id": 4981750, "name": "Veazie", "state": "ME", "country": "US", "coord": {"lon": -68.705307, "lat": 44.83868}}, {"id": 4981804, "name": "Vinalhaven", "state": "ME", "country": "US", "coord": {"lon": -68.831703, "lat": 44.048141}}, {"id": 4982040, "name": "Waldo County", "state": "ME", "country": "US", "coord": {"lon": -69.09948, "lat": 44.46674}}, {"id": 4982044, "name": "Waldoboro", "state": "ME", "country": "US", "coord": {"lon": -69.375603, "lat": 44.09536}}, {"id": 4982137, "name": "Warren", "state": "ME", "country": "US", "coord": {"lon": -69.240051, "lat": 44.120361}}, {"id": 4982172, "name": "Washington", "state": "ME", "country": "US", "coord": {"lon": -69.367271, "lat": 44.273689}}, {"id": 4982182, "name": "Washington County", "state": "ME", "country": "US", "coord": {"lon": -67.499992, "lat": 45.000629}}, {"id": 4982218, "name": "Waterboro", "state": "ME", "country": "US", "coord": {"lon": -70.715057, "lat": 43.535641}}, {"id": 4982236, "name": "Waterville", "state": "ME", "country": "US", "coord": {"lon": -69.631706, "lat": 44.55201}}, {"id": 4982265, "name": "Wayne", "state": "ME", "country": "US", "coord": {"lon": -70.066162, "lat": 44.348679}}, {"id": 4982394, "name": "Wells Beach Station", "state": "ME", "country": "US", "coord": {"lon": -70.591438, "lat": 43.323971}}, {"id": 4982593, "name": "West Falmouth (historical)", "state": "ME", "country": "US", "coord": {"lon": -70.295052, "lat": 43.740082}}, {"id": 4982646, "name": "West Leeds", "state": "ME", "country": "US", "coord": {"lon": -70.168388, "lat": 44.29285}}, {"id": 4982671, "name": "West Paris", "state": "ME", "country": "US", "coord": {"lon": -70.573952, "lat": 44.32423}}, {"id": 4982720, "name": "West Scarborough", "state": "ME", "country": "US", "coord": {"lon": -70.387833, "lat": 43.570358}}, {"id": 4982753, "name": "Westbrook", "state": "ME", "country": "US", "coord": {"lon": -70.371162, "lat": 43.677029}}, {"id": 4982975, "name": "Whitefield", "state": "ME", "country": "US", "coord": {"lon": -69.62532, "lat": 44.170071}}, {"id": 4983022, "name": "Whitlocks Mill", "state": "ME", "country": "US", "coord": {"lon": -67.226936, "lat": 45.160912}}, {"id": 4983257, "name": "Wilton", "state": "ME", "country": "US", "coord": {"lon": -70.228119, "lat": 44.592838}}, {"id": 4983283, "name": "Windsor", "state": "ME", "country": "US", "coord": {"lon": -69.580597, "lat": 44.310631}}, {"id": 4983322, "name": "Winslow", "state": "ME", "country": "US", "coord": {"lon": -69.621162, "lat": 44.547009}}, {"id": 4983325, "name": "Winslow Hill", "state": "ME", "country": "US", "coord": {"lon": -69.46032, "lat": 44.095081}}, {"id": 4983348, "name": "Winterport", "state": "ME", "country": "US", "coord": {"lon": -68.845039, "lat": 44.637852}}, {"id": 4983355, "name": "Winthrop", "state": "ME", "country": "US", "coord": {"lon": -69.976997, "lat": 44.305069}}, {"id": 4983359, "name": "Wiscasset", "state": "ME", "country": "US", "coord": {"lon": -69.665604, "lat": 44.002861}}, {"id": 4983504, "name": "Woolwich", "state": "ME", "country": "US", "coord": {"lon": -69.801163, "lat": 43.91869}}, {"id": 4983572, "name": "Yarmouth", "state": "ME", "country": "US", "coord": {"lon": -70.186722, "lat": 43.80064}}, {"id": 4983578, "name": "Yarmouth Junction", "state": "ME", "country": "US", "coord": {"lon": -70.193657, "lat": 43.81369}}, {"id": 4983621, "name": "York County", "state": "ME", "country": "US", "coord": {"lon": -70.682831, "lat": 43.466751}}, {"id": 4983625, "name": "York Harbor", "state": "ME", "country": "US", "coord": {"lon": -70.645607, "lat": 43.136761}}, {"id": 4983811, "name": "Adrian", "state": "MI", "country": "US", "coord": {"lon": -84.03717, "lat": 41.897549}}, {"id": 4983905, "name": "Albion", "state": "MI", "country": "US", "coord": {"lon": -84.753029, "lat": 42.243099}}, {"id": 4983956, "name": "Alger County", "state": "MI", "country": "US", "coord": {"lon": -86.700157, "lat": 46.333279}}, {"id": 4983970, "name": "Algonac", "state": "MI", "country": "US", "coord": {"lon": -82.531021, "lat": 42.61837}}, {"id": 4983989, "name": "Allegan", "state": "MI", "country": "US", "coord": {"lon": -85.855301, "lat": 42.529202}}, {"id": 4983990, "name": "Allegan County", "state": "MI", "country": "US", "coord": {"lon": -85.866692, "lat": 42.600029}}, {"id": 4984016, "name": "Allen Park", "state": "MI", "country": "US", "coord": {"lon": -83.211037, "lat": 42.257542}}, {"id": 4984029, "name": "Allendale", "state": "MI", "country": "US", "coord": {"lon": -85.953651, "lat": 42.972252}}, {"id": 4984049, "name": "Alma", "state": "MI", "country": "US", "coord": {"lon": -84.659729, "lat": 43.378922}}, {"id": 4984067, "name": "Almont", "state": "MI", "country": "US", "coord": {"lon": -83.04493, "lat": 42.920582}}, {"id": 4984075, "name": "Alpena", "state": "MI", "country": "US", "coord": {"lon": -83.432747, "lat": 45.06168}}, {"id": 4984106, "name": "Alverno", "state": "MI", "country": "US", "coord": {"lon": -84.391701, "lat": 45.55862}}, {"id": 4984247, "name": "Ann Arbor", "state": "MI", "country": "US", "coord": {"lon": -83.740883, "lat": 42.277561}}, {"id": 4984284, "name": "Antrim County", "state": "MI", "country": "US", "coord": {"lon": -85.133392, "lat": 45.050011}}, {"id": 4984361, "name": "Argentine", "state": "MI", "country": "US", "coord": {"lon": -83.846336, "lat": 42.79142}}, {"id": 4984379, "name": "Armada", "state": "MI", "country": "US", "coord": {"lon": -82.884369, "lat": 42.8442}}, {"id": 4984489, "name": "Athens", "state": "MI", "country": "US", "coord": {"lon": -85.234711, "lat": 42.088661}}, {"id": 4984500, "name": "Atlanta", "state": "MI", "country": "US", "coord": {"lon": -84.14389, "lat": 45.00473}}, {"id": 4984533, "name": "Au Sable", "state": "MI", "country": "US", "coord": {"lon": -83.332191, "lat": 44.410851}}, {"id": 4984562, "name": "Auburn", "state": "MI", "country": "US", "coord": {"lon": -84.069702, "lat": 43.603359}}, {"id": 4984565, "name": "Auburn Hills", "state": "MI", "country": "US", "coord": {"lon": -83.2341, "lat": 42.687531}}, {"id": 4984644, "name": "Avondale", "state": "MI", "country": "US", "coord": {"lon": -85.226707, "lat": 44.01585}}, {"id": 4984692, "name": "Bad Axe", "state": "MI", "country": "US", "coord": {"lon": -83.000778, "lat": 43.80196}}, {"id": 4984802, "name": "Baldwin", "state": "MI", "country": "US", "coord": {"lon": -85.85173, "lat": 43.901119}}, {"id": 4984863, "name": "Bangor", "state": "MI", "country": "US", "coord": {"lon": -86.113083, "lat": 42.312538}}, {"id": 4984902, "name": "Baraga", "state": "MI", "country": "US", "coord": {"lon": -88.489021, "lat": 46.778542}}, {"id": 4985016, "name": "Barry County", "state": "MI", "country": "US", "coord": {"lon": -85.316673, "lat": 42.60004}}, {"id": 4985139, "name": "Bath", "state": "MI", "country": "US", "coord": {"lon": -84.448593, "lat": 42.818642}}, {"id": 4985153, "name": "Battle Creek", "state": "MI", "country": "US", "coord": {"lon": -85.17971, "lat": 42.321152}}, {"id": 4985180, "name": "Bay City", "state": "MI", "country": "US", "coord": {"lon": -83.888863, "lat": 43.594471}}, {"id": 4985190, "name": "Bay County", "state": "MI", "country": "US", "coord": {"lon": -84.016647, "lat": 43.73336}}, {"id": 4985465, "name": "Beaverton", "state": "MI", "country": "US", "coord": {"lon": -84.484734, "lat": 43.882252}}, {"id": 4985521, "name": "Beecher", "state": "MI", "country": "US", "coord": {"lon": -83.694397, "lat": 43.090031}}, {"id": 4985530, "name": "Beechwood", "state": "MI", "country": "US", "coord": {"lon": -86.125877, "lat": 42.79697}}, {"id": 4985552, "name": "Belding", "state": "MI", "country": "US", "coord": {"lon": -85.228912, "lat": 43.097809}}, {"id": 4985583, "name": "Bellaire", "state": "MI", "country": "US", "coord": {"lon": -85.211166, "lat": 44.980282}}, {"id": 4985601, "name": "Belleville", "state": "MI", "country": "US", "coord": {"lon": -83.485207, "lat": 42.204762}}, {"id": 4985607, "name": "Bellevue", "state": "MI", "country": "US", "coord": {"lon": -85.018051, "lat": 42.443371}}, {"id": 4985711, "name": "Benton Harbor", "state": "MI", "country": "US", "coord": {"lon": -86.454193, "lat": 42.116711}}, {"id": 4985713, "name": "Benton Heights", "state": "MI", "country": "US", "coord": {"lon": -86.407242, "lat": 42.131149}}, {"id": 4985744, "name": "Berkley", "state": "MI", "country": "US", "coord": {"lon": -83.18354, "lat": 42.50309}}, {"id": 4985760, "name": "Berrien County", "state": "MI", "country": "US", "coord": {"lon": -86.416679, "lat": 41.950039}}, {"id": 4985761, "name": "Berrien Springs", "state": "MI", "country": "US", "coord": {"lon": -86.338898, "lat": 41.94643}}, {"id": 4985785, "name": "Bessemer", "state": "MI", "country": "US", "coord": {"lon": -90.052948, "lat": 46.481339}}, {"id": 4985887, "name": "Beulah", "state": "MI", "country": "US", "coord": {"lon": -86.090919, "lat": 44.631939}}, {"id": 4985891, "name": "Beverly Hills", "state": "MI", "country": "US", "coord": {"lon": -83.223259, "lat": 42.523918}}, {"id": 4986020, "name": "Big Rapids", "state": "MI", "country": "US", "coord": {"lon": -85.483658, "lat": 43.698078}}, {"id": 4986099, "name": "Bingham Farms", "state": "MI", "country": "US", "coord": {"lon": -83.273262, "lat": 42.515869}}, {"id": 4986141, "name": "Birch Run", "state": "MI", "country": "US", "coord": {"lon": -83.794128, "lat": 43.250858}}, {"id": 4986172, "name": "Birmingham", "state": "MI", "country": "US", "coord": {"lon": -83.211319, "lat": 42.5467}}, {"id": 4986398, "name": "Blissfield", "state": "MI", "country": "US", "coord": {"lon": -83.862442, "lat": 41.83255}}, {"id": 4986429, "name": "Bloomfield Hills", "state": "MI", "country": "US", "coord": {"lon": -83.245491, "lat": 42.583641}}, {"id": 4986628, "name": "Bonner Landing", "state": "MI", "country": "US", "coord": {"lon": -85.579529, "lat": 45.70417}}, {"id": 4986691, "name": "Boulder Park", "state": "MI", "country": "US", "coord": {"lon": -85.279243, "lat": 45.3139}}, {"id": 4986759, "name": "Boyne City", "state": "MI", "country": "US", "coord": {"lon": -85.013939, "lat": 45.216679}}, {"id": 4986828, "name": "Branch County", "state": "MI", "country": "US", "coord": {"lon": -85.066643, "lat": 41.916721}}, {"id": 4986888, "name": "Breckenridge", "state": "MI", "country": "US", "coord": {"lon": -84.474998, "lat": 43.408081}}, {"id": 4986963, "name": "Bridgeport", "state": "MI", "country": "US", "coord": {"lon": -83.881638, "lat": 43.35947}}, {"id": 4986977, "name": "Bridgman", "state": "MI", "country": "US", "coord": {"lon": -86.556969, "lat": 41.9431}}, {"id": 4986994, "name": "Brighton", "state": "MI", "country": "US", "coord": {"lon": -83.78022, "lat": 42.52948}}, {"id": 4987027, "name": "British Landing", "state": "MI", "country": "US", "coord": {"lon": -84.64505, "lat": 45.87751}}, {"id": 4987045, "name": "Bronson", "state": "MI", "country": "US", "coord": {"lon": -85.194702, "lat": 41.872269}}, {"id": 4987064, "name": "Brooklyn", "state": "MI", "country": "US", "coord": {"lon": -84.248283, "lat": 42.105869}}, {"id": 4987112, "name": "Brown City", "state": "MI", "country": "US", "coord": {"lon": -82.989662, "lat": 43.21225}}, {"id": 4987154, "name": "Brownlee Park", "state": "MI", "country": "US", "coord": {"lon": -85.142487, "lat": 42.318932}}, {"id": 4987238, "name": "Buchanan", "state": "MI", "country": "US", "coord": {"lon": -86.361122, "lat": 41.827271}}, {"id": 4987304, "name": "Buena Vista", "state": "MI", "country": "US", "coord": {"lon": -83.898582, "lat": 43.4203}}, {"id": 4987467, "name": "Burt", "state": "MI", "country": "US", "coord": {"lon": -83.906357, "lat": 43.236691}}, {"id": 4987482, "name": "Burton", "state": "MI", "country": "US", "coord": {"lon": -83.616341, "lat": 42.99947}}, {"id": 4987587, "name": "Byron Center", "state": "MI", "country": "US", "coord": {"lon": -85.722809, "lat": 42.812248}}, {"id": 4987617, "name": "Cadillac", "state": "MI", "country": "US", "coord": {"lon": -85.401161, "lat": 44.251949}}, {"id": 4987661, "name": "Caledonia", "state": "MI", "country": "US", "coord": {"lon": -85.516693, "lat": 42.7892}}, {"id": 4987673, "name": "Calhoun County", "state": "MI", "country": "US", "coord": {"lon": -85.000542, "lat": 42.250599}}, {"id": 4987963, "name": "Canadian Lakes", "state": "MI", "country": "US", "coord": {"lon": -85.301697, "lat": 43.579189}}, {"id": 4987969, "name": "Canby Corners", "state": "MI", "country": "US", "coord": {"lon": -84.915329, "lat": 45.63612}}, {"id": 4987990, "name": "Canton", "state": "MI", "country": "US", "coord": {"lon": -83.482162, "lat": 42.308651}}, {"id": 4987996, "name": "Capac", "state": "MI", "country": "US", "coord": {"lon": -82.927994, "lat": 43.012531}}, {"id": 4988024, "name": "Carleton", "state": "MI", "country": "US", "coord": {"lon": -83.39077, "lat": 42.059212}}, {"id": 4988059, "name": "Caro", "state": "MI", "country": "US", "coord": {"lon": -83.396896, "lat": 43.491131}}, {"id": 4988132, "name": "Carrollton", "state": "MI", "country": "US", "coord": {"lon": -83.930252, "lat": 43.458641}}, {"id": 4988138, "name": "Carson City", "state": "MI", "country": "US", "coord": {"lon": -84.84639, "lat": 43.176979}}, {"id": 4988175, "name": "Cascade", "state": "MI", "country": "US", "coord": {"lon": -85.498077, "lat": 42.912251}}, {"id": 4988215, "name": "Cass City", "state": "MI", "country": "US", "coord": {"lon": -83.174667, "lat": 43.600849}}, {"id": 4988232, "name": "Cassopolis", "state": "MI", "country": "US", "coord": {"lon": -86.01001, "lat": 41.911709}}, {"id": 4988362, "name": "Cedar Springs", "state": "MI", "country": "US", "coord": {"lon": -85.551422, "lat": 43.223358}}, {"id": 4988400, "name": "Center Line", "state": "MI", "country": "US", "coord": {"lon": -83.027702, "lat": 42.485039}}, {"id": 4988455, "name": "Centreville", "state": "MI", "country": "US", "coord": {"lon": -85.52832, "lat": 41.923382}}, {"id": 4988575, "name": "Charlevoix", "state": "MI", "country": "US", "coord": {"lon": -85.2584, "lat": 45.318062}}, {"id": 4988577, "name": "Charlevoix County", "state": "MI", "country": "US", "coord": {"lon": -85.00061, "lat": 45.216679}}, {"id": 4988584, "name": "Charlotte", "state": "MI", "country": "US", "coord": {"lon": -84.835823, "lat": 42.563648}}, {"id": 4988617, "name": "Cheboygan", "state": "MI", "country": "US", "coord": {"lon": -84.47448, "lat": 45.646961}}, {"id": 4988619, "name": "Cheboygan County", "state": "MI", "country": "US", "coord": {"lon": -84.500587, "lat": 45.450008}}, {"id": 4988628, "name": "Chelsea", "state": "MI", "country": "US", "coord": {"lon": -84.0205, "lat": 42.318089}}, {"id": 4988671, "name": "Chesaning", "state": "MI", "country": "US", "coord": {"lon": -84.114967, "lat": 43.18475}}, {"id": 4988755, "name": "Chippewa County", "state": "MI", "country": "US", "coord": {"lon": -84.483383, "lat": 46.300018}}, {"id": 4988833, "name": "Christmas", "state": "MI", "country": "US", "coord": {"lon": -86.701553, "lat": 46.43689}}, {"id": 4988933, "name": "Clare", "state": "MI", "country": "US", "coord": {"lon": -84.768631, "lat": 43.819469}}, {"id": 4988934, "name": "Clare County", "state": "MI", "country": "US", "coord": {"lon": -84.850021, "lat": 43.983349}}, {"id": 4988997, "name": "Clarkston", "state": "MI", "country": "US", "coord": {"lon": -83.418831, "lat": 42.735859}}, {"id": 4989005, "name": "Clawson", "state": "MI", "country": "US", "coord": {"lon": -83.146317, "lat": 42.533371}}, {"id": 4989132, "name": "Clinton", "state": "MI", "country": "US", "coord": {"lon": -83.971611, "lat": 42.071991}}, {"id": 4989133, "name": "Clinton Township", "state": "MI", "country": "US", "coord": {"lon": -82.919922, "lat": 42.586979}}, {"id": 4989135, "name": "Clinton County", "state": "MI", "country": "US", "coord": {"lon": -84.599991, "lat": 42.950031}}, {"id": 4989153, "name": "Clio", "state": "MI", "country": "US", "coord": {"lon": -83.734131, "lat": 43.177528}}, {"id": 4989266, "name": "Coldwater", "state": "MI", "country": "US", "coord": {"lon": -85.000519, "lat": 41.940331}}, {"id": 4989304, "name": "Coleman", "state": "MI", "country": "US", "coord": {"lon": -84.585838, "lat": 43.756691}}, {"id": 4989343, "name": "Coloma", "state": "MI", "country": "US", "coord": {"lon": -86.308357, "lat": 42.18615}}, {"id": 4989347, "name": "Colon", "state": "MI", "country": "US", "coord": {"lon": -85.324982, "lat": 41.958382}}, {"id": 4989353, "name": "Colonville", "state": "MI", "country": "US", "coord": {"lon": -84.705849, "lat": 43.844189}}, {"id": 4989376, "name": "Columbiaville", "state": "MI", "country": "US", "coord": {"lon": -83.410507, "lat": 43.156689}}, {"id": 4989432, "name": "Comstock Park", "state": "MI", "country": "US", "coord": {"lon": -85.670029, "lat": 43.038639}}, {"id": 4989442, "name": "Concord", "state": "MI", "country": "US", "coord": {"lon": -84.643021, "lat": 42.177818}}, {"id": 4989486, "name": "Constantine", "state": "MI", "country": "US", "coord": {"lon": -85.668602, "lat": 41.84116}}, {"id": 4989596, "name": "Coopersville", "state": "MI", "country": "US", "coord": {"lon": -85.934769, "lat": 43.063911}}, {"id": 4989617, "name": "Copper Harbor", "state": "MI", "country": "US", "coord": {"lon": -87.888443, "lat": 47.468788}}, {"id": 4989686, "name": "Corunna", "state": "MI", "country": "US", "coord": {"lon": -84.117752, "lat": 42.981972}}, {"id": 4989771, "name": "Covert", "state": "MI", "country": "US", "coord": {"lon": -86.262253, "lat": 42.293652}}, {"id": 4990039, "name": "Croswell", "state": "MI", "country": "US", "coord": {"lon": -82.62104, "lat": 43.275581}}, {"id": 4990085, "name": "Crystal", "state": "MI", "country": "US", "coord": {"lon": -84.914726, "lat": 43.263088}}, {"id": 4990121, "name": "Crystal Falls", "state": "MI", "country": "US", "coord": {"lon": -88.334023, "lat": 46.098011}}, {"id": 4990242, "name": "Cutlerville", "state": "MI", "country": "US", "coord": {"lon": -85.663643, "lat": 42.840858}}, {"id": 4990400, "name": "Davison", "state": "MI", "country": "US", "coord": {"lon": -83.518013, "lat": 43.034752}}, {"id": 4990469, "name": "DeWitt", "state": "MI", "country": "US", "coord": {"lon": -84.569153, "lat": 42.842258}}, {"id": 4990510, "name": "Dearborn", "state": "MI", "country": "US", "coord": {"lon": -83.176308, "lat": 42.322262}}, {"id": 4990512, "name": "Dearborn Heights", "state": "MI", "country": "US", "coord": {"lon": -83.273262, "lat": 42.336979}}, {"id": 4990524, "name": "Decatur", "state": "MI", "country": "US", "coord": {"lon": -85.974457, "lat": 42.108101}}, {"id": 4990694, "name": "Denton", "state": "MI", "country": "US", "coord": {"lon": -83.524101, "lat": 42.25782}}, {"id": 4990729, "name": "Detroit", "state": "MI", "country": "US", "coord": {"lon": -83.045753, "lat": 42.331429}}, {"id": 4990730, "name": "Detroit Beach", "state": "MI", "country": "US", "coord": {"lon": -83.326881, "lat": 41.93116}}, {"id": 4990797, "name": "Dexter", "state": "MI", "country": "US", "coord": {"lon": -83.888557, "lat": 42.338371}}, {"id": 4990845, "name": "Dickinson County", "state": "MI", "country": "US", "coord": {"lon": -87.866798, "lat": 46.000511}}, {"id": 4990875, "name": "Dimondale", "state": "MI", "country": "US", "coord": {"lon": -84.648872, "lat": 42.645592}}, {"id": 4990964, "name": "Dollar Bay", "state": "MI", "country": "US", "coord": {"lon": -88.511513, "lat": 47.119652}}, {"id": 4991076, "name": "Douglas", "state": "MI", "country": "US", "coord": {"lon": -86.200592, "lat": 42.64336}}, {"id": 4991111, "name": "Dowagiac", "state": "MI", "country": "US", "coord": {"lon": -86.10862, "lat": 41.984211}}, {"id": 4991330, "name": "Dundee", "state": "MI", "country": "US", "coord": {"lon": -83.65966, "lat": 41.957272}}, {"id": 4991364, "name": "Durand", "state": "MI", "country": "US", "coord": {"lon": -83.98468, "lat": 42.91198}}, {"id": 4991470, "name": "Eagle River", "state": "MI", "country": "US", "coord": {"lon": -88.295662, "lat": 47.413811}}, {"id": 4991572, "name": "East Cooper", "state": "MI", "country": "US", "coord": {"lon": -85.551666, "lat": 42.34948}}, {"id": 4991600, "name": "East Grand Rapids", "state": "MI", "country": "US", "coord": {"lon": -85.610031, "lat": 42.941139}}, {"id": 4991613, "name": "East Jordan", "state": "MI", "country": "US", "coord": {"lon": -85.124229, "lat": 45.158058}}, {"id": 4991640, "name": "East Lansing", "state": "MI", "country": "US", "coord": {"lon": -84.483871, "lat": 42.73698}}, {"id": 4991692, "name": "East Tawas", "state": "MI", "country": "US", "coord": {"lon": -83.49025, "lat": 44.279461}}, {"id": 4991735, "name": "Eastpointe", "state": "MI", "country": "US", "coord": {"lon": -82.955467, "lat": 42.468369}}, {"id": 4991740, "name": "Eastwood", "state": "MI", "country": "US", "coord": {"lon": -85.550278, "lat": 42.303101}}, {"id": 4991746, "name": "Eaton County", "state": "MI", "country": "US", "coord": {"lon": -84.849991, "lat": 42.60004}}, {"id": 4991753, "name": "Eaton Rapids", "state": "MI", "country": "US", "coord": {"lon": -84.655807, "lat": 42.509201}}, {"id": 4991791, "name": "Ecorse", "state": "MI", "country": "US", "coord": {"lon": -83.14576, "lat": 42.24448}}, {"id": 4991823, "name": "Edgemont Park", "state": "MI", "country": "US", "coord": {"lon": -84.59359, "lat": 42.7467}}, {"id": 4991857, "name": "Edmore", "state": "MI", "country": "US", "coord": {"lon": -85.038628, "lat": 43.408089}}, {"id": 4991879, "name": "Edwardsburg", "state": "MI", "country": "US", "coord": {"lon": -86.080841, "lat": 41.795601}}, {"id": 4991969, "name": "Elk Rapids", "state": "MI", "country": "US", "coord": {"lon": -85.416458, "lat": 44.895561}}, {"id": 4992137, "name": "Emmet County", "state": "MI", "country": "US", "coord": {"lon": -84.916718, "lat": 45.53334}}, {"id": 4992232, "name": "Escanaba", "state": "MI", "country": "US", "coord": {"lon": -87.064583, "lat": 45.745251}}, {"id": 4992251, "name": "Essexville", "state": "MI", "country": "US", "coord": {"lon": -83.841919, "lat": 43.615299}}, {"id": 4992263, "name": "Eugene", "state": "MI", "country": "US", "coord": {"lon": -84.706947, "lat": 43.292252}}, {"id": 4992304, "name": "Evart", "state": "MI", "country": "US", "coord": {"lon": -85.258102, "lat": 43.900581}}, {"id": 4992394, "name": "Fair Plain", "state": "MI", "country": "US", "coord": {"lon": -86.455856, "lat": 42.08699}}, {"id": 4992519, "name": "Farmington", "state": "MI", "country": "US", "coord": {"lon": -83.37632, "lat": 42.464481}}, {"id": 4992523, "name": "Farmington Hills", "state": "MI", "country": "US", "coord": {"lon": -83.377159, "lat": 42.48531}}, {"id": 4992609, "name": "Fennville", "state": "MI", "country": "US", "coord": {"lon": -86.1017, "lat": 42.593922}}, {"id": 4992612, "name": "Fenton", "state": "MI", "country": "US", "coord": {"lon": -83.704948, "lat": 42.79781}}, {"id": 4992635, "name": "Ferndale", "state": "MI", "country": "US", "coord": {"lon": -83.134651, "lat": 42.46059}}, {"id": 4992659, "name": "Ferrysburg", "state": "MI", "country": "US", "coord": {"lon": -86.220329, "lat": 43.084461}}, {"id": 4992940, "name": "Flat Rock", "state": "MI", "country": "US", "coord": {"lon": -83.29187, "lat": 42.096432}}, {"id": 4992982, "name": "Flint", "state": "MI", "country": "US", "coord": {"lon": -83.687462, "lat": 43.012531}}, {"id": 4993022, "name": "Flushing", "state": "MI", "country": "US", "coord": {"lon": -83.851067, "lat": 43.06308}}, {"id": 4993125, "name": "Forest Hills", "state": "MI", "country": "US", "coord": {"lon": -85.489754, "lat": 42.959469}}, {"id": 4993267, "name": "Fowler", "state": "MI", "country": "US", "coord": {"lon": -84.739723, "lat": 43.001701}}, {"id": 4993272, "name": "Fowlerville", "state": "MI", "country": "US", "coord": {"lon": -84.073013, "lat": 42.660591}}, {"id": 4993321, "name": "Frankenmuth", "state": "MI", "country": "US", "coord": {"lon": -83.738022, "lat": 43.331692}}, {"id": 4993326, "name": "Frankfort", "state": "MI", "country": "US", "coord": {"lon": -86.234543, "lat": 44.63361}}, {"id": 4993335, "name": "Franklin", "state": "MI", "country": "US", "coord": {"lon": -83.306038, "lat": 42.522259}}, {"id": 4993369, "name": "Fraser", "state": "MI", "country": "US", "coord": {"lon": -82.949371, "lat": 42.5392}}, {"id": 4993402, "name": "Freeland", "state": "MI", "country": "US", "coord": {"lon": -84.122757, "lat": 43.525028}}, {"id": 4993412, "name": "Freeman Landing", "state": "MI", "country": "US", "coord": {"lon": -87.466248, "lat": 46.61882}}, {"id": 4993417, "name": "Fremont", "state": "MI", "country": "US", "coord": {"lon": -85.942001, "lat": 43.467522}}, {"id": 4993519, "name": "Fruitport", "state": "MI", "country": "US", "coord": {"lon": -86.154778, "lat": 43.131962}}, {"id": 4993609, "name": "Galesburg", "state": "MI", "country": "US", "coord": {"lon": -85.41806, "lat": 42.288651}}, {"id": 4993659, "name": "Garden City", "state": "MI", "country": "US", "coord": {"lon": -83.331039, "lat": 42.325588}}, {"id": 4993756, "name": "Gaylord", "state": "MI", "country": "US", "coord": {"lon": -84.674751, "lat": 45.027512}}, {"id": 4993785, "name": "Genesee County", "state": "MI", "country": "US", "coord": {"lon": -83.683289, "lat": 43.03336}}, {"id": 4993873, "name": "Gibraltar", "state": "MI", "country": "US", "coord": {"lon": -83.189651, "lat": 42.095039}}, {"id": 4993981, "name": "Gladstone", "state": "MI", "country": "US", "coord": {"lon": -87.021797, "lat": 45.852741}}, {"id": 4993985, "name": "Gladwin", "state": "MI", "country": "US", "coord": {"lon": -84.486397, "lat": 43.98085}}, {"id": 4994008, "name": "Glen Arbor", "state": "MI", "country": "US", "coord": {"lon": -85.985367, "lat": 44.897499}}, {"id": 4994090, "name": "Gogebic County", "state": "MI", "country": "US", "coord": {"lon": -89.700157, "lat": 46.383282}}, {"id": 4994154, "name": "Goodrich", "state": "MI", "country": "US", "coord": {"lon": -83.50634, "lat": 42.916969}}, {"id": 4994320, "name": "Grand Blanc", "state": "MI", "country": "US", "coord": {"lon": -83.629951, "lat": 42.927528}}, {"id": 4994325, "name": "Grand Haven", "state": "MI", "country": "US", "coord": {"lon": -86.228394, "lat": 43.063068}}, {"id": 4994344, "name": "Grand Ledge", "state": "MI", "country": "US", "coord": {"lon": -84.746384, "lat": 42.753368}}, {"id": 4994347, "name": "Grand Marais", "state": "MI", "country": "US", "coord": {"lon": -85.985168, "lat": 46.670811}}, {"id": 4994358, "name": "Grand Rapids", "state": "MI", "country": "US", "coord": {"lon": -85.668091, "lat": 42.96336}}, {"id": 4994374, "name": "Grand Traverse County", "state": "MI", "country": "US", "coord": {"lon": -85.466728, "lat": 44.683338}}, {"id": 4994391, "name": "Grandville", "state": "MI", "country": "US", "coord": {"lon": -85.763092, "lat": 42.909752}}, {"id": 4994408, "name": "Granite Bluff", "state": "MI", "country": "US", "coord": {"lon": -88.053741, "lat": 45.9394}}, {"id": 4994483, "name": "Grass Lake", "state": "MI", "country": "US", "coord": {"lon": -84.213013, "lat": 42.25087}}, {"id": 4994537, "name": "Gratiot County", "state": "MI", "country": "US", "coord": {"lon": -84.599998, "lat": 43.28336}}, {"id": 4994578, "name": "Grayling", "state": "MI", "country": "US", "coord": {"lon": -84.714752, "lat": 44.6614}}, {"id": 4994763, "name": "Greenville", "state": "MI", "country": "US", "coord": {"lon": -85.2528, "lat": 43.177528}}, {"id": 4994793, "name": "Greilickville", "state": "MI", "country": "US", "coord": {"lon": -85.638687, "lat": 44.783058}}, {"id": 4994851, "name": "Grosse Ile", "state": "MI", "country": "US", "coord": {"lon": -83.144371, "lat": 42.129211}}, {"id": 4994862, "name": "Grosse Pointe", "state": "MI", "country": "US", "coord": {"lon": -82.911858, "lat": 42.38615}}, {"id": 4994864, "name": "Grosse Pointe Farms", "state": "MI", "country": "US", "coord": {"lon": -82.891861, "lat": 42.409199}}, {"id": 4994868, "name": "Grosse Pointe Park", "state": "MI", "country": "US", "coord": {"lon": -82.937424, "lat": 42.37587}}, {"id": 4994870, "name": "Grosse Pointe Shores", "state": "MI", "country": "US", "coord": {"lon": -82.876862, "lat": 42.436699}}, {"id": 4994871, "name": "Grosse Pointe Woods", "state": "MI", "country": "US", "coord": {"lon": -82.90686, "lat": 42.443649}}, {"id": 4994999, "name": "Gwinn", "state": "MI", "country": "US", "coord": {"lon": -87.440971, "lat": 46.281059}}, {"id": 4995197, "name": "Hamtramck", "state": "MI", "country": "US", "coord": {"lon": -83.049637, "lat": 42.392818}}, {"id": 4995201, "name": "Hancock", "state": "MI", "country": "US", "coord": {"lon": -88.580963, "lat": 47.126869}}, {"id": 4995269, "name": "Harbor Beach", "state": "MI", "country": "US", "coord": {"lon": -82.651321, "lat": 43.844742}}, {"id": 4995285, "name": "Harbor Springs", "state": "MI", "country": "US", "coord": {"lon": -84.991997, "lat": 45.431679}}, {"id": 4995368, "name": "Harper Woods", "state": "MI", "country": "US", "coord": {"lon": -82.92408, "lat": 42.43309}}, {"id": 4995403, "name": "Harrison", "state": "MI", "country": "US", "coord": {"lon": -84.799469, "lat": 44.019192}}, {"id": 4995424, "name": "Harrisville", "state": "MI", "country": "US", "coord": {"lon": -83.294693, "lat": 44.656399}}, {"id": 4995436, "name": "Hart", "state": "MI", "country": "US", "coord": {"lon": -86.363968, "lat": 43.698341}}, {"id": 4995468, "name": "Hartford", "state": "MI", "country": "US", "coord": {"lon": -86.166687, "lat": 42.206711}}, {"id": 4995489, "name": "Harvey", "state": "MI", "country": "US", "coord": {"lon": -87.354309, "lat": 46.494659}}, {"id": 4995514, "name": "Haslett", "state": "MI", "country": "US", "coord": {"lon": -84.401077, "lat": 42.746979}}, {"id": 4995520, "name": "Hastings", "state": "MI", "country": "US", "coord": {"lon": -85.29084, "lat": 42.64587}}, {"id": 4995553, "name": "Hautala Corner", "state": "MI", "country": "US", "coord": {"lon": -90.155731, "lat": 46.520779}}, {"id": 4995664, "name": "Hazel Park", "state": "MI", "country": "US", "coord": {"lon": -83.104088, "lat": 42.46254}}, {"id": 4995760, "name": "Hemlock", "state": "MI", "country": "US", "coord": {"lon": -84.230537, "lat": 43.414749}}, {"id": 4996017, "name": "Highland Park", "state": "MI", "country": "US", "coord": {"lon": -83.09687, "lat": 42.40559}}, {"id": 4996107, "name": "Hillsdale", "state": "MI", "country": "US", "coord": {"lon": -84.630508, "lat": 41.920052}}, {"id": 4996110, "name": "Hillsdale County", "state": "MI", "country": "US", "coord": {"lon": -84.599953, "lat": 41.900051}}, {"id": 4996248, "name": "Holland", "state": "MI", "country": "US", "coord": {"lon": -86.108932, "lat": 42.787521}}, {"id": 4996274, "name": "Holly", "state": "MI", "country": "US", "coord": {"lon": -83.627731, "lat": 42.791969}}, {"id": 4996306, "name": "Holt", "state": "MI", "country": "US", "coord": {"lon": -84.515251, "lat": 42.640591}}, {"id": 4996369, "name": "Homer", "state": "MI", "country": "US", "coord": {"lon": -84.808861, "lat": 42.145882}}, {"id": 4996543, "name": "Horton", "state": "MI", "country": "US", "coord": {"lon": -84.517181, "lat": 42.150318}}, {"id": 4996572, "name": "Houghton", "state": "MI", "country": "US", "coord": {"lon": -88.569008, "lat": 47.121868}}, {"id": 4996580, "name": "Houghton Lake", "state": "MI", "country": "US", "coord": {"lon": -84.764748, "lat": 44.314739}}, {"id": 4996618, "name": "Howard City", "state": "MI", "country": "US", "coord": {"lon": -85.467819, "lat": 43.39558}}, {"id": 4996655, "name": "Howell", "state": "MI", "country": "US", "coord": {"lon": -83.929398, "lat": 42.607262}}, {"id": 4996690, "name": "Hubbard Lake", "state": "MI", "country": "US", "coord": {"lon": -83.544418, "lat": 44.759731}}, {"id": 4996718, "name": "Hudson", "state": "MI", "country": "US", "coord": {"lon": -84.353844, "lat": 41.855049}}, {"id": 4996736, "name": "Hudsonville", "state": "MI", "country": "US", "coord": {"lon": -85.865044, "lat": 42.870861}}, {"id": 4996832, "name": "Huntington Woods", "state": "MI", "country": "US", "coord": {"lon": -83.16687, "lat": 42.480591}}, {"id": 4996859, "name": "Huron County", "state": "MI", "country": "US", "coord": {"lon": -83.033279, "lat": 43.86668}}, {"id": 4996956, "name": "Imlay City", "state": "MI", "country": "US", "coord": {"lon": -83.077721, "lat": 43.02475}}, {"id": 4997086, "name": "Indian River", "state": "MI", "country": "US", "coord": {"lon": -84.612541, "lat": 45.41251}}, {"id": 4997130, "name": "Ingham County", "state": "MI", "country": "US", "coord": {"lon": -84.383301, "lat": 42.60004}}, {"id": 4997191, "name": "Ionia", "state": "MI", "country": "US", "coord": {"lon": -85.071121, "lat": 42.987251}}, {"id": 4997193, "name": "Ionia County", "state": "MI", "country": "US", "coord": {"lon": -85.066673, "lat": 42.950031}}, {"id": 4997201, "name": "Iosco County", "state": "MI", "country": "US", "coord": {"lon": -83.633308, "lat": 44.333351}}, {"id": 4997232, "name": "Iron Mountain", "state": "MI", "country": "US", "coord": {"lon": -88.065964, "lat": 45.820229}}, {"id": 4997238, "name": "Iron River", "state": "MI", "country": "US", "coord": {"lon": -88.642349, "lat": 46.092731}}, {"id": 4997249, "name": "Ironwood", "state": "MI", "country": "US", "coord": {"lon": -90.171013, "lat": 46.45467}}, {"id": 4997272, "name": "Isabella County", "state": "MI", "country": "US", "coord": {"lon": -84.850021, "lat": 43.650028}}, {"id": 4997281, "name": "Ishpeming", "state": "MI", "country": "US", "coord": {"lon": -87.667641, "lat": 46.488548}}, {"id": 4997346, "name": "Ithaca", "state": "MI", "country": "US", "coord": {"lon": -84.607498, "lat": 43.291698}}, {"id": 4997384, "name": "Jackson", "state": "MI", "country": "US", "coord": {"lon": -84.401352, "lat": 42.245869}}, {"id": 4997389, "name": "Jackson County", "state": "MI", "country": "US", "coord": {"lon": -84.416618, "lat": 42.250591}}, {"id": 4997500, "name": "Jenison", "state": "MI", "country": "US", "coord": {"lon": -85.791977, "lat": 42.907249}}, {"id": 4997698, "name": "Jonesville", "state": "MI", "country": "US", "coord": {"lon": -84.661903, "lat": 41.984211}}, {"id": 4997787, "name": "Kalamazoo", "state": "MI", "country": "US", "coord": {"lon": -85.587227, "lat": 42.29171}}, {"id": 4997791, "name": "Kalamazoo County", "state": "MI", "country": "US", "coord": {"lon": -85.550003, "lat": 42.250599}}, {"id": 4997805, "name": "Kalkaska", "state": "MI", "country": "US", "coord": {"lon": -85.175888, "lat": 44.734169}}, {"id": 4997811, "name": "Kalamo", "state": "MI", "country": "US", "coord": {"lon": -85.012772, "lat": 42.542809}}, {"id": 4997868, "name": "Keego Harbor", "state": "MI", "country": "US", "coord": {"lon": -83.343819, "lat": 42.608089}}, {"id": 4998002, "name": "Kent City", "state": "MI", "country": "US", "coord": {"lon": -85.751152, "lat": 43.22002}}, {"id": 4998005, "name": "Kent County", "state": "MI", "country": "US", "coord": {"lon": -85.550034, "lat": 43.03336}}, {"id": 4998018, "name": "Kentwood", "state": "MI", "country": "US", "coord": {"lon": -85.644753, "lat": 42.869469}}, {"id": 4998067, "name": "Keweenaw County", "state": "MI", "country": "US", "coord": {"lon": -88.200111, "lat": 47.366581}}, {"id": 4998189, "name": "Kingsford", "state": "MI", "country": "US", "coord": {"lon": -88.072067, "lat": 45.79496}}, {"id": 4998195, "name": "Kingsley", "state": "MI", "country": "US", "coord": {"lon": -85.535896, "lat": 44.584728}}, {"id": 4998431, "name": "L'Anse", "state": "MI", "country": "US", "coord": {"lon": -88.452911, "lat": 46.756599}}, {"id": 4998506, "name": "Laingsburg", "state": "MI", "country": "US", "coord": {"lon": -84.351357, "lat": 42.890308}}, {"id": 4998533, "name": "Lake City", "state": "MI", "country": "US", "coord": {"lon": -85.21505, "lat": 44.335289}}, {"id": 4998543, "name": "Lake Fenton", "state": "MI", "country": "US", "coord": {"lon": -83.707733, "lat": 42.846142}}, {"id": 4998569, "name": "Lake Linden", "state": "MI", "country": "US", "coord": {"lon": -88.407341, "lat": 47.194092}}, {"id": 4998574, "name": "Lake Michigan Beach", "state": "MI", "country": "US", "coord": {"lon": -86.369469, "lat": 42.220871}}, {"id": 4998583, "name": "Lake Odessa", "state": "MI", "country": "US", "coord": {"lon": -85.138344, "lat": 42.78476}}, {"id": 4998587, "name": "Lake Orion", "state": "MI", "country": "US", "coord": {"lon": -83.239662, "lat": 42.784481}}, {"id": 4998703, "name": "Lakeview", "state": "MI", "country": "US", "coord": {"lon": -85.211098, "lat": 42.298382}}, {"id": 4998705, "name": "Lakeview", "state": "MI", "country": "US", "coord": {"lon": -85.2742, "lat": 43.446419}}, {"id": 4998745, "name": "Lakewood Club", "state": "MI", "country": "US", "coord": {"lon": -86.260338, "lat": 43.37112}}, {"id": 4998769, "name": "Lambertville", "state": "MI", "country": "US", "coord": {"lon": -83.627991, "lat": 41.765881}}, {"id": 4998830, "name": "Lansing", "state": "MI", "country": "US", "coord": {"lon": -84.555527, "lat": 42.73254}}, {"id": 4998842, "name": "Lapeer", "state": "MI", "country": "US", "coord": {"lon": -83.318832, "lat": 43.051418}}, {"id": 4998845, "name": "Lapeer County", "state": "MI", "country": "US", "coord": {"lon": -83.233276, "lat": 43.133362}}, {"id": 4998857, "name": "Laporte", "state": "MI", "country": "US", "coord": {"lon": -84.188873, "lat": 43.496422}}, {"id": 4998900, "name": "Lathrup Village", "state": "MI", "country": "US", "coord": {"lon": -83.22271, "lat": 42.496422}}, {"id": 4998924, "name": "Laurium", "state": "MI", "country": "US", "coord": {"lon": -88.443169, "lat": 47.237431}}, {"id": 4998956, "name": "Lawton", "state": "MI", "country": "US", "coord": {"lon": -85.846947, "lat": 42.167259}}, {"id": 4999022, "name": "Leelanau County", "state": "MI", "country": "US", "coord": {"lon": -85.83342, "lat": 44.900002}}, {"id": 4999064, "name": "Leland", "state": "MI", "country": "US", "coord": {"lon": -85.759811, "lat": 45.023048}}, {"id": 4999081, "name": "Lenawee County", "state": "MI", "country": "US", "coord": {"lon": -84.083282, "lat": 41.900051}}, {"id": 4999122, "name": "Leslie", "state": "MI", "country": "US", "coord": {"lon": -84.432472, "lat": 42.451431}}, {"id": 4999167, "name": "Lewiston", "state": "MI", "country": "US", "coord": {"lon": -84.305573, "lat": 44.8839}}, {"id": 4999171, "name": "Lexington", "state": "MI", "country": "US", "coord": {"lon": -82.530762, "lat": 43.268082}}, {"id": 4999311, "name": "Lincoln Park", "state": "MI", "country": "US", "coord": {"lon": -83.178543, "lat": 42.250591}}, {"id": 4999360, "name": "Linden", "state": "MI", "country": "US", "coord": {"lon": -83.782448, "lat": 42.814468}}, {"id": 4999410, "name": "Litchfield", "state": "MI", "country": "US", "coord": {"lon": -84.757462, "lat": 42.04393}}, {"id": 4999829, "name": "Livingston County", "state": "MI", "country": "US", "coord": {"lon": -83.916618, "lat": 42.600029}}, {"id": 4999837, "name": "Livonia", "state": "MI", "country": "US", "coord": {"lon": -83.352707, "lat": 42.36837}}, {"id": 5000239, "name": "Lowell", "state": "MI", "country": "US", "coord": {"lon": -85.341957, "lat": 42.93364}}, {"id": 5000306, "name": "Ludington", "state": "MI", "country": "US", "coord": {"lon": -86.452583, "lat": 43.95528}}, {"id": 5000334, "name": "Luna Pier", "state": "MI", "country": "US", "coord": {"lon": -83.442429, "lat": 41.806992}}, {"id": 5000447, "name": "Mackinac County", "state": "MI", "country": "US", "coord": {"lon": -85.000618, "lat": 46.08334}}, {"id": 5000477, "name": "Macomb County", "state": "MI", "country": "US", "coord": {"lon": -82.949928, "lat": 42.700031}}, {"id": 5000500, "name": "Madison Heights", "state": "MI", "country": "US", "coord": {"lon": -83.105202, "lat": 42.48587}}, {"id": 5000598, "name": "Manchester", "state": "MI", "country": "US", "coord": {"lon": -84.03772, "lat": 42.150318}}, {"id": 5000611, "name": "Manistee", "state": "MI", "country": "US", "coord": {"lon": -86.324249, "lat": 44.24445}}, {"id": 5000612, "name": "Manistee County", "state": "MI", "country": "US", "coord": {"lon": -86.050079, "lat": 44.33334}}, {"id": 5000615, "name": "Mancelona", "state": "MI", "country": "US", "coord": {"lon": -85.060883, "lat": 44.902229}}, {"id": 5000625, "name": "Manistique", "state": "MI", "country": "US", "coord": {"lon": -86.246246, "lat": 45.957748}}, {"id": 5000678, "name": "Manton", "state": "MI", "country": "US", "coord": {"lon": -85.398941, "lat": 44.410839}}, {"id": 5000843, "name": "Marcellus", "state": "MI", "country": "US", "coord": {"lon": -85.815559, "lat": 42.025879}}, {"id": 5000873, "name": "Marine City", "state": "MI", "country": "US", "coord": {"lon": -82.492126, "lat": 42.719479}}, {"id": 5000938, "name": "Marlette", "state": "MI", "country": "US", "coord": {"lon": -83.080223, "lat": 43.326969}}, {"id": 5000947, "name": "Marquette", "state": "MI", "country": "US", "coord": {"lon": -87.395416, "lat": 46.543541}}, {"id": 5000950, "name": "Marquette County", "state": "MI", "country": "US", "coord": {"lon": -87.633469, "lat": 46.533272}}, {"id": 5000996, "name": "Marshall", "state": "MI", "country": "US", "coord": {"lon": -84.96331, "lat": 42.272259}}, {"id": 5001084, "name": "Marysville", "state": "MI", "country": "US", "coord": {"lon": -82.486862, "lat": 42.912529}}, {"id": 5001093, "name": "Mason", "state": "MI", "country": "US", "coord": {"lon": -84.443581, "lat": 42.579201}}, {"id": 5001159, "name": "Mattawan", "state": "MI", "country": "US", "coord": {"lon": -85.784447, "lat": 42.20948}}, {"id": 5001594, "name": "Mecosta County", "state": "MI", "country": "US", "coord": {"lon": -85.333366, "lat": 43.650028}}, {"id": 5001634, "name": "Melvindale", "state": "MI", "country": "US", "coord": {"lon": -83.175201, "lat": 42.282539}}, {"id": 5001644, "name": "Memphis", "state": "MI", "country": "US", "coord": {"lon": -82.768806, "lat": 42.89642}}, {"id": 5001669, "name": "Menominee", "state": "MI", "country": "US", "coord": {"lon": -87.614273, "lat": 45.107761}}, {"id": 5001670, "name": "Menominee County", "state": "MI", "country": "US", "coord": {"lon": -87.566788, "lat": 45.566639}}, {"id": 5001813, "name": "Michigan Center", "state": "MI", "country": "US", "coord": {"lon": -84.327179, "lat": 42.233089}}, {"id": 5001836, "name": "Michigan", "state": "MI", "country": "US", "coord": {"lon": -85.500328, "lat": 44.25029}}, {"id": 5001924, "name": "Middleville", "state": "MI", "country": "US", "coord": {"lon": -85.46196, "lat": 42.713089}}, {"id": 5001929, "name": "Midland", "state": "MI", "country": "US", "coord": {"lon": -84.247208, "lat": 43.615582}}, {"id": 5001932, "name": "Midland County", "state": "MI", "country": "US", "coord": {"lon": -84.400002, "lat": 43.650028}}, {"id": 5001962, "name": "Milan", "state": "MI", "country": "US", "coord": {"lon": -83.682442, "lat": 42.08532}}, {"id": 5001972, "name": "Milford", "state": "MI", "country": "US", "coord": {"lon": -83.599388, "lat": 42.593639}}, {"id": 5002090, "name": "Millersville", "state": "MI", "country": "US", "coord": {"lon": -85.559776, "lat": 44.276669}}, {"id": 5002100, "name": "Millington", "state": "MI", "country": "US", "coord": {"lon": -83.529678, "lat": 43.28141}}, {"id": 5002142, "name": "Minden City", "state": "MI", "country": "US", "coord": {"lon": -82.778267, "lat": 43.67141}}, {"id": 5002197, "name": "Mio", "state": "MI", "country": "US", "coord": {"lon": -84.12973, "lat": 44.652241}}, {"id": 5002344, "name": "Monroe", "state": "MI", "country": "US", "coord": {"lon": -83.397713, "lat": 41.916431}}, {"id": 5002348, "name": "Monroe County", "state": "MI", "country": "US", "coord": {"lon": -83.549942, "lat": 41.93338}}]