[{"id": 2956778, "name": "Altwarp", "state": "", "country": "DE", "coord": {"lon": 14.28333, "lat": 53.75}}, {"id": 2956780, "name": "Altwarmb\u00fcchen", "state": "", "country": "DE", "coord": {"lon": 9.86667, "lat": 52.433331}}, {"id": 2956781, "name": "Alt Wallmoden", "state": "", "country": "DE", "coord": {"lon": 10.30294, "lat": 52.019329}}, {"id": 2956787, "name": "Altusried", "state": "", "country": "DE", "coord": {"lon": 10.21667, "lat": 47.799999}}, {"id": 2956789, "name": "Alt Tucheband", "state": "", "country": "DE", "coord": {"lon": 14.51225, "lat": 52.537319}}, {"id": 2956798, "name": "Altthymen", "state": "", "country": "DE", "coord": {"lon": 13.16274, "lat": 53.239738}}, {"id": 2956801, "name": "Alt Tellin", "state": "", "country": "DE", "coord": {"lon": 13.25, "lat": 53.849998}}, {"id": 2956808, "name": "Alt S\u00fchrkow", "state": "", "country": "DE", "coord": {"lon": 12.65, "lat": 53.799999}}, {"id": 2956809, "name": "Altstrimmig", "state": "", "country": "DE", "coord": {"lon": 7.3, "lat": 50.099998}}, {"id": 2956810, "name": "Altstockach", "state": "", "country": "DE", "coord": {"lon": 12.00153, "lat": 48.150002}}, {"id": 2956814, "name": "Altstetten", "state": "", "country": "DE", "coord": {"lon": 11.28333, "lat": 48.299999}}, {"id": 2956824, "name": "Altst\u00e4dten", "state": "", "country": "DE", "coord": {"lon": 10.28333, "lat": 47.48333}}, {"id": 2956829, "name": "Hamburg-Altstadt", "state": "", "country": "DE", "coord": {"lon": 10, "lat": 53.549999}}, {"id": 2956837, "name": "Altstadt", "state": "", "country": "DE", "coord": {"lon": 7.81667, "lat": 50.666672}}, {"id": 2956847, "name": "Altshausen", "state": "", "country": "DE", "coord": {"lon": 9.53333, "lat": 47.933331}}, {"id": 2956853, "name": "Alt Schwerin", "state": "", "country": "DE", "coord": {"lon": 12.3464, "lat": 53.51255}}, {"id": 2956870, "name": "Altscheuern", "state": "", "country": "DE", "coord": {"lon": 6.3, "lat": 50.01667}}, {"id": 2956874, "name": "Altscheidenbach", "state": "", "country": "DE", "coord": {"lon": 14.43333, "lat": 51.066669}}, {"id": 2956875, "name": "Altscheid", "state": "", "country": "DE", "coord": {"lon": 6.4, "lat": 50.01667}}, {"id": 2956877, "name": "Alt Schadow", "state": "", "country": "DE", "coord": {"lon": 13.95, "lat": 52.133331}}, {"id": 2956883, "name": "Alt Ruppin", "state": "", "country": "DE", "coord": {"lon": 12.848, "lat": 52.94833}}, {"id": 2956891, "name": "Altrip", "state": "", "country": "DE", "coord": {"lon": 8.49472, "lat": 49.435558}}, {"id": 2956893, "name": "Altrich", "state": "", "country": "DE", "coord": {"lon": 6.91667, "lat": 49.950001}}, {"id": 2956912, "name": "Alt Rehse", "state": "", "country": "DE", "coord": {"lon": 13.16667, "lat": 53.5}}, {"id": 2956920, "name": "Altrandsberg", "state": "", "country": "DE", "coord": {"lon": 12.75, "lat": 49.116669}}, {"id": 2956932, "name": "Alt Plestlin", "state": "", "country": "DE", "coord": {"lon": 13.22556, "lat": 53.95644}}, {"id": 2956940, "name": "Alt\u00f6tting", "state": "", "country": "DE", "coord": {"lon": 12.68333, "lat": 48.23333}}, {"id": 2956951, "name": "Altom\u00fcnster", "state": "", "country": "DE", "coord": {"lon": 11.25691, "lat": 48.387669}}, {"id": 2956955, "name": "Altoberndorf", "state": "", "country": "DE", "coord": {"lon": 8.5962, "lat": 48.275211}}, {"id": 2956964, "name": "Altneudorf", "state": "", "country": "DE", "coord": {"lon": 8.80306, "lat": 49.466942}}, {"id": 2956965, "name": "Alt Negentin", "state": "", "country": "DE", "coord": {"lon": 13.33929, "lat": 53.998989}}, {"id": 2956973, "name": "Alt M\u00fchlendorf", "state": "", "country": "DE", "coord": {"lon": 9.86667, "lat": 54.216671}}, {"id": 2956982, "name": "Altmorschen", "state": "", "country": "DE", "coord": {"lon": 9.61667, "lat": 51.066669}}, {"id": 2956985, "name": "Alt M\u00f6lln", "state": "", "country": "DE", "coord": {"lon": 10.65, "lat": 53.616669}}, {"id": 2956987, "name": "Altmittweida", "state": "", "country": "DE", "coord": {"lon": 12.95, "lat": 50.966671}}, {"id": 2956988, "name": "Alt Meteln", "state": "", "country": "DE", "coord": {"lon": 11.35, "lat": 53.75}}, {"id": 2956990, "name": "Altmersleben", "state": "", "country": "DE", "coord": {"lon": 11.43333, "lat": 52.683331}}, {"id": 2956993, "name": "Alt Mengede", "state": "", "country": "DE", "coord": {"lon": 7.4, "lat": 51.566669}}, {"id": 2957001, "name": "Altmannstein", "state": "", "country": "DE", "coord": {"lon": 11.65, "lat": 48.900002}}, {"id": 2957011, "name": "Altmannsgr\u00fcn", "state": "", "country": "DE", "coord": {"lon": 12.2, "lat": 50.433331}}, {"id": 2957012, "name": "Altmannsdorf", "state": "", "country": "DE", "coord": {"lon": 10.43333, "lat": 49.933331}}, {"id": 2957016, "name": "Alt Mahlisch", "state": "", "country": "DE", "coord": {"lon": 14.41667, "lat": 52.466671}}, {"id": 2957017, "name": "Alt Madlitz", "state": "", "country": "DE", "coord": {"lon": 14.28333, "lat": 52.383331}}, {"id": 2957021, "name": "Altlu\u00dfheim", "state": "", "country": "DE", "coord": {"lon": 8.49917, "lat": 49.30167}}, {"id": 2957024, "name": "Altluneberg", "state": "", "country": "DE", "coord": {"lon": 8.82219, "lat": 53.526642}}, {"id": 2957040, "name": "Altleiningen", "state": "", "country": "DE", "coord": {"lon": 8.07333, "lat": 49.5075}}, {"id": 2957043, "name": "Altlay", "state": "", "country": "DE", "coord": {"lon": 7.26667, "lat": 49.98333}}, {"id": 2957051, "name": "Altlandsberg", "state": "", "country": "DE", "coord": {"lon": 13.73333, "lat": 52.566669}}, {"id": 2957061, "name": "Alt Krenzlin", "state": "", "country": "DE", "coord": {"lon": 11.3, "lat": 53.316669}}, {"id": 2957066, "name": "Altk\u00f6slarn", "state": "", "country": "DE", "coord": {"lon": 11.93333, "lat": 49.816669}}, {"id": 2957073, "name": "Altkirchen", "state": "", "country": "DE", "coord": {"lon": 12.35, "lat": 50.933331}}, {"id": 2957087, "name": "Altkalen", "state": "", "country": "DE", "coord": {"lon": 12.73959, "lat": 53.89888}}, {"id": 2957092, "name": "Altje\u00dfnitz", "state": "", "country": "DE", "coord": {"lon": 12.31667, "lat": 51.700001}}, {"id": 2957095, "name": "Alt Jabel", "state": "", "country": "DE", "coord": {"lon": 11.16667, "lat": 53.25}}, {"id": 2957103, "name": "Alth\u00fcttendorf", "state": "", "country": "DE", "coord": {"lon": 13.80724, "lat": 52.962292}}, {"id": 2957108, "name": "Alth\u00fctte", "state": "", "country": "DE", "coord": {"lon": 9.56984, "lat": 48.915649}}, {"id": 2957113, "name": "Althornbach", "state": "", "country": "DE", "coord": {"lon": 7.36667, "lat": 49.200001}}, {"id": 2957123, "name": "Althof", "state": "", "country": "DE", "coord": {"lon": 11.928, "lat": 54.08799}}, {"id": 2957129, "name": "Althirschstein", "state": "", "country": "DE", "coord": {"lon": 13.39491, "lat": 51.263741}}, {"id": 2957133, "name": "Althengstett", "state": "", "country": "DE", "coord": {"lon": 8.79434, "lat": 48.723251}}, {"id": 2957134, "name": "Althen", "state": "", "country": "DE", "coord": {"lon": 12.52047, "lat": 51.340481}}, {"id": 2957145, "name": "Altheim", "state": "", "country": "DE", "coord": {"lon": 9.77041, "lat": 48.328011}}, {"id": 2957148, "name": "Altheim", "state": "", "country": "DE", "coord": {"lon": 9.44738, "lat": 48.145271}}, {"id": 2957150, "name": "Altheim", "state": "", "country": "DE", "coord": {"lon": 9.25, "lat": 47.816669}}, {"id": 2957153, "name": "Althegnenberg", "state": "", "country": "DE", "coord": {"lon": 11.06667, "lat": 48.23333}}, {"id": 2957184, "name": "Altglietzen", "state": "", "country": "DE", "coord": {"lon": 14.08962, "lat": 52.834202}}, {"id": 2957192, "name": "Altgaude", "state": "", "country": "DE", "coord": {"lon": 7.56667, "lat": 53.583328}}, {"id": 2957207, "name": "Altfraunhofen", "state": "", "country": "DE", "coord": {"lon": 12.16667, "lat": 48.450001}}, {"id": 2957208, "name": "Altfranken", "state": "", "country": "DE", "coord": {"lon": 13.65, "lat": 51.033329}}, {"id": 2957211, "name": "Altferchau", "state": "", "country": "DE", "coord": {"lon": 11.02736, "lat": 52.602421}}, {"id": 2957212, "name": "Altfeld", "state": "", "country": "DE", "coord": {"lon": 9.56194, "lat": 49.827782}}, {"id": 2957217, "name": "Altfalterloh", "state": "", "country": "DE", "coord": {"lon": 12.51667, "lat": 48.76667}}, {"id": 2957270, "name": "Altes Lager", "state": "", "country": "DE", "coord": {"lon": 13, "lat": 52.01667}}, {"id": 2957309, "name": "Alterstedt", "state": "", "country": "DE", "coord": {"lon": 10.55, "lat": 51.099998}}, {"id": 2957313, "name": "Altershausen", "state": "", "country": "DE", "coord": {"lon": 10.6, "lat": 49.683331}}, {"id": 2957327, "name": "Altersbach", "state": "", "country": "DE", "coord": {"lon": 10.53333, "lat": 50.700001}}, {"id": 2957341, "name": "Alterode", "state": "", "country": "DE", "coord": {"lon": 11.38333, "lat": 51.666672}}, {"id": 2957351, "name": "Alterk\u00fclz", "state": "", "country": "DE", "coord": {"lon": 7.46667, "lat": 50.033329}}, {"id": 2957367, "name": "Alter G\u00f6bricherweg", "state": "", "country": "DE", "coord": {"lon": 8.71667, "lat": 48.916672}}, {"id": 2957381, "name": "Alterdorf", "state": "", "country": "DE", "coord": {"lon": 12.75, "lat": 49.133331}}, {"id": 2957414, "name": "Altenwillershagen", "state": "", "country": "DE", "coord": {"lon": 12.57059, "lat": 54.258759}}, {"id": 2957416, "name": "Altenwerder", "state": "", "country": "DE", "coord": {"lon": 9.91667, "lat": 53.51667}}, {"id": 2957422, "name": "Altenweddingen", "state": "", "country": "DE", "coord": {"lon": 11.52946, "lat": 51.998829}}, {"id": 2957425, "name": "Altenwalde", "state": "", "country": "DE", "coord": {"lon": 8.68333, "lat": 53.816669}}, {"id": 2957436, "name": "Altentreswitz", "state": "", "country": "DE", "coord": {"lon": 12.36667, "lat": 49.583328}}, {"id": 2957437, "name": "Altentreptow", "state": "", "country": "DE", "coord": {"lon": 13.25, "lat": 53.683331}}, {"id": 2957439, "name": "Altenthann", "state": "", "country": "DE", "coord": {"lon": 12.3, "lat": 49.099998}}, {"id": 2957459, "name": "Altensteig", "state": "", "country": "DE", "coord": {"lon": 8.6, "lat": 48.583328}}, {"id": 2957463, "name": "Altenstadt", "state": "", "country": "DE", "coord": {"lon": 8.95, "lat": 50.283329}}, {"id": 2957465, "name": "Altenstadt", "state": "", "country": "DE", "coord": {"lon": 12.32863, "lat": 49.632278}}, {"id": 2957468, "name": "Altenstadt", "state": "", "country": "DE", "coord": {"lon": 10.11437, "lat": 48.160301}}, {"id": 2957469, "name": "Altenstadt", "state": "", "country": "DE", "coord": {"lon": 10.86667, "lat": 47.816669}}, {"id": 2957483, "name": "Altensch\u00f6nbach", "state": "", "country": "DE", "coord": {"lon": 10.4, "lat": 49.816669}}, {"id": 2957499, "name": "Altenriet", "state": "", "country": "DE", "coord": {"lon": 9.22186, "lat": 48.5914}}, {"id": 2957511, "name": "Altenrath", "state": "", "country": "DE", "coord": {"lon": 7.38333, "lat": 51.01667}}, {"id": 2957512, "name": "Altenrath", "state": "", "country": "DE", "coord": {"lon": 7.2, "lat": 50.849998}}, {"id": 2957516, "name": "Altenpleen", "state": "", "country": "DE", "coord": {"lon": 12.9564, "lat": 54.354561}}, {"id": 2957520, "name": "Altenoythe", "state": "", "country": "DE", "coord": {"lon": 7.88333, "lat": 53.049999}}, {"id": 2957528, "name": "Altenm\u00fcnster", "state": "", "country": "DE", "coord": {"lon": 10.59065, "lat": 48.464951}}, {"id": 2957532, "name": "Altenmoor", "state": "", "country": "DE", "coord": {"lon": 9.56667, "lat": 53.76667}}, {"id": 2957538, "name": "Altenmedingen", "state": "", "country": "DE", "coord": {"lon": 10.60163, "lat": 53.130501}}, {"id": 2957543, "name": "Altenmarkt", "state": "", "country": "DE", "coord": {"lon": 12.1356, "lat": 47.779598}}, {"id": 2957555, "name": "Altenkunstadt", "state": "", "country": "DE", "coord": {"lon": 11.2503, "lat": 50.125038}}, {"id": 2957557, "name": "Altenkrempe", "state": "", "country": "DE", "coord": {"lon": 10.83333, "lat": 54.133331}}, {"id": 2957564, "name": "Altenkleusheim", "state": "", "country": "DE", "coord": {"lon": 7.91667, "lat": 51}}, {"id": 2957566, "name": "Altenkirchen", "state": "", "country": "DE", "coord": {"lon": 13.34332, "lat": 54.636238}}, {"id": 2957567, "name": "Altenkirchen", "state": "", "country": "DE", "coord": {"lon": 7.65, "lat": 50.700001}}, {"id": 2957569, "name": "Altenkirchen", "state": "", "country": "DE", "coord": {"lon": 8.40823, "lat": 50.469311}}, {"id": 2957570, "name": "Altenkirchen", "state": "", "country": "DE", "coord": {"lon": 7.32084, "lat": 49.44313}}, {"id": 2957582, "name": "Altenhundem", "state": "", "country": "DE", "coord": {"lon": 8.06667, "lat": 51.099998}}, {"id": 2957588, "name": "Altenholz", "state": "", "country": "DE", "coord": {"lon": 10.13333, "lat": 54.400002}}, {"id": 2957599, "name": "Altenhof", "state": "", "country": "DE", "coord": {"lon": 9.86667, "lat": 54.433331}}, {"id": 2957600, "name": "Altenhof", "state": "", "country": "DE", "coord": {"lon": 12.35662, "lat": 53.3545}}, {"id": 2957608, "name": "Altenhof", "state": "", "country": "DE", "coord": {"lon": 9.76736, "lat": 50.431808}}, {"id": 2957627, "name": "Altenheideck", "state": "", "country": "DE", "coord": {"lon": 11.06667, "lat": 49.150002}}, {"id": 2957631, "name": "Altenhausen", "state": "", "country": "DE", "coord": {"lon": 11.25429, "lat": 52.261959}}, {"id": 2957635, "name": "Altenhasungen", "state": "", "country": "DE", "coord": {"lon": 9.23135, "lat": 51.339081}}, {"id": 2957637, "name": "Altenha\u00dflau", "state": "", "country": "DE", "coord": {"lon": 9.2, "lat": 50.183331}}, {"id": 2957640, "name": "Altenhammer", "state": "", "country": "DE", "coord": {"lon": 12.31667, "lat": 49.400002}}, {"id": 2957642, "name": "Altenhaina", "state": "", "country": "DE", "coord": {"lon": 8.93333, "lat": 51.033329}}, {"id": 2957658, "name": "Altenhagen", "state": "", "country": "DE", "coord": {"lon": 13.11667, "lat": 53.76667}}, {"id": 2957662, "name": "Altenhagen", "state": "", "country": "DE", "coord": {"lon": 9.27203, "lat": 52.26133}}, {"id": 2957675, "name": "Altengrabow", "state": "", "country": "DE", "coord": {"lon": 12.2, "lat": 52.200001}}, {"id": 2957678, "name": "Altengottern", "state": "", "country": "DE", "coord": {"lon": 10.56667, "lat": 51.166672}}, {"id": 2957681, "name": "Altenglan", "state": "", "country": "DE", "coord": {"lon": 7.46667, "lat": 49.549999}}, {"id": 2957688, "name": "Altenfurt", "state": "", "country": "DE", "coord": {"lon": 11.28333, "lat": 48.549999}}, {"id": 2957701, "name": "Altenfeld", "state": "", "country": "DE", "coord": {"lon": 10.96667, "lat": 50.566669}}, {"id": 2957733, "name": "Altendorf", "state": "", "country": "DE", "coord": {"lon": 11.16786, "lat": 50.08424}}, {"id": 2957735, "name": "Altendorf", "state": "", "country": "DE", "coord": {"lon": 12.28151, "lat": 49.405499}}, {"id": 2957742, "name": "Altendiez", "state": "", "country": "DE", "coord": {"lon": 7.98333, "lat": 50.366669}}, {"id": 2957758, "name": "Altendambach", "state": "", "country": "DE", "coord": {"lon": 10.71667, "lat": 50.566669}}, {"id": 2957760, "name": "Altencelle", "state": "", "country": "DE", "coord": {"lon": 10.11721, "lat": 52.60461}}, {"id": 2957761, "name": "Alten Buseck", "state": "", "country": "DE", "coord": {"lon": 8.75, "lat": 50.616669}}, {"id": 2957763, "name": "Altenburger Land", "state": "", "country": "DE", "coord": {"lon": 12.41667, "lat": 51}}, {"id": 2957773, "name": "Altenburg", "state": "", "country": "DE", "coord": {"lon": 12.45, "lat": 50.98333}}, {"id": 2957777, "name": "Altenburg", "state": "", "country": "DE", "coord": {"lon": 6.98795, "lat": 50.511452}}, {"id": 2957782, "name": "Altenburg", "state": "", "country": "DE", "coord": {"lon": 11.81331, "lat": 47.91571}}, {"id": 2957805, "name": "Altenbrunslar", "state": "", "country": "DE", "coord": {"lon": 9.43333, "lat": 51.166672}}, {"id": 2957812, "name": "Altenbruch", "state": "", "country": "DE", "coord": {"lon": 8.76667, "lat": 53.816669}}, {"id": 2957814, "name": "Altenbreckerfeld", "state": "", "country": "DE", "coord": {"lon": 7.45, "lat": 51.23333}}, {"id": 2957815, "name": "Altenbrak", "state": "", "country": "DE", "coord": {"lon": 10.93333, "lat": 51.73333}}, {"id": 2957818, "name": "B\u00f6nen", "state": "", "country": "DE", "coord": {"lon": 7.76667, "lat": 51.583328}}, {"id": 2957820, "name": "Altenb\u00f6dingen", "state": "", "country": "DE", "coord": {"lon": 7.3317, "lat": 50.78109}}, {"id": 2957822, "name": "Altenbochum", "state": "", "country": "DE", "coord": {"lon": 7.25, "lat": 51.48333}}, {"id": 2957823, "name": "Altenbeuthen", "state": "", "country": "DE", "coord": {"lon": 11.60062, "lat": 50.5919}}, {"id": 2957826, "name": "Altenbergen", "state": "", "country": "DE", "coord": {"lon": 9.24362, "lat": 51.793541}}, {"id": 2957827, "name": "Altenbergen", "state": "", "country": "DE", "coord": {"lon": 10.61667, "lat": 50.833328}}, {"id": 2957828, "name": "Altenberge", "state": "", "country": "DE", "coord": {"lon": 7.13333, "lat": 52.816669}}, {"id": 2957829, "name": "Altenberge", "state": "", "country": "DE", "coord": {"lon": 7.46667, "lat": 52.049999}}, {"id": 2957830, "name": "Altenberga", "state": "", "country": "DE", "coord": {"lon": 11.53333, "lat": 50.833328}}, {"id": 2957834, "name": "Altenberg", "state": "", "country": "DE", "coord": {"lon": 13.75334, "lat": 50.76556}}, {"id": 2957864, "name": "Altenbeken", "state": "", "country": "DE", "coord": {"lon": 8.94201, "lat": 51.764549}}, {"id": 2957865, "name": "Altenbeichlingen", "state": "", "country": "DE", "coord": {"lon": 11.23333, "lat": 51.216671}}, {"id": 2957869, "name": "Altenbamberg", "state": "", "country": "DE", "coord": {"lon": 7.83333, "lat": 49.783329}}, {"id": 2957871, "name": "Altenbach", "state": "", "country": "DE", "coord": {"lon": 12.68333, "lat": 51.349998}}, {"id": 2957880, "name": "Altenau", "state": "", "country": "DE", "coord": {"lon": 10.45, "lat": 51.799999}}, {"id": 2957883, "name": "Altenahr", "state": "", "country": "DE", "coord": {"lon": 6.99206, "lat": 50.516941}}, {"id": 2957886, "name": "Altena", "state": "", "country": "DE", "coord": {"lon": 7.66667, "lat": 51.299999}}, {"id": 2957914, "name": "Alteiselfing", "state": "", "country": "DE", "coord": {"lon": 12.25, "lat": 48.033329}}, {"id": 2957938, "name": "Alteglofsheim", "state": "", "country": "DE", "coord": {"lon": 12.2, "lat": 48.916672}}, {"id": 2957949, "name": "Altef\u00e4hr", "state": "", "country": "DE", "coord": {"lon": 13.12643, "lat": 54.329941}}, {"id": 2958016, "name": "Alt Duvenstedt", "state": "", "country": "DE", "coord": {"lon": 9.65, "lat": 54.366669}}, {"id": 2958024, "name": "Altdorf", "state": "", "country": "DE", "coord": {"lon": 11.35722, "lat": 49.387501}}, {"id": 2958026, "name": "Altdorf", "state": "", "country": "DE", "coord": {"lon": 8.21611, "lat": 49.28722}}, {"id": 2958028, "name": "Altdorf", "state": "", "country": "DE", "coord": {"lon": 8.99626, "lat": 48.631119}}, {"id": 2958029, "name": "Altdorf", "state": "", "country": "DE", "coord": {"lon": 9.27165, "lat": 48.594212}}, {"id": 2958032, "name": "Altdorf", "state": "", "country": "DE", "coord": {"lon": 12.18333, "lat": 48.150002}}, {"id": 2958036, "name": "Altd\u00f6bern", "state": "", "country": "DE", "coord": {"lon": 14.03333, "lat": 51.650002}}, {"id": 2958040, "name": "Altchemnitz", "state": "", "country": "DE", "coord": {"lon": 12.91667, "lat": 50.816669}}, {"id": 2958048, "name": "Alt Bukow", "state": "", "country": "DE", "coord": {"lon": 11.60706, "lat": 53.997581}}, {"id": 2958049, "name": "Alt Buchhorst", "state": "", "country": "DE", "coord": {"lon": 13.85, "lat": 52.433331}}, {"id": 2958052, "name": "Altbrandsleben", "state": "", "country": "DE", "coord": {"lon": 11.25, "lat": 52.066669}}, {"id": 2958055, "name": "Alt Bork", "state": "", "country": "DE", "coord": {"lon": 12.86667, "lat": 52.183331}}, {"id": 2958059, "name": "Altbleyen", "state": "", "country": "DE", "coord": {"lon": 14.5877, "lat": 52.58897}}, {"id": 2958062, "name": "Altbessingen", "state": "", "country": "DE", "coord": {"lon": 9.97971, "lat": 50.028141}}, {"id": 2958065, "name": "Altbensdorf", "state": "", "country": "DE", "coord": {"lon": 12.33333, "lat": 52.416672}}, {"id": 2958066, "name": "Alt Bennebek", "state": "", "country": "DE", "coord": {"lon": 9.43333, "lat": 54.383331}}, {"id": 2958072, "name": "Altbacherhof", "state": "", "country": "DE", "coord": {"lon": 9.38333, "lat": 48.73333}}, {"id": 2958085, "name": "Altbach", "state": "", "country": "DE", "coord": {"lon": 9.38078, "lat": 48.722679}}, {"id": 2958086, "name": "Altbabensham", "state": "", "country": "DE", "coord": {"lon": 12.28333, "lat": 48.083328}}, {"id": 2958088, "name": "Altastenberg", "state": "", "country": "DE", "coord": {"lon": 8.46711, "lat": 51.189461}}, {"id": 2958092, "name": "Ammerthal", "state": "", "country": "DE", "coord": {"lon": 11.76181, "lat": 49.441231}}, {"id": 2958098, "name": "Alsweiler", "state": "", "country": "DE", "coord": {"lon": 7.06983, "lat": 49.472172}}, {"id": 2958105, "name": "Alsterdorf", "state": "", "country": "DE", "coord": {"lon": 10.01306, "lat": 53.610828}}, {"id": 2958106, "name": "Alsterberg", "state": "", "country": "DE", "coord": {"lon": 10, "lat": 53.616669}}, {"id": 2958111, "name": "Alst\u00e4tte", "state": "", "country": "DE", "coord": {"lon": 7.26667, "lat": 51.950001}}, {"id": 2958121, "name": "Alsleben", "state": "", "country": "DE", "coord": {"lon": 11.66667, "lat": 51.700001}}, {"id": 2958126, "name": "Alsheim", "state": "", "country": "DE", "coord": {"lon": 8.34028, "lat": 49.768059}}, {"id": 2958128, "name": "Alsfeld", "state": "", "country": "DE", "coord": {"lon": 9.26667, "lat": 50.75}}, {"id": 2958134, "name": "Alsenz", "state": "", "country": "DE", "coord": {"lon": 7.81667, "lat": 49.716671}}, {"id": 2958141, "name": "Alsdorf", "state": "", "country": "DE", "coord": {"lon": 6.16667, "lat": 50.883331}}, {"id": 2958142, "name": "Alsdorf", "state": "", "country": "DE", "coord": {"lon": 7.86667, "lat": 50.76667}}, {"id": 2958143, "name": "Alsdorf", "state": "", "country": "DE", "coord": {"lon": 6.4682, "lat": 49.888329}}, {"id": 2958154, "name": "Alsbach", "state": "", "country": "DE", "coord": {"lon": 7.66667, "lat": 50.466671}}, {"id": 2958173, "name": "Alpirsbach", "state": "", "country": "DE", "coord": {"lon": 8.40197, "lat": 48.34507}}, {"id": 2958180, "name": "Alperstedt", "state": "", "country": "DE", "coord": {"lon": 11.05, "lat": 51.099998}}, {"id": 2958186, "name": "Alpenrod", "state": "", "country": "DE", "coord": {"lon": 7.86667, "lat": 50.633331}}, {"id": 2958188, "name": "Alpen", "state": "", "country": "DE", "coord": {"lon": 6.51667, "lat": 51.583328}}, {"id": 2958211, "name": "Almstedt", "state": "", "country": "DE", "coord": {"lon": 9.96151, "lat": 52.032429}}, {"id": 2958229, "name": "Almerswind", "state": "", "country": "DE", "coord": {"lon": 11, "lat": 50.383331}}, {"id": 2958235, "name": "Almersbach", "state": "", "country": "DE", "coord": {"lon": 7.63333, "lat": 50.683331}}, {"id": 2958243, "name": "Almena", "state": "", "country": "DE", "coord": {"lon": 9.07848, "lat": 52.10603}}, {"id": 2958251, "name": "Almdorf", "state": "", "country": "DE", "coord": {"lon": 9.01667, "lat": 54.583328}}, {"id": 2958261, "name": "Allzunah", "state": "", "country": "DE", "coord": {"lon": 10.86667, "lat": 50.616669}}, {"id": 2958266, "name": "Allstedt", "state": "", "country": "DE", "coord": {"lon": 11.38333, "lat": 51.400002}}, {"id": 2958267, "name": "Allrune", "state": "", "country": "DE", "coord": {"lon": 8.31667, "lat": 52.216671}}, {"id": 2958268, "name": "Allrode", "state": "", "country": "DE", "coord": {"lon": 10.9683, "lat": 51.67926}}, {"id": 2958273, "name": "Allna", "state": "", "country": "DE", "coord": {"lon": 8.66667, "lat": 50.76667}}, {"id": 2958277, "name": "Allmus", "state": "", "country": "DE", "coord": {"lon": 9.81422, "lat": 50.595612}}, {"id": 2958288, "name": "Allmersbach im Tal", "state": "", "country": "DE", "coord": {"lon": 9.46815, "lat": 48.90659}}, {"id": 2958293, "name": "Allmenhausen", "state": "", "country": "DE", "coord": {"lon": 10.73333, "lat": 51.23333}}, {"id": 2958296, "name": "Allmendingen", "state": "", "country": "DE", "coord": {"lon": 9.72419, "lat": 48.330521}}, {"id": 2958300, "name": "Allmend", "state": "", "country": "DE", "coord": {"lon": 8.21667, "lat": 48.316669}}, {"id": 2958305, "name": "Allmannsweiler", "state": "", "country": "DE", "coord": {"lon": 9.59361, "lat": 48.02853}}, {"id": 2958309, "name": "Allmannshofen", "state": "", "country": "DE", "coord": {"lon": 10.8, "lat": 48.616669}}, {"id": 2958311, "name": "Allmannshausen", "state": "", "country": "DE", "coord": {"lon": 11.34682, "lat": 47.936588}}, {"id": 2958331, "name": "Alling", "state": "", "country": "DE", "coord": {"lon": 11.3, "lat": 48.150002}}, {"id": 2958355, "name": "Alleshausen", "state": "", "country": "DE", "coord": {"lon": 9.61667, "lat": 48.099998}}, {"id": 2958358, "name": "Allertshofen", "state": "", "country": "DE", "coord": {"lon": 8.71583, "lat": 49.74667}}, {"id": 2958360, "name": "Allertshausen", "state": "", "country": "DE", "coord": {"lon": 8.84932, "lat": 50.657951}}, {"id": 2958361, "name": "Allertshausen", "state": "", "country": "DE", "coord": {"lon": 10.66667, "lat": 50.200001}}, {"id": 2958368, "name": "Allerstedt", "state": "", "country": "DE", "coord": {"lon": 11.45, "lat": 51.25}}, {"id": 2958376, "name": "Allershausen", "state": "", "country": "DE", "coord": {"lon": 11.6, "lat": 48.433331}}, {"id": 2958382, "name": "Allersdorf", "state": "", "country": "DE", "coord": {"lon": 11.06667, "lat": 50.616669}}, {"id": 2958388, "name": "Allersdorf", "state": "", "country": "DE", "coord": {"lon": 11.85, "lat": 48.799999}}, {"id": 2958391, "name": "Allersberg", "state": "", "country": "DE", "coord": {"lon": 11.23659, "lat": 49.25132}}, {"id": 2958401, "name": "Alleringersleben", "state": "", "country": "DE", "coord": {"lon": 11.14185, "lat": 52.213711}}, {"id": 2958415, "name": "Allenb\u00fcttel", "state": "", "country": "DE", "coord": {"lon": 10.637, "lat": 52.41938}}, {"id": 2958429, "name": "Allensbach", "state": "", "country": "DE", "coord": {"lon": 9.07145, "lat": 47.715359}}, {"id": 2958431, "name": "Allenfeld", "state": "", "country": "DE", "coord": {"lon": 7.66667, "lat": 49.866669}}, {"id": 2958436, "name": "Allendorf an der Lahn", "state": "", "country": "DE", "coord": {"lon": 8.61667, "lat": 50.549999}}, {"id": 2958438, "name": "Allendorf", "state": "", "country": "DE", "coord": {"lon": 8.66667, "lat": 51.033329}}, {"id": 2958443, "name": "Allendorf", "state": "", "country": "DE", "coord": {"lon": 11.16667, "lat": 50.650002}}, {"id": 2958446, "name": "Allendorf", "state": "", "country": "DE", "coord": {"lon": 8, "lat": 50.26667}}, {"id": 2958457, "name": "Allenbach", "state": "", "country": "DE", "coord": {"lon": 7.16667, "lat": 49.75}}, {"id": 2958460, "name": "Allem\u00fchl", "state": "", "country": "DE", "coord": {"lon": 8.95583, "lat": 49.427219}}, {"id": 2958474, "name": "Allach", "state": "", "country": "DE", "coord": {"lon": 11.45, "lat": 48.200001}}, {"id": 2958476, "name": "Alkofen", "state": "", "country": "DE", "coord": {"lon": 13.13333, "lat": 48.633331}}, {"id": 2958479, "name": "Alkersum", "state": "", "country": "DE", "coord": {"lon": 8.50925, "lat": 54.707958}}, {"id": 2958480, "name": "Alkersleben", "state": "", "country": "DE", "coord": {"lon": 11.03333, "lat": 50.849998}}, {"id": 2958486, "name": "Alken", "state": "", "country": "DE", "coord": {"lon": 7.45, "lat": 50.25}}, {"id": 2958487, "name": "Aljarn", "state": "", "country": "DE", "coord": {"lon": 10.61614, "lat": 53.169571}}, {"id": 2958489, "name": "Alitzheim", "state": "", "country": "DE", "coord": {"lon": 10.33333, "lat": 49.933331}}, {"id": 2958492, "name": "Aligse", "state": "", "country": "DE", "coord": {"lon": 9.98333, "lat": 52.400002}}, {"id": 2958494, "name": "Alheim", "state": "", "country": "DE", "coord": {"lon": 9.66667, "lat": 51.033329}}, {"id": 2958496, "name": "Alhausen", "state": "", "country": "DE", "coord": {"lon": 7.71667, "lat": 50.716671}}, {"id": 2958501, "name": "Algertshausen", "state": "", "country": "DE", "coord": {"lon": 11.11928, "lat": 48.459999}}, {"id": 2958505, "name": "Algershofen", "state": "", "country": "DE", "coord": {"lon": 9.62836, "lat": 48.2295}}, {"id": 2958509, "name": "Algermissen", "state": "", "country": "DE", "coord": {"lon": 9.96915, "lat": 52.253319}}, {"id": 2958510, "name": "Algenstedt", "state": "", "country": "DE", "coord": {"lon": 11.45, "lat": 52.599998}}, {"id": 2958513, "name": "Algenrodt", "state": "", "country": "DE", "coord": {"lon": 7.28333, "lat": 49.716671}}, {"id": 2958516, "name": "Alfter", "state": "", "country": "DE", "coord": {"lon": 7.01667, "lat": 50.73333}}, {"id": 2958518, "name": "Alfstedt", "state": "", "country": "DE", "coord": {"lon": 9.06667, "lat": 53.549999}}, {"id": 2958522, "name": "Alflen", "state": "", "country": "DE", "coord": {"lon": 7.03333, "lat": 50.183331}}, {"id": 2958523, "name": "Alfhausen", "state": "", "country": "DE", "coord": {"lon": 7.95, "lat": 52.5}}, {"id": 2958532, "name": "Alfen", "state": "", "country": "DE", "coord": {"lon": 8.7, "lat": 51.650002}}, {"id": 2958533, "name": "Alfeld", "state": "", "country": "DE", "coord": {"lon": 9.81989, "lat": 51.983822}}, {"id": 2958534, "name": "Alfeld", "state": "", "country": "DE", "coord": {"lon": 11.55, "lat": 49.433331}}, {"id": 2958535, "name": "Alfdorf", "state": "", "country": "DE", "coord": {"lon": 9.71857, "lat": 48.843849}}, {"id": 2958539, "name": "Alf", "state": "", "country": "DE", "coord": {"lon": 7.11667, "lat": 50.049999}}, {"id": 2958545, "name": "Bad Alexandersbad", "state": "", "country": "DE", "coord": {"lon": 12.01667, "lat": 50.01667}}, {"id": 2958555, "name": "Aletshausen", "state": "", "country": "DE", "coord": {"lon": 10.38877, "lat": 48.198589}}, {"id": 2958557, "name": "Alesheim", "state": "", "country": "DE", "coord": {"lon": 10.86496, "lat": 49.046478}}, {"id": 2958560, "name": "Alerheim", "state": "", "country": "DE", "coord": {"lon": 10.61667, "lat": 48.849998}}, {"id": 2958561, "name": "Alendorf", "state": "", "country": "DE", "coord": {"lon": 6.65, "lat": 50.366669}}, {"id": 2958575, "name": "Aldingen", "state": "", "country": "DE", "coord": {"lon": 8.7, "lat": 48.099998}}, {"id": 2958577, "name": "Aldersbach", "state": "", "country": "DE", "coord": {"lon": 13.08333, "lat": 48.599998}}, {"id": 2958578, "name": "Aldenrade", "state": "", "country": "DE", "coord": {"lon": 6.73333, "lat": 51.51667}}, {"id": 2958580, "name": "Aldenhoven", "state": "", "country": "DE", "coord": {"lon": 6.28333, "lat": 50.900002}}, {"id": 2958593, "name": "Albstedt", "state": "", "country": "DE", "coord": {"lon": 8.71757, "lat": 53.330029}}, {"id": 2958595, "name": "Albstadt", "state": "", "country": "DE", "coord": {"lon": 9.02596, "lat": 48.216438}}, {"id": 2958596, "name": "Albsheim an der Eis", "state": "", "country": "DE", "coord": {"lon": 8.1825, "lat": 49.582218}}, {"id": 2958603, "name": "Albsfelde", "state": "", "country": "DE", "coord": {"lon": 10.7, "lat": 53.683331}}, {"id": 2958613, "name": "Albrechts Teerofen", "state": "", "country": "DE", "coord": {"lon": 13.16667, "lat": 52.400002}}, {"id": 2958622, "name": "Albrechtshain", "state": "", "country": "DE", "coord": {"lon": 12.56527, "lat": 51.305721}}, {"id": 2958631, "name": "Albisheim", "state": "", "country": "DE", "coord": {"lon": 8.09667, "lat": 49.649441}}, {"id": 2958635, "name": "Albingshausen", "state": "", "country": "DE", "coord": {"lon": 10.61667, "lat": 50.283329}}, {"id": 2958638, "name": "Albig", "state": "", "country": "DE", "coord": {"lon": 8.12139, "lat": 49.773609}}, {"id": 2958641, "name": "Albessen", "state": "", "country": "DE", "coord": {"lon": 7.33333, "lat": 49.51667}}, {"id": 2958653, "name": "Albertshofen", "state": "", "country": "DE", "coord": {"lon": 10.16667, "lat": 49.76667}}, {"id": 2958680, "name": "Albertinenhof", "state": "", "country": "DE", "coord": {"lon": 11.00075, "lat": 53.436409}}, {"id": 2958694, "name": "Albertaich", "state": "", "country": "DE", "coord": {"lon": 12.36667, "lat": 48.01667}}, {"id": 2958696, "name": "Albersweiler", "state": "", "country": "DE", "coord": {"lon": 8.03, "lat": 49.21917}}, {"id": 2958699, "name": "Alberstedt", "state": "", "country": "DE", "coord": {"lon": 11.63333, "lat": 51.450001}}, {"id": 2958700, "name": "Albersroda", "state": "", "country": "DE", "coord": {"lon": 11.71667, "lat": 51.283329}}, {"id": 2958704, "name": "Albersloh", "state": "", "country": "DE", "coord": {"lon": 7.75, "lat": 51.866669}}, {"id": 2958707, "name": "Albershausen", "state": "", "country": "DE", "coord": {"lon": 9.56493, "lat": 48.69136}}, {"id": 2958710, "name": "Albersdorf", "state": "", "country": "DE", "coord": {"lon": 9.28333, "lat": 54.150002}}, {"id": 2958713, "name": "Albersdorf", "state": "", "country": "DE", "coord": {"lon": 11.76667, "lat": 50.900002}}, {"id": 2958723, "name": "Albersbach", "state": "", "country": "DE", "coord": {"lon": 7.55, "lat": 49.5}}, {"id": 2958734, "name": "Albernau", "state": "", "country": "DE", "coord": {"lon": 12.65, "lat": 50.549999}}, {"id": 2958744, "name": "Albbruck", "state": "", "country": "DE", "coord": {"lon": 8.12954, "lat": 47.590771}}, {"id": 2958756, "name": "Albaching", "state": "", "country": "DE", "coord": {"lon": 12.11667, "lat": 48.116669}}, {"id": 2958774, "name": "Alach", "state": "", "country": "DE", "coord": {"lon": 10.93333, "lat": 50.98333}}, {"id": 2958781, "name": "Aken", "state": "", "country": "DE", "coord": {"lon": 12.05, "lat": 51.849998}}, {"id": 2958795, "name": "Aitrang", "state": "", "country": "DE", "coord": {"lon": 10.53333, "lat": 47.816669}}, {"id": 2958798, "name": "Aitrach", "state": "", "country": "DE", "coord": {"lon": 10.08333, "lat": 47.933331}}, {"id": 2958801, "name": "Aitern", "state": "", "country": "DE", "coord": {"lon": 7.9, "lat": 47.799999}}, {"id": 2958802, "name": "Alterhofen", "state": "", "country": "DE", "coord": {"lon": 12.62012, "lat": 48.846588}}, {"id": 2958804, "name": "Aiterbach", "state": "", "country": "DE", "coord": {"lon": 11.6, "lat": 48.450001}}, {"id": 2958813, "name": "Aislingen", "state": "", "country": "DE", "coord": {"lon": 10.45778, "lat": 48.506481}}, {"id": 2958831, "name": "Ainring", "state": "", "country": "DE", "coord": {"lon": 12.95, "lat": 47.816669}}, {"id": 2958832, "name": "Ainkhausen", "state": "", "country": "DE", "coord": {"lon": 7.93333, "lat": 51.400002}}, {"id": 2958835, "name": "Aindling", "state": "", "country": "DE", "coord": {"lon": 10.95, "lat": 48.51667}}, {"id": 2958846, "name": "Ailertchen", "state": "", "country": "DE", "coord": {"lon": 7.93333, "lat": 50.599998}}, {"id": 2958887, "name": "Aiglsbach", "state": "", "country": "DE", "coord": {"lon": 11.71667, "lat": 48.700001}}, {"id": 2958904, "name": "Aidlingen", "state": "", "country": "DE", "coord": {"lon": 8.89524, "lat": 48.67849}}, {"id": 2958906, "name": "Aidhausen", "state": "", "country": "DE", "coord": {"lon": 10.43333, "lat": 50.150002}}, {"id": 2958907, "name": "Aidenried", "state": "", "country": "DE", "coord": {"lon": 11.15, "lat": 47.950001}}, {"id": 2958908, "name": "Aidenbach", "state": "", "country": "DE", "coord": {"lon": 13.1, "lat": 48.566669}}, {"id": 2958917, "name": "Aichstetten", "state": "", "country": "DE", "coord": {"lon": 10.07837, "lat": 47.892948}}, {"id": 2958928, "name": "Aichig", "state": "", "country": "DE", "coord": {"lon": 11.61667, "lat": 49.933331}}, {"id": 2958937, "name": "Aichhalden", "state": "", "country": "DE", "coord": {"lon": 8.41667, "lat": 48.26667}}, {"id": 2958951, "name": "Aichen", "state": "", "country": "DE", "coord": {"lon": 10.55, "lat": 48.23333}}, {"id": 2958956, "name": "Aichelberg", "state": "", "country": "DE", "coord": {"lon": 9.56373, "lat": 48.635571}}, {"id": 2958970, "name": "Aicha vorm Wald", "state": "", "country": "DE", "coord": {"lon": 13.3, "lat": 48.683331}}, {"id": 2958975, "name": "Aichach", "state": "", "country": "DE", "coord": {"lon": 11.13413, "lat": 48.45755}}, {"id": 2959008, "name": "Aich", "state": "", "country": "DE", "coord": {"lon": 12.19598, "lat": 47.90052}}, {"id": 2959043, "name": "Ahsen-Oetzen", "state": "", "country": "DE", "coord": {"lon": 9.08333, "lat": 52.966671}}, {"id": 2959047, "name": "Ahrweiler", "state": "", "country": "DE", "coord": {"lon": 7.08333, "lat": 50.549999}}, {"id": 2959053, "name": "Ahrenvi\u00f6l", "state": "", "country": "DE", "coord": {"lon": 9.20683, "lat": 54.531311}}, {"id": 2959055, "name": "Ahrenswohlde", "state": "", "country": "DE", "coord": {"lon": 9.46667, "lat": 53.383331}}, {"id": 2959072, "name": "Ahrensfelde", "state": "", "country": "DE", "coord": {"lon": 13.5797, "lat": 52.576561}}, {"id": 2959080, "name": "Ahrensdorf", "state": "", "country": "DE", "coord": {"lon": 14.08333, "lat": 52.166672}}, {"id": 2959083, "name": "Ahrensburg", "state": "", "country": "DE", "coord": {"lon": 10.25, "lat": 53.683331}}, {"id": 2959084, "name": "Ahrensb\u00f6k", "state": "", "country": "DE", "coord": {"lon": 10.57434, "lat": 54.008621}}, {"id": 2959087, "name": "Ahrensberg", "state": "", "country": "DE", "coord": {"lon": 13.03373, "lat": 53.259048}}, {"id": 2959098, "name": "Ahrenfeld", "state": "", "country": "DE", "coord": {"lon": 9.64514, "lat": 52.067001}}, {"id": 2959101, "name": "Ahrendsee", "state": "", "country": "DE", "coord": {"lon": 13.14445, "lat": 54.219429}}, {"id": 2959110, "name": "Ahrdt", "state": "", "country": "DE", "coord": {"lon": 8.46667, "lat": 50.700001}}, {"id": 2959140, "name": "Ahorn", "state": "", "country": "DE", "coord": {"lon": 10.95, "lat": 50.23333}}, {"id": 2959142, "name": "Aholming", "state": "", "country": "DE", "coord": {"lon": 12.91667, "lat": 48.73333}}, {"id": 2959143, "name": "Aholfing", "state": "", "country": "DE", "coord": {"lon": 12.46667, "lat": 48.950001}}, {"id": 2959146, "name": "Ahnsen", "state": "", "country": "DE", "coord": {"lon": 9.10089, "lat": 52.254662}}, {"id": 2959150, "name": "Ahnsbeck", "state": "", "country": "DE", "coord": {"lon": 10.3, "lat": 52.616669}}, {"id": 2959153, "name": "Ahneby", "state": "", "country": "DE", "coord": {"lon": 9.73333, "lat": 54.716671}}, {"id": 2959159, "name": "Ahndel", "state": "", "country": "DE", "coord": {"lon": 8.66152, "lat": 54.38303}}, {"id": 2959164, "name": "Ahmsen", "state": "", "country": "DE", "coord": {"lon": 7.63333, "lat": 52.783329}}, {"id": 2959172, "name": "Ahlten", "state": "", "country": "DE", "coord": {"lon": 9.90932, "lat": 52.366692}}, {"id": 2959174, "name": "Ahlst\u00e4dt", "state": "", "country": "DE", "coord": {"lon": 10.68333, "lat": 50.533329}}, {"id": 2959179, "name": "Ahlsen", "state": "", "country": "DE", "coord": {"lon": 8.66667, "lat": 52.299999}}, {"id": 2959181, "name": "Ahlsdorf", "state": "", "country": "DE", "coord": {"lon": 11.46655, "lat": 51.545429}}, {"id": 2959205, "name": "Ahlerstedt", "state": "", "country": "DE", "coord": {"lon": 9.45, "lat": 53.400002}}, {"id": 2959223, "name": "Ahlen", "state": "", "country": "DE", "coord": {"lon": 7.8887, "lat": 51.763378}}, {"id": 2959226, "name": "Ahlem", "state": "", "country": "DE", "coord": {"lon": 9.66436, "lat": 52.378109}}, {"id": 2959227, "name": "Ahlefeld", "state": "", "country": "DE", "coord": {"lon": 9.66667, "lat": 54.400002}}, {"id": 2959237, "name": "Ahlden", "state": "", "country": "DE", "coord": {"lon": 9.55, "lat": 52.76667}}, {"id": 2959242, "name": "Ahlberg", "state": "", "country": "DE", "coord": {"lon": 9.50541, "lat": 51.453369}}, {"id": 2959244, "name": "Ahlbeck", "state": "", "country": "DE", "coord": {"lon": 14.2, "lat": 53.666672}}, {"id": 2959253, "name": "Ahegg", "state": "", "country": "DE", "coord": {"lon": 9.85, "lat": 47.716671}}, {"id": 2959263, "name": "Ahe", "state": "", "country": "DE", "coord": {"lon": 7.45, "lat": 50.833328}}, {"id": 2959267, "name": "Ahden", "state": "", "country": "DE", "coord": {"lon": 8.62341, "lat": 51.602242}}, {"id": 2959272, "name": "Ahausen", "state": "", "country": "DE", "coord": {"lon": 9.31667, "lat": 53.066669}}, {"id": 2959279, "name": "Ahaus", "state": "", "country": "DE", "coord": {"lon": 7, "lat": 52.066669}}, {"id": 2959282, "name": "Aham", "state": "", "country": "DE", "coord": {"lon": 12.46667, "lat": 48.533329}}, {"id": 2959283, "name": "Aham", "state": "", "country": "DE", "coord": {"lon": 12.16667, "lat": 48.349998}}, {"id": 2959285, "name": "Aha", "state": "", "country": "DE", "coord": {"lon": 10.75, "lat": 49.099998}}, {"id": 2959293, "name": "Agnesdorf", "state": "", "country": "DE", "coord": {"lon": 11.0919, "lat": 51.495392}}, {"id": 2959296, "name": "Aglasterhausen", "state": "", "country": "DE", "coord": {"lon": 8.98694, "lat": 49.356941}}, {"id": 2959297, "name": "Aegidienberg", "state": "", "country": "DE", "coord": {"lon": 7.3, "lat": 50.666672}}, {"id": 2959308, "name": "Agethorst", "state": "", "country": "DE", "coord": {"lon": 9.4359, "lat": 54.01947}}, {"id": 2959314, "name": "Agenbach", "state": "", "country": "DE", "coord": {"lon": 8.58333, "lat": 48.700001}}, {"id": 2959318, "name": "Agathenburg", "state": "", "country": "DE", "coord": {"lon": 9.5318, "lat": 53.56065}}, {"id": 2959324, "name": "Aftersteg", "state": "", "country": "DE", "coord": {"lon": 7.92844, "lat": 47.842892}}, {"id": 2959330, "name": "Afholderbach", "state": "", "country": "DE", "coord": {"lon": 8.13333, "lat": 50.933331}}, {"id": 2959340, "name": "Affler", "state": "", "country": "DE", "coord": {"lon": 6.15, "lat": 50.01667}}, {"id": 2959341, "name": "Affinghausen", "state": "", "country": "DE", "coord": {"lon": 8.88333, "lat": 52.783329}}, {"id": 2959343, "name": "Affing", "state": "", "country": "DE", "coord": {"lon": 10.98333, "lat": 48.466671}}, {"id": 2959365, "name": "Affaltern", "state": "", "country": "DE", "coord": {"lon": 10.73333, "lat": 48.48333}}, {"id": 2959368, "name": "Affalterbach", "state": "", "country": "DE", "coord": {"lon": 9.32362, "lat": 48.922668}}, {"id": 2959374, "name": "Aerzen", "state": "", "country": "DE", "coord": {"lon": 9.25856, "lat": 52.04953}}, {"id": 2959390, "name": "Adorf", "state": "", "country": "DE", "coord": {"lon": 12.26667, "lat": 50.316669}}, {"id": 2959400, "name": "Adolfsh\u00fctte", "state": "", "country": "DE", "coord": {"lon": 14.45, "lat": 51.26667}}, {"id": 2959414, "name": "Admannshagen", "state": "", "country": "DE", "coord": {"lon": 12, "lat": 54.133331}}, {"id": 2959422, "name": "Adlkofen", "state": "", "country": "DE", "coord": {"lon": 12.26667, "lat": 48.549999}}, {"id": 2959431, "name": "Adlhausen", "state": "", "country": "DE", "coord": {"lon": 12.01667, "lat": 48.783329}}, {"id": 2959441, "name": "Adlershof", "state": "", "country": "DE", "coord": {"lon": 13.54825, "lat": 52.435478}}, {"id": 2959454, "name": "Adldorf", "state": "", "country": "DE", "coord": {"lon": 12.83333, "lat": 48.633331}}, {"id": 2959463, "name": "Aderstedt", "state": "", "country": "DE", "coord": {"lon": 11.68333, "lat": 51.76667}}, {"id": 2959465, "name": "Adersleben", "state": "", "country": "DE", "coord": {"lon": 11.18333, "lat": 51.900002}}, {"id": 2959471, "name": "Aderich", "state": "", "country": "DE", "coord": {"lon": 6.25, "lat": 50.583328}}, {"id": 2959474, "name": "Adenstedt", "state": "", "country": "DE", "coord": {"lon": 10.16667, "lat": 52.25}}, {"id": 2959475, "name": "Adenstedt", "state": "", "country": "DE", "coord": {"lon": 9.93516, "lat": 51.99852}}, {"id": 2959476, "name": "Adensen", "state": "", "country": "DE", "coord": {"lon": 9.72934, "lat": 52.17662}}, {"id": 2959479, "name": "Adendorf", "state": "", "country": "DE", "coord": {"lon": 10.43787, "lat": 53.281891}}, {"id": 2959482, "name": "Adenb\u00fcttel", "state": "", "country": "DE", "coord": {"lon": 10.45, "lat": 52.383331}}, {"id": 2959486, "name": "Adenbach", "state": "", "country": "DE", "coord": {"lon": 7.65, "lat": 49.666672}}, {"id": 2959489, "name": "Adenau", "state": "", "country": "DE", "coord": {"lon": 6.93333, "lat": 50.383331}}, {"id": 2959492, "name": "Adelzhausen", "state": "", "country": "DE", "coord": {"lon": 11.13851, "lat": 48.356709}}, {"id": 2959498, "name": "Adelsried", "state": "", "country": "DE", "coord": {"lon": 10.71667, "lat": 48.416672}}, {"id": 2959502, "name": "Adelshofen", "state": "", "country": "DE", "coord": {"lon": 10.16667, "lat": 49.433331}}, {"id": 2959504, "name": "Adelshofen", "state": "", "country": "DE", "coord": {"lon": 11.11667, "lat": 48.183331}}, {"id": 2959508, "name": "Adelsheim", "state": "", "country": "DE", "coord": {"lon": 9.39333, "lat": 49.40361}}, {"id": 2959513, "name": "Adelsdorf", "state": "", "country": "DE", "coord": {"lon": 10.895, "lat": 49.712158}}, {"id": 2959514, "name": "Adelsdorf", "state": "", "country": "DE", "coord": {"lon": 10.68333, "lat": 49.48333}}, {"id": 2959516, "name": "Adelschlag", "state": "", "country": "DE", "coord": {"lon": 11.21667, "lat": 48.833328}}, {"id": 2959530, "name": "Adelmannsfelden", "state": "", "country": "DE", "coord": {"lon": 10.00466, "lat": 48.954762}}, {"id": 2959532, "name": "Adelmannsdorf", "state": "", "country": "DE", "coord": {"lon": 10.75, "lat": 49.216671}}, {"id": 2959538, "name": "Adelheidsdorf", "state": "", "country": "DE", "coord": {"lon": 10.06039, "lat": 52.564041}}, {"id": 2959548, "name": "Adelebsen", "state": "", "country": "DE", "coord": {"lon": 9.75, "lat": 51.583328}}, {"id": 2959553, "name": "Adelberg", "state": "", "country": "DE", "coord": {"lon": 9.59991, "lat": 48.762272}}, {"id": 2959571, "name": "Adamshoffnung", "state": "", "country": "DE", "coord": {"lon": 12.36288, "lat": 53.44656}}, {"id": 2959572, "name": "Adamshof", "state": "", "country": "DE", "coord": {"lon": 13.08333, "lat": 53.700001}}, {"id": 2959576, "name": "Adamsdorf", "state": "", "country": "DE", "coord": {"lon": 13.01537, "lat": 53.424782}}, {"id": 2959607, "name": "Ackendorf", "state": "", "country": "DE", "coord": {"lon": 11.44037, "lat": 52.22401}}, {"id": 2959614, "name": "Achum", "state": "", "country": "DE", "coord": {"lon": 9.08333, "lat": 52.283329}}, {"id": 2959621, "name": "Achtrup", "state": "", "country": "DE", "coord": {"lon": 9.03333, "lat": 54.783329}}, {"id": 2959628, "name": "Achterwehr", "state": "", "country": "DE", "coord": {"lon": 9.9661, "lat": 54.313179}}, {"id": 2959642, "name": "Achterh\u00f6rn", "state": "", "country": "DE", "coord": {"lon": 9.28333, "lat": 53.966671}}, {"id": 2959643, "name": "Achterhoek", "state": "", "country": "DE", "coord": {"lon": 6.35, "lat": 51.583328}}, {"id": 2959648, "name": "Kiebitzdeich", "state": "", "country": "DE", "coord": {"lon": 10.24119, "lat": 53.409611}}, {"id": 2959655, "name": "Achtelsbach", "state": "", "country": "DE", "coord": {"lon": 7.08333, "lat": 49.616669}}, {"id": 2959658, "name": "Acht", "state": "", "country": "DE", "coord": {"lon": 7.06667, "lat": 50.366669}}, {"id": 2959659, "name": "Achstetten", "state": "", "country": "DE", "coord": {"lon": 9.9, "lat": 48.26667}}, {"id": 2959660, "name": "Achslach", "state": "", "country": "DE", "coord": {"lon": 12.93511, "lat": 48.97171}}, {"id": 2959662, "name": "Achsheim", "state": "", "country": "DE", "coord": {"lon": 10.81667, "lat": 48.48333}}, {"id": 2959664, "name": "Achselschwang", "state": "", "country": "DE", "coord": {"lon": 11.05, "lat": 48.033329}}, {"id": 2959672, "name": "Acholshausen", "state": "", "country": "DE", "coord": {"lon": 9.99472, "lat": 49.644718}}, {"id": 2959674, "name": "Achner", "state": "", "country": "DE", "coord": {"lon": 11.46667, "lat": 47.599998}}, {"id": 2959676, "name": "Achmer", "state": "", "country": "DE", "coord": {"lon": 7.93333, "lat": 52.400002}}, {"id": 2959681, "name": "Achim", "state": "", "country": "DE", "coord": {"lon": 9.0263, "lat": 53.01416}}, {"id": 2959682, "name": "Achim", "state": "", "country": "DE", "coord": {"lon": 10.61073, "lat": 52.059299}}, {"id": 2959686, "name": "Achern", "state": "", "country": "DE", "coord": {"lon": 8.07607, "lat": 48.631149}}, {"id": 2959687, "name": "Achering", "state": "", "country": "DE", "coord": {"lon": 11.70919, "lat": 48.344841}}, {"id": 2959696, "name": "Achenbach", "state": "", "country": "DE", "coord": {"lon": 7.96667, "lat": 50.866669}}, {"id": 2959703, "name": "Achen", "state": "", "country": "DE", "coord": {"lon": 12.26667, "lat": 47.700001}}, {"id": 2959705, "name": "Achelst\u00e4dt", "state": "", "country": "DE", "coord": {"lon": 11.11667, "lat": 50.833328}}, {"id": 2959742, "name": "Accum", "state": "", "country": "DE", "coord": {"lon": 8.01667, "lat": 53.549999}}, {"id": 2959747, "name": "Abtweiler", "state": "", "country": "DE", "coord": {"lon": 7.65, "lat": 49.75}}, {"id": 2959749, "name": "Abtswind", "state": "", "country": "DE", "coord": {"lon": 10.36667, "lat": 49.76667}}, {"id": 2959766, "name": "Abtsgm\u00fcnd", "state": "", "country": "DE", "coord": {"lon": 10.00172, "lat": 48.895031}}, {"id": 2959771, "name": "Abtsdorf", "state": "", "country": "DE", "coord": {"lon": 12.72526, "lat": 51.889839}}, {"id": 2959773, "name": "Abtsbessingen", "state": "", "country": "DE", "coord": {"lon": 10.76667, "lat": 51.25}}, {"id": 2959779, "name": "Aebtissinwisch", "state": "", "country": "DE", "coord": {"lon": 9.28333, "lat": 53.966671}}, {"id": 2959782, "name": "Abterode", "state": "", "country": "DE", "coord": {"lon": 9.93333, "lat": 51.200001}}, {"id": 2959783, "name": "Abteroda", "state": "", "country": "DE", "coord": {"lon": 10.07652, "lat": 50.902168}}, {"id": 2959788, "name": "Abtei", "state": "", "country": "DE", "coord": {"lon": 6.95, "lat": 49.683331}}, {"id": 2959793, "name": "Abstatt", "state": "", "country": "DE", "coord": {"lon": 9.2907, "lat": 49.068199}}, {"id": 2959795, "name": "Abshofen", "state": "", "country": "DE", "coord": {"lon": 13.06667, "lat": 48.533329}}, {"id": 2959801, "name": "Absen", "state": "", "country": "DE", "coord": {"lon": 8.45, "lat": 53.400002}}, {"id": 2959803, "name": "Absberg", "state": "", "country": "DE", "coord": {"lon": 10.88101, "lat": 49.144379}}, {"id": 2959821, "name": "Abla\u00df", "state": "", "country": "DE", "coord": {"lon": 12.95, "lat": 51.23333}}, {"id": 2959834, "name": "Abersfeld", "state": "", "country": "DE", "coord": {"lon": 10.38333, "lat": 50.066669}}, {"id": 2959841, "name": "Abentheuer", "state": "", "country": "DE", "coord": {"lon": 7.1, "lat": 49.650002}}, {"id": 2959842, "name": "Abensberg", "state": "", "country": "DE", "coord": {"lon": 11.85, "lat": 48.816669}}, {"id": 2959847, "name": "Abenheim", "state": "", "country": "DE", "coord": {"lon": 8.28111, "lat": 49.677219}}, {"id": 2959855, "name": "Abenberg", "state": "", "country": "DE", "coord": {"lon": 10.96401, "lat": 49.242821}}, {"id": 2959875, "name": "Abbesb\u00fcttel", "state": "", "country": "DE", "coord": {"lon": 10.55649, "lat": 52.352329}}, {"id": 2959876, "name": "Abberode", "state": "", "country": "DE", "coord": {"lon": 11.28333, "lat": 51.616669}}, {"id": 2959884, "name": "Abbenrode", "state": "", "country": "DE", "coord": {"lon": 10.73333, "lat": 52.25}}, {"id": 2959891, "name": "Abbendorf", "state": "", "country": "DE", "coord": {"lon": 10.91667, "lat": 52.75}}, {"id": 2959908, "name": "Aasb\u00fcttel", "state": "", "country": "DE", "coord": {"lon": 9.43333, "lat": 54.066669}}, {"id": 2959927, "name": "Aalen", "state": "", "country": "DE", "coord": {"lon": 10.0933, "lat": 48.837769}}, {"id": 2959944, "name": "Aach", "state": "", "country": "DE", "coord": {"lon": 6.6, "lat": 49.783329}}, {"id": 2959946, "name": "Aach", "state": "", "country": "DE", "coord": {"lon": 8.85, "lat": 47.849998}}, {"id": 2959959, "name": "Wormeldange", "state": "", "country": "LU", "coord": {"lon": 6.40583, "lat": 49.60833}}, {"id": 2959961, "name": "Wolwelange", "state": "", "country": "LU", "coord": {"lon": 5.76472, "lat": 49.828609}}, {"id": 2959964, "name": "Wolpert", "state": "", "country": "LU", "coord": {"lon": 6.35333, "lat": 49.757778}}, {"id": 2959966, "name": "Wollefsmillen", "state": "", "country": "LU", "coord": {"lon": 6.49, "lat": 49.716389}}, {"id": 2959967, "name": "Wintrange", "state": "", "country": "LU", "coord": {"lon": 6.35278, "lat": 49.501389}}, {"id": 2959968, "name": "Winseler", "state": "", "country": "LU", "coord": {"lon": 5.89028, "lat": 49.967781}}, {"id": 2959971, "name": "Wincrange", "state": "", "country": "LU", "coord": {"lon": 5.91917, "lat": 50.053329}}, {"id": 2959972, "name": "Wilwerwiltz", "state": "", "country": "LU", "coord": {"lon": 5.99917, "lat": 49.988892}}, {"id": 2959973, "name": "Wilwerdange", "state": "", "country": "LU", "coord": {"lon": 6.02389, "lat": 50.14056}}, {"id": 2959975, "name": "Wiltz", "state": "", "country": "LU", "coord": {"lon": 5.93333, "lat": 49.966671}}, {"id": 2959977, "name": "Wiltz", "state": "", "country": "LU", "coord": {"lon": 5.93194, "lat": 49.968891}}, {"id": 2959978, "name": "Wiltz", "state": "", "country": "LU", "coord": {"lon": 5.91667, "lat": 49.916672}}, {"id": 2959980, "name": "Wickrange", "state": "", "country": "LU", "coord": {"lon": 6.02167, "lat": 49.541389}}, {"id": 2959982, "name": "Weyer", "state": "", "country": "LU", "coord": {"lon": 6.2, "lat": 49.719719}}, {"id": 2959983, "name": "Wemperhardt", "state": "", "country": "LU", "coord": {"lon": 6.05333, "lat": 50.15556}}, {"id": 2959984, "name": "Welsdorf", "state": "", "country": "LU", "coord": {"lon": 6.08806, "lat": 49.81694}}, {"id": 2959985, "name": "Welscheid", "state": "", "country": "LU", "coord": {"lon": 6.06778, "lat": 49.888062}}, {"id": 2959987, "name": "Wellenstein", "state": "", "country": "LU", "coord": {"lon": 6.34222, "lat": 49.523891}}, {"id": 2959988, "name": "Welfrange", "state": "", "country": "LU", "coord": {"lon": 6.28417, "lat": 49.538059}}, {"id": 2959989, "name": "Weiswampach", "state": "", "country": "LU", "coord": {"lon": 6.075, "lat": 50.137218}}, {"id": 2959993, "name": "Weimershof", "state": "", "country": "LU", "coord": {"lon": 6.15, "lat": 49.599998}}, {"id": 2959995, "name": "Weiler", "state": "", "country": "LU", "coord": {"lon": 6.12417, "lat": 49.963612}}, {"id": 2959996, "name": "Weiler-la-Tour", "state": "", "country": "LU", "coord": {"lon": 6.20083, "lat": 49.540829}}, {"id": 2959997, "name": "Weilerbach", "state": "", "country": "LU", "coord": {"lon": 6.38278, "lat": 49.833328}}, {"id": 2960000, "name": "Weidingen", "state": "", "country": "LU", "coord": {"lon": 5.94194, "lat": 49.972778}}, {"id": 2960002, "name": "Weicherdange", "state": "", "country": "LU", "coord": {"lon": 5.98944, "lat": 50.03833}}, {"id": 2960003, "name": "Wecker", "state": "", "country": "LU", "coord": {"lon": 6.38833, "lat": 49.691391}}, {"id": 2960006, "name": "Watrange", "state": "", "country": "LU", "coord": {"lon": 5.78583, "lat": 49.944172}}, {"id": 2960007, "name": "Wasserbillig", "state": "", "country": "LU", "coord": {"lon": 6.50028, "lat": 49.709999}}, {"id": 2960008, "name": "Warken", "state": "", "country": "LU", "coord": {"lon": 6.095, "lat": 49.854439}}, {"id": 2960010, "name": "Walferdange", "state": "", "country": "LU", "coord": {"lon": 6.13722, "lat": 49.658329}}, {"id": 2960011, "name": "Walsdorf", "state": "", "country": "LU", "coord": {"lon": 6.17361, "lat": 49.92667}}, {"id": 2960013, "name": "Waldbredimus", "state": "", "country": "LU", "coord": {"lon": 6.2875, "lat": 49.555}}, {"id": 2960014, "name": "Waldbillig", "state": "", "country": "LU", "coord": {"lon": 6.28667, "lat": 49.788891}}, {"id": 2960016, "name": "Wahlhausen", "state": "", "country": "LU", "coord": {"lon": 6.12667, "lat": 49.985279}}, {"id": 2960017, "name": "Wahl", "state": "", "country": "LU", "coord": {"lon": 5.90639, "lat": 49.83667}}, {"id": 2960019, "name": "Vichten", "state": "", "country": "LU", "coord": {"lon": 6, "lat": 49.803059}}, {"id": 2960020, "name": "Vianden", "state": "", "country": "LU", "coord": {"lon": 6.16667, "lat": 49.933331}}, {"id": 2960021, "name": "Vianden", "state": "", "country": "LU", "coord": {"lon": 6.20889, "lat": 49.935001}}, {"id": 2960022, "name": "Useldange", "state": "", "country": "LU", "coord": {"lon": 5.98222, "lat": 49.769718}}, {"id": 2960023, "name": "Urspelt", "state": "", "country": "LU", "coord": {"lon": 6.04667, "lat": 50.075562}}, {"id": 2960026, "name": "Uebersyren", "state": "", "country": "LU", "coord": {"lon": 6.27806, "lat": 49.628609}}, {"id": 2960027, "name": "Tuntange", "state": "", "country": "LU", "coord": {"lon": 6.01028, "lat": 49.717781}}, {"id": 2960030, "name": "Troisvierges", "state": "", "country": "LU", "coord": {"lon": 6.00028, "lat": 50.121109}}, {"id": 2960031, "name": "Troisvierges", "state": "", "country": "LU", "coord": {"lon": 6, "lat": 50.133331}}, {"id": 2960033, "name": "Troine", "state": "", "country": "LU", "coord": {"lon": 5.88306, "lat": 50.064442}}, {"id": 2960034, "name": "Trintange", "state": "", "country": "LU", "coord": {"lon": 6.28056, "lat": 49.570831}}, {"id": 2960035, "name": "Pommerloch", "state": "", "country": "LU", "coord": {"lon": 5.86083, "lat": 49.960281}}, {"id": 2960042, "name": "T\u00e9tange", "state": "", "country": "LU", "coord": {"lon": 6.04222, "lat": 49.47583}}, {"id": 2960044, "name": "Tarchamps", "state": "", "country": "LU", "coord": {"lon": 5.79611, "lat": 49.950562}}, {"id": 2960045, "name": "Tandel", "state": "", "country": "LU", "coord": {"lon": 6.18333, "lat": 49.897499}}, {"id": 2960046, "name": "Tadler", "state": "", "country": "LU", "coord": {"lon": 5.99556, "lat": 49.911388}}, {"id": 2960047, "name": "Syren", "state": "", "country": "LU", "coord": {"lon": 6.22167, "lat": 49.561939}}, {"id": 2960050, "name": "Surr\u00e9", "state": "", "country": "LU", "coord": {"lon": 5.78, "lat": 49.903061}}, {"id": 2960054, "name": "Strassen", "state": "", "country": "LU", "coord": {"lon": 6.07333, "lat": 49.62056}}, {"id": 2960055, "name": "Stolzembourg", "state": "", "country": "LU", "coord": {"lon": 6.16778, "lat": 49.96722}}, {"id": 2960056, "name": "Stockem", "state": "", "country": "LU", "coord": {"lon": 5.95806, "lat": 50.078892}}, {"id": 2960058, "name": "Steinsel", "state": "", "country": "LU", "coord": {"lon": 6.12389, "lat": 49.676941}}, {"id": 2960061, "name": "Steinfort", "state": "", "country": "LU", "coord": {"lon": 5.91917, "lat": 49.661388}}, {"id": 2960062, "name": "Stegen", "state": "", "country": "LU", "coord": {"lon": 6.17194, "lat": 49.830002}}, {"id": 2960063, "name": "Stadtbredimus", "state": "", "country": "LU", "coord": {"lon": 6.36444, "lat": 49.562778}}, {"id": 2960067, "name": "Soleuvre", "state": "", "country": "LU", "coord": {"lon": 5.94056, "lat": 49.525558}}, {"id": 2960068, "name": "Siebenaler", "state": "", "country": "LU", "coord": {"lon": 6.02667, "lat": 50.010559}}, {"id": 2960070, "name": "Septfontaines", "state": "", "country": "LU", "coord": {"lon": 5.96722, "lat": 49.701111}}, {"id": 2960072, "name": "Senningen", "state": "", "country": "LU", "coord": {"lon": 6.23944, "lat": 49.641941}}, {"id": 2960082, "name": "Schuttrange", "state": "", "country": "LU", "coord": {"lon": 6.26861, "lat": 49.62056}}, {"id": 2960083, "name": "Schrondweiler", "state": "", "country": "LU", "coord": {"lon": 6.15917, "lat": 49.797779}}, {"id": 2960084, "name": "Schrassig", "state": "", "country": "LU", "coord": {"lon": 6.25889, "lat": 49.605831}}, {"id": 2960085, "name": "Schouweiler", "state": "", "country": "LU", "coord": {"lon": 5.95639, "lat": 49.5825}}, {"id": 2960088, "name": "Schoos", "state": "", "country": "LU", "coord": {"lon": 6.17083, "lat": 49.744171}}, {"id": 2960089, "name": "Schoenfels", "state": "", "country": "LU", "coord": {"lon": 6.09222, "lat": 49.718891}}, {"id": 2960094, "name": "Schlindermanderscheid", "state": "", "country": "LU", "coord": {"lon": 6.06361, "lat": 49.93306}}, {"id": 2960102, "name": "Schifflange", "state": "", "country": "LU", "coord": {"lon": 6.01278, "lat": 49.50639}}, {"id": 2960103, "name": "Schifflange", "state": "", "country": "LU", "coord": {"lon": 6, "lat": 49.5}}, {"id": 2960104, "name": "Schieren", "state": "", "country": "LU", "coord": {"lon": 6.09861, "lat": 49.830559}}, {"id": 2960107, "name": "Schengen", "state": "", "country": "LU", "coord": {"lon": 6.36583, "lat": 49.471668}}, {"id": 2960108, "name": "Scheidgen", "state": "", "country": "LU", "coord": {"lon": 6.36056, "lat": 49.775002}}, {"id": 2960109, "name": "Scheidel", "state": "", "country": "LU", "coord": {"lon": 6.04472, "lat": 49.893608}}, {"id": 2960111, "name": "Schandel", "state": "", "country": "LU", "coord": {"lon": 5.97583, "lat": 49.792221}}, {"id": 2960112, "name": "Savelborn", "state": "", "country": "LU", "coord": {"lon": 6.25389, "lat": 49.804169}}, {"id": 2960114, "name": "Sassel", "state": "", "country": "LU", "coord": {"lon": 5.9975, "lat": 50.099442}}, {"id": 2960115, "name": "Sanem", "state": "", "country": "LU", "coord": {"lon": 5.92889, "lat": 49.548061}}, {"id": 2960117, "name": "Sandweiler", "state": "", "country": "LU", "coord": {"lon": 6.21889, "lat": 49.613331}}, {"id": 2960120, "name": "Saeul", "state": "", "country": "LU", "coord": {"lon": 5.98639, "lat": 49.727219}}, {"id": 2960123, "name": "Rumelange", "state": "", "country": "LU", "coord": {"lon": 6.03306, "lat": 49.460831}}, {"id": 2960124, "name": "Rumelange", "state": "", "country": "LU", "coord": {"lon": 6, "lat": 49.5}}, {"id": 2960126, "name": "Roost", "state": "", "country": "LU", "coord": {"lon": 6.09611, "lat": 49.786671}}, {"id": 2960127, "name": "Rosport", "state": "", "country": "LU", "coord": {"lon": 6.50417, "lat": 49.797779}}, {"id": 2960128, "name": "Roodt-sur-Syre", "state": "", "country": "LU", "coord": {"lon": 6.30278, "lat": 49.662498}}, {"id": 2960130, "name": "Roodt", "state": "", "country": "LU", "coord": {"lon": 5.82167, "lat": 49.794441}}, {"id": 2960133, "name": "Rollingen", "state": "", "country": "LU", "coord": {"lon": 6.11444, "lat": 49.741669}}, {"id": 2960135, "name": "Roeser", "state": "", "country": "LU", "coord": {"lon": 6.15, "lat": 49.542221}}, {"id": 2960136, "name": "Roedt", "state": "", "country": "LU", "coord": {"lon": 6.285, "lat": 49.56778}}, {"id": 2960137, "name": "Roedgen", "state": "", "country": "LU", "coord": {"lon": 6.03472, "lat": 49.574718}}, {"id": 2960139, "name": "Rodershausen", "state": "", "country": "LU", "coord": {"lon": 6.13111, "lat": 50.036671}}, {"id": 2960140, "name": "Roder", "state": "", "country": "LU", "coord": {"lon": 6.08361, "lat": 50.055828}}, {"id": 2960141, "name": "Rodenbourg", "state": "", "country": "LU", "coord": {"lon": 6.28917, "lat": 49.682499}}, {"id": 2960143, "name": "Rodange", "state": "", "country": "LU", "coord": {"lon": 5.84083, "lat": 49.546391}}, {"id": 2960144, "name": "Rippweiler", "state": "", "country": "LU", "coord": {"lon": 5.9575, "lat": 49.751671}}, {"id": 2960145, "name": "Rippig", "state": "", "country": "LU", "coord": {"lon": 6.31944, "lat": 49.734169}}, {"id": 2960149, "name": "Reuler", "state": "", "country": "LU", "coord": {"lon": 6.0375, "lat": 50.057781}}, {"id": 2960150, "name": "Reuland", "state": "", "country": "LU", "coord": {"lon": 6.26028, "lat": 49.74667}}, {"id": 2960152, "name": "Remich", "state": "", "country": "LU", "coord": {"lon": 6.33333, "lat": 49.533329}}, {"id": 2960154, "name": "Remich", "state": "", "country": "LU", "coord": {"lon": 6.36694, "lat": 49.544998}}, {"id": 2960155, "name": "Remerschen", "state": "", "country": "LU", "coord": {"lon": 6.35167, "lat": 49.488609}}, {"id": 2960156, "name": "Reisdorf", "state": "", "country": "LU", "coord": {"lon": 6.26778, "lat": 49.86861}}, {"id": 2960157, "name": "Reimberg", "state": "", "country": "LU", "coord": {"lon": 5.95389, "lat": 49.797218}}, {"id": 2960158, "name": "Reichlange", "state": "", "country": "LU", "coord": {"lon": 5.92806, "lat": 49.773609}}, {"id": 2960160, "name": "Redange-sur-Attert", "state": "", "country": "LU", "coord": {"lon": 5.89083, "lat": 49.76556}}, {"id": 2960161, "name": "Redange", "state": "", "country": "LU", "coord": {"lon": 5.9, "lat": 49.799999}}, {"id": 2960164, "name": "Reckange-sur-Mess", "state": "", "country": "LU", "coord": {"lon": 6.00889, "lat": 49.5625}}, {"id": 2960165, "name": "Reckange", "state": "", "country": "LU", "coord": {"lon": 6.08306, "lat": 49.749722}}, {"id": 2960166, "name": "Rameldange", "state": "", "country": "LU", "coord": {"lon": 6.23361, "lat": 49.65694}}, {"id": 2960167, "name": "Rambrouch", "state": "", "country": "LU", "coord": {"lon": 5.845, "lat": 49.83083}}, {"id": 2960168, "name": "Putscheid", "state": "", "country": "LU", "coord": {"lon": 6.14306, "lat": 49.960831}}, {"id": 2960171, "name": "Pratz", "state": "", "country": "LU", "coord": {"lon": 5.93917, "lat": 49.80167}}, {"id": 2960174, "name": "Pontpierre", "state": "", "country": "LU", "coord": {"lon": 6.02944, "lat": 49.536388}}, {"id": 2960176, "name": "Platen", "state": "", "country": "LU", "coord": {"lon": 5.93472, "lat": 49.791111}}, {"id": 2960178, "name": "Pissange", "state": "", "country": "LU", "coord": {"lon": 6.00028, "lat": 49.549438}}, {"id": 2960180, "name": "Pintsch", "state": "", "country": "LU", "coord": {"lon": 6.01306, "lat": 49.994438}}, {"id": 2960183, "name": "Pettingen", "state": "", "country": "LU", "coord": {"lon": 6.10917, "lat": 49.770279}}, {"id": 2960185, "name": "Petit-Nobressart", "state": "", "country": "LU", "coord": {"lon": 5.80944, "lat": 49.77972}}, {"id": 2960187, "name": "P\u00e9tange", "state": "", "country": "LU", "coord": {"lon": 5.88056, "lat": 49.558331}}, {"id": 2960188, "name": "P\u00e9tange", "state": "", "country": "LU", "coord": {"lon": 5.88333, "lat": 49.549999}}, {"id": 2960189, "name": "Perl\u00e9", "state": "", "country": "LU", "coord": {"lon": 5.76583, "lat": 49.811668}}, {"id": 2960190, "name": "Peppange", "state": "", "country": "LU", "coord": {"lon": 6.12972, "lat": 49.524441}}, {"id": 2960194, "name": "Osweiler", "state": "", "country": "LU", "coord": {"lon": 6.44139, "lat": 49.778889}}, {"id": 2960195, "name": "Ospern", "state": "", "country": "LU", "coord": {"lon": 5.90444, "lat": 49.78389}}, {"id": 2960197, "name": "Olm", "state": "", "country": "LU", "coord": {"lon": 6.00028, "lat": 49.657219}}, {"id": 2960200, "name": "Oetrange", "state": "", "country": "LU", "coord": {"lon": 6.26, "lat": 49.59639}}, {"id": 2960201, "name": "Oberwampach", "state": "", "country": "LU", "coord": {"lon": 5.86083, "lat": 50.01667}}, {"id": 2960205, "name": "Oberpallen", "state": "", "country": "LU", "coord": {"lon": 5.84389, "lat": 49.730282}}, {"id": 2960207, "name": "Obercorn", "state": "", "country": "LU", "coord": {"lon": 5.89611, "lat": 49.513611}}, {"id": 2960209, "name": "Oberfeulen", "state": "", "country": "LU", "coord": {"lon": 6.03556, "lat": 49.848061}}, {"id": 2960211, "name": "Oberdonven", "state": "", "country": "LU", "coord": {"lon": 6.40056, "lat": 49.646671}}, {"id": 2960212, "name": "Oberanven", "state": "", "country": "LU", "coord": {"lon": 6.24111, "lat": 49.65361}}, {"id": 2960213, "name": "Nothum", "state": "", "country": "LU", "coord": {"lon": 5.88278, "lat": 49.941391}}, {"id": 2960214, "name": "Nospelt", "state": "", "country": "LU", "coord": {"lon": 6.00889, "lat": 49.675282}}, {"id": 2960216, "name": "Nommern", "state": "", "country": "LU", "coord": {"lon": 6.17472, "lat": 49.786942}}, {"id": 2960217, "name": "Noertzange", "state": "", "country": "LU", "coord": {"lon": 6.05611, "lat": 49.509171}}, {"id": 2960219, "name": "Noerdange", "state": "", "country": "LU", "coord": {"lon": 5.92611, "lat": 49.742222}}, {"id": 2960221, "name": "Nocher", "state": "", "country": "LU", "coord": {"lon": 5.97917, "lat": 49.947498}}, {"id": 2960223, "name": "Niederwampach", "state": "", "country": "LU", "coord": {"lon": 5.84361, "lat": 50.011669}}, {"id": 2960226, "name": "Niederpallen", "state": "", "country": "LU", "coord": {"lon": 5.91222, "lat": 49.75528}}, {"id": 2960228, "name": "Niedercorn", "state": "", "country": "LU", "coord": {"lon": 5.89306, "lat": 49.53611}}, {"id": 2960231, "name": "Niederanven", "state": "", "country": "LU", "coord": {"lon": 6.26, "lat": 49.647499}}, {"id": 2960234, "name": "Neunhausen", "state": "", "country": "LU", "coord": {"lon": 5.88722, "lat": 49.877499}}, {"id": 2960243, "name": "Neidhausen", "state": "", "country": "LU", "coord": {"lon": 6.06667, "lat": 50.028889}}, {"id": 2960244, "name": "Nagem", "state": "", "country": "LU", "coord": {"lon": 5.85778, "lat": 49.789169}}, {"id": 2960245, "name": "Nachtmanderscheid", "state": "", "country": "LU", "coord": {"lon": 6.12944, "lat": 49.94833}}, {"id": 2960247, "name": "Munshausen", "state": "", "country": "LU", "coord": {"lon": 6.03861, "lat": 50.033611}}, {"id": 2960250, "name": "M\u00fcllendorf", "state": "", "country": "LU", "coord": {"lon": 6.13, "lat": 49.680279}}, {"id": 2960252, "name": "Moutfort", "state": "", "country": "LU", "coord": {"lon": 6.25556, "lat": 49.585281}}, {"id": 2960257, "name": "Mondorf-les-Bains", "state": "", "country": "LU", "coord": {"lon": 6.28111, "lat": 49.505001}}, {"id": 2960258, "name": "Mondercange", "state": "", "country": "LU", "coord": {"lon": 5.98833, "lat": 49.533058}}, {"id": 2960259, "name": "Mompach", "state": "", "country": "LU", "coord": {"lon": 6.465, "lat": 49.746109}}, {"id": 2960260, "name": "Moestroff", "state": "", "country": "LU", "coord": {"lon": 6.23944, "lat": 49.867779}}, {"id": 2960261, "name": "Moesdorf", "state": "", "country": "LU", "coord": {"lon": 6.11667, "lat": 49.768059}}, {"id": 2960262, "name": "Moersdorf", "state": "", "country": "LU", "coord": {"lon": 6.5, "lat": 49.738331}}, {"id": 2960266, "name": "Michelbouch", "state": "", "country": "LU", "coord": {"lon": 6.02028, "lat": 49.818611}}, {"id": 2960267, "name": "Michelau", "state": "", "country": "LU", "coord": {"lon": 6.09194, "lat": 49.900002}}, {"id": 2960270, "name": "Mertzig", "state": "", "country": "LU", "coord": {"lon": 6.0075, "lat": 49.833889}}, {"id": 2960271, "name": "Mertert", "state": "", "country": "LU", "coord": {"lon": 6.48139, "lat": 49.69611}}, {"id": 2960273, "name": "Merscheid", "state": "", "country": "LU", "coord": {"lon": 6.10694, "lat": 49.95472}}, {"id": 2960275, "name": "Mersch", "state": "", "country": "LU", "coord": {"lon": 6.1, "lat": 49.75}}, {"id": 2960276, "name": "Mersch", "state": "", "country": "LU", "coord": {"lon": 6.10611, "lat": 49.74889}}, {"id": 2960278, "name": "Merkholz", "state": "", "country": "LU", "coord": {"lon": 5.98167, "lat": 49.962502}}, {"id": 2960280, "name": "Mensdorf", "state": "", "country": "LU", "coord": {"lon": 6.30361, "lat": 49.650829}}, {"id": 2960281, "name": "Meispelt", "state": "", "country": "LU", "coord": {"lon": 6.05917, "lat": 49.691109}}, {"id": 2960282, "name": "Medingen", "state": "", "country": "LU", "coord": {"lon": 6.24861, "lat": 49.572781}}, {"id": 2960283, "name": "Medernach", "state": "", "country": "LU", "coord": {"lon": 6.21833, "lat": 49.801941}}, {"id": 2960285, "name": "Mecher", "state": "", "country": "LU", "coord": {"lon": 5.87222, "lat": 49.923328}}, {"id": 2960288, "name": "Massen", "state": "", "country": "LU", "coord": {"lon": 5.99278, "lat": 50.1175}}, {"id": 2960293, "name": "Marnach", "state": "", "country": "LU", "coord": {"lon": 6.06194, "lat": 50.053329}}, {"id": 2960294, "name": "Marienthal", "state": "", "country": "LU", "coord": {"lon": 6.06167, "lat": 49.709999}}, {"id": 2960296, "name": "Manternach", "state": "", "country": "LU", "coord": {"lon": 6.42639, "lat": 49.702782}}, {"id": 2960299, "name": "Mamer", "state": "", "country": "LU", "coord": {"lon": 6.02333, "lat": 49.627499}}, {"id": 2960312, "name": "Machtum", "state": "", "country": "LU", "coord": {"lon": 6.43444, "lat": 49.65556}}, {"id": 2960313, "name": "Grand Duchy of Luxembourg", "state": "", "country": "LU", "coord": {"lon": 6.16667, "lat": 49.75}}, {"id": 2960314, "name": "District de Luxembourg", "state": "", "country": "LU", "coord": {"lon": 6.16667, "lat": 49.583328}}, {"id": 2960315, "name": "Luxembourg", "state": "", "country": "LU", "coord": {"lon": 6.13333, "lat": 49.599998}}, {"id": 2960316, "name": "Luxembourg", "state": "", "country": "LU", "coord": {"lon": 6.13, "lat": 49.611671}}, {"id": 2960318, "name": "Lultzhausen", "state": "", "country": "LU", "coord": {"lon": 5.89083, "lat": 49.909439}}, {"id": 2960319, "name": "Lullange", "state": "", "country": "LU", "coord": {"lon": 5.94194, "lat": 50.060001}}, {"id": 2960322, "name": "Lorentzweiler", "state": "", "country": "LU", "coord": {"lon": 6.1425, "lat": 49.694721}}, {"id": 2960324, "name": "Longsdorf", "state": "", "country": "LU", "coord": {"lon": 6.20528, "lat": 49.898891}}, {"id": 2960326, "name": "Livange", "state": "", "country": "LU", "coord": {"lon": 6.12028, "lat": 49.530281}}, {"id": 2960327, "name": "Lipperscheid", "state": "", "country": "LU", "coord": {"lon": 6.08667, "lat": 49.91861}}, {"id": 2960328, "name": "Lintgen", "state": "", "country": "LU", "coord": {"lon": 6.13361, "lat": 49.715832}}, {"id": 2960329, "name": "Linger", "state": "", "country": "LU", "coord": {"lon": 5.88667, "lat": 49.56583}}, {"id": 2960331, "name": "Limpach", "state": "", "country": "LU", "coord": {"lon": 5.98056, "lat": 49.558891}}, {"id": 2960332, "name": "Lieler", "state": "", "country": "LU", "coord": {"lon": 6.11, "lat": 50.124439}}, {"id": 2960333, "name": "Liefrange", "state": "", "country": "LU", "coord": {"lon": 5.8775, "lat": 49.91}}, {"id": 2960335, "name": "Leudelange", "state": "", "country": "LU", "coord": {"lon": 6.06528, "lat": 49.568329}}, {"id": 2960336, "name": "Lentzweiler", "state": "", "country": "LU", "coord": {"lon": 5.97806, "lat": 50.07}}, {"id": 2960337, "name": "Lenningen", "state": "", "country": "LU", "coord": {"lon": 6.36806, "lat": 49.59861}}, {"id": 2960340, "name": "Lellingen", "state": "", "country": "LU", "coord": {"lon": 6.01444, "lat": 49.983608}}, {"id": 2960342, "name": "Lellig", "state": "", "country": "LU", "coord": {"lon": 6.43639, "lat": 49.71611}}, {"id": 2960343, "name": "Leithum", "state": "", "country": "LU", "coord": {"lon": 6.10889, "lat": 50.160831}}, {"id": 2960350, "name": "Larochette", "state": "", "country": "LU", "coord": {"lon": 6.22111, "lat": 49.776939}}, {"id": 2960352, "name": "Lannen", "state": "", "country": "LU", "coord": {"lon": 5.83972, "lat": 49.78944}}, {"id": 2960358, "name": "Lamadelaine", "state": "", "country": "LU", "coord": {"lon": 5.85639, "lat": 49.546391}}, {"id": 2960359, "name": "Kuborn", "state": "", "country": "LU", "coord": {"lon": 5.90306, "lat": 49.87056}}, {"id": 2960363, "name": "Kopstal", "state": "", "country": "LU", "coord": {"lon": 6.07306, "lat": 49.66444}}, {"id": 2960366, "name": "Koetschette", "state": "", "country": "LU", "coord": {"lon": 5.84028, "lat": 49.838058}}, {"id": 2960367, "name": "Koerich", "state": "", "country": "LU", "coord": {"lon": 5.95, "lat": 49.669998}}, {"id": 2960370, "name": "Kockelscheuer", "state": "", "country": "LU", "coord": {"lon": 6.11222, "lat": 49.561111}}, {"id": 2960372, "name": "Kobenbour", "state": "", "country": "LU", "coord": {"lon": 6.30611, "lat": 49.750278}}, {"id": 2960373, "name": "Knaphoscheid", "state": "", "country": "LU", "coord": {"lon": 5.96472, "lat": 50.013329}}, {"id": 2960378, "name": "Kleinbettingen", "state": "", "country": "LU", "coord": {"lon": 5.91639, "lat": 49.646389}}, {"id": 2960387, "name": "Keispelt", "state": "", "country": "LU", "coord": {"lon": 6.06944, "lat": 49.694439}}, {"id": 2960389, "name": "Kehlen", "state": "", "country": "LU", "coord": {"lon": 6.03583, "lat": 49.668331}}, {"id": 2960391, "name": "Kayl", "state": "", "country": "LU", "coord": {"lon": 6.03972, "lat": 49.48917}}, {"id": 2960392, "name": "Kayl", "state": "", "country": "LU", "coord": {"lon": 6, "lat": 49.5}}, {"id": 2960393, "name": "Kautenbach", "state": "", "country": "LU", "coord": {"lon": 6.02, "lat": 49.952782}}, {"id": 2960394, "name": "Kaundorf", "state": "", "country": "LU", "coord": {"lon": 5.90306, "lat": 49.921391}}, {"id": 2960399, "name": "Kahler", "state": "", "country": "LU", "coord": {"lon": 5.91778, "lat": 49.63139}}, {"id": 2960400, "name": "Junglinster", "state": "", "country": "LU", "coord": {"lon": 6.25306, "lat": 49.707218}}, {"id": 2960410, "name": "Itzig", "state": "", "country": "LU", "coord": {"lon": 6.17361, "lat": 49.584171}}, {"id": 2960413, "name": "Insenborn", "state": "", "country": "LU", "coord": {"lon": 5.88472, "lat": 49.901669}}, {"id": 2960414, "name": "Ingeldorf", "state": "", "country": "LU", "coord": {"lon": 6.13472, "lat": 49.85194}}, {"id": 2960415, "name": "Imbringen", "state": "", "country": "LU", "coord": {"lon": 6.1975, "lat": 49.697498}}, {"id": 2960417, "name": "Huttange", "state": "", "country": "LU", "coord": {"lon": 5.89861, "lat": 49.736111}}, {"id": 2960418, "name": "Hupperdange", "state": "", "country": "LU", "coord": {"lon": 6.05917, "lat": 50.096111}}, {"id": 2960420, "name": "Huncherange", "state": "", "country": "LU", "coord": {"lon": 6.065, "lat": 49.516941}}, {"id": 2960421, "name": "Huldange", "state": "", "country": "LU", "coord": {"lon": 6.015, "lat": 50.164719}}, {"id": 2960424, "name": "Hovelange", "state": "", "country": "LU", "coord": {"lon": 5.90722, "lat": 49.7225}}, {"id": 2960427, "name": "Hostert", "state": "", "country": "LU", "coord": {"lon": 6.235, "lat": 49.650829}}, {"id": 2960429, "name": "Hosingen", "state": "", "country": "LU", "coord": {"lon": 6.09333, "lat": 50.01778}}, {"id": 2960432, "name": "Hoscheid", "state": "", "country": "LU", "coord": {"lon": 6.08167, "lat": 49.94722}}, {"id": 2960436, "name": "Holzthum", "state": "", "country": "LU", "coord": {"lon": 6.07333, "lat": 49.985001}}, {"id": 2960437, "name": "Holzem", "state": "", "country": "LU", "coord": {"lon": 5.99028, "lat": 49.61639}}, {"id": 2960438, "name": "Holtz", "state": "", "country": "LU", "coord": {"lon": 5.79167, "lat": 49.80722}}, {"id": 2960441, "name": "Hollenfels", "state": "", "country": "LU", "coord": {"lon": 6.05083, "lat": 49.713058}}, {"id": 2960447, "name": "Hoffelt", "state": "", "country": "LU", "coord": {"lon": 5.92333, "lat": 50.09972}}, {"id": 2960450, "name": "Hoesdorf", "state": "", "country": "LU", "coord": {"lon": 6.25806, "lat": 49.883888}}, {"id": 2960453, "name": "Hobscheid", "state": "", "country": "LU", "coord": {"lon": 5.91472, "lat": 49.68861}}, {"id": 2960454, "name": "Hivange", "state": "", "country": "LU", "coord": {"lon": 5.93222, "lat": 49.60722}}, {"id": 2960457, "name": "Hesperange", "state": "", "country": "LU", "coord": {"lon": 6.15139, "lat": 49.568062}}, {"id": 2960467, "name": "Hemstal", "state": "", "country": "LU", "coord": {"lon": 6.33611, "lat": 49.73444}}, {"id": 2960468, "name": "Helmsange", "state": "", "country": "LU", "coord": {"lon": 6.14139, "lat": 49.652779}}, {"id": 2960469, "name": "Helmdange", "state": "", "country": "LU", "coord": {"lon": 6.14361, "lat": 49.687222}}, {"id": 2960470, "name": "Hellange", "state": "", "country": "LU", "coord": {"lon": 6.15056, "lat": 49.506672}}, {"id": 2960471, "name": "Heispelt", "state": "", "country": "LU", "coord": {"lon": 5.88056, "lat": 49.85722}}, {"id": 2960472, "name": "Heisdorf", "state": "", "country": "LU", "coord": {"lon": 6.14222, "lat": 49.66861}}, {"id": 2960475, "name": "Heinerscheid", "state": "", "country": "LU", "coord": {"lon": 6.08806, "lat": 50.096111}}, {"id": 2960478, "name": "Heiderscheid", "state": "", "country": "LU", "coord": {"lon": 5.97889, "lat": 49.888889}}, {"id": 2960481, "name": "Heffingen", "state": "", "country": "LU", "coord": {"lon": 6.24139, "lat": 49.762501}}, {"id": 2960485, "name": "Hautcharage", "state": "", "country": "LU", "coord": {"lon": 5.91083, "lat": 49.577499}}, {"id": 2960486, "name": "Hautbellain", "state": "", "country": "LU", "coord": {"lon": 5.97861, "lat": 50.15667}}, {"id": 2960488, "name": "Hassel", "state": "", "country": "LU", "coord": {"lon": 6.20917, "lat": 49.548611}}, {"id": 2960491, "name": "Harlange", "state": "", "country": "LU", "coord": {"lon": 5.79, "lat": 49.931389}}, {"id": 2960494, "name": "Hamiville", "state": "", "country": "LU", "coord": {"lon": 5.90417, "lat": 50.046108}}, {"id": 2960497, "name": "Haller", "state": "", "country": "LU", "coord": {"lon": 6.2825, "lat": 49.8125}}, {"id": 2960499, "name": "Hagelsdorf", "state": "", "country": "LU", "coord": {"lon": 6.36556, "lat": 49.687778}}, {"id": 2960501, "name": "Hachiville", "state": "", "country": "LU", "coord": {"lon": 5.92333, "lat": 50.108059}}, {"id": 2960504, "name": "Grundhof", "state": "", "country": "LU", "coord": {"lon": 6.33139, "lat": 49.834999}}, {"id": 2960506, "name": "Grumelscheid", "state": "", "country": "LU", "coord": {"lon": 5.8725, "lat": 49.98444}}, {"id": 2960510, "name": "Grosbous", "state": "", "country": "LU", "coord": {"lon": 5.96722, "lat": 49.827782}}, {"id": 2960513, "name": "District de Grevenmacher", "state": "", "country": "LU", "coord": {"lon": 6.41667, "lat": 49.666672}}, {"id": 2960514, "name": "Grevenmacher", "state": "", "country": "LU", "coord": {"lon": 6.33333, "lat": 49.666672}}, {"id": 2960515, "name": "Grevenmacher", "state": "", "country": "LU", "coord": {"lon": 6.44194, "lat": 49.674721}}, {"id": 2960517, "name": "Grevenknapp", "state": "", "country": "LU", "coord": {"lon": 6.03389, "lat": 49.762501}}, {"id": 2960519, "name": "Grevels", "state": "", "country": "LU", "coord": {"lon": 5.91583, "lat": 49.853062}}, {"id": 2960523, "name": "Greiveldange", "state": "", "country": "LU", "coord": {"lon": 6.35917, "lat": 49.583889}}, {"id": 2960524, "name": "Greisch", "state": "", "country": "LU", "coord": {"lon": 5.98833, "lat": 49.709721}}, {"id": 2960525, "name": "Graulinster", "state": "", "country": "LU", "coord": {"lon": 6.28722, "lat": 49.734718}}, {"id": 2960531, "name": "Gosseldange", "state": "", "country": "LU", "coord": {"lon": 6.11694, "lat": 49.726391}}, {"id": 2960532, "name": "Gonderange", "state": "", "country": "LU", "coord": {"lon": 6.24833, "lat": 49.688889}}, {"id": 2960533, "name": "Goetzingen", "state": "", "country": "LU", "coord": {"lon": 5.98167, "lat": 49.660278}}, {"id": 2960537, "name": "Goeblange", "state": "", "country": "LU", "coord": {"lon": 5.96528, "lat": 49.66972}}, {"id": 2960539, "name": "Godbrange", "state": "", "country": "LU", "coord": {"lon": 6.23194, "lat": 49.728889}}, {"id": 2960542, "name": "Girst", "state": "", "country": "LU", "coord": {"lon": 6.49889, "lat": 49.76722}}, {"id": 2960543, "name": "Gilsdorf", "state": "", "country": "LU", "coord": {"lon": 6.1825, "lat": 49.86694}}, {"id": 2960545, "name": "Geyershaff", "state": "", "country": "LU", "coord": {"lon": 6.38778, "lat": 49.759171}}, {"id": 2960549, "name": "Garnich", "state": "", "country": "LU", "coord": {"lon": 5.9525, "lat": 49.616669}}, {"id": 2960556, "name": "Frisange", "state": "", "country": "LU", "coord": {"lon": 6.19167, "lat": 49.514999}}, {"id": 2960561, "name": "Fouhren", "state": "", "country": "LU", "coord": {"lon": 6.19611, "lat": 49.915562}}, {"id": 2960563, "name": "Folschette", "state": "", "country": "LU", "coord": {"lon": 5.87472, "lat": 49.814171}}, {"id": 2960564, "name": "Folkendange", "state": "", "country": "LU", "coord": {"lon": 6.20417, "lat": 49.84306}}, {"id": 2960565, "name": "Foetz", "state": "", "country": "LU", "coord": {"lon": 6.01083, "lat": 49.529442}}, {"id": 2960568, "name": "Flaxweiler", "state": "", "country": "LU", "coord": {"lon": 6.34361, "lat": 49.661671}}, {"id": 2960571, "name": "Fischbach", "state": "", "country": "LU", "coord": {"lon": 6.18722, "lat": 49.739719}}, {"id": 2960573, "name": "Fingig", "state": "", "country": "LU", "coord": {"lon": 5.90083, "lat": 49.603611}}, {"id": 2960575, "name": "Findel", "state": "", "country": "LU", "coord": {"lon": 6.20278, "lat": 49.62389}}, {"id": 2960576, "name": "Filsdorf", "state": "", "country": "LU", "coord": {"lon": 6.24833, "lat": 49.532501}}, {"id": 2960577, "name": "Niederfeulen", "state": "", "country": "LU", "coord": {"lon": 6.04722, "lat": 49.85556}}, {"id": 2960583, "name": "Roudenhaff", "state": "", "country": "LU", "coord": {"lon": 5.84722, "lat": 49.531109}}, {"id": 2960584, "name": "Fentange", "state": "", "country": "LU", "coord": {"lon": 6.15389, "lat": 49.562778}}, {"id": 2960586, "name": "Fennange", "state": "", "country": "LU", "coord": {"lon": 6.07833, "lat": 49.519718}}, {"id": 2960588, "name": "Everlange", "state": "", "country": "LU", "coord": {"lon": 5.95556, "lat": 49.77417}}, {"id": 2960589, "name": "Ettelbruck", "state": "", "country": "LU", "coord": {"lon": 6.10417, "lat": 49.8475}}, {"id": 2960590, "name": "Ettelbruck", "state": "", "country": "LU", "coord": {"lon": 6.08333, "lat": 49.833328}}, {"id": 2960592, "name": "Eselborn", "state": "", "country": "LU", "coord": {"lon": 6.00361, "lat": 50.062778}}, {"id": 2960595, "name": "Esch-sur-S\u00fbre", "state": "", "country": "LU", "coord": {"lon": 5.93639, "lat": 49.911388}}, {"id": 2960596, "name": "Esch-sur-Alzette", "state": "", "country": "LU", "coord": {"lon": 5.98056, "lat": 49.495831}}, {"id": 2960597, "name": "Eschette", "state": "", "country": "LU", "coord": {"lon": 5.88833, "lat": 49.823059}}, {"id": 2960598, "name": "Eschdorf", "state": "", "country": "LU", "coord": {"lon": 5.93667, "lat": 49.886108}}, {"id": 2960599, "name": "Canton d'Esch-sur-Alzette", "state": "", "country": "LU", "coord": {"lon": 6.03333, "lat": 49.5}}, {"id": 2960600, "name": "Ersange", "state": "", "country": "LU", "coord": {"lon": 6.27556, "lat": 49.57444}}, {"id": 2960601, "name": "Erpeldange", "state": "", "country": "LU", "coord": {"lon": 6.11472, "lat": 49.864719}}, {"id": 2960605, "name": "Ernzen", "state": "", "country": "LU", "coord": {"lon": 6.22194, "lat": 49.765831}}, {"id": 2960607, "name": "Ernster", "state": "", "country": "LU", "coord": {"lon": 6.24722, "lat": 49.67556}}, {"id": 2960608, "name": "Ermsdorf", "state": "", "country": "LU", "coord": {"lon": 6.22278, "lat": 49.829441}}, {"id": 2960609, "name": "Eppeldorf", "state": "", "country": "LU", "coord": {"lon": 6.24972, "lat": 49.84444}}, {"id": 2960610, "name": "Enscherange", "state": "", "country": "LU", "coord": {"lon": 5.99278, "lat": 49.999439}}, {"id": 2960611, "name": "Emerange", "state": "", "country": "LU", "coord": {"lon": 6.29167, "lat": 49.486938}}, {"id": 2960613, "name": "Elvange", "state": "", "country": "LU", "coord": {"lon": 6.31639, "lat": 49.50528}}, {"id": 2960614, "name": "Eltz", "state": "", "country": "LU", "coord": {"lon": 5.895, "lat": 49.778332}}, {"id": 2960615, "name": "Ellange", "state": "", "country": "LU", "coord": {"lon": 6.29833, "lat": 49.52}}, {"id": 2960616, "name": "Ell", "state": "", "country": "LU", "coord": {"lon": 5.85722, "lat": 49.763889}}, {"id": 2960617, "name": "Eisenborn", "state": "", "country": "LU", "coord": {"lon": 6.18528, "lat": 49.686668}}, {"id": 2960618, "name": "Eischen", "state": "", "country": "LU", "coord": {"lon": 5.87861, "lat": 49.685558}}, {"id": 2960625, "name": "Ehnen", "state": "", "country": "LU", "coord": {"lon": 6.38778, "lat": 49.59972}}, {"id": 2960627, "name": "Ehlerange", "state": "", "country": "LU", "coord": {"lon": 5.96611, "lat": 49.52417}}, {"id": 2960628, "name": "Ehlange", "state": "", "country": "LU", "coord": {"lon": 6.01694, "lat": 49.548889}}, {"id": 2960629, "name": "Canton d'Echternach", "state": "", "country": "LU", "coord": {"lon": 6.36667, "lat": 49.76667}}, {"id": 2960630, "name": "Echternach", "state": "", "country": "LU", "coord": {"lon": 6.42222, "lat": 49.805561}}, {"id": 2960631, "name": "Echternach", "state": "", "country": "LU", "coord": {"lon": 6.42185, "lat": 49.813068}}, {"id": 2960634, "name": "Dudelange", "state": "", "country": "LU", "coord": {"lon": 6.0875, "lat": 49.48056}}, {"id": 2960635, "name": "Dudelange", "state": "", "country": "LU", "coord": {"lon": 6.08333, "lat": 49.5}}, {"id": 2960636, "name": "Drinklange", "state": "", "country": "LU", "coord": {"lon": 6.01917, "lat": 50.13361}}, {"id": 2960638, "name": "Drauffelt", "state": "", "country": "LU", "coord": {"lon": 6.00611, "lat": 50.01778}}, {"id": 2960641, "name": "Dorscheid", "state": "", "country": "LU", "coord": {"lon": 6.07139, "lat": 50.03611}}, {"id": 2960643, "name": "Doennange", "state": "", "country": "LU", "coord": {"lon": 5.95583, "lat": 50.062222}}, {"id": 2960644, "name": "Doncols", "state": "", "country": "LU", "coord": {"lon": 5.83722, "lat": 49.970001}}, {"id": 2960647, "name": "Dirbach", "state": "", "country": "LU", "coord": {"lon": 6.03833, "lat": 49.921108}}, {"id": 2960648, "name": "Dippach", "state": "", "country": "LU", "coord": {"lon": 5.98333, "lat": 49.588329}}, {"id": 2960649, "name": "Dillingen", "state": "", "country": "LU", "coord": {"lon": 6.31917, "lat": 49.853611}}, {"id": 2960651, "name": "Differdange", "state": "", "country": "LU", "coord": {"lon": 5.89139, "lat": 49.52417}}, {"id": 2960652, "name": "Differdange", "state": "", "country": "LU", "coord": {"lon": 5.88333, "lat": 49.51667}}, {"id": 2960655, "name": "District de Diekirch", "state": "", "country": "LU", "coord": {"lon": 6, "lat": 49.916672}}, {"id": 2960656, "name": "Diekirch", "state": "", "country": "LU", "coord": {"lon": 6.16667, "lat": 49.866669}}, {"id": 2960657, "name": "Diekirch", "state": "", "country": "LU", "coord": {"lon": 6.15583, "lat": 49.867779}}, {"id": 2960659, "name": "Dickweiler", "state": "", "country": "LU", "coord": {"lon": 6.47222, "lat": 49.7775}}, {"id": 2960660, "name": "Derenbach", "state": "", "country": "LU", "coord": {"lon": 5.88972, "lat": 50.014999}}, {"id": 2960665, "name": "Dalheim", "state": "", "country": "LU", "coord": {"lon": 6.25972, "lat": 49.540829}}, {"id": 2960667, "name": "Dahl", "state": "", "country": "LU", "coord": {"lon": 5.97583, "lat": 49.93528}}, {"id": 2960668, "name": "Cruchten", "state": "", "country": "LU", "coord": {"lon": 6.13278, "lat": 49.791939}}, {"id": 2960672, "name": "Crauthem", "state": "", "country": "LU", "coord": {"lon": 6.14694, "lat": 49.535561}}, {"id": 2960673, "name": "Contern", "state": "", "country": "LU", "coord": {"lon": 6.22667, "lat": 49.58194}}, {"id": 2960674, "name": "Consthum", "state": "", "country": "LU", "coord": {"lon": 6.05417, "lat": 49.97472}}, {"id": 2960675, "name": "Consdorf", "state": "", "country": "LU", "coord": {"lon": 6.33833, "lat": 49.77306}}, {"id": 2960676, "name": "Colpach-Haut", "state": "", "country": "LU", "coord": {"lon": 5.82, "lat": 49.768608}}, {"id": 2960680, "name": "Colmar", "state": "", "country": "LU", "coord": {"lon": 6.09722, "lat": 49.81028}}, {"id": 2960683, "name": "Clervaux", "state": "", "country": "LU", "coord": {"lon": 6, "lat": 50.083328}}, {"id": 2960684, "name": "Clervaux", "state": "", "country": "LU", "coord": {"lon": 6.03139, "lat": 50.054722}}, {"id": 2960687, "name": "Clemency", "state": "", "country": "LU", "coord": {"lon": 5.87583, "lat": 49.596668}}, {"id": 2960691, "name": "Christnach", "state": "", "country": "LU", "coord": {"lon": 6.27361, "lat": 49.781109}}, {"id": 2960692, "name": "Ch\u00e2teau Faubourg", "state": "", "country": "LU", "coord": {"lon": 6.21667, "lat": 49.933331}}, {"id": 2960694, "name": "Cessange", "state": "", "country": "LU", "coord": {"lon": 6.10694, "lat": 49.589439}}, {"id": 2960696, "name": "Capellen", "state": "", "country": "LU", "coord": {"lon": 6, "lat": 49.633331}}, {"id": 2960697, "name": "Capellen", "state": "", "country": "LU", "coord": {"lon": 5.99083, "lat": 49.645}}, {"id": 2960699, "name": "Canach", "state": "", "country": "LU", "coord": {"lon": 6.32583, "lat": 49.606941}}, {"id": 2960700, "name": "Calmus", "state": "", "country": "LU", "coord": {"lon": 5.96444, "lat": 49.725559}}, {"id": 2960702, "name": "Buschrodt", "state": "", "country": "LU", "coord": {"lon": 5.93583, "lat": 49.827221}}, {"id": 2960703, "name": "Buschdorf", "state": "", "country": "LU", "coord": {"lon": 6.00833, "lat": 49.750832}}, {"id": 2960704, "name": "Burmerange", "state": "", "country": "LU", "coord": {"lon": 6.32306, "lat": 49.485279}}, {"id": 2960706, "name": "Burden", "state": "", "country": "LU", "coord": {"lon": 6.09889, "lat": 49.88306}}, {"id": 2960718, "name": "Brouch", "state": "", "country": "LU", "coord": {"lon": 6.02306, "lat": 49.736111}}, {"id": 2960720, "name": "Bridel", "state": "", "country": "LU", "coord": {"lon": 6.08222, "lat": 49.658329}}, {"id": 2960721, "name": "Breinert", "state": "", "country": "LU", "coord": {"lon": 6.34056, "lat": 49.706669}}, {"id": 2960722, "name": "Breidweiler", "state": "", "country": "LU", "coord": {"lon": 6.30417, "lat": 49.770828}}, {"id": 2960730, "name": "Brachtenbach", "state": "", "country": "LU", "coord": {"lon": 5.91139, "lat": 50.021389}}, {"id": 2960731, "name": "Boxhorn", "state": "", "country": "LU", "coord": {"lon": 5.9925, "lat": 50.083889}}, {"id": 2960732, "name": "Bous", "state": "", "country": "LU", "coord": {"lon": 6.32917, "lat": 49.55389}}, {"id": 2960734, "name": "Bourscheid", "state": "", "country": "LU", "coord": {"lon": 6.06722, "lat": 49.91}}, {"id": 2960735, "name": "Bourglinster", "state": "", "country": "LU", "coord": {"lon": 6.21972, "lat": 49.697781}}, {"id": 2960736, "name": "Bour", "state": "", "country": "LU", "coord": {"lon": 6.01889, "lat": 49.701389}}, {"id": 2960737, "name": "Boulaide", "state": "", "country": "LU", "coord": {"lon": 5.81639, "lat": 49.887779}}, {"id": 2960738, "name": "Boudler", "state": "", "country": "LU", "coord": {"lon": 6.355, "lat": 49.717781}}, {"id": 2960739, "name": "Born", "state": "", "country": "LU", "coord": {"lon": 6.51389, "lat": 49.754169}}, {"id": 2960741, "name": "Bonnevoie", "state": "", "country": "LU", "coord": {"lon": 6.15, "lat": 49.59444}}, {"id": 2960746, "name": "Bofferdange", "state": "", "country": "LU", "coord": {"lon": 6.14167, "lat": 49.68306}}, {"id": 2960747, "name": "Boevange-sur-Attert", "state": "", "country": "LU", "coord": {"lon": 6.01556, "lat": 49.77528}}, {"id": 2960748, "name": "Boevange", "state": "", "country": "LU", "coord": {"lon": 5.93417, "lat": 50.046391}}, {"id": 2960750, "name": "Bockholtz", "state": "", "country": "LU", "coord": {"lon": 6.05278, "lat": 50.012218}}, {"id": 2960752, "name": "Blumenthal", "state": "", "country": "LU", "coord": {"lon": 6.26722, "lat": 49.738331}}, {"id": 2960754, "name": "Blaschette", "state": "", "country": "LU", "coord": {"lon": 6.17056, "lat": 49.69722}}, {"id": 2960755, "name": "Biwisch", "state": "", "country": "LU", "coord": {"lon": 5.97917, "lat": 50.118061}}, {"id": 2960758, "name": "Bivels", "state": "", "country": "LU", "coord": {"lon": 6.19222, "lat": 49.960281}}, {"id": 2960759, "name": "Bissen", "state": "", "country": "LU", "coord": {"lon": 6.06944, "lat": 49.787498}}, {"id": 2960764, "name": "Bivange", "state": "", "country": "LU", "coord": {"lon": 6.13778, "lat": 49.544441}}, {"id": 2960765, "name": "Binsfeld", "state": "", "country": "LU", "coord": {"lon": 6.03861, "lat": 50.118889}}, {"id": 2960766, "name": "Bilsdorf", "state": "", "country": "LU", "coord": {"lon": 5.825, "lat": 49.857498}}, {"id": 2960769, "name": "Bigonville", "state": "", "country": "LU", "coord": {"lon": 5.79333, "lat": 49.851669}}, {"id": 2960770, "name": "Bigelbach", "state": "", "country": "LU", "coord": {"lon": 6.28806, "lat": 49.860279}}, {"id": 2960771, "name": "Beyren", "state": "", "country": "LU", "coord": {"lon": 6.33694, "lat": 49.626389}}, {"id": 2960774, "name": "Betzdorf", "state": "", "country": "LU", "coord": {"lon": 6.35, "lat": 49.683331}}, {"id": 2960775, "name": "Bettendorf", "state": "", "country": "LU", "coord": {"lon": 6.21806, "lat": 49.876671}}, {"id": 2960777, "name": "Bettembourg", "state": "", "country": "LU", "coord": {"lon": 6.10278, "lat": 49.518608}}, {"id": 2960778, "name": "Bettembourg", "state": "", "country": "LU", "coord": {"lon": 6.08333, "lat": 49.5}}, {"id": 2960779, "name": "Bettel", "state": "", "country": "LU", "coord": {"lon": 6.22778, "lat": 49.917221}}, {"id": 2960780, "name": "Bettborn", "state": "", "country": "LU", "coord": {"lon": 5.94111, "lat": 49.79528}}, {"id": 2960781, "name": "Bettange-sur-Mess", "state": "", "country": "LU", "coord": {"lon": 5.98389, "lat": 49.575829}}, {"id": 2960782, "name": "Bertrange", "state": "", "country": "LU", "coord": {"lon": 6.05, "lat": 49.611111}}, {"id": 2960784, "name": "Berschbach", "state": "", "country": "LU", "coord": {"lon": 6.115, "lat": 49.743889}}, {"id": 2960791, "name": "Bergem", "state": "", "country": "LU", "coord": {"lon": 6.04222, "lat": 49.525002}}, {"id": 2960795, "name": "B\u00e9reldange", "state": "", "country": "LU", "coord": {"lon": 6.1275, "lat": 49.65694}}, {"id": 2960796, "name": "Berdorf", "state": "", "country": "LU", "coord": {"lon": 6.35028, "lat": 49.81361}}, {"id": 2960797, "name": "Berchem", "state": "", "country": "LU", "coord": {"lon": 6.12917, "lat": 49.540279}}, {"id": 2960799, "name": "Berbourg", "state": "", "country": "LU", "coord": {"lon": 6.39389, "lat": 49.727219}}, {"id": 2960800, "name": "Belvaux", "state": "", "country": "LU", "coord": {"lon": 5.92944, "lat": 49.512779}}, {"id": 2960801, "name": "Belval", "state": "", "country": "LU", "coord": {"lon": 5.94361, "lat": 49.510281}}, {"id": 2960803, "name": "Beidweiler", "state": "", "country": "LU", "coord": {"lon": 6.3025, "lat": 49.723331}}, {"id": 2960806, "name": "Beckerich", "state": "", "country": "LU", "coord": {"lon": 5.88722, "lat": 49.73056}}, {"id": 2960807, "name": "Bech", "state": "", "country": "LU", "coord": {"lon": 6.36361, "lat": 49.746109}}, {"id": 2960809, "name": "Beaufort", "state": "", "country": "LU", "coord": {"lon": 6.29167, "lat": 49.835831}}, {"id": 2960811, "name": "Bavigne", "state": "", "country": "LU", "coord": {"lon": 5.84944, "lat": 49.92194}}, {"id": 2960813, "name": "Bastendorf", "state": "", "country": "LU", "coord": {"lon": 6.16528, "lat": 49.891941}}, {"id": 2960814, "name": "Baschleiden", "state": "", "country": "LU", "coord": {"lon": 5.82028, "lat": 49.898331}}, {"id": 2960815, "name": "Bascharage", "state": "", "country": "LU", "coord": {"lon": 5.91028, "lat": 49.567501}}, {"id": 2960816, "name": "Basbellain", "state": "", "country": "LU", "coord": {"lon": 5.98389, "lat": 50.145828}}, {"id": 2960820, "name": "Asselborn", "state": "", "country": "LU", "coord": {"lon": 5.97306, "lat": 50.097221}}, {"id": 2960822, "name": "Assel", "state": "", "country": "LU", "coord": {"lon": 6.31583, "lat": 49.55278}}, {"id": 2960823, "name": "Aspelt", "state": "", "country": "LU", "coord": {"lon": 6.22472, "lat": 49.522781}}, {"id": 2960827, "name": "Arsdorf", "state": "", "country": "LU", "coord": {"lon": 5.84389, "lat": 49.861389}}, {"id": 2960828, "name": "Ansembourg", "state": "", "country": "LU", "coord": {"lon": 6.04333, "lat": 49.702499}}, {"id": 2960829, "name": "Angelsberg", "state": "", "country": "LU", "coord": {"lon": 6.16083, "lat": 49.75639}}, {"id": 2960832, "name": "Alzingen", "state": "", "country": "LU", "coord": {"lon": 6.16361, "lat": 49.564999}}, {"id": 2960833, "name": "Altwies", "state": "", "country": "LU", "coord": {"lon": 6.25722, "lat": 49.510559}}, {"id": 2960834, "name": "Altrier", "state": "", "country": "LU", "coord": {"lon": 6.32656, "lat": 49.750092}}, {"id": 2960843, "name": "Aci\u00e9rie", "state": "", "country": "LU", "coord": {"lon": 5.9, "lat": 49.533329}}, {"id": 2960844, "name": "Abweiler", "state": "", "country": "LU", "coord": {"lon": 6.08083, "lat": 49.533611}}, {"id": 2960863, "name": "Dromore West", "state": "", "country": "IE", "coord": {"lon": -8.89306, "lat": 54.251671}}, {"id": 2960869, "name": "Youghal", "state": "", "country": "IE", "coord": {"lon": -7.85056, "lat": 51.950001}}, {"id": 2960874, "name": "Yellow Furze", "state": "", "country": "IE", "coord": {"lon": -6.57167, "lat": 53.673328}}, {"id": 2960909, "name": "Windgap", "state": "", "country": "IE", "coord": {"lon": -7.39972, "lat": 52.465561}}, {"id": 2960924, "name": "Williamstown", "state": "", "country": "IE", "coord": {"lon": -8.58333, "lat": 53.683331}}, {"id": 2960926, "name": "Willbrook", "state": "", "country": "IE", "coord": {"lon": -6.31194, "lat": 53.29361}}, {"id": 2960927, "name": "Willbrook", "state": "", "country": "IE", "coord": {"lon": -9.12806, "lat": 52.937778}}, {"id": 2960928, "name": "Wilkinstown", "state": "", "country": "IE", "coord": {"lon": -6.71306, "lat": 53.735561}},