[{"id": 788147, "name": "Marina Kutina", "state": "", "country": "RS", "coord": {"lon": 22.023331, "lat": 43.200001}}, {"id": 788153, "name": "Margita", "state": "", "country": "RS", "coord": {"lon": 21.17556, "lat": 45.21806}}, {"id": 788218, "name": "Malo Crni\u0107e", "state": "", "country": "RS", "coord": {"lon": 21.285561, "lat": 44.55611}}, {"id": 788239, "name": "Malisevo", "state": "", "country": "XK", "coord": {"lon": 20.745831, "lat": 42.48222}}, {"id": 788315, "name": "Mala Mo\u0161tanica", "state": "", "country": "RS", "coord": {"lon": 20.30278, "lat": 44.646111}}, {"id": 788357, "name": "Majdanpek", "state": "", "country": "RS", "coord": {"lon": 21.945959, "lat": 44.427711}}, {"id": 788415, "name": "Lukovo", "state": "", "country": "MK", "coord": {"lon": 20.604719, "lat": 41.349442}}, {"id": 788421, "name": "Luki\u0107evo", "state": "", "country": "RS", "coord": {"lon": 20.49889, "lat": 45.338612}}, {"id": 788439, "name": "Lugav\u010dina", "state": "", "country": "RS", "coord": {"lon": 21.068331, "lat": 44.51889}}, {"id": 788452, "name": "Lu\u010dani", "state": "", "country": "RS", "coord": {"lon": 20.13806, "lat": 43.860828}}, {"id": 788470, "name": "Llazice", "state": "", "country": "XK", "coord": {"lon": 20.76333, "lat": 42.555279}}, {"id": 788507, "name": "Lokve", "state": "", "country": "RS", "coord": {"lon": 21.031111, "lat": 45.152779}}, {"id": 788515, "name": "Lok", "state": "", "country": "RS", "coord": {"lon": 20.212219, "lat": 45.215832}}, {"id": 788516, "name": "Lojane", "state": "", "country": "MK", "coord": {"lon": 21.665001, "lat": 42.23333}}, {"id": 788517, "name": "Logovardi", "state": "", "country": "MK", "coord": {"lon": 21.41139, "lat": 41.02972}}, {"id": 788536, "name": "Lumbardhi", "state": "", "country": "XK", "coord": {"lon": 20.34667, "lat": 42.546669}}, {"id": 788539, "name": "Ljukovo", "state": "", "country": "RS", "coord": {"lon": 20.025, "lat": 45.025829}}, {"id": 788543, "name": "Lebushe", "state": "", "country": "XK", "coord": {"lon": 20.290831, "lat": 42.563061}}, {"id": 788564, "name": "Ljubin", "state": "", "country": "MK", "coord": {"lon": 21.30917, "lat": 42.001389}}, {"id": 788584, "name": "Ljig", "state": "", "country": "RS", "coord": {"lon": 20.23819, "lat": 44.230068}}, {"id": 788610, "name": "Lisi\u010dani", "state": "", "country": "MK", "coord": {"lon": 21.05444, "lat": 41.461391}}, {"id": 788651, "name": "Komuna e Lipjanit", "state": "", "country": "XK", "coord": {"lon": 21.116671, "lat": 42.5}}, {"id": 788652, "name": "Lipljan", "state": "", "country": "XK", "coord": {"lon": 21.12583, "lat": 42.521671}}, {"id": 788654, "name": "Lipkovo", "state": "", "country": "MK", "coord": {"lon": 21.585279, "lat": 42.156391}}, {"id": 788709, "name": "Leskovac", "state": "", "country": "RS", "coord": {"lon": 21.94611, "lat": 42.998058}}, {"id": 788726, "name": "Leshan", "state": "", "country": "XK", "coord": {"lon": 20.781111, "lat": 42.327782}}, {"id": 788730, "name": "Komuna e Leposaviqit", "state": "", "country": "XK", "coord": {"lon": 20.783331, "lat": 43.116669}}, {"id": 788731, "name": "Leposaviq", "state": "", "country": "XK", "coord": {"lon": 20.80278, "lat": 43.103889}}, {"id": 788762, "name": "Lebane", "state": "", "country": "RS", "coord": {"lon": 21.737499, "lat": 42.923889}}, {"id": 788768, "name": "Lazarevo", "state": "", "country": "RS", "coord": {"lon": 20.538891, "lat": 45.388329}}, {"id": 788771, "name": "Lazarevac", "state": "", "country": "RS", "coord": {"lon": 20.255699, "lat": 44.385342}}, {"id": 788774, "name": "La\u017eani", "state": "", "country": "MK", "coord": {"lon": 21.31583, "lat": 41.442219}}, {"id": 788790, "name": "Larce", "state": "", "country": "MK", "coord": {"lon": 21.125561, "lat": 41.934719}}, {"id": 788792, "name": "Lapovo", "state": "", "country": "RS", "coord": {"lon": 21.097269, "lat": 44.184238}}, {"id": 788804, "name": "Lalinac", "state": "", "country": "RS", "coord": {"lon": 21.78528, "lat": 43.341942}}, {"id": 788807, "name": "Laki", "state": "", "country": "MK", "coord": {"lon": 22.669439, "lat": 41.79694}}, {"id": 788812, "name": "Lajkovac", "state": "", "country": "RS", "coord": {"lon": 20.165279, "lat": 44.369438}}, {"id": 788819, "name": "Labunista", "state": "", "country": "MK", "coord": {"lon": 20.596109, "lat": 41.268608}}, {"id": 788838, "name": "Ku\u0161tilj", "state": "", "country": "RS", "coord": {"lon": 21.37722, "lat": 45.035278}}, {"id": 788848, "name": "Kusadak", "state": "", "country": "RS", "coord": {"lon": 20.803329, "lat": 44.399719}}, {"id": 788852, "name": "Kur\u0161umlija", "state": "", "country": "RS", "coord": {"lon": 21.26861, "lat": 43.145828}}, {"id": 788868, "name": "Kupinovo", "state": "", "country": "RS", "coord": {"lon": 20.048059, "lat": 44.705559}}, {"id": 788886, "name": "Kumanovo", "state": "", "country": "MK", "coord": {"lon": 21.714439, "lat": 42.132221}}, {"id": 788890, "name": "Kumane", "state": "", "country": "RS", "coord": {"lon": 20.228331, "lat": 45.538891}}, {"id": 788906, "name": "Kukure\u010dani", "state": "", "country": "MK", "coord": {"lon": 21.32556, "lat": 41.095558}}, {"id": 788915, "name": "Kuklis", "state": "", "country": "MK", "coord": {"lon": 22.665279, "lat": 41.405281}}, {"id": 788937, "name": "Ku\u010devo", "state": "", "country": "RS", "coord": {"lon": 21.67, "lat": 44.477501}}, {"id": 788950, "name": "Kru\u0161opek", "state": "", "country": "MK", "coord": {"lon": 21.354441, "lat": 41.978329}}, {"id": 788961, "name": "Krusevo", "state": "", "country": "MK", "coord": {"lon": 21.24889, "lat": 41.368889}}, {"id": 788975, "name": "Kru\u0161evac", "state": "", "country": "RS", "coord": {"lon": 21.333891, "lat": 43.580002}}, {"id": 788993, "name": "Krstur", "state": "", "country": "RS", "coord": {"lon": 20.1, "lat": 46.133331}}, {"id": 789019, "name": "Krnjevo", "state": "", "country": "RS", "coord": {"lon": 21.04694, "lat": 44.409439}}, {"id": 789021, "name": "Krnje\u0161evci", "state": "", "country": "RS", "coord": {"lon": 20.135281, "lat": 44.886391}}, {"id": 789028, "name": "Krivogashtani", "state": "", "country": "MK", "coord": {"lon": 21.333059, "lat": 41.336109}}, {"id": 789045, "name": "Kriva Palanka", "state": "", "country": "MK", "coord": {"lon": 22.33194, "lat": 42.201939}}, {"id": 789076, "name": "Kr\u010dedin", "state": "", "country": "RS", "coord": {"lon": 20.132219, "lat": 45.139999}}, {"id": 789090, "name": "Kratovo", "state": "", "country": "MK", "coord": {"lon": 22.16667, "lat": 42.083328}}, {"id": 789091, "name": "Kratovo", "state": "", "country": "MK", "coord": {"lon": 22.181391, "lat": 42.07917}}, {"id": 789101, "name": "Krani", "state": "", "country": "MK", "coord": {"lon": 21.10861, "lat": 40.939442}}, {"id": 789107, "name": "Kraljevo", "state": "", "country": "RS", "coord": {"lon": 20.68944, "lat": 43.72583}}, {"id": 789124, "name": "Kraji\u0161nik", "state": "", "country": "RS", "coord": {"lon": 20.72917, "lat": 45.452782}}, {"id": 789128, "name": "Kragujevac", "state": "", "country": "RS", "coord": {"lon": 20.91667, "lat": 44.01667}}, {"id": 789168, "name": "Kovin", "state": "", "country": "RS", "coord": {"lon": 20.97611, "lat": 44.747501}}, {"id": 789170, "name": "Kovilj", "state": "", "country": "RS", "coord": {"lon": 20.021669, "lat": 45.227779}}, {"id": 789176, "name": "Op\u0161tina Kova\u010dica", "state": "", "country": "RS", "coord": {"lon": 20.62389, "lat": 45.100559}}, {"id": 789178, "name": "Kova\u010dica", "state": "", "country": "RS", "coord": {"lon": 20.621389, "lat": 45.111671}}, {"id": 789199, "name": "Kosuriq", "state": "", "country": "XK", "coord": {"lon": 20.46472, "lat": 42.570278}}, {"id": 789225, "name": "Mitrovice", "state": "", "country": "XK", "coord": {"lon": 20.866671, "lat": 42.883331}}, {"id": 789227, "name": "Kamenica", "state": "", "country": "XK", "coord": {"lon": 21.58028, "lat": 42.57806}}, {"id": 789228, "name": "Kosovo Polje", "state": "", "country": "XK", "coord": {"lon": 21.096109, "lat": 42.639439}}, {"id": 789234, "name": "Kosmovac", "state": "", "country": "RS", "coord": {"lon": 22.203609, "lat": 43.190559}}, {"id": 789247, "name": "Kosel", "state": "", "country": "MK", "coord": {"lon": 20.83556, "lat": 41.174438}}, {"id": 789339, "name": "Kondovo", "state": "", "country": "MK", "coord": {"lon": 21.31361, "lat": 42.011669}}, {"id": 789342, "name": "Kon\u010de", "state": "", "country": "MK", "coord": {"lon": 22.385, "lat": 41.495831}}, {"id": 789346, "name": "Konak", "state": "", "country": "RS", "coord": {"lon": 20.91361, "lat": 45.314999}}, {"id": 789403, "name": "Kochani", "state": "", "country": "MK", "coord": {"lon": 22.412781, "lat": 41.916389}}, {"id": 789415, "name": "Kni\u0107anin", "state": "", "country": "RS", "coord": {"lon": 20.31889, "lat": 45.1875}}, {"id": 789421, "name": "Kne\u017eica", "state": "", "country": "RS", "coord": {"lon": 21.878611, "lat": 43.259441}}, {"id": 789455, "name": "Klina", "state": "", "country": "XK", "coord": {"lon": 20.57778, "lat": 42.62167}}, {"id": 789471, "name": "Klek", "state": "", "country": "RS", "coord": {"lon": 20.48, "lat": 45.42194}}, {"id": 789473, "name": "\u041a\u043b\u0435\u0447\u043e\u0432\u0446\u0435", "state": "", "country": "MK", "coord": {"lon": 21.85722, "lat": 42.116112}}, {"id": 789485, "name": "Kladovo", "state": "", "country": "RS", "coord": {"lon": 22.61194, "lat": 44.60667}}, {"id": 789518, "name": "Kikinda", "state": "", "country": "RS", "coord": {"lon": 20.465281, "lat": 45.82972}}, {"id": 789527, "name": "Ki\u010devo", "state": "", "country": "MK", "coord": {"lon": 20.963329, "lat": 41.514439}}, {"id": 789541, "name": "Kavadarci", "state": "", "country": "MK", "coord": {"lon": 22.01194, "lat": 41.43306}}, {"id": 789563, "name": "Karbinci", "state": "", "country": "MK", "coord": {"lon": 22.237499, "lat": 41.816669}}, {"id": 789600, "name": "Kanji\u017ea", "state": "", "country": "RS", "coord": {"lon": 20.049999, "lat": 46.066669}}, {"id": 789603, "name": "Kanatlarci", "state": "", "country": "MK", "coord": {"lon": 21.50333, "lat": 41.210281}}, {"id": 789611, "name": "Kamenjane", "state": "", "country": "MK", "coord": {"lon": 20.92667, "lat": 41.944439}}, {"id": 789629, "name": "Makedonska Kamenica", "state": "", "country": "MK", "coord": {"lon": 22.59194, "lat": 42.02}}, {"id": 789703, "name": "Kadino", "state": "", "country": "MK", "coord": {"lon": 21.601391, "lat": 41.968891}}, {"id": 789720, "name": "Komuna e Ka\u00e7anikut", "state": "", "country": "XK", "coord": {"lon": 21.25, "lat": 42.200001}}, {"id": 789721, "name": "Kacanik", "state": "", "country": "XK", "coord": {"lon": 21.259439, "lat": 42.231941}}, {"id": 789734, "name": "\u0408\u0443\u0440\u0443\u043c\u043b\u0435\u0440\u0438", "state": "", "country": "MK", "coord": {"lon": 21.55694, "lat": 41.96722}}, {"id": 789787, "name": "Jermenovci", "state": "", "country": "RS", "coord": {"lon": 21.047779, "lat": 45.188061}}, {"id": 789822, "name": "Jegunovce", "state": "", "country": "MK", "coord": {"lon": 21.12361, "lat": 42.073608}}, {"id": 789828, "name": "Jazovo", "state": "", "country": "RS", "coord": {"lon": 20.216391, "lat": 45.9025}}, {"id": 789830, "name": "Ja\u017eince", "state": "", "country": "MK", "coord": {"lon": 21.176109, "lat": 42.16444}}, {"id": 789875, "name": "Ja\u0161a Tomi\u0107", "state": "", "country": "RS", "coord": {"lon": 20.85528, "lat": 45.446941}}, {"id": 789879, "name": "Jarkovci", "state": "", "country": "RS", "coord": {"lon": 20.025, "lat": 45.054169}}, {"id": 789880, "name": "Jarkovac", "state": "", "country": "RS", "coord": {"lon": 20.758329, "lat": 45.26889}}, {"id": 789888, "name": "Jano\u0161ik", "state": "", "country": "RS", "coord": {"lon": 21.008329, "lat": 45.173611}}, {"id": 789893, "name": "Jankovec", "state": "", "country": "MK", "coord": {"lon": 21.011391, "lat": 41.110279}}, {"id": 789923, "name": "Jagodina", "state": "", "country": "RS", "coord": {"lon": 21.26222, "lat": 43.981392}}, {"id": 789962, "name": "Izvor", "state": "", "country": "MK", "coord": {"lon": 21.578329, "lat": 42.203892}}, {"id": 789972, "name": "Izbi\u0161te", "state": "", "country": "RS", "coord": {"lon": 21.18639, "lat": 45.019718}}, {"id": 789982, "name": "Ivanovo", "state": "", "country": "RS", "coord": {"lon": 20.6975, "lat": 44.73917}}, {"id": 789985, "name": "Ivankovci", "state": "", "country": "MK", "coord": {"lon": 21.82028, "lat": 41.848888}}, {"id": 789988, "name": "Ivanjica", "state": "", "country": "RS", "coord": {"lon": 20.23111, "lat": 43.58028}}, {"id": 789995, "name": "Komuna e Istogut", "state": "", "country": "XK", "coord": {"lon": 20.48333, "lat": 42.76667}}, {"id": 789996, "name": "Istok", "state": "", "country": "XK", "coord": {"lon": 20.487499, "lat": 42.78083}}, {"id": 790002, "name": "Isniq", "state": "", "country": "XK", "coord": {"lon": 20.30278, "lat": 42.557499}}, {"id": 790015, "name": "In\u0111ija", "state": "", "country": "RS", "coord": {"lon": 20.07917, "lat": 45.049171}}, {"id": 790018, "name": "Ilovica", "state": "", "country": "MK", "coord": {"lon": 22.798611, "lat": 41.470558}}, {"id": 790028, "name": "Iland\u017ea", "state": "", "country": "RS", "coord": {"lon": 20.919439, "lat": 45.169441}}, {"id": 790033, "name": "Idvor", "state": "", "country": "RS", "coord": {"lon": 20.51417, "lat": 45.188889}}, {"id": 790034, "name": "\u0418\u0434\u0440\u0438\u0437\u043e\u0432\u043e", "state": "", "country": "MK", "coord": {"lon": 21.57556, "lat": 41.960831}}, {"id": 790035, "name": "Tiszahegyes", "state": "", "country": "RS", "coord": {"lon": 20.316111, "lat": 45.828892}}, {"id": 790037, "name": "Ibarac", "state": "", "country": "ME", "coord": {"lon": 20.16194, "lat": 42.836109}}, {"id": 790053, "name": "Hetin", "state": "", "country": "RS", "coord": {"lon": 20.791389, "lat": 45.661388}}, {"id": 790063, "name": "Hajdu\u010dica", "state": "", "country": "RS", "coord": {"lon": 20.95722, "lat": 45.249168}}, {"id": 790084, "name": "Gurgurnica", "state": "", "country": "MK", "coord": {"lon": 21.102779, "lat": 41.845829}}, {"id": 790104, "name": "Gudurica", "state": "", "country": "RS", "coord": {"lon": 21.44306, "lat": 45.17028}}, {"id": 790106, "name": "Gu\u010da", "state": "", "country": "RS", "coord": {"lon": 20.225281, "lat": 43.776669}}, {"id": 790132, "name": "Grocka", "state": "", "country": "RS", "coord": {"lon": 20.717501, "lat": 44.672218}}, {"id": 790137, "name": "Grn\u010dari", "state": "", "country": "MK", "coord": {"lon": 21.053329, "lat": 41.01722}}, {"id": 790183, "name": "Gr\u010dec", "state": "", "country": "MK", "coord": {"lon": 21.33028, "lat": 41.98806}}, {"id": 790217, "name": "Gradsko", "state": "", "country": "MK", "coord": {"lon": 21.94278, "lat": 41.577499}}, {"id": 790248, "name": "Gradec", "state": "", "country": "MK", "coord": {"lon": 20.904169, "lat": 41.896111}}, {"id": 790249, "name": "Gradec", "state": "", "country": "MK", "coord": {"lon": 22.509439, "lat": 41.848061}}, {"id": 790277, "name": "Grabovac", "state": "", "country": "RS", "coord": {"lon": 20.104719, "lat": 44.601391}}, {"id": 790295, "name": "Gostivar", "state": "", "country": "MK", "coord": {"lon": 20.908331, "lat": 41.797218}}, {"id": 790305, "name": "Gorobinci", "state": "", "country": "MK", "coord": {"lon": 21.87694, "lat": 41.874722}}, {"id": 790319, "name": "Gorno Orizari", "state": "", "country": "MK", "coord": {"lon": 21.73361, "lat": 41.685829}}, {"id": 790320, "name": "Gorno Orizari", "state": "", "country": "MK", "coord": {"lon": 21.346939, "lat": 41.051109}}, {"id": 790333, "name": "Gorno Jelovce", "state": "", "country": "MK", "coord": {"lon": 20.789721, "lat": 41.80722}}, {"id": 790354, "name": "Strellc i Eperm", "state": "", "country": "XK", "coord": {"lon": 20.293461, "lat": 42.57835}}, {"id": 790367, "name": "Gornji Milanovac", "state": "", "country": "RS", "coord": {"lon": 20.450001, "lat": 44.033329}}, {"id": 790394, "name": "Gornji Breg", "state": "", "country": "RS", "coord": {"lon": 20.01667, "lat": 45.91917}}, {"id": 790426, "name": "Gornje Me\u0111urovo", "state": "", "country": "RS", "coord": {"lon": 21.846939, "lat": 43.277222}}, {"id": 790475, "name": "Gornja Pe\u0161\u010danica", "state": "", "country": "RS", "coord": {"lon": 21.594999, "lat": 43.521111}}, {"id": 790486, "name": "Lluka e Eperme", "state": "", "country": "XK", "coord": {"lon": 20.307779, "lat": 42.544998}}, {"id": 790532, "name": "Gorna Belica", "state": "", "country": "MK", "coord": {"lon": 21.30444, "lat": 41.676109}}, {"id": 790557, "name": "Golubinci", "state": "", "country": "RS", "coord": {"lon": 20.06889, "lat": 44.985001}}, {"id": 790560, "name": "Golubac", "state": "", "country": "RS", "coord": {"lon": 21.63199, "lat": 44.652962}}, {"id": 790634, "name": "Golema Re\u010dica", "state": "", "country": "MK", "coord": {"lon": 20.945829, "lat": 41.99028}}, {"id": 790673, "name": "Komuna e Gjilanit", "state": "", "country": "XK", "coord": {"lon": 21.450001, "lat": 42.466671}}, {"id": 790674, "name": "Gjilan", "state": "", "country": "XK", "coord": {"lon": 21.46986, "lat": 42.460449}}, {"id": 790698, "name": "Glogovac", "state": "", "country": "RS", "coord": {"lon": 21.316389, "lat": 44.039719}}, {"id": 790701, "name": "Glogovac", "state": "", "country": "XK", "coord": {"lon": 20.89389, "lat": 42.62833}}, {"id": 790702, "name": "Glogonj", "state": "", "country": "RS", "coord": {"lon": 20.52611, "lat": 44.987499}}, {"id": 790704, "name": "Gllogjan", "state": "", "country": "XK", "coord": {"lon": 20.36278, "lat": 42.507221}}, {"id": 790744, "name": "Gevgelija", "state": "", "country": "MK", "coord": {"lon": 22.502501, "lat": 41.139172}}, {"id": 790772, "name": "Gardinovci", "state": "", "country": "RS", "coord": {"lon": 20.135281, "lat": 45.203331}}, {"id": 790795, "name": "Gad\u017ein Han", "state": "", "country": "RS", "coord": {"lon": 22.03194, "lat": 43.222778}}, {"id": 790812, "name": "Forino", "state": "", "country": "MK", "coord": {"lon": 20.9625, "lat": 41.824169}}, {"id": 790823, "name": "Farka\u017edin", "state": "", "country": "RS", "coord": {"lon": 20.471939, "lat": 45.191669}}, {"id": 790842, "name": "Elemir", "state": "", "country": "RS", "coord": {"lon": 20.298059, "lat": 45.44278}}, {"id": 790847, "name": "E\u010dka", "state": "", "country": "RS", "coord": {"lon": 20.44278, "lat": 45.318611}}, {"id": 790848, "name": "Lozovo", "state": "", "country": "MK", "coord": {"lon": 21.90556, "lat": 41.78389}}, {"id": 790857, "name": "D\u017eep\u010di\u0161te", "state": "", "country": "MK", "coord": {"lon": 21, "lat": 42.03278}}, {"id": 790898, "name": "\u00d0ur\u0111evo", "state": "", "country": "RS", "coord": {"lon": 20.06472, "lat": 45.324718}}, {"id": 790977, "name": "Dubova (Driloni)", "state": "", "country": "XK", "coord": {"lon": 20.36972, "lat": 42.711941}}, {"id": 790983, "name": "Duboka", "state": "", "country": "RS", "coord": {"lon": 21.76083, "lat": 44.521389}}, {"id": 790986, "name": "Dubo\u010dka", "state": "", "country": "RS", "coord": {"lon": 21.375, "lat": 44.444439}}, {"id": 791009, "name": "Drugovo", "state": "", "country": "MK", "coord": {"lon": 20.92333, "lat": 41.484169}}, {"id": 791043, "name": "Dranoc", "state": "", "country": "XK", "coord": {"lon": 20.292219, "lat": 42.51556}}, {"id": 791121, "name": "Komuna e Dragashit", "state": "", "country": "XK", "coord": {"lon": 20.65, "lat": 42}}, {"id": 791122, "name": "Dragash", "state": "", "country": "XK", "coord": {"lon": 20.65333, "lat": 42.0625}}, {"id": 791148, "name": "Dor\u0107ol", "state": "", "country": "RS", "coord": {"lon": 20.466669, "lat": 44.816669}}, {"id": 791161, "name": "Strellc i Ulet", "state": "", "country": "XK", "coord": {"lon": 20.316191, "lat": 42.580631}}, {"id": 791231, "name": "Donje Me\u0111urovo", "state": "", "country": "RS", "coord": {"lon": 21.82222, "lat": 43.296669}}, {"id": 791321, "name": "Dolovo", "state": "", "country": "RS", "coord": {"lon": 20.877501, "lat": 44.901112}}, {"id": 791332, "name": "Dolno Pal\u010di\u0161te", "state": "", "country": "MK", "coord": {"lon": 20.926109, "lat": 41.96806}}, {"id": 791334, "name": "Dolno Orizari", "state": "", "country": "MK", "coord": {"lon": 21.37944, "lat": 41.050282}}, {"id": 791343, "name": "Dolno Koli\u010dani", "state": "", "country": "MK", "coord": {"lon": 21.485559, "lat": 41.886391}}, {"id": 791363, "name": "Dolneni", "state": "", "country": "MK", "coord": {"lon": 21.45472, "lat": 41.425282}}, {"id": 791371, "name": "Dolna Banjica", "state": "", "country": "MK", "coord": {"lon": 20.906111, "lat": 41.78611}}, {"id": 791373, "name": "Doljevac", "state": "", "country": "RS", "coord": {"lon": 21.832581, "lat": 43.19817}}, {"id": 791407, "name": "Dobru\u0161evo", "state": "", "country": "MK", "coord": {"lon": 21.4825, "lat": 41.16861}}, {"id": 791419, "name": "Dobro\u0161te", "state": "", "country": "MK", "coord": {"lon": 21.07778, "lat": 42.103329}}, {"id": 791443, "name": "Dobri Dol", "state": "", "country": "MK", "coord": {"lon": 20.887501, "lat": 41.865829}}, {"id": 791452, "name": "Dobrica", "state": "", "country": "RS", "coord": {"lon": 20.84944, "lat": 45.215}}, {"id": 791471, "name": "Dobanovci", "state": "", "country": "RS", "coord": {"lon": 20.225559, "lat": 44.826939}}, {"id": 791483, "name": "Gjinoc", "state": "", "country": "XK", "coord": {"lon": 20.818609, "lat": 42.318329}}, {"id": 791487, "name": "Dimitrovgrad", "state": "", "country": "RS", "coord": {"lon": 22.77556, "lat": 43.014172}}, {"id": 791516, "name": "Despotovac", "state": "", "country": "RS", "coord": {"lon": 21.446939, "lat": 44.092499}}, {"id": 791517, "name": "Desovo", "state": "", "country": "MK", "coord": {"lon": 21.49111, "lat": 41.46278}}, {"id": 791542, "name": "Demir Kapija", "state": "", "country": "MK", "coord": {"lon": 22.24889, "lat": 41.404999}}, {"id": 791548, "name": "Delogo\u017eda", "state": "", "country": "MK", "coord": {"lon": 20.72361, "lat": 41.257221}}, {"id": 791559, "name": "Delcevo", "state": "", "country": "MK", "coord": {"lon": 22.76944, "lat": 41.96722}}, {"id": 791579, "name": "Komuna e De\u00e7anit", "state": "", "country": "XK", "coord": {"lon": 20.28816, "lat": 42.539101}}, {"id": 791580, "name": "Decan", "state": "", "country": "XK", "coord": {"lon": 20.28793, "lat": 42.54018}}, {"id": 791589, "name": "Debelja\u010da", "state": "", "country": "RS", "coord": {"lon": 20.6, "lat": 45.07111}}, {"id": 791606, "name": "Debar", "state": "", "country": "MK", "coord": {"lon": 20.5275, "lat": 41.525002}}, {"id": 791672, "name": "\u010curug", "state": "", "country": "RS", "coord": {"lon": 20.07139, "lat": 45.473061}}, {"id": 791678, "name": "\u0106uprija", "state": "", "country": "RS", "coord": {"lon": 21.370001, "lat": 43.927502}}, {"id": 791704, "name": "\u010cukarica", "state": "", "country": "RS", "coord": {"lon": 20.42028, "lat": 44.782501}}, {"id": 791720, "name": "\u0427\u0443\u0447\u0435\u0440 - \u0421\u0430\u043d\u0434\u0435\u0432\u043e", "state": "", "country": "MK", "coord": {"lon": 21.382219, "lat": 42.103611}}, {"id": 791819, "name": "Crnili\u0161te", "state": "", "country": "MK", "coord": {"lon": 21.41556, "lat": 41.53083}}, {"id": 791840, "name": "Crna Trava", "state": "", "country": "RS", "coord": {"lon": 22.298809, "lat": 42.809879}}, {"id": 791885, "name": "Cresevo", "state": "", "country": "MK", "coord": {"lon": 21.50972, "lat": 42.050831}}, {"id": 791887, "name": "Crepaja", "state": "", "country": "RS", "coord": {"lon": 20.635559, "lat": 45.009441}}, {"id": 791890, "name": "\u010cortanovci", "state": "", "country": "RS", "coord": {"lon": 20.020559, "lat": 45.154442}}, {"id": 791900, "name": "\u010coka", "state": "", "country": "RS", "coord": {"lon": 20.14333, "lat": 45.942501}}, {"id": 791936, "name": "\u0106i\u0107evac", "state": "", "country": "RS", "coord": {"lon": 21.440849, "lat": 43.718819}}, {"id": 791948, "name": "\u010cestereg", "state": "", "country": "RS", "coord": {"lon": 20.53194, "lat": 45.56361}}, {"id": 791949, "name": "\u010cesta", "state": "", "country": "RS", "coord": {"lon": 21.653891, "lat": 43.430561}}, {"id": 791954, "name": "\u010ce\u0161inovo", "state": "", "country": "MK", "coord": {"lon": 22.289169, "lat": 41.871391}}, {"id": 791998, "name": "\u010centa", "state": "", "country": "RS", "coord": {"lon": 20.387779, "lat": 45.10833}}, {"id": 792007, "name": "\u010celopek", "state": "", "country": "MK", "coord": {"lon": 21.01333, "lat": 41.931671}}, {"id": 792019, "name": "Cegrane", "state": "", "country": "MK", "coord": {"lon": 20.97583, "lat": 41.83889}}, {"id": 792034, "name": "\u010ca\u0161ka", "state": "", "country": "MK", "coord": {"lon": 21.66222, "lat": 41.650558}}, {"id": 792043, "name": "Carevac", "state": "", "country": "RS", "coord": {"lon": 21.49333, "lat": 44.679169}}, {"id": 792055, "name": "Capari", "state": "", "country": "MK", "coord": {"lon": 21.178329, "lat": 41.05611}}, {"id": 792078, "name": "\u010ca\u010dak", "state": "", "country": "RS", "coord": {"lon": 20.34972, "lat": 43.891392}}, {"id": 792129, "name": "\u0411\u0443\u043b\u0430\u0447\u0430\u043d\u0438", "state": "", "country": "MK", "coord": {"lon": 21.502781, "lat": 42.07056}}, {"id": 792150, "name": "Bukovik", "state": "", "country": "MK", "coord": {"lon": 21.23694, "lat": 41.96833}}, {"id": 792173, "name": "Bujanovac", "state": "", "country": "RS", "coord": {"lon": 21.76667, "lat": 42.459171}}, {"id": 792185, "name": "Budakovo", "state": "", "country": "XK", "coord": {"lon": 20.924999, "lat": 42.355}}, {"id": 792197, "name": "Bu\u010din", "state": "", "country": "MK", "coord": {"lon": 21.316669, "lat": 41.274719}}, {"id": 792227, "name": "Brvenica", "state": "", "country": "MK", "coord": {"lon": 20.980829, "lat": 41.96722}}, {"id": 792241, "name": "Brus", "state": "", "country": "RS", "coord": {"lon": 21.033609, "lat": 43.38361}}, {"id": 792257, "name": "Makedonski Brod", "state": "", "country": "MK", "coord": {"lon": 21.215281, "lat": 41.513611}}, {"id": 792297, "name": "Bre\u017eane", "state": "", "country": "RS", "coord": {"lon": 21.076389, "lat": 44.649441}}, {"id": 792308, "name": "Brestovac", "state": "", "country": "RS", "coord": {"lon": 22.083059, "lat": 44.040001}}, {"id": 792317, "name": "Bresno Polje", "state": "", "country": "RS", "coord": {"lon": 21.16889, "lat": 43.57917}}, {"id": 792394, "name": "Bo\u017eevac", "state": "", "country": "RS", "coord": {"lon": 21.39278, "lat": 44.538059}}, {"id": 792404, "name": "Boto\u0161", "state": "", "country": "RS", "coord": {"lon": 20.63611, "lat": 45.308331}}, {"id": 792419, "name": "Bosilovo", "state": "", "country": "MK", "coord": {"lon": 22.727779, "lat": 41.440559}}, {"id": 792421, "name": "Bosilegrad", "state": "", "country": "RS", "coord": {"lon": 22.47238, "lat": 42.501099}}, {"id": 792453, "name": "Bor\u010da", "state": "", "country": "RS", "coord": {"lon": 20.458611, "lat": 44.870281}}, {"id": 792456, "name": "Bor", "state": "", "country": "RS", "coord": {"lon": 22.09528, "lat": 44.078331}}, {"id": 792467, "name": "Boljevci", "state": "", "country": "RS", "coord": {"lon": 20.2225, "lat": 44.722221}}, {"id": 792470, "name": "Boljevac", "state": "", "country": "RS", "coord": {"lon": 21.95306, "lat": 43.83028}}, {"id": 792477, "name": "Bole\u010d", "state": "", "country": "RS", "coord": {"lon": 20.603331, "lat": 44.72472}}, {"id": 792479, "name": "Boka", "state": "", "country": "RS", "coord": {"lon": 20.82972, "lat": 45.354439}}, {"id": 792481, "name": "Bojnik", "state": "", "country": "RS", "coord": {"lon": 21.721001, "lat": 43.012241}}, {"id": 792489, "name": "Bojane", "state": "", "country": "MK", "coord": {"lon": 21.19306, "lat": 42}}, {"id": 792501, "name": "Bogovinje", "state": "", "country": "MK", "coord": {"lon": 20.91361, "lat": 41.923611}}, {"id": 792502, "name": "Bogovina", "state": "", "country": "RS", "coord": {"lon": 21.940281, "lat": 43.895}}, {"id": 792509, "name": "Bogomila", "state": "", "country": "MK", "coord": {"lon": 21.47167, "lat": 41.59306}}, {"id": 792523, "name": "Bogdanci", "state": "", "country": "MK", "coord": {"lon": 22.57556, "lat": 41.20306}}, {"id": 792530, "name": "Bo\u010dar", "state": "", "country": "RS", "coord": {"lon": 20.282221, "lat": 45.771111}}, {"id": 792553, "name": "Blatec", "state": "", "country": "MK", "coord": {"lon": 22.57806, "lat": 41.83778}}, {"id": 792564, "name": "Blace", "state": "", "country": "RS", "coord": {"lon": 21.28583, "lat": 43.29528}}, {"id": 792578, "name": "Bitola", "state": "", "country": "MK", "coord": {"lon": 21.340281, "lat": 41.031109}}, {"id": 792592, "name": "Bistrica", "state": "", "country": "MK", "coord": {"lon": 21.366671, "lat": 40.98333}}, {"id": 792623, "name": "Bilja\u010da", "state": "", "country": "RS", "coord": {"lon": 21.749439, "lat": 42.355831}}, {"id": 792651, "name": "Be\u0161ka", "state": "", "country": "RS", "coord": {"lon": 20.066111, "lat": 45.129719}}, {"id": 792656, "name": "Berovo", "state": "", "country": "MK", "coord": {"lon": 22.85778, "lat": 41.70306}}, {"id": 792676, "name": "Beranci", "state": "", "country": "MK", "coord": {"lon": 21.35972, "lat": 41.15889}}, {"id": 792680, "name": "Belgrade", "state": "", "country": "RS", "coord": {"lon": 20.46513, "lat": 44.804008}}, {"id": 792718, "name": "Belo Blato", "state": "", "country": "RS", "coord": {"lon": 20.375, "lat": 45.272781}}, {"id": 792721, "name": "Beljevac", "state": "", "country": "RS", "coord": {"lon": 20.664169, "lat": 44.359169}}, {"id": 792764, "name": "Belegi\u0161", "state": "", "country": "RS", "coord": {"lon": 20.33556, "lat": 45.021671}}, {"id": 792767, "name": "Bel\u010di\u0161ta", "state": "", "country": "MK", "coord": {"lon": 20.83028, "lat": 41.30278}}, {"id": 792784, "name": "Bela Palanka", "state": "", "country": "RS", "coord": {"lon": 22.31111, "lat": 43.21833}}, {"id": 792794, "name": "Bela Crkva", "state": "", "country": "RS", "coord": {"lon": 21.417219, "lat": 44.897499}}, {"id": 792807, "name": "Torak", "state": "", "country": "RS", "coord": {"lon": 20.60639, "lat": 45.50861}}, {"id": 792809, "name": "Bedinje", "state": "", "country": "MK", "coord": {"lon": 21.69639, "lat": 42.14167}}, {"id": 792811, "name": "Be\u010dmen", "state": "", "country": "RS", "coord": {"lon": 20.208611, "lat": 44.779442}}, {"id": 792814, "name": "Be\u010dej", "state": "", "country": "RS", "coord": {"lon": 20.03331, "lat": 45.616322}}, {"id": 792819, "name": "Bavani\u0161te", "state": "", "country": "RS", "coord": {"lon": 20.87583, "lat": 44.81889}}, {"id": 792821, "name": "Batu\u0161inac", "state": "", "country": "RS", "coord": {"lon": 21.822781, "lat": 43.261108}}, {"id": 792830, "name": "Bato\u010dina", "state": "", "country": "RS", "coord": {"lon": 21.081671, "lat": 44.15361}}, {"id": 792835, "name": "Batinci", "state": "", "country": "MK", "coord": {"lon": 21.481939, "lat": 41.91972}}, {"id": 792838, "name": "Batajnica", "state": "", "country": "RS", "coord": {"lon": 20.27639, "lat": 44.90472}}, {"id": 792851, "name": "Ba\u0161aid", "state": "", "country": "RS", "coord": {"lon": 20.414169, "lat": 45.641109}}, {"id": 792864, "name": "Barice", "state": "", "country": "RS", "coord": {"lon": 21.08333, "lat": 45.183331}}, {"id": 792866, "name": "Bari\u010d", "state": "", "country": "RS", "coord": {"lon": 20.259439, "lat": 44.652222}}, {"id": 792888, "name": "Baranda", "state": "", "country": "RS", "coord": {"lon": 20.443331, "lat": 45.085281}}, {"id": 792892, "name": "Barajevo", "state": "", "country": "RS", "coord": {"lon": 20.415831, "lat": 44.578892}}, {"id": 792919, "name": "Banjica", "state": "", "country": "XK", "coord": {"lon": 21.16444, "lat": 42.287781}}, {"id": 792934, "name": "Bancarevo", "state": "", "country": "RS", "coord": {"lon": 22.113331, "lat": 43.271671}}, {"id": 792937, "name": "Banatsko Veliko Selo", "state": "", "country": "RS", "coord": {"lon": 20.599171, "lat": 45.827221}}, {"id": 792940, "name": "Banatsko Kara\u0111or\u0111evo", "state": "", "country": "RS", "coord": {"lon": 20.563061, "lat": 45.583328}}, {"id": 792945, "name": "Banatski Karlovac", "state": "", "country": "RS", "coord": {"lon": 21.016109, "lat": 45.047218}}, {"id": 792946, "name": "Banatski Dvor", "state": "", "country": "RS", "coord": {"lon": 20.51417, "lat": 45.520561}}, {"id": 792948, "name": "Banatski Despotovac", "state": "", "country": "RS", "coord": {"lon": 20.664169, "lat": 45.36528}}, {"id": 792949, "name": "Banatski Brestovac", "state": "", "country": "RS", "coord": {"lon": 20.805281, "lat": 44.727219}}, {"id": 792950, "name": "Banatska Topola", "state": "", "country": "RS", "coord": {"lon": 20.465561, "lat": 45.672501}}, {"id": 792952, "name": "Banatska Palanka", "state": "", "country": "RS", "coord": {"lon": 21.32667, "lat": 44.842499}}, {"id": 793014, "name": "Ba\u010dko Petrovo Selo", "state": "", "country": "RS", "coord": {"lon": 20.075279, "lat": 45.708061}}, {"id": 793015, "name": "Ba\u010dko Gradi\u0161te", "state": "", "country": "RS", "coord": {"lon": 20.02833, "lat": 45.53278}}, {"id": 793034, "name": "Babu\u0161nica", "state": "", "country": "RS", "coord": {"lon": 22.411671, "lat": 43.059719}}, {"id": 793053, "name": "Babi\u010dko", "state": "", "country": "RS", "coord": {"lon": 22.00083, "lat": 43.137779}}, {"id": 793093, "name": "Arilje", "state": "", "country": "RS", "coord": {"lon": 20.09556, "lat": 43.753059}}, {"id": 793111, "name": "Aran\u0111elovac", "state": "", "country": "RS", "coord": {"lon": 20.559999, "lat": 44.306938}}, {"id": 793112, "name": "Aradac", "state": "", "country": "RS", "coord": {"lon": 20.30139, "lat": 45.38306}}, {"id": 793113, "name": "\u0410\u0440\u0430\u0447\u0438\u043d\u043e\u0432\u043e", "state": "", "country": "MK", "coord": {"lon": 21.561939, "lat": 42.02639}}, {"id": 793134, "name": "Alibunar", "state": "", "country": "RS", "coord": {"lon": 20.96583, "lat": 45.08083}}, {"id": 793138, "name": "Aleksinac", "state": "", "country": "RS", "coord": {"lon": 21.707781, "lat": 43.541672}}, {"id": 793141, "name": "Aleksandrovac", "state": "", "country": "RS", "coord": {"lon": 21.21167, "lat": 44.445}}, {"id": 793142, "name": "Aleksandrovac", "state": "", "country": "RS", "coord": {"lon": 21.0525, "lat": 43.458611}}, {"id": 793146, "name": "Aldinac", "state": "", "country": "RS", "coord": {"lon": 22.44556, "lat": 43.529442}}, {"id": 793171, "name": "Ada", "state": "", "country": "RS", "coord": {"lon": 20.12583, "lat": 45.802502}}, {"id": 793226, "name": "Papraqan", "state": "", "country": "XK", "coord": {"lon": 20.33111, "lat": 42.55278}}, {"id": 793246, "name": "Kolga", "state": "", "country": "EE", "coord": {"lon": 25.619169, "lat": 59.486671}}, {"id": 793277, "name": "Pechi", "state": "", "country": "BY", "coord": {"lon": 28.466667, "lat": 54.183334}}, {"id": 793279, "name": "Balbasava", "state": "", "country": "BY", "coord": {"lon": 30.272591, "lat": 54.436199}}, {"id": 793457, "name": "S\u00f5meru", "state": "", "country": "EE", "coord": {"lon": 26.4375, "lat": 59.361111}}, {"id": 793505, "name": "Olgina", "state": "", "country": "EE", "coord": {"lon": 28.12528, "lat": 59.395279}}, {"id": 793638, "name": "Vardablur", "state": "", "country": "AM", "coord": {"lon": 44.508888, "lat": 40.970829}}, {"id": 793657, "name": "Malynivka", "state": "", "country": "UA", "coord": {"lon": 36.73333, "lat": 49.816669}}, {"id": 793672, "name": "Bardzrashen", "state": "", "country": "AM", "coord": {"lon": 44.579578, "lat": 40.085331}}, {"id": 793693, "name": "Nshavan", "state": "", "country": "AM", "coord": {"lon": 44.52565, "lat": 40.02787}}, {"id": 793702, "name": "Verin Jrashen", "state": "", "country": "AM", "coord": {"lon": 44.563568, "lat": 40.138569}}, {"id": 793760, "name": "Golov\u0161a", "state": "", "country": "RS", "coord": {"lon": 20.35611, "lat": 43.476391}}, {"id": 793790, "name": "Ra\u0161ka", "state": "", "country": "RS", "coord": {"lon": 20.61528, "lat": 43.28722}}, {"id": 793956, "name": "Tabivere", "state": "", "country": "EE", "coord": {"lon": 26.59556, "lat": 58.554169}}, {"id": 794067, "name": "Madise", "state": "", "country": "EE", "coord": {"lon": 26.73056, "lat": 58.243328}}, {"id": 794319, "name": "Kannu", "state": "", "country": "EE", "coord": {"lon": 27.13139, "lat": 57.90667}}, {"id": 794848, "name": "P\u00fchalepa", "state": "", "country": "EE", "coord": {"lon": 22.98444, "lat": 58.874439}}, {"id": 794940, "name": "T\u00f5mmiku", "state": "", "country": "EE", "coord": {"lon": 24.37278, "lat": 59.327499}}, {"id": 794947, "name": "Odulemma", "state": "", "country": "EE", "coord": {"lon": 24.331671, "lat": 59.136108}}, {"id": 794956, "name": "Tutermaa", "state": "", "country": "EE", "coord": {"lon": 24.46472, "lat": 59.31778}}, {"id": 794964, "name": "Laagri", "state": "", "country": "EE", "coord": {"lon": 24.61418, "lat": 59.35083}}, {"id": 794965, "name": "Mustam\u00e4e", "state": "", "country": "EE", "coord": {"lon": 24.67729, "lat": 59.400822}}, {"id": 794976, "name": "Soodevahe", "state": "", "country": "EE", "coord": {"lon": 24.88139, "lat": 59.410561}}, {"id": 794995, "name": "Prillim\u00e4e", "state": "", "country": "EE", "coord": {"lon": 24.805, "lat": 59.188332}}, {"id": 795062, "name": "Poroj", "state": "", "country": "MK", "coord": {"lon": 20.9925, "lat": 42.03083}}, {"id": 795067, "name": "Gedzhukh", "state": "", "country": "RU", "coord": {"lon": 48.064739, "lat": 42.127861}}, {"id": 795140, "name": "Krasnoyarskaya", "state": "", "country": "RU", "coord": {"lon": 42.1856, "lat": 47.495499}}, {"id": 795157, "name": "M\u00f5igu", "state": "", "country": "EE", "coord": {"lon": 24.812969, "lat": 59.406311}}, {"id": 795163, "name": "Krasnyy Kut", "state": "", "country": "RU", "coord": {"lon": 42.445278, "lat": 47.133057}}, {"id": 795235, "name": "Vidyayevo", "state": "", "country": "RU", "coord": {"lon": 32.804878, "lat": 69.319138}}, {"id": 795243, "name": "Snezhnogorsk", "state": "", "country": "RU", "coord": {"lon": 33.253139, "lat": 69.193329}}, {"id": 795259, "name": "Novoye Plato", "state": "", "country": "RU", "coord": {"lon": 33.110538, "lat": 68.97506}}, {"id": 795310, "name": "Urochishche Itkol", "state": "", "country": "RU", "coord": {"lon": 42.570278, "lat": 43.250561}}, {"id": 796037, "name": "Oslomej", "state": "", "country": "MK", "coord": {"lon": 21, "lat": 41.577221}}, {"id": 796095, "name": "Strimnica", "state": "", "country": "MK", "coord": {"lon": 21.034719, "lat": 41.967499}}, {"id": 796096, "name": "Dobarce", "state": "", "country": "MK", "coord": {"lon": 21.08778, "lat": 41.95417}}, {"id": 796234, "name": "Kirkonm\u00e4ki", "state": "", "country": "FI", "coord": {"lon": 23.13622, "lat": 63.82897}}, {"id": 796341, "name": "Loktev", "state": "", "country": "RU", "coord": {"lon": 40.442501, "lat": 48.965061}}, {"id": 796701, "name": "Kokrek", "state": "", "country": "RU", "coord": {"lon": 46.72665, "lat": 43.236389}}, {"id": 796721, "name": "Stal\u2019skoye", "state": "", "country": "RU", "coord": {"lon": 46.97134, "lat": 43.187038}}, {"id": 796868, "name": "Mykhaylivka", "state": "", "country": "UA", "coord": {"lon": 36.262699, "lat": 45.28669}}, {"id": 796898, "name": "Novyy Koyash", "state": "", "country": "UA", "coord": {"lon": 36.228611, "lat": 45.045555}}, {"id": 796931, "name": "Dzhardzhava", "state": "", "country": "UA", "coord": {"lon": 36.417778, "lat": 45.340557}}, {"id": 797011, "name": "Kontenko", "state": "", "country": "RU", "coord": {"lon": 36.832218, "lat": 45.358059}}, {"id": 797047, "name": "Tishakovka", "state": "", "country": "RU", "coord": {"lon": 40.330555, "lat": 48.637779}}, {"id": 797049, "name": "Tarasovskiy", "state": "", "country": "RU", "coord": {"lon": 40.220829, "lat": 48.658058}}, {"id": 797062, "name": "Bugaz", "state": "", "country": "RU", "coord": {"lon": 36.74361, "lat": 45.122501}}, {"id": 797076, "name": "Vasil\u2019yevka", "state": "", "country": "RU", "coord": {"lon": 40.331944, "lat": 48.713333}}, {"id": 797077, "name": "Popovka", "state": "", "country": "RU", "coord": {"lon": 40.347221, "lat": 48.698891}}, {"id": 797083, "name": "Vyshestebliyevskaya", "state": "", "country": "RU", "coord": {"lon": 37.018059, "lat": 45.19611}}, {"id": 797131, "name": "Truzhenik Morya", "state": "", "country": "RU", "coord": {"lon": 37.285557, "lat": 45.324165}}, {"id": 797138, "name": "Oktyabr\u2019skiy", "state": "", "country": "RU", "coord": {"lon": 37.319443, "lat": 45.248611}}, {"id": 797197, "name": "Adagum", "state": "", "country": "RU", "coord": {"lon": 38.02, "lat": 45.029999}}, {"id": 797213, "name": "Pervomayskoye", "state": "", "country": "RU", "coord": {"lon": 46.71019, "lat": 43.919041}}, {"id": 797411, "name": "Stepnoye", "state": "", "country": "RU", "coord": {"lon": 44.584999, "lat": 44.270828}}, {"id": 797527, "name": "Krasnyy Kurgan", "state": "", "country": "RU", "coord": {"lon": 37.337502, "lat": 45.013729}}, {"id": 797725, "name": "Kara-Tyube", "state": "", "country": "RU", "coord": {"lon": 45.436939, "lat": 44.63361}}, {"id": 797842, "name": "Erdeshkin", "state": "", "country": "RU", "coord": {"lon": 44.364441, "lat": 48.441109}}, {"id": 797846, "name": "Mikhaylovka", "state": "", "country": "RU", "coord": {"lon": 40.211109, "lat": 48.03611}}, {"id": 797854, "name": "Zelenovskiy", "state": "", "country": "RU", "coord": {"lon": 43.786942, "lat": 49.845001}}, {"id": 797875, "name": "Lipov", "state": "", "country": "RU", "coord": {"lon": 40.521389, "lat": 48.207222}}, {"id": 797884, "name": "Verkhnepopov", "state": "", "country": "RU", "coord": {"lon": 40.86861, "lat": 48.176945}}, {"id": 797962, "name": "Lebedi", "state": "", "country": "RU", "coord": {"lon": 41.100281, "lat": 48.169998}}, {"id": 797982, "name": "Komissarov", "state": "", "country": "RU", "coord": {"lon": 41.149445, "lat": 48.269169}}, {"id": 798004, "name": "Skachkov", "state": "", "country": "RU", "coord": {"lon": 41.760277, "lat": 48.365833}}, {"id": 798013, "name": "Kommuny", "state": "", "country": "RU", "coord": {"lon": 44.575562, "lat": 48.556671}}, {"id": 798043, "name": "Bobrov", "state": "", "country": "RU", "coord": {"lon": 44.566666, "lat": 48.721111}}, {"id": 798056, "name": "-", "state": "", "country": "RU", "coord": {"lon": 44.862778, "lat": 48.735001}}, {"id": 798058, "name": "Kilyakovka", "state": "", "country": "RU", "coord": {"lon": 44.783054, "lat": 48.733612}}, {"id": 798134, "name": "Takushin", "state": "", "country": "RU", "coord": {"lon": 45.726391, "lat": 48.740559}}, {"id": 798335, "name": "Imeni Pervogo Maya", "state": "", "country": "RU", "coord": {"lon": 39.5919, "lat": 50.889969}}, {"id": 798536, "name": "Rabocheostrovsk", "state": "", "country": "RU", "coord": {"lon": 34.766109, "lat": 64.985474}}, {"id": 798544, "name": "Republic of Poland", "state": "", "country": "PL", "coord": {"lon": 20, "lat": 52}}, {"id": 798549, "name": "Rom\u00e2nia", "state": "", "country": "RO", "coord": {"lon": 25, "lat": 46}}, {"id": 798563, "name": "Toompea", "state": "", "country": "EE", "coord": {"lon": 24.73999, "lat": 59.436981}}, {"id": 799311, "name": "Guzeripl\u2019", "state": "", "country": "RU", "coord": {"lon": 40.136391, "lat": 43.988609}}, {"id": 799349, "name": "Gori", "state": "", "country": "RU", "coord": {"lon": 43.98, "lat": 42.695278}}, {"id": 799386, "name": "Lutkun", "state": "", "country": "RU", "coord": {"lon": 47.68578, "lat": 41.480839}}, {"id": 799614, "name": "Norabats\u2019", "state": "", "country": "AM", "coord": {"lon": 44.429878, "lat": 40.105679}}, {"id": 799968, "name": "Bzypiskhevi", "state": "", "country": "GE", "coord": {"lon": 40.398888, "lat": 43.28611}}, {"id": 801930, "name": "Daraganovka", "state": "", "country": "RU", "coord": {"lon": 38.783779, "lat": 47.241699}}, {"id": 801983, "name": "Druzhba", "state": "", "country": "RU", "coord": {"lon": 47.997978, "lat": 42.241081}}, {"id": 801987, "name": "Zapadnyy", "state": "", "country": "RU", "coord": {"lon": 39.645557, "lat": 47.215832}}, {"id": 801996, "name": "Novoivanovka", "state": "", "country": "RU", "coord": {"lon": 40.029446, "lat": 47.661667}}, {"id": 802000, "name": "Gerga", "state": "", "country": "RU", "coord": {"lon": 47.963329, "lat": 42.346451}}, {"id": 802015, "name": "Nezhdannaya", "state": "", "country": "RU", "coord": {"lon": 40.145, "lat": 47.709999}}, {"id": 802029, "name": "Kostikov", "state": "", "country": "RU", "coord": {"lon": 40.303982, "lat": 47.685429}}, {"id": 802037, "name": "Imeni Chkalova", "state": "", "country": "RU", "coord": {"lon": 39.74889, "lat": 47.281391}}, {"id": 802052, "name": "Rassvet", "state": "", "country": "RU", "coord": {"lon": 39.882778, "lat": 47.359722}}, {"id": 802078, "name": "Alagir", "state": "", "country": "RU", "coord": {"lon": 44.222221, "lat": 43.042221}}, {"id": 802105, "name": "Yekaterinovka", "state": "", "country": "RU", "coord": {"lon": 39.037777, "lat": 47.314999}}, {"id": 802314, "name": "Parts\u201dyezda", "state": "", "country": "RU", "coord": {"lon": 39.624168, "lat": 46.81139}}, {"id": 802473, "name": "Yuzhnyy", "state": "", "country": "RU", "coord": {"lon": 40.47472, "lat": 45.002499}}, {"id": 802474, "name": "Ob\u201dyezdnaya Balka", "state": "", "country": "RU", "coord": {"lon": 39.68, "lat": 46.673332}}, {"id": 802498, "name": "Karla Marksa", "state": "", "country": "RU", "coord": {"lon": 39.121387, "lat": 45.214169}}, {"id": 802505, "name": "Deviz", "state": "", "country": "RU", "coord": {"lon": 39.619999, "lat": 46.768612}}, {"id": 802629, "name": "Kovalevskoye", "state": "", "country": "RU", "coord": {"lon": 40.976109, "lat": 45.194172}}, {"id": 802714, "name": "Persianovka", "state": "", "country": "RU", "coord": {"lon": 39.418331, "lat": 47.52972}}, {"id": 802754, "name": "Karamakhi", "state": "", "country": "RU", "coord": {"lon": 47.26017, "lat": 42.619339}}, {"id": 802799, "name": "Alkhan-Churt", "state": "", "country": "RU", "coord": {"lon": 44.779999, "lat": 43.349998}}, {"id": 802899, "name": "Mutaykutan", "state": "", "country": "RU", "coord": {"lon": 47.660641, "lat": 42.818859}}, {"id": 802921, "name": "Novyy Khushet", "state": "", "country": "RU", "coord": {"lon": 47.560398, "lat": 42.899422}}, {"id": 803021, "name": "Khambi-Irze", "state": "", "country": "RU", "coord": {"lon": 45.453018, "lat": 43.23502}}, {"id": 803138, "name": "Kaganovicheskiy", "state": "", "country": "RU", "coord": {"lon": 40.494446, "lat": 45.466667}}, {"id": 803210, "name": "Lovyagin", "state": "", "country": "RU", "coord": {"lon": 40.682777, "lat": 45.549168}}, {"id": 803494, "name": "Or\u00ebl-Izumrud", "state": "", "country": "RU", "coord": {"lon": 39.924442, "lat": 43.458332}}, {"id": 803498, "name": "Vysokoye", "state": "", "country": "RU", "coord": {"lon": 39.965832, "lat": 43.460556}}, {"id": 803558, "name": "Verkhnenikolayevka", "state": "", "country": "RU", "coord": {"lon": 39.93861, "lat": 43.52639}}, {"id": 803563, "name": "Galitsino", "state": "", "country": "RU", "coord": {"lon": 39.978889, "lat": 43.551388}}, {"id": 803569, "name": "Shirokiy Pokos", "state": "", "country": "RU", "coord": {"lon": 39.922779, "lat": 43.555557}}, {"id": 803572, "name": "Krasnovol'sk", "state": "", "country": "RU", "coord": {"lon": 39.887222, "lat": 43.5425}}, {"id": 803587, "name": "Dmitreyevka", "state": "", "country": "RU", "coord": {"lon": 39.857224, "lat": 43.537224}}, {"id": 803597, "name": "Razdol\u2019noye", "state": "", "country": "RU", "coord": {"lon": 39.764999, "lat": 43.573612}}, {"id": 803598, "name": "Sobolevka", "state": "", "country": "RU", "coord": {"lon": 39.742779, "lat": 43.591667}}, {"id": 803611, "name": "Yurevichi", "state": "", "country": "RU", "coord": {"lon": 39.934444, "lat": 43.600555}}, {"id": 803692, "name": "Dolmel", "state": "", "country": "RU", "coord": {"lon": 38.220833, "lat": 44.546665}}, {"id": 804002, "name": "Alekseyevka", "state": "", "country": "RU", "coord": {"lon": 37.34, "lat": 44.900002}}, {"id": 804006, "name": "Artemenko", "state": "", "country": "RU", "coord": {"lon": 37.43, "lat": 44.91}}, {"id": 804036, "name": "Sanitoriy Bimlyuk", "state": "", "country": "RU", "coord": {"lon": 37.318333, "lat": 44.931667}}, {"id": 804039, "name": "Voskresenskiy", "state": "", "country": "RU", "coord": {"lon": 37.321667, "lat": 44.966389}}, {"id": 804040, "name": "Blagoveshchenskoye", "state": "", "country": "RU", "coord": {"lon": 37.265831, "lat": 44.987221}}, {"id": 804056, "name": "Il\u2019kov", "state": "", "country": "RU", "coord": {"lon": 44.689167, "lat": 47.994999}}, {"id": 804172, "name": "Samoylova", "state": "", "country": "RU", "coord": {"lon": 37.701111, "lat": 44.765556}}, {"id": 804173, "name": "Kirillovka", "state": "", "country": "RU", "coord": {"lon": 37.73, "lat": 44.76889}}, {"id": 804176, "name": "Pobeda", "state": "", "country": "RU", "coord": {"lon": 37.732777, "lat": 44.767776}}, {"id": 804253, "name": "Alevra", "state": "", "country": "RU", "coord": {"lon": 37.959999, "lat": 44.880001}}, {"id": 804310, "name": "Tashlinskiy", "state": "", "country": "RU", "coord": {"lon": 42.088329, "lat": 45.098061}}, {"id": 804319, "name": "Vostochnyy Sad", "state": "", "country": "RU", "coord": {"lon": 40.148888, "lat": 44.62722}}, {"id": 804322, "name": "Zapadnyy", "state": "", "country": "RU", "coord": {"lon": 40.06889, "lat": 44.625832}}, {"id": 804366, "name": "-", "state": "", "country": "RU", "coord": {"lon": 40.099167, "lat": 44.304443}}, {"id": 804374, "name": "Kudryavtseva", "state": "", "country": "RU", "coord": {"lon": 40.07444, "lat": 44.281391}}, {"id": 804391, "name": "Lobazana", "state": "", "country": "RU", "coord": {"lon": 40.229443, "lat": 44.066944}}, {"id": 804443, "name": "Kravchenko", "state": "", "country": "RU", "coord": {"lon": 38.038059, "lat": 44.897221}}, {"id": 804463, "name": "Makhoshepolyana", "state": "", "country": "RU", "coord": {"lon": 40.299442, "lat": 44.455555}}, {"id": 804486, "name": "Syumyan-Bulun", "state": "", "country": "RU", "coord": {"lon": 46.763058, "lat": 47.573334}}, {"id": 804647, "name": "Novotroitskiy", "state": "", "country": "RU", "coord": {"lon": 40.520557, "lat": 44.615002}}, {"id": 804648, "name": "Ul\u2019yanovskiy", "state": "", "country": "RU", "coord": {"lon": 40.518101, "lat": 44.616699}}, {"id": 804751, "name": "Salyno-Khulsunskiye", "state": "", "country": "RU", "coord": {"lon": 44.338058, "lat": 46.38694}}, {"id": 804780, "name": "Popovskiy", "state": "", "country": "RU", "coord": {"lon": 40.544167, "lat": 44.226944}}, {"id": 804875, "name": "Zavetnyy", "state": "", "country": "RU", "coord": {"lon": 41.137299, "lat": 44.931599}}, {"id": 804926, "name": "Kapustin", "state": "", "country": "RU", "coord": {"lon": 39.923962, "lat": 44.89822}}, {"id": 805073, "name": "Starka", "state": "", "country": "RU", "coord": {"lon": 38.879723, "lat": 44.194168}}, {"id": 805190, "name": "Zarechnyy", "state": "", "country": "RU", "coord": {"lon": 39.466946, "lat": 44.425556}}, {"id": 805295, "name": "Solomennyy", "state": "", "country": "RU", "coord": {"lon": 41.900558, "lat": 44.52306}}, {"id": 805416, "name": "Dolmen", "state": "", "country": "RU", "coord": {"lon": 39.13139, "lat": 44.120834}}, {"id": 805438, "name": "Chortov Most", "state": "", "country": "RU", "coord": {"lon": 39.413334, "lat": 44.009445}}, {"id": 805506, "name": "Mukhortova Polyana", "state": "", "country": "RU", "coord": {"lon": 39.272499, "lat": 43.974445}}, {"id": 805516, "name": "Mamedova Shchel\u2019", "state": "", "country": "RU", "coord": {"lon": 39.31139, "lat": 43.953609}}, {"id": 805539, "name": "Soloniki", "state": "", "country": "RU", "coord": {"lon": 39.375, "lat": 43.886391}}, {"id": 805542, "name": "Katkova Shchel\u2019", "state": "", "country": "RU", "coord": {"lon": 39.413078, "lat": 43.850948}}, {"id": 805545, "name": "Golovinka", "state": "", "country": "RU", "coord": {"lon": 39.475834, "lat": 43.791111}}, {"id": 805557, "name": "Vtoraya Rota", "state": "", "country": "RU", "coord": {"lon": 39.711109, "lat": 43.772499}}, {"id": 805559, "name": "Verkhnerusskaya Khobza", "state": "", "country": "RU", "coord": {"lon": 39.630001, "lat": 43.782501}}, {"id": 805593, "name": "Novaya Zarya", "state": "", "country": "RU", "coord": {"lon": 39.721943, "lat": 43.633888}}, {"id": 805597, "name": "Sergey-Pole", "state": "", "country": "RU", "coord": {"lon": 39.704723, "lat": 43.673889}}, {"id": 805601, "name": "Gruzinskaya Mamayka", "state": "", "country": "RU", "coord": {"lon": 39.698891, "lat": 43.63139}}, {"id": 805616, "name": "Nizhneye Orekhovo", "state": "", "country": "RU", "coord": {"lon": 39.7775, "lat": 43.707222}}, {"id": 805620, "name": "Kalinovoye Ozero", "state": "", "country": "RU", "coord": {"lon": 39.884724, "lat": 43.613888}}, {"id": 805755, "name": "Yasnaya Polyana", "state": "", "country": "RU", "coord": {"lon": 42.753899, "lat": 44.022499}}, {"id": 805775, "name": "Borisovka", "state": "", "country": "RU", "coord": {"lon": 35.99028, "lat": 50.623611}}, {"id": 805824, "name": "Verkhniy Kubanskiy", "state": "", "country": "RU", "coord": {"lon": 42.047779, "lat": 44.319168}}, {"id": 805883, "name": "Imeni Lenina", "state": "", "country": "RU", "coord": {"lon": 36.14333, "lat": 51.057499}}, {"id": 806111, "name": "Mochaki", "state": "", "country": "RU", "coord": {"lon": 36.968609, "lat": 51.006252}}, {"id": 806450, "name": "Chernyaky", "state": "", "country": "UA", "coord": {"lon": 36.454189, "lat": 50.085377}}, {"id": 806512, "name": "Imeni Frunze", "state": "", "country": "UA", "coord": {"lon": 36.33852, "lat": 49.965851}}, {"id": 806930, "name": "Savkino", "state": "", "country": "UA", "coord": {"lon": 34.086109, "lat": 51.583889}}, {"id": 807231, "name": "Mughan", "state": "", "country": "AZ", "coord": {"lon": 48.818859, "lat": 40.099018}}, {"id": 807283, "name": "Vodyanoy", "state": "", "country": "RU", "coord": {"lon": 36.367161, "lat": 50.470131}}, {"id": 808177, "name": "Oskochnoye", "state": "", "country": "RU", "coord": {"lon": 36.558891, "lat": 50.656391}}, {"id": 808182, "name": "Yachnevo", "state": "", "country": "RU", "coord": {"lon": 36.579399, "lat": 50.637508}}, {"id": 808190, "name": "Kalinin", "state": "", "country": "RU", "coord": {"lon": 36.611328, "lat": 50.74049}}, {"id": 808829, "name": "Chernihivs\u2019ke", "state": "", "country": "UA", "coord": {"lon": 36.285278, "lat": 49.00639}}, {"id": 808832, "name": "Oddykhne", "state": "", "country": "UA", "coord": {"lon": 36.323059, "lat": 49.061668}}, {"id": 808841, "name": "Novo Ivanovka", "state": "", "country": "UA", "coord": {"lon": 36.340832, "lat": 49.084438}}, {"id": 808864, "name": "Vasil\u2019yevo-Grigor\u2019yevskiy", "state": "", "country": "UA", "coord": {"lon": 36.509441, "lat": 49.243061}}, {"id": 808926, "name": "Privol\u2019ye", "state": "", "country": "UA", "coord": {"lon": 36.346939, "lat": 49.107498}}, {"id": 809160, "name": "Druzhnyy", "state": "", "country": "RU", "coord": {"lon": 36.61718, "lat": 50.760559}}, {"id": 809274, "name": "Kabachki", "state": "", "country": "UA", "coord": {"lon": 38.458328, "lat": 48.031109}}, {"id": 809485, "name": "Getmanov", "state": "", "country": "RU", "coord": {"lon": 40.331039, "lat": 49.05513}}, {"id": 809657, "name": "Kooperatorka", "state": "", "country": "UA", "coord": {"lon": 36.316391, "lat": 49.264439}}, {"id": 809736, "name": "Kalinov", "state": "", "country": "RU", "coord": {"lon": 39.915501, "lat": 48.005798}}, {"id": 809833, "name": "Tat\u2019yanovka", "state": "", "country": "RU", "coord": {"lon": 37.504539, "lat": 50.76889}}, {"id": 809954, "name": "Muralevo", "state": "", "country": "RU", "coord": {"lon": 36.294331, "lat": 51.79583}}, {"id": 810002, "name": "Koz\u2019minka", "state": "", "country": "RU", "coord": {"lon": 36.391109, "lat": 51.979172}}, {"id": 810039, "name": "Kuznetsovka", "state": "", "country": "UA", "coord": {"lon": 38.072048, "lat": 48.278042}}, {"id": 810074, "name": "Stupakove", "state": "", "country": "UA", "coord": {"lon": 38.305, "lat": 48.286671}}, {"id": 810742, "name": "Norovka", "state": "", "country": "RU", "coord": {"lon": 40.141109, "lat": 49.400002}}, {"id": 810784, "name": "Slavyanoserbsk", "state": "", "country": "UA", "coord": {"lon": 38.908329, "lat": 48.549171}}, {"id": 810965, "name": "Butivka", "state": "", "country": "UA", "coord": {"lon": 36.38203, "lat": 49.708038}}, {"id": 811029, "name": "Geras\u2019kin", "state": "", "country": "RU", "coord": {"lon": 40.395088, "lat": 49.375771}}, {"id": 811137, "name": "Shipilov", "state": "", "country": "RU", "coord": {"lon": 40.817081, "lat": 49.45351}}, {"id": 811383, "name": "Sazonova", "state": "", "country": "RU", "coord": {"lon": 35.945831, "lat": 55.200832}}, {"id": 812136, "name": "Ryabinki", "state": "", "country": "RU", "coord": {"lon": 35.66333, "lat": 55.420559}}, {"id": 812246, "name": "Kirpichnyy", "state": "", "country": "RU", "coord": {"lon": 42.831669, "lat": 44.041111}}, {"id": 812490, "name": "Nizovtsy", "state": "", "country": "BY", "coord": {"lon": 30.239721, "lat": 54.25111}}, {"id": 812538, "name": "Dan\u2019kovichi", "state": "", "country": "BY", "coord": {"lon": 30.327499, "lat": 54.173058}}, {"id": 812803, "name": "Nadtochiyi", "state": "", "country": "UA", "coord": {"lon": 36.098888, "lat": 49.963058}}, {"id": 812806, "name": "Sinolitsovka", "state": "", "country": "UA", "coord": {"lon": 36.042782, "lat": 49.958889}}, {"id": 812877, "name": "Selektsiyne", "state": "", "country": "UA", "coord": {"lon": 36.025558, "lat": 49.778889}}, {"id": 812881, "name": "Kysle", "state": "", "country": "UA", "coord": {"lon": 36.02528, "lat": 49.760281}}, {"id": 812917, "name": "Losevo", "state": "", "country": "UA", "coord": {"lon": 36.321671, "lat": 49.953609}}, {"id": 812926, "name": "Chunikhin", "state": "", "country": "UA", "coord": {"lon": 36.33667, "lat": 49.946941}}, {"id": 812935, "name": "Movchany", "state": "", "country": "UA", "coord": {"lon": 36.300282, "lat": 49.9202}}, {"id": 813247, "name": "Maloye Zamosh\u2019ye", "state": "", "country": "BY", "coord": {"lon": 30.309999, "lat": 54.375278}}, {"id": 813418, "name": "Yttre-Bergn\u00e4set", "state": "", "country": "SE", "coord": {"lon": 22.116671, "lat": 65.566673}}, {"id": 813620, "name": "Volevki", "state": "", "country": "BY", "coord": {"lon": 31.079445, "lat": 54.622501}}, {"id": 813643, "name": "Kalinawka", "state": "", "country": "BY", "coord": {"lon": 31.000278, "lat": 54.597221}}, {"id": 813707, "name": "Staroye Ustinovo", "state": "", "country": "RU", "coord": {"lon": 34.903332, "lat": 55.987782}}, {"id": 814159, "name": "Zilovo", "state": "", "country": "RU", "coord": {"lon": 33.77417, "lat": 55.578331}}, {"id": 814778, "name": "Seredeya", "state": "", "country": "RU", "coord": {"lon": 35.25032, "lat": 54.02005}}, {"id": 814862, "name": "Belilovo", "state": "", "country": "RU", "coord": {"lon": 35.349998, "lat": 54.119999}}, {"id": 814943, "name": "Rudki", "state": "", "country": "BY", "coord": {"lon": 30.027222, "lat": 53.676388}}, {"id": 814948, "name": "Podbrod\u2019ye", "state": "", "country": "BY", "coord": {"lon": 30.098333, "lat": 53.726112}}, {"id": 815250, "name": "Koval\u00ebvka", "state": "", "country": "RU", "coord": {"lon": 32.035, "lat": 54.753613}}, {"id": 815261, "name": "Pushcha", "state": "", "country": "BY", "coord": {"lon": 30.128056, "lat": 53.753056}}, {"id": 815677, "name": "Bol\u2019shaya Dubrava", "state": "", "country": "RU", "coord": {"lon": 34.120831, "lat": 53.288059}}, {"id": 815847, "name": "Ramanavichy", "state": "", "country": "BY", "coord": {"lon": 30.560989, "lat": 53.872292}}, {"id": 815857, "name": "Kurovskoye", "state": "", "country": "RU", "coord": {"lon": 36.002621, "lat": 54.542992}}, {"id": 815919, "name": "Sorokyne", "state": "", "country": "UA", "coord": {"lon": 34.036667, "lat": 52.15778}}, {"id": 816013, "name": "Popovka", "state": "", "country": "RU", "coord": {"lon": 35.918056, "lat": 54.445}}, {"id": 816033, "name": "Novo-Borisovo", "state": "", "country": "RU", "coord": {"lon": 36.166389, "lat": 55.243889}}, {"id": 816214, "name": "Gay", "state": "", "country": "BY", "coord": {"lon": 30.298332, "lat": 53.96389}}, {"id": 816218, "name": "Palykavichy Pyershyya", "state": "", "country": "BY", "coord": {"lon": 30.349167, "lat": 53.993057}}, {"id": 816234, "name": "Nizhneye Somovo", "state": "", "country": "RU", "coord": {"lon": 35.694443, "lat": 54.354168}}, {"id": 816435, "name": "Nikitinskaya", "state": "", "country": "RU", "coord": {"lon": 36.68528, "lat": 55.191944}}, {"id": 816451, "name": "Malan\u2019ino", "state": "", "country": "RU", "coord": {"lon": 36.655556, "lat": 55.150002}}, {"id": 816483, "name": "Ratmanovo", "state": "", "country": "RU", "coord": {"lon": 36.555832, "lat": 55.062222}}, {"id": 816596, "name": "Kharino", "state": "", "country": "RU", "coord": {"lon": 37.666389, "lat": 54.836391}}, {"id": 816677, "name": "Nadeyeno", "state": "", "country": "RU", "coord": {"lon": 35.506111, "lat": 54.49139}}, {"id": 816694, "name": "Vozdvizhenka", "state": "", "country": "RU", "coord": {"lon": 37.44894, "lat": 54.96521}}, {"id": 816711, "name": "Ryblovo", "state": "", "country": "RU", "coord": {"lon": 37.358784, "lat": 54.982193}}, {"id": 816740, "name": "Mokrovo", "state": "", "country": "RU", "coord": {"lon": 37.282642, "lat": 54.975243}}, {"id": 816750, "name": "Vikhrovo", "state": "", "country": "RU", "coord": {"lon": 37.244446, "lat": 55.046112}}, {"id": 816751, "name": "Spas-Temnya", "state": "", "country": "RU", "coord": {"lon": 37.203335, "lat": 55.055}}, {"id": 816758, "name": "\u0411\u0435\u0440\u0435\u0437\u0435\u043d\u043a\u0438", "state": "", "country": "RU", "coord": {"lon": 37.220001, "lat": 55.07}}, {"id": 816763, "name": "Protva", "state": "", "country": "RU", "coord": {"lon": 37.297222, "lat": 54.842499}}, {"id": 816837, "name": "Grishenki", "state": "", "country": "RU", "coord": {"lon": 37.182499, "lat": 55.184723}}, {"id": 816839, "name": "Ishino", "state": "", "country": "RU", "coord": {"lon": 37.200558, "lat": 55.197498}}, {"id": 816847, "name": "Alekseyevka", "state": "", "country": "RU", "coord": {"lon": 37.213612, "lat": 55.240559}}, {"id": 816883, "name": "Vysokoye", "state": "", "country": "RU", "coord": {"lon": 35.531666, "lat": 54.224445}}, {"id": 817048, "name": "Vyselki", "state": "", "country": "RU", "coord": {"lon": 39.785561, "lat": 54.036671}}, {"id": 817059, "name": "Burdukovo", "state": "", "country": "RU", "coord": {"lon": 37.880554, "lat": 54.436111}}, {"id": 817062, "name": "Ryazanovka", "state": "", "country": "RU", "coord": {"lon": 37.814167, "lat": 54.467777}}, {"id": 817071, "name": "Gryzlovo", "state": "", "country": "RU", "coord": {"lon": 38.179932, "lat": 54.131302}}, {"id": 817080, "name": "S\u201dyanovo Vtoroye", "state": "", "country": "RU", "coord": {"lon": 37.248611, "lat": 55.03278}}, {"id": 817085, "name": "Grishenki", "state": "", "country": "RU", "coord": {"lon": 37.431389, "lat": 55.094444}}, {"id": 817120, "name": "Masnovo-Zhukovo", "state": "", "country": "RU", "coord": {"lon": 37.255833, "lat": 55.204445}}, {"id": 817124, "name": "Tyufanka", "state": "", "country": "RU", "coord": {"lon": 37.24778, "lat": 55.21389}}, {"id": 817127, "name": "Slepushkino", "state": "", "country": "RU", "coord": {"lon": 37.349445, "lat": 55.220001}}, {"id": 817220, "name": "Gorki", "state": "", "country": "RU", "coord": {"lon": 37.696381, "lat": 55.06739}}, {"id": 817258, "name": "Maloye Petrovskoye", "state": "", "country": "RU", "coord": {"lon": 37.510281, "lat": 55.205559}}, {"id": 817261, "name": "Alekseyevskiye", "state": "", "country": "RU", "coord": {"lon": 37.669998, "lat": 55.209999}}, {"id": 817262, "name": "Pospelikha", "state": "", "country": "RU", "coord": {"lon": 37.617779, "lat": 55.226944}}, {"id": 817272, "name": "Prudok", "state": "", "country": "RU", "coord": {"lon": 32.633888, "lat": 53.874722}}, {"id": 817378, "name": "Denisovo", "state": "", "country": "RU", "coord": {"lon": 39.809444, "lat": 54.066944}}, {"id": 817408, "name": "Agarino", "state": "", "country": "RU", "coord": {"lon": 37.810001, "lat": 55.060001}}, {"id": 817409, "name": "Kravtsovo", "state": "", "country": "RU", "coord": {"lon": 37.807701, "lat": 55.05442}}, {"id": 817438, "name": "Podbor\u2019ye", "state": "", "country": "RU", "coord": {"lon": 35.261669, "lat": 54.775002}}, {"id": 817459, "name": "\u0410\u0441\u0442\u0430\u0444\u044c\u0435\u0432\u043e", "state": "", "country": "RU", "coord": {"lon": 37.970001, "lat": 55.099998}}, {"id": 817505, "name": "Matchino", "state": "", "country": "RU", "coord": {"lon": 37.830002, "lat": 55.220001}}, {"id": 817516, "name": "Ostrozhki", "state": "", "country": "RU", "coord": {"lon": 37.77639, "lat": 55.21722}}, {"id": 817521, "name": "\u041a\u0443\u0437\u044c\u043c\u0438\u043d\u0441\u043a\u043e\u0435", "state": "", "country": "RU", "coord": {"lon": 37.879723, "lat": 55.25111}}, {"id": 817536, "name": "Voytovo", "state": "", "country": "RU", "coord": {"lon": 35.078892, "lat": 54.76667}}, {"id": 817538, "name": "Nikitino", "state": "", "country": "RU", "coord": {"lon": 35.149441, "lat": 54.803612}}, {"id": 817539, "name": "Batino", "state": "", "country": "RU", "coord": {"lon": 35.089439, "lat": 54.798889}}, {"id": 817542, "name": "Beldyagino", "state": "", "country": "RU", "coord": {"lon": 35.068611, "lat": 54.806938}}, {"id": 817544, "name": "Stroyevo", "state": "", "country": "RU", "coord": {"lon": 35.145, "lat": 54.80806}}, {"id": 817599, "name": "Voronovo", "state": "", "country": "RU", "coord": {"lon": 37.58165, "lat": 54.615131}}, {"id": 817682, "name": "Strunino", "state": "", "country": "RU", "coord": {"lon": 37.666939, "lat": 54.395561}}, {"id": 817685, "name": "Uvarovo", "state": "", "country": "RU", "coord": {"lon": 37.809166, "lat": 55.256111}}, {"id": 817687, "name": "Yarlykovo", "state": "", "country": "RU", "coord": {"lon": 37.859444, "lat": 55.27861}}, {"id": 817691, "name": "Kurgany", "state": "", "country": "RU", "coord": {"lon": 37.741112, "lat": 55.291668}}, {"id": 817697, "name": "Yudino", "state": "", "country": "RU", "coord": {"lon": 37.968571, "lat": 55.301331}}, {"id": 817701, "name": "Vakhromeyevo", "state": "", "country": "RU", "coord": {"lon": 37.77, "lat": 55.34}}, {"id": 817702, "name": "Obraztsovo", "state": "", "country": "RU", "coord": {"lon": 37.910679, "lat": 55.349319}}, {"id": 817731, "name": "Skripino", "state": "", "country": "RU", "coord": {"lon": 37.840832, "lat": 55.409443}}, {"id": 817748, "name": "Zhuravl\u00ebvka", "state": "", "country": "RU", "coord": {"lon": 37.67194, "lat": 54.321388}}, {"id": 817749, "name": "Kamkino", "state": "", "country": "RU", "coord": {"lon": 37.8125, "lat": 55.478611}}, {"id": 817767, "name": "Rozhdestvenskiy", "state": "", "country": "RU", "coord": {"lon": 37.576111, "lat": 54.301392}}, {"id": 817785, "name": "Kurlyshevo", "state": "", "country": "RU", "coord": {"lon": 38.778332, "lat": 54.254723}}, {"id": 817813, "name": "Potash", "state": "", "country": "RU", "coord": {"lon": 32.203522, "lat": 53.919701}}, {"id": 817870, "name": "Pikalovka", "state": "", "country": "RU", "coord": {"lon": 35.7925, "lat": 52.839439}}, {"id": 817959, "name": "Minayevo", "state": "", "country": "RU", "coord": {"lon": 37.739166, "lat": 55.277779}}, {"id": 817960, "name": "Ivino", "state": "", "country": "RU", "coord": {"lon": 37.624168, "lat": 55.291111}}, {"id": 817965, "name": "Yakovlevskiy", "state": "", "country": "RU", "coord": {"lon": 37.39854, "lat": 54.782639}}, {"id": 817966, "name": "Slashchevo", "state": "", "country": "RU", "coord": {"lon": 37.599998, "lat": 55.344444}}, {"id": 817967, "name": "Pashkovo", "state": "", "country": "RU", "coord": {"lon": 37.330364, "lat": 54.790771}}, {"id": 817968, "name": "Turgenevo", "state": "", "country": "RU", "coord": {"lon": 37.710278, "lat": 55.339169}}, {"id": 817984, "name": "Tatarskiye Khutora", "state": "", "country": "RU", "coord": {"lon": 37.425282, "lat": 54.71611}}, {"id": 817994, "name": "Shcherbinka", "state": "", "country": "RU", "coord": {"lon": 37.647781, "lat": 55.435558}}, {"id": 818001, "name": "Povalyayevo", "state": "", "country": "RU", "coord": {"lon": 37.33168, "lat": 54.6791}}, {"id": 818027, "name": "Zmey\u00ebvka", "state": "", "country": "RU", "coord": {"lon": 37.487499, "lat": 55.266388}}, {"id": 818029, "name": "Meshkovo", "state": "", "country": "RU", "coord": {"lon": 37.324108, "lat": 55.304539}}, {"id": 818030, "name": "Svitino", "state": "", "country": "RU", "coord": {"lon": 37.372501, "lat": 55.306667}}, {"id": 818031, "name": "Chegodayevo", "state": "", "country": "RU", "coord": {"lon": 37.389999, "lat": 55.335831}}, {"id": 818036, "name": "Luchinskoye", "state": "", "country": "RU", "coord": {"lon": 37.452221, "lat": 55.343334}}, {"id": 818042, "name": "Satino-Russkoye", "state": "", "country": "RU", "coord": {"lon": 37.342949, "lat": 55.373001}}, {"id": 818183, "name": "Sem\u00ebnkovo", "state": "", "country": "RU", "coord": {"lon": 37.11972, "lat": 55.287224}}, {"id": 818354, "name": "Kuvyakino", "state": "", "country": "RU", "coord": {"lon": 36.957222, "lat": 55.355556}}, {"id": 818392, "name": "Arkhangel\u2019skoye", "state": "", "country": "RU", "coord": {"lon": 36.91, "lat": 55.389999}}, {"id": 818461, "name": "Zasimovo", "state": "", "country": "RU", "coord": {"lon": 35.158054, "lat": 53.939167}}, {"id": 818477, "name": "Malaya Slobodka", "state": "", "country": "RU", "coord": {"lon": 36.024082, "lat": 54.442394}}, {"id": 818486, "name": "Rogacheva", "state": "", "country": "RU", "coord": {"lon": 36.665001, "lat": 55.261944}}, {"id": 818487, "name": "Vorotynsk", "state": "", "country": "RU", "coord": {"lon": 36.046459, "lat": 54.42828}}, {"id": 818493, "name": "Shchekutina", "state": "", "country": "RU", "coord": {"lon": 36.699444, "lat": 55.327499}}, {"id": 818703, "name": "Golovteyevo", "state": "", "country": "RU", "coord": {"lon": 36.357685, "lat": 54.910698}}, {"id": 818708, "name": "Goncharovka", "state": "", "country": "RU", "coord": {"lon": 36.360741, "lat": 54.862026}}, {"id": 818933, "name": "Davydovo", "state": "", "country": "RU", "coord": {"lon": 39.113888, "lat": 54.67889}}, {"id": 818934, "name": "Kuvshinovo", "state": "", "country": "RU", "coord": {"lon": 39.054722, "lat": 54.680557}}, {"id": 818935, "name": "Sokhino", "state": "", "country": "RU", "coord": {"lon": 39.191387, "lat": 54.654999}}, {"id": 818964, "name": "Zelenino", "state": "", "country": "RU", "coord": {"lon": 39.411667, "lat": 54.666943}}, {"id": 818966, "name": "Bulygino", "state": "", "country": "RU", "coord": {"lon": 39.268333, "lat": 54.663334}}, {"id": 818967, "name": "Pokrovka", "state": "", "country": "RU", "coord": {"lon": 39.273056, "lat": 54.646942}}, {"id": 818968, "name": "Krasnyy Pos\u00eblok", "state": "", "country": "RU", "coord": {"lon": 39.339722, "lat": 54.651669}}, {"id": 819036, "name": "D\u2019yakonovo", "state": "", "country": "RU", "coord": {"lon": 36.655834, "lat": 55.698612}}, {"id": 819038, "name": "Gribtsovo", "state": "", "country": "RU", "coord": {"lon": 36.664165, "lat": 55.683334}}, {"id": 819052, "name": "Polud\u2019yakovo", "state": "", "country": "RU", "coord": {"lon": 38.328609, "lat": 54.743332}}, {"id": 819055, "name": "Verevskoye", "state": "", "country": "RU", "coord": {"lon": 38.381668, "lat": 54.727501}}, {"id": 819057, "name": "Korostylevo", "state": "", "country": "RU", "coord": {"lon": 38.404167, "lat": 54.709442}}, {"id": 819059, "name": "Ostroga", "state": "", "country": "RU", "coord": {"lon": 38.443333, "lat": 54.697777}}, {"id": 819092, "name": "Oktyabr\u2019", "state": "", "country": "RU", "coord": {"lon": 36.585278, "lat": 55.608891}}, {"id": 819094, "name": "Ugryumovo", "state": "", "country": "RU", "coord": {"lon": 36.745834, "lat": 55.613335}}, {"id": 819154, "name": "Gremyachevo", "state": "", "country": "RU", "coord": {"lon": 38.586945, "lat": 54.750278}}, {"id": 819162, "name": "Voslinka", "state": "", "country": "RU", "coord": {"lon": 38.533611, "lat": 54.726112}}, {"id": 819169, "name": "Dubakino", "state": "", "country": "RU", "coord": {"lon": 38.572777, "lat": 54.712502}}, {"id": 819174, "name": "Koz\u2019yakovo", "state": "", "country": "RU", "coord": {"lon": 38.538612, "lat": 54.696945}}, {"id": 819214, "name": "Verkhov\u2019ye", "state": "", "country": "RU", "coord": {"lon": 36.497375, "lat": 54.969906}}, {"id": 819220, "name": "Potlovo", "state": "", "country": "RU", "coord": {"lon": 38.774445, "lat": 54.772778}}, {"id": 819260, "name": "Karino", "state": "", "country": "RU", "coord": {"lon": 39.006111, "lat": 54.689167}}, {"id": 819292, "name": "Mart\u2019yanovo", "state": "", "country": "RU", "coord": {"lon": 36.78611, "lat": 55.679169}}, {"id": 819317, "name": "Larino", "state": "", "country": "RU", "coord": {"lon": 39.442223, "lat": 54.688332}}, {"id": 819360, "name": "Krasnyy Voskhod", "state": "", "country": "RU", "coord": {"lon": 39.888332, "lat": 54.695}}, {"id": 819411, "name": "\u0410\u043a\u0441\u0438\u043d\u044c\u0438\u043d\u043e", "state": "", "country": "RU", "coord": {"lon": 37.049999, "lat": 55.73}}, {"id": 819435, "name": "Postnikovo", "state": "", "country": "RU", "coord": {"lon": 37.232498, "lat": 55.603058}}, {"id": 819436, "name": "Sanino", "state": "", "country": "RU", "coord": {"lon": 37.15139, "lat": 55.587776}}, {"id": 819526, "name": "Varakinskiy", "state": "", "country": "RU", "coord": {"lon": 45.344723, "lat": 58.368057}}, {"id": 819552, "name": "Annino", "state": "", "country": "RU", "coord": {"lon": 37.260189, "lat": 55.58316}}, {"id": 819554, "name": "Mamyri", "state": "", "country": "RU", "coord": {"lon": 37.479168, "lat": 55.604443}}, {"id": 819556, "name": "Shel\u2019butovo", "state": "", "country": "RU", "coord": {"lon": 37.301392, "lat": 55.611111}}, {"id": 819586, "name": "Govorovo", "state": "", "country": "RU", "coord": {"lon": 37.431946, "lat": 55.652222}}, {"id": 819592, "name": "Tereshkovo", "state": "", "country": "RU", "coord": {"lon": 37.401112, "lat": 55.662498}}, {"id": 819613, "name": "Peredel\u2019tsy", "state": "", "country": "RU", "coord": {"lon": 39.96722, "lat": 54.856945}}, {"id": 819688, "name": "Belyayevo", "state": "", "country": "RU", "coord": {"lon": 39.16, "lat": 54.880001}}, {"id": 819691, "name": "Sushkovo", "state": "", "country": "RU", "coord": {"lon": 39.016109, "lat": 54.939442}}, {"id": 819742, "name": "Bittsa", "state": "", "country": "RU", "coord": {"lon": 37.615555, "lat": 55.570278}}, {"id": 819743, "name": "Staraya Bitsa", "state": "", "country": "RU", "coord": {"lon": 37.569168, "lat": 55.576668}}, {"id": 819825, "name": "Shchegolevo", "state": "", "country": "RU", "coord": {"lon": 37.960556, "lat": 55.5275}}, {"id": 819827, "name": "Razvilka", "state": "", "country": "RU", "coord": {"lon": 37.740833, "lat": 55.591667}}, {"id": 819838, "name": "Fruktovaya", "state": "", "country": "RU", "coord": {"lon": 39.26231, "lat": 54.911781}}, {"id": 819878, "name": "Pryamoglyadovo", "state": "", "country": "RU", "coord": {"lon": 38.978058, "lat": 54.973888}}, {"id": 819950, "name": "Semkino", "state": "", "country": "RU", "coord": {"lon": 37.566666, "lat": 55.99778}}, {"id": 820010, "name": "Ivakino", "state": "", "country": "RU", "coord": {"lon": 37.478333, "lat": 55.957222}}, {"id": 820024, "name": "Novotushino", "state": "", "country": "RU", "coord": {"lon": 37.362221, "lat": 55.846943}}, {"id": 820027, "name": "Gorenosovo", "state": "", "country": "RU", "coord": {"lon": 37.250278, "lat": 55.818054}}, {"id": 820069, "name": "Dedovo-Talyzino", "state": "", "country": "RU", "coord": {"lon": 37.093613, "lat": 55.91861}}, {"id": 820071, "name": "Turovo", "state": "", "country": "RU", "coord": {"lon": 37.113609, "lat": 55.904167}}, {"id": 820072, "name": "Nefed\u2019yevo", "state": "", "country": "RU", "coord": {"lon": 37.150276, "lat": 55.894722}}, {"id": 820073, "name": "\u0424\u0435\u0434\u043e\u0440\u043e\u0432\u043a\u0430", "state": "", "country": "RU", "coord": {"lon": 37.236111, "lat": 55.900276}}, {"id": 820081, "name": "Petrovskoye", "state": "", "country": "RU", "coord": {"lon": 36.883331, "lat": 55.833332}}, {"id": 820083, "name": "Kozenki", "state": "", "country": "RU", "coord": {"lon": 37.055279, "lat": 55.781113}}, {"id": 820084, "name": "Kolpiny", "state": "", "country": "RU", "coord": {"lon": 34.138058, "lat": 52.364166}}, {"id": 820088, "name": "Brusna", "state": "", "country": "RU", "coord": {"lon": 34.015278, "lat": 52.243332}}, {"id": 820133, "name": "Nikulina", "state": "", "country": "RU", "coord": {"lon": 36.842777, "lat": 55.935001}}, {"id": 820135, "name": "Ananovo", "state": "", "country": "RU", "coord": {"lon": 36.740002, "lat": 55.990002}}, {"id": 820136, "name": "Ushakovo", "state": "", "country": "RU", "coord": {"lon": 36.8125, "lat": 55.993889}}, {"id": 820137, "name": "Mikhaylovka", "state": "", "country": "RU", "coord": {"lon": 36.815834, "lat": 55.96722}}, {"id": 820138, "name": "Nikol\u2019skoye", "state": "", "country": "RU", "coord": {"lon": 36.899166, "lat": 55.965557}}, {"id": 820139, "name": "Sokol\u2019niki", "state": "", "country": "RU", "coord": {"lon": 36.903057, "lat": 55.955276}}, {"id": 820140, "name": "Gelebovo-Izbishchi", "state": "", "country": "RU", "coord": {"lon": 36.798058, "lat": 55.938057}}, {"id": 820141, "name": "Polevo", "state": "", "country": "RU", "coord": {"lon": 36.878887, "lat": 55.906666}}, {"id": 820142, "name": "Kachabroro", "state": "", "country": "RU", "coord": {"lon": 36.935833, "lat": 55.891945}}, {"id": 820143, "name": "Kryuchkov", "state": "", "country": "RU", "coord": {"lon": 36.797779, "lat": 55.880001}}, {"id": 820145, "name": "Koterevo", "state": "", "country": "RU", "coord": {"lon": 36.844723, "lat": 55.875832}}, {"id": 820154, "name": "Slavkovo", "state": "", "country": "RU", "coord": {"lon": 36.962776, "lat": 55.800556}}, {"id": 820155, "name": "Nasonovo", "state": "", "country": "RU", "coord": {"lon": 36.799168, "lat": 55.780556}}, {"id": 820177, "name": "Rakovo", "state": "", "country": "RU", "coord": {"lon": 36.573612, "lat": 55.829723}}, {"id": 820990, "name": "Khardikovskoye Dvory", "state": "", "country": "RU", "coord": {"lon": 36.101669, "lat": 53.00806}}, {"id": 820999, "name": "Batavino", "state": "", "country": "RU", "coord": {"lon": 36.189999, "lat": 53.07}}, {"id": 821003, "name": "Shepino", "state": "", "country": "RU", "coord": {"lon": 36.285278, "lat": 53.128059}}, {"id": 821356, "name": "Donskoy", "state": "", "country": "RU", "coord": {"lon": 38.647758, "lat": 53.68103}}, {"id": 821597, "name": "Novyy Put\u2019", "state": "", "country": "RU", "coord": {"lon": 40.922222, "lat": 53.829166}}, {"id": 821732, "name": "Kochetovka", "state": "", "country": "RU", "coord": {"lon": 40.577499, "lat": 53.904167}}, {"id": 821748, "name": "Urochishche Butyrki", "state": "", "country": "RU", "coord": {"lon": 40.389721, "lat": 53.965557}}, {"id": 821801, "name": "Dubovka", "state": "", "country": "RU", "coord": {"lon": 38.062759, "lat": 53.952229}}, {"id": 822298, "name": "Novodmitrovka", "state": "", "country": "RU", "coord": {"lon": 36.228329, "lat": 52.843609}}, {"id": 822616, "name": "Krasnaya Zarya", "state": "", "country": "RU", "coord": {"lon": 42.698891, "lat": 53.508331}}, {"id": 822693, "name": "Maksimovo", "state": "", "country": "RU", "coord": {"lon": 30.597219, "lat": 56.375561}}, {"id": 823493, "name": "Aleksino", "state": "", "country": "RU", "coord": {"lon": 37.790001, "lat": 44.669998}}, {"id": 823524, "name": "Partizanskaya", "state": "", "country": "RU", "coord": {"lon": 28.054621, "lat": 58.451691}}, {"id": 823556, "name": "Khartsiz Pervyy", "state": "", "country": "RU", "coord": {"lon": 39.638889, "lat": 43.794167}}, {"id": 823570, "name": "Desyatyy Kilometr", "state": "", "country": "RU", "coord": {"lon": 39.389442, "lat": 43.94389}}, {"id": 823600, "name": "Volkonka", "state": "", "country": "RU", "coord": {"lon": 39.390278, "lat": 43.873611}}, {"id": 823631, "name": "Yakornaya Shchel'", "state": "", "country": "RU", "coord": {"lon": 39.565834, "lat": 43.810555}}, {"id": 823639, "name": "Tokh-Aul", "state": "", "country": "RU", "coord": {"lon": 39.646671, "lat": 43.806671}}, {"id": 823660, "name": "Verkhovskoye", "state": "", "country": "RU", "coord": {"lon": 39.816666, "lat": 43.623333}}, {"id": 823667, "name": "Vasil\u2019yevka", "state": "", "country": "RU", "coord": {"lon": 39.718029, "lat": 43.661121}}, {"id": 823674, "name": "Dagomys", "state": "", "country": "RU", "coord": {"lon": 39.668888, "lat": 43.670277}}, {"id": 823675, "name": "Kul\u2019turnoye Uchdere", "state": "", "country": "RU", "coord": {"lon": 39.636665, "lat": 43.676945}}, {"id": 823676, "name": "Gornoye Loo", "state": "", "country": "RU", "coord": {"lon": 39.604919, "lat": 43.71294}}, {"id": 823678, "name": "Novyy Sochi", "state": "", "country": "RU", "coord": {"lon": 39.713055, "lat": 43.613335}}, {"id": 823681, "name": "Malyy Akhun", "state": "", "country": "RU", "coord": {"lon": 39.831112, "lat": 43.537224}}, {"id": 823684, "name": "Khleborob", "state": "", "country": "RU", "coord": {"lon": 39.884445, "lat": 43.56139}}, {"id": 823689, "name": "Kazachiy Brod", "state": "", "country": "RU", "coord": {"lon": 39.985832, "lat": 43.518333}}, {"id": 823712, "name": "Verkhnaya Matsesta", "state": "", "country": "RU", "coord": {"lon": 39.802502, "lat": 43.558613}}, {"id": 823723, "name": "Berdavan", "state": "", "country": "AM", "coord": {"lon": 44.999668, "lat": 41.205029}}, {"id": 823745, "name": "Shirakamut", "state": "", "country": "AM", "coord": {"lon": 44.152779, "lat": 40.860561}}, {"id": 823748, "name": "Azatamut", "state": "", "country": "AM", "coord": {"lon": 45.207939, "lat": 40.987961}}, {"id": 823749, "name": "Getahovit", "state": "", "country": "AM", "coord": {"lon": 45.13924, "lat": 40.89782}}, {"id": 823755, "name": "Artsvaberd", "state": "", "country": "AM", "coord": {"lon": 45.471111, "lat": 40.833611}}, {"id": 823791, "name": "Nor Yerznka", "state": "", "country": "AM", "coord": {"lon": 44.404831, "lat": 40.31356}}, {"id": 823793, "name": "Sasunik", "state": "", "country": "AM", "coord": {"lon": 44.339569, "lat": 40.248692}}, {"id": 823797, "name": "Kamaris", "state": "", "country": "AM", "coord": {"lon": 44.694592, "lat": 40.23539}}, {"id": 823800, "name": "Gandzak", "state": "", "country": "AM", "coord": {"lon": 45.111389, "lat": 40.31472}}, {"id": 823802, "name": "Myasnikyan", "state": "", "country": "AM", "coord": {"lon": 43.906391, "lat": 40.177502}}, {"id": 823805, "name": "Lenughi", "state": "", "country": "AM", "coord": {"lon": 43.96484, "lat": 40.125622}}, {"id": 823807, "name": "Metsamor", "state": "", "country": "AM", "coord": {"lon": 44.11998, "lat": 40.14481}}, {"id": 823808, "name": "Gay", "state": "", "country": "AM", "coord": {"lon": 44.305561, "lat": 40.083889}}, {"id": 823809, "name": "Baghramyan", "state": "", "country": "AM", "coord": {"lon": 44.36832, "lat": 40.193439}}, {"id": 823810, "name": "Musalerr", "state": "", "country": "AM", "coord": {"lon": 44.378941, "lat": 40.153931}}, {"id": 823811, "name": "Darakert", "state": "", "country": "AM", "coord": {"lon": 44.413342, "lat": 40.105469}}, {"id": 823812, "name": "Dashtavan", "state": "", "country": "AM", "coord": {"lon": 44.390671, "lat": 40.101212}}, {"id": 823813, "name": "Nizami", "state": "", "country": "AM", "coord": {"lon": 44.40453, "lat": 40.091141}}, {"id": 823816, "name": "Masis", "state": "", "country": "AM", "coord": {"lon": 44.485828, "lat": 40.013889}}, {"id": 823818, "name": "Artsvanist", "state": "", "country": "AM", "coord": {"lon": 45.50222, "lat": 40.154442}}, {"id": 823850, "name": "Bzybta Tretyy Kilometr", "state": "", "country": "GE", "coord": {"lon": 40.394444, "lat": 43.267776}}, {"id": 823851, "name": "Dzikhcha", "state": "", "country": "GE", "coord": {"lon": 40.360001, "lat": 43.252777}}, {"id": 823853, "name": "Gagrap\u2019sta", "state": "", "country": "GE", "coord": {"lon": 40.299168, "lat": 43.272778}}, {"id": 823854, "name": "Ipnari", "state": "", "country": "GE", "coord": {"lon": 40.321667, "lat": 43.231945}}, {"id": 823893, "name": "Ts\u2019vk\u2019vara", "state": "", "country": "GE", "coord": {"lon": 40.760277, "lat": 43.09639}}, {"id": 823894, "name": "Adzghapsha", "state": "", "country": "GE", "coord": {"lon": 40.75222, "lat": 43.090279}}, {"id": 823895, "name": "Nizhneye Armyanskoye Ushchel\u2019ye", "state": "", "country": "GE", "coord": {"lon": 40.791943, "lat": 43.084167}}, {"id": 823912, "name": "Adzigezhi", "state": "", "country": "GE", "coord": {"lon": 40.973888, "lat": 43.057777}}, {"id": 823973, "name": "Bumazhnyy", "state": "", "country": "RU", "coord": {"lon": 47.181099, "lat": 60.74789}}, {"id": 823981, "name": "Qabaq\u00e7\u00f6l", "state": "", "country": "AZ", "coord": {"lon": 46.264721, "lat": 41.720001}}, {"id": 824003, "name": "Bak\u0131xanov", "state": "", "country": "AZ", "coord": {"lon": 49.964439, "lat": 40.421669}}, {"id": 824050, "name": "Aran", "state": "", "country": "AZ", "coord": {"lon": 46.975559, "lat": 40.625278}}, {"id": 824070, "name": "Bugry", "state": "", "country": "RU", "coord": {"lon": 30.39225, "lat": 60.071209}}, {"id": 824094, "name": "Ferma", "state": "", "country": "RU", "coord": {"lon": 56.3064, "lat": 57.9016}}, {"id": 824123, "name": "Shemolovo", "state": "", "country": "RU", "coord": {"lon": 36.857498, "lat": 55.415279}}, {"id": 824134, "name": "Vatra", "state": "", "country": "MD", "coord": {"lon": 28.735001, "lat": 47.073891}}, {"id": 824135, "name": "Otradnoe", "state": "", "country": "GE", "coord": {"lon": 40.273609, "lat": 43.272499}}, {"id": 824137, "name": "Corne\u015fti", "state": "", "country": "MD", "coord": {"lon": 28.329439, "lat": 46.998058}}, {"id": 824153, "name": "Ciorescu", "state": "", "country": "MD", "coord": {"lon": 28.885559, "lat": 47.12944}}, {"id": 824288, "name": "Ts\u2019q\u2019alt\u2019ubo", "state": "", "country": "GE", "coord": {"lon": 42.597599, "lat": 42.34129}}, {"id": 824366, "name": "Krasnoarmeyskoye", "state": "", "country": "RU", "coord": {"lon": 50.032188, "lat": 52.718151}}, {"id": 824385, "name": "Naruja", "state": "", "country": "GE", "coord": {"lon": 41.95417, "lat": 41.90694}}, {"id": 824563, "name": "Nordmannset", "state": "", "country": "NO", "coord": {"lon": 25.98333, "lat": 71.008331}}, {"id": 824613, "name": "Bak\u2019urianis Andezit\u2019i", "state": "", "country": "GE", "coord": {"lon": 43.47242, "lat": 41.733711}}, {"id": 824987, "name": "Gorod Belgorod", "state": "", "country": "RU", "coord": {"lon": 36.583328, "lat": 50.583328}}, {"id": 824988, "name": "Gorod Shebekino", "state": "", "country": "RU", "coord": {"lon": 36.916672, "lat": 50.416672}}, {"id": 825035, "name": "Korkmaskala", "state": "", "country": "RU", "coord": {"lon": 47.294361, "lat": 43.023788}}, {"id": 825110, "name": "Gremyachiy", "state": "", "country": "RU", "coord": {"lon": 42.544998, "lat": 59.325832}}, {"id": 825214, "name": "Otradnoye", "state": "", "country": "RU", "coord": {"lon": 20.11396, "lat": 54.941139}}, {"id": 825364, "name": "Mendeleyevo", "state": "", "country": "RU", "coord": {"lon": 20.74777, "lat": 54.789742}}, {"id": 825482, "name": "Dorozhnyy", "state": "", "country": "RU", "coord": {"lon": 21.482889, "lat": 54.74292}}, {"id": 825760, "name": "Yuzhnyy", "state": "", "country": "RU", "coord": {"lon": 20.598431, "lat": 54.54837}}, {"id": 826042, "name": "Yehorove", "state": "", "country": "UA", "coord": {"lon": 36.482777, "lat": 45.385834}}, {"id": 826049, "name": "Tsementna Slobidka", "state": "", "country": "UA", "coord": {"lon": 36.468056, "lat": 45.3325}}, {"id": 826278, "name": "Prigorodnyy", "state": "", "country": "RU", "coord": {"lon": 20.156944, "lat": 54.92889}}, {"id": 826279, "name": "Gorbatovka", "state": "", "country": "RU", "coord": {"lon": 20.156389, "lat": 54.920555}}, {"id": 826294, "name": "Vladimirskaya Oblast\u2019", "state": "", "country": "RU", "coord": {"lon": 40.5, "lat": 56}}, {"id": 826316, "name": "Inzhenernyy", "state": "", "country": "RU", "coord": {"lon": 42.813057, "lat": 56.267502}}, {"id": 826558, "name": "Surok", "state": "", "country": "RU", "coord": {"lon": 48.121391, "lat": 56.446941}}, {"id": 826716, "name": "Yadrikha", "state": "", "country": "RU", "coord": {"lon": 46.522499, "lat": 61.202778}}, {"id": 826995, "name": "Partsa", "state": "", "country": "RU", "coord": {"lon": 42.861698, "lat": 54.365299}}, {"id": 826996, "name": "Udarnyy", "state": "", "country": "RU", "coord": {"lon": 42.861099, "lat": 54.3409}}, {"id": 826997, "name": "Lepley", "state": "", "country": "RU", "coord": {"lon": 42.859901, "lat": 54.3092}}, {"id": 827188, "name": "Bol\u2019shiye Mosty", "state": "", "country": "RU", "coord": {"lon": 43.833611, "lat": 57.146389}}, {"id": 827221, "name": "Doroginya", "state": "", "country": "RU", "coord": {"lon": 43.554443, "lat": 57.595554}}, {"id": 827222, "name": "Lyubimovka", "state": "", "country": "RU", "coord": {"lon": 43.580555, "lat": 57.591667}}, {"id": 827329, "name": "Pavlovo", "state": "", "country": "RU", "coord": {"lon": 43.091202, "lat": 55.968601}}, {"id": 827455, "name": "Savina", "state": "", "country": "RU", "coord": {"lon": 54.66954, "lat": 59.181599}}, {"id": 827556, "name": "Nizhniye Pam\u201dyaly", "state": "", "country": "RU", "coord": {"lon": 48.040558, "lat": 56.104443}}, {"id": 827561, "name": "Urzhumka", "state": "", "country": "RU", "coord": {"lon": 47.475277, "lat": 56.159721}}, {"id": 827658, "name": "Krayniye Sheshmary", "state": "", "country": "RU", "coord": {"lon": 46.184444, "lat": 56.140835}}, {"id": 827659, "name": "Moroskino", "state": "", "country": "RU", "coord": {"lon": 46.215832, "lat": 56.22139}}, {"id": 827679, "name": "Kuplonga", "state": "", "country": "RU", "coord": {"lon": 47.070557, "lat": 56.401669}}, {"id": 827689, "name": "Tair", "state": "", "country": "RU", "coord": {"lon": 47.848541, "lat": 56.2672}}, {"id": 827707, "name": "Tri Rutki", "state": "", "country": "RU", "coord": {"lon": 46.626945, "lat": 56.523056}}, {"id": 827730, "name": "Kuporosnyy", "state": "", "country": "RU", "coord": {"lon": 44.454723, "lat": 48.65361}}, {"id": 827792, "name": "Atlashevo", "state": "", "country": "RU", "coord": {"lon": 47.556149, "lat": 56.012348}}, {"id": 827936, "name": "Novator", "state": "", "country": "RU", "coord": {"lon": 46.205555, "lat": 60.739445}}, {"id": 827987, "name": "Kukshenery", "state": "", "country": "RU", "coord": {"lon": 48.205002, "lat": 55.947224}}, {"id": 827990, "name": "Privolzhskiy", "state": "", "country": "RU", "coord": {"lon": 48.415119, "lat": 55.961349}}, {"id": 828055, "name": "Belidzhi", "state": "", "country": "RU", "coord": {"lon": 48.412472, "lat": 41.891842}}, {"id": 828062, "name": "Khazar", "state": "", "country": "RU", "coord": {"lon": 48.333248, "lat": 41.997398}}, {"id": 828218, "name": "Zaoz\u00ebrsk", "state": "", "country": "RU", "coord": {"lon": 32.447609, "lat": 69.40052}}, {"id": 828259, "name": "Aragatsotni Marz", "state": "", "country": "AM", "coord": {"lon": 44.166672, "lat": 40.416672}}, {"id": 828260, "name": "Armaviri Marz", "state": "", "country": "AM", "coord": {"lon": 44, "lat": 40.116669}}, {"id": 828261, "name": "Geghark\u2019unik\u2019i Marz", "state": "", "country": "AM", "coord": {"lon": 45.416672, "lat": 40.25}}, {"id": 828262, "name": "Kotayk\u2019i Marz", "state": "", "country": "AM", "coord": {"lon": 44.75, "lat": 40.416672}}, {"id": 828263, "name": "Lorru Marz", "state": "", "country": "AM", "coord": {"lon": 44.5, "lat": 41}}, {"id": 828264, "name": "Shiraki Marz", "state": "", "country": "AM", "coord": {"lon": 43.833328, "lat": 40.75}}, {"id": 828265, "name": "Tavushi Marz", "state": "", "country": "AM", "coord": {"lon": 45.166672, "lat": 40.916672}}, {"id": 828297, "name": "Aghstafa Rayon", "state": "", "country": "AZ", "coord": {"lon": 45.5, "lat": 41.25}}, {"id": 828298, "name": "Ganja City", "state": "", "country": "AZ", "coord": {"lon": 46.349998, "lat": 40.650002}}, {"id": 828299, "name": "Mingacevir City", "state": "", "country": "AZ", "coord": {"lon": 47, "lat": 40.76667}}, {"id": 828300, "name": "Naftalan City", "state": "", "country": "AZ", "coord": {"lon": 46.716671, "lat": 40.48333}}, {"id": 828301, "name": "Gobustan Rayon", "state": "", "country": "AZ", "coord": {"lon": 49, "lat": 40.5}}, {"id": 828302, "name": "Samukh Rayon", "state": "", "country": "AZ", "coord": {"lon": 46.416672, "lat": 40.916672}}, {"id": 828303, "name": "Shaki city", "state": "", "country": "AZ", "coord": {"lon": 47.166672, "lat": 41.183331}}, {"id": 828305, "name": "Sumqayit City", "state": "", "country": "AZ", "coord": {"lon": 49.666672, "lat": 40.583328}}, {"id": 828306, "name": "Khizi Rayon", "state": "", "country": "AZ", "coord": {"lon": 49.166672, "lat": 40.75}}, {"id": 828307, "name": "Yevlakh City", "state": "", "country": "AZ", "coord": {"lon": 47.166672, "lat": 40.583328}}, {"id": 828315, "name": "Hajigabul Rayon", "state": "", "country": "AZ", "coord": {"lon": 48.916672, "lat": 40.083328}}, {"id": 828390, "name": "\u00d6mirzaq", "state": "", "country": "KZ", "coord": {"lon": 51.255001, "lat": 43.59639}}, {"id": 828440, "name": "Pervoye Maya", "state": "", "country": "RU", "coord": {"lon": 44.719551, "lat": 56.164028}}, {"id": 828446, "name": "Ch\u00ebrnaya Maza", "state": "", "country": "RU", "coord": {"lon": 45.135277, "lat": 56.133888}}, {"id": 828447, "name": "Khokholevka", "state": "", "country": "RU", "coord": {"lon": 45.085278, "lat": 56.133888}}, {"id": 828449, "name": "Komarikha", "state": "", "country": "RU", "coord": {"lon": 45.443054, "lat": 56.164722}}, {"id": 828884, "name": "Horad Kobryn", "state": "", "country": "BY", "coord": {"lon": 24.36639, "lat": 52.21611}}, {"id": 828885, "name": "Horad Luninyets", "state": "", "country": "BY", "coord": {"lon": 26.79944, "lat": 52.250278}}, {"id": 828886, "name": "Horad Pinsk", "state": "", "country": "BY", "coord": {"lon": 26.072781, "lat": 52.121391}}, {"id": 828899, "name": "Horad Rechytsa", "state": "", "country": "BY", "coord": {"lon": 30.39472, "lat": 52.363892}}, {"id": 828963, "name": "Selishche", "state": "", "country": "RU", "coord": {"lon": 37.426945, "lat": 57.010555}}, {"id": 828987, "name": "Etel\u00e4-Suomen L\u00e4\u00e4ni", "state": "", "country": "FI", "coord": {"lon": 26, "lat": 60.83333}}, {"id": 828988, "name": "It\u00e4-Suomen L\u00e4\u00e4ni", "state": "", "country": "FI", "coord": {"lon": 28, "lat": 62.5}}, {"id": 828989, "name": "L\u00e4nsi-Suomen L\u00e4\u00e4ni", "state": "", "country": "FI", "coord": {"lon": 24, "lat": 62}}, {"id": 829005, "name": "Lesnoy", "state": "", "country": "RU", "coord": {"lon": 59.802219, "lat": 58.636669}}, {"id": 829032, "name": "Kondratovo", "state": "", "country": "RU", "coord": {"lon": 56.106602, "lat": 57.9804}}, {"id": 829056, "name": "Kazluk", "state": "", "country": "RU", "coord": {"lon": 49.334099, "lat": 62.10339}}, {"id": 829125, "name": "Losevskaya", "state": "", "country": "RU", "coord": {"lon": 42.097221, "lat": 61.914719}}, {"id": 829144, "name": "Rassolenki", "state": "", "country": "RU", "coord": {"lon": 58.63118, "lat": 57.688549}}, {"id": 829291, "name": "Ileza", "state": "", "country": "RU", "coord": {"lon": 43.900211, "lat": 61.05328}}, {"id": 829327, "name": "Komsomol\u2019skiy", "state": "", "country": "RU", "coord": {"lon": 43.874722, "lat": 48.65889}}, {"id": 829448, "name": "Bllat\u00eb", "state": "", "country": "AL", "coord": {"lon": 20.070829, "lat": 42.34222}}, {"id": 829616, "name": "Zelenikovo", "state": "", "country": "MK", "coord": {"lon": 21.60306, "lat": 41.873329}}, {"id": 829745, "name": "Kopashnovo", "state": "", "country": "UA", "coord": {"lon": 23.48457, "lat": 48.2197}}, {"id": 829788, "name": "Narkevychi", "state": "", "country": "UA", "coord": {"lon": 26.641781, "lat": 49.51717}}, {"id": 829795, "name": "Kirove", "state": "", "country": "UA", "coord": {"lon": 35.695122, "lat": 47.653111}}, {"id": 829862, "name": "Soroca", "state": "", "country": "MD", "coord": {"lon": 27.5625, "lat": 47.805}}, {"id": 829868, "name": "Ciuluc", "state": "", "country": "MD", "coord": {"lon": 27.791109, "lat": 47.634171}}, {"id": 829930, "name": "Nukus Shahri", "state": "", "country": "UZ", "coord": {"lon": 59.608459, "lat": 42.466}}, {"id": 829938, "name": "Calinovca", "state": "", "country": "MD", "coord": {"lon": 29.25, "lat": 47.311668}}, {"id": 829955, "name": "Qongirot Shahri", "state": "", "country": "UZ", "coord": {"lon": 58.845959, "lat": 43.052071}}, {"id": 829959, "name": "Xojayli Shahri", "state": "", "country": "UZ", "coord": {"lon": 59.445438, "lat": 42.40881}}, {"id": 829960, "name": "Chimboy Shahri", "state": "", "country": "UZ", "coord": {"lon": 59.78199, "lat": 42.92952}}, {"id": 829962, "name": "Moynoq Shahri", "state": "", "country": "UZ", "coord": {"lon": 59.030392, "lat": 43.77877}}, {"id": 829964, "name": "Shumanay Shahri", "state": "", "country": "UZ", "coord": {"lon": 58.930599, "lat": 42.634331}}, {"id": 830068, "name": "Hromy", "state": "", "country": "UA", "coord": {"lon": 30.184999, "lat": 48.666389}}, {"id": 830147, "name": "Hollola", "state": "", "country": "FI", "coord": {"lon": 25.36825, "lat": 61.01262}}, {"id": 830153, "name": "Vantaa", "state": "", "country": "FI", "coord": {"lon": 24.9847, "lat": 60.30794}}, {"id": 830266, "name": "Outokumpu", "state": "", "country": "FI", "coord": {"lon": 28.95, "lat": 62.7}}, {"id": 830268, "name": "Pieks\u00e4m\u00e4ki", "state": "", "country": "FI", "coord": {"lon": 27.1657, "lat": 62.2864}}, {"id": 830382, "name": "Ma\u010ditevo", "state": "", "country": "XK", "coord": {"lon": 21.014721, "lat": 42.346111}}, {"id": 830410, "name": "Lloqan", "state": "", "country": "XK", "coord": {"lon": 20.28083, "lat": 42.524441}}, {"id": 830603, "name": "Lappi", "state": "", "country": "FI", "coord": {"lon": 26.5, "lat": 67.75}}, {"id": 830664, "name": "Kainuu", "state": "", "country": "FI", "coord": {"lon": 28.5, "lat": 64.5}}, {"id": 830667, "name": "Pohjois-Pohjanmaa", "state": "", "country": "FI", "coord": {"lon": 26.41667, "lat": 65}}, {"id": 830675, "name": "Keski-Pohjanmaa", "state": "", "country": "FI", "coord": {"lon": 24.08333, "lat": 63.58333}}, {"id": 830676, "name": "Pohjanmaa", "state": "", "country": "FI", "coord": {"lon": 22.16667, "lat": 63.08333}}, {"id": 830682, "name": "Etel\u00e4-Pohjanmaa", "state": "", "country": "FI", "coord": {"lon": 23, "lat": 62.75}}, {"id": 830685, "name": "Keski-Suomi", "state": "", "country": "FI", "coord": {"lon": 25.5, "lat": 62.5}}, {"id": 830686, "name": "Pohjois-Karjala", "state": "", "country": "FI", "coord": {"lon": 29.91667, "lat": 62.83333}}, {"id": 830690, "name": "Pohjois-Savo", "state": "", "country": "FI", "coord": {"lon": 27.5, "lat": 63.16667}}, {"id": 830695, "name": "Etel\u00e4-Savo", "state": "", "country": "FI", "coord": {"lon": 27.83333, "lat": 61.75}}, {"id": 830699, "name": "Etel\u00e4-Karjala", "state": "", "country": "FI", "coord": {"lon": 28.16667, "lat": 60.96667}}, {"id": 830703, "name": "Kymenlaakso", "state": "", "country": "FI", "coord": {"lon": 26.91667, "lat": 60.83333}}, {"id": 830704, "name": "Pirkanmaa", "state": "", "country": "FI", "coord": {"lon": 23.71667, "lat": 61.7}}, {"id": 830705, "name": "Kanta-H\u00e4me", "state": "", "country": "FI", "coord": {"lon": 24.33333, "lat": 60.91667}}, {"id": 830708, "name": "Varsinais-Suomi", "state": "", "country": "FI", "coord": {"lon": 22.25, "lat": 60.5}}, {"id": 830709, "name": "Uusimaa", "state": "", "country": "FI", "coord": {"lon": 24.75, "lat": 60.41667}}, {"id": 830805, "name": "Bezhtinskiy Uchastok Rayon", "state": "", "country": "RU", "coord": {"lon": 46.083328, "lat": 42.083328}}, {"id": 830844, "name": "Tr\u00ebkhgornyy", "state": "", "country": "RU", "coord": {"lon": 58.459171, "lat": 54.814999}}, {"id": 830975, "name": "Biruin\u0163a", "state": "", "country": "MD", "coord": {"lon": 28.068609, "lat": 47.816109}}, {"id": 831037, "name": "Leordoaia", "state": "", "country": "MD", "coord": {"lon": 28.15333, "lat": 47.345558}}, {"id": 831040, "name": "P\u00e4ij\u00e4t-H\u00e4me", "state": "", "country": "FI", "coord": {"lon": 25.83333, "lat": 61.25}}, {"id": 831041, "name": "Satakunta", "state": "", "country": "FI", "coord": {"lon": 22.16667, "lat": 61.5}}, {"id": 831053, "name": "Republic of Kosovo", "state": "", "country": "XK", "coord": {"lon": 21, "lat": 42.583328}}, {"id": 831099, "name": "Op\u0161tina Kosovo Polje", "state": "", "country": "XK", "coord": {"lon": 21.049999, "lat": 42.599998}},