[{"id": 664958, "name": "T\u00e2rnova", "state": "", "country": "RO", "coord": {"lon": 22.006109, "lat": 45.342499}}, {"id": 664991, "name": "T\u00e2rgu Trotu\u015f", "state": "", "country": "RO", "coord": {"lon": 26.66667, "lat": 46.26667}}, {"id": 664999, "name": "T\u00e2rgu\u015for", "state": "", "country": "RO", "coord": {"lon": 28.41667, "lat": 44.450001}}, {"id": 665000, "name": "T\u00e2rgu Secuiesc", "state": "", "country": "RO", "coord": {"lon": 26.133329, "lat": 46}}, {"id": 665002, "name": "T\u00e2rgu Ocna", "state": "", "country": "RO", "coord": {"lon": 26.616671, "lat": 46.283329}}, {"id": 665003, "name": "T\u00e2rgu Neam\u0163", "state": "", "country": "RO", "coord": {"lon": 26.366671, "lat": 47.200001}}, {"id": 665004, "name": "T\u00e2rgu-Mure\u015f", "state": "", "country": "RO", "coord": {"lon": 24.55747, "lat": 46.54245}}, {"id": 665010, "name": "T\u00e2rgu Jiu", "state": "", "country": "RO", "coord": {"lon": 23.283331, "lat": 45.049999}}, {"id": 665013, "name": "T\u00e2rgu Frumos", "state": "", "country": "RO", "coord": {"lon": 27, "lat": 47.200001}}, {"id": 665017, "name": "T\u00e2rgu C\u0103rbune\u015fti", "state": "", "country": "RO", "coord": {"lon": 23.51667, "lat": 44.950001}}, {"id": 665019, "name": "T\u00e2rg\u015foru Vechi", "state": "", "country": "RO", "coord": {"lon": 25.91667, "lat": 44.866669}}, {"id": 665024, "name": "T\u00e2rgovi\u015fte", "state": "", "country": "RO", "coord": {"lon": 25.450001, "lat": 44.933331}}, {"id": 665027, "name": "Tiream", "state": "", "country": "RO", "coord": {"lon": 22.466669, "lat": 47.616669}}, {"id": 665050, "name": "\u0162inte\u015fti", "state": "", "country": "RO", "coord": {"lon": 26.866671, "lat": 45.066669}}, {"id": 665061, "name": "Tinosu", "state": "", "country": "RO", "coord": {"lon": 26.01667, "lat": 44.816669}}, {"id": 665083, "name": "T\u00e2mna", "state": "", "country": "RO", "coord": {"lon": 23.01667, "lat": 44.566669}}, {"id": 665087, "name": "Timi\u015foara", "state": "", "country": "RO", "coord": {"lon": 21.227221, "lat": 45.749439}}, {"id": 665089, "name": "Timi\u015fe\u015fti", "state": "", "country": "RO", "coord": {"lon": 26.549999, "lat": 47.23333}}, {"id": 665091, "name": "Timi\u015f", "state": "", "country": "RO", "coord": {"lon": 21.5, "lat": 45.666672}}, {"id": 665101, "name": "Tili\u015fca", "state": "", "country": "RO", "coord": {"lon": 23.85, "lat": 45.799999}}, {"id": 665104, "name": "Tileagd", "state": "", "country": "RO", "coord": {"lon": 22.200001, "lat": 47.066669}}, {"id": 665110, "name": "Tiha B\u00e2rg\u0103ului", "state": "", "country": "RO", "coord": {"lon": 24.76667, "lat": 47.23333}}, {"id": 665113, "name": "Tigveni", "state": "", "country": "RO", "coord": {"lon": 24.58333, "lat": 45.133331}}, {"id": 665140, "name": "\u0162ig\u0103ne\u015fti", "state": "", "country": "RO", "coord": {"lon": 25.366671, "lat": 43.900002}}, {"id": 665145, "name": "\u0162ig\u0103na\u015fi", "state": "", "country": "RO", "coord": {"lon": 27.466669, "lat": 47.333328}}, {"id": 665151, "name": "\u0162ife\u015fti", "state": "", "country": "RO", "coord": {"lon": 27.1, "lat": 45.849998}}, {"id": 665155, "name": "Ticvaniu Mare", "state": "", "country": "RO", "coord": {"lon": 21.63806, "lat": 45.135281}}, {"id": 665168, "name": "\u0162icleni", "state": "", "country": "RO", "coord": {"lon": 23.4, "lat": 44.883331}}, {"id": 665176, "name": "Tichile\u015fti", "state": "", "country": "RO", "coord": {"lon": 27.9, "lat": 45.116669}}, {"id": 665182, "name": "\u0162ibucani", "state": "", "country": "RO", "coord": {"lon": 26.533331, "lat": 47.099998}}, {"id": 665193, "name": "\u0162ib\u0103ne\u015fti", "state": "", "country": "RO", "coord": {"lon": 27.33333, "lat": 46.916672}}, {"id": 665196, "name": "\u0162ibana", "state": "", "country": "RO", "coord": {"lon": 27.33333, "lat": 46.98333}}, {"id": 665197, "name": "\u0162iba", "state": "", "country": "RO", "coord": {"lon": 25.799999, "lat": 46.349998}}, {"id": 665199, "name": "Tia Mare", "state": "", "country": "RO", "coord": {"lon": 24.633329, "lat": 43.866669}}, {"id": 665202, "name": "Teu\u015f", "state": "", "country": "RO", "coord": {"lon": 22.216669, "lat": 45.416672}}, {"id": 665204, "name": "Tetoiu", "state": "", "country": "RO", "coord": {"lon": 23.91667, "lat": 44.75}}, {"id": 665218, "name": "Teslui", "state": "", "country": "RO", "coord": {"lon": 24.366671, "lat": 44.51667}}, {"id": 665225, "name": "Terpezi\u0163a", "state": "", "country": "RO", "coord": {"lon": 23.51667, "lat": 44.283329}}, {"id": 665231, "name": "Teremia Mare", "state": "", "country": "RO", "coord": {"lon": 20.525, "lat": 45.93528}}, {"id": 665235, "name": "Teregova", "state": "", "country": "RO", "coord": {"lon": 22.283331, "lat": 45.150002}}, {"id": 665237, "name": "Terebe\u015fti", "state": "", "country": "RO", "coord": {"lon": 22.716669, "lat": 47.683331}}, {"id": 665242, "name": "\u0162epu", "state": "", "country": "RO", "coord": {"lon": 27.366671, "lat": 45.966671}}, {"id": 665267, "name": "Teliucu Mic", "state": "", "country": "RO", "coord": {"lon": 22.9, "lat": 45.75}}, {"id": 665268, "name": "Teliucu Inferior", "state": "", "country": "RO", "coord": {"lon": 22.883329, "lat": 45.716671}}, {"id": 665277, "name": "Tele\u015fti", "state": "", "country": "RO", "coord": {"lon": 23.08333, "lat": 45}}, {"id": 665283, "name": "Teleorman", "state": "", "country": "RO", "coord": {"lon": 25.16667, "lat": 44.083328}}, {"id": 665290, "name": "Telega", "state": "", "country": "RO", "coord": {"lon": 25.783331, "lat": 45.133331}}, {"id": 665304, "name": "Telciu", "state": "", "country": "RO", "coord": {"lon": 24.4, "lat": 47.433331}}, {"id": 665318, "name": "Teiu\u015f", "state": "", "country": "RO", "coord": {"lon": 23.683331, "lat": 46.200001}}, {"id": 665328, "name": "Teiu", "state": "", "country": "RO", "coord": {"lon": 25.1, "lat": 44.666672}}, {"id": 665337, "name": "Tei\u015fani", "state": "", "country": "RO", "coord": {"lon": 25.98333, "lat": 45.23333}}, {"id": 665353, "name": "Tecuciu Nou", "state": "", "country": "RO", "coord": {"lon": 27.41667, "lat": 45.866669}}, {"id": 665355, "name": "Tecuci", "state": "", "country": "RO", "coord": {"lon": 27.43441, "lat": 45.849731}}, {"id": 665359, "name": "Techirghiol", "state": "", "country": "RO", "coord": {"lon": 28.6, "lat": 44.049999}}, {"id": 665371, "name": "Teaca", "state": "", "country": "RO", "coord": {"lon": 24.51667, "lat": 46.916672}}, {"id": 665377, "name": "Tazl\u0103u", "state": "", "country": "RO", "coord": {"lon": 26.466669, "lat": 46.716671}}, {"id": 665382, "name": "T\u0103u\u021bii-M\u0103gher\u0103u\u0219", "state": "", "country": "RO", "coord": {"lon": 23.48333, "lat": 47.650002}}, {"id": 665387, "name": "T\u0103uteu", "state": "", "country": "RO", "coord": {"lon": 22.33333, "lat": 47.26667}}, {"id": 665394, "name": "Tau\u0163", "state": "", "country": "RO", "coord": {"lon": 21.91667, "lat": 46.283329}}, {"id": 665398, "name": "T\u0103ureni", "state": "", "country": "RO", "coord": {"lon": 25.25, "lat": 46.26667}}, {"id": 665413, "name": "T\u0103tule\u015fti", "state": "", "country": "RO", "coord": {"lon": 24.633329, "lat": 44.633331}}, {"id": 665425, "name": "T\u0103t\u0103ru\u015fi", "state": "", "country": "RO", "coord": {"lon": 26.6, "lat": 47.349998}}, {"id": 665434, "name": "T\u0103taru", "state": "", "country": "RO", "coord": {"lon": 26.33333, "lat": 45.099998}}, {"id": 665450, "name": "T\u0103t\u0103r\u0103\u0219ti", "state": "", "country": "RO", "coord": {"lon": 27.200001, "lat": 46.216671}}, {"id": 665452, "name": "T\u0103t\u0103ranu", "state": "", "country": "RO", "coord": {"lon": 27.316669, "lat": 45.51667}}, {"id": 665459, "name": "T\u0103t\u0103rani", "state": "", "country": "RO", "coord": {"lon": 25.26667, "lat": 45}}, {"id": 665469, "name": "T\u0103\u015fnad", "state": "", "country": "RO", "coord": {"lon": 22.58333, "lat": 47.48333}}, {"id": 665471, "name": "Ta\u015fca", "state": "", "country": "RO", "coord": {"lon": 26.01667, "lat": 46.900002}}, {"id": 665479, "name": "T\u0103rt\u0103\u015fe\u015fti", "state": "", "country": "RO", "coord": {"lon": 25.81278, "lat": 44.577221}}, {"id": 665497, "name": "T\u0103rlungeni", "state": "", "country": "RO", "coord": {"lon": 25.75, "lat": 45.633331}}, {"id": 665517, "name": "Tarcea", "state": "", "country": "RO", "coord": {"lon": 22.183331, "lat": 47.450001}}, {"id": 665521, "name": "Tarc\u0103u", "state": "", "country": "RO", "coord": {"lon": 26.133329, "lat": 46.866669}}, {"id": 665525, "name": "T\u0103rcaia", "state": "", "country": "RO", "coord": {"lon": 22.366671, "lat": 46.633331}}, {"id": 665536, "name": "Tansa", "state": "", "country": "RO", "coord": {"lon": 27.23333, "lat": 46.916672}}, {"id": 665540, "name": "\u0162\u0103nd\u0103rei", "state": "", "country": "RO", "coord": {"lon": 27.66667, "lat": 44.650002}}, {"id": 665545, "name": "T\u0103n\u0103soaia", "state": "", "country": "RO", "coord": {"lon": 27.366671, "lat": 46.099998}}, {"id": 665550, "name": "Tanacu", "state": "", "country": "RO", "coord": {"lon": 27.816669, "lat": 46.683331}}, {"id": 665556, "name": "Tama\u015fi", "state": "", "country": "RO", "coord": {"lon": 26.98333, "lat": 46.48333}}, {"id": 665568, "name": "T\u0103m\u0103\u015feni", "state": "", "country": "RO", "coord": {"lon": 26.933331, "lat": 46.98333}}, {"id": 665578, "name": "T\u0103m\u0103d\u0103u Mare", "state": "", "country": "RO", "coord": {"lon": 26.549999, "lat": 44.466671}}, {"id": 665588, "name": "Talpa-Trivalea", "state": "", "country": "RO", "coord": {"lon": 25.283331, "lat": 44.283329}}, {"id": 665611, "name": "Talea", "state": "", "country": "RO", "coord": {"lon": 25.549999, "lat": 45.216671}}, {"id": 665628, "name": "\u0162aga", "state": "", "country": "RO", "coord": {"lon": 24.049999, "lat": 46.950001}}, {"id": 665636, "name": "T\u0103cuta", "state": "", "country": "RO", "coord": {"lon": 27.683331, "lat": 46.916672}}, {"id": 665653, "name": "Svini\u0163a", "state": "", "country": "RO", "coord": {"lon": 22.10611, "lat": 44.499722}}, {"id": 665664, "name": "\u015eu\u0163e\u015fti", "state": "", "country": "RO", "coord": {"lon": 27.433331, "lat": 45.216671}}, {"id": 665690, "name": "Suseni", "state": "", "country": "RO", "coord": {"lon": 24.731939, "lat": 46.813808}}, {"id": 665691, "name": "Suseni", "state": "", "country": "RO", "coord": {"lon": 25.549999, "lat": 46.666672}}, {"id": 665700, "name": "Suseni", "state": "", "country": "RO", "coord": {"lon": 24.950001, "lat": 44.716671}}, {"id": 665708, "name": "\u015eu\u015fani", "state": "", "country": "RO", "coord": {"lon": 24.1, "lat": 44.583328}}, {"id": 665729, "name": "Surduc", "state": "", "country": "RO", "coord": {"lon": 23.35, "lat": 47.25}}, {"id": 665736, "name": "Surdila-Greci", "state": "", "country": "RO", "coord": {"lon": 27.26667, "lat": 45.066669}}, {"id": 665738, "name": "Surdila-G\u0103iseanca", "state": "", "country": "RO", "coord": {"lon": 27.33333, "lat": 45.066669}}, {"id": 665747, "name": "Surani", "state": "", "country": "RO", "coord": {"lon": 26.16667, "lat": 45.200001}}, {"id": 665750, "name": "\u015eura Mic\u0103", "state": "", "country": "RO", "coord": {"lon": 24.066669, "lat": 45.833328}}, {"id": 665752, "name": "\u015eura Mare", "state": "", "country": "RO", "coord": {"lon": 24.16667, "lat": 45.849998}}, {"id": 665754, "name": "Suraia", "state": "", "country": "RO", "coord": {"lon": 27.4, "lat": 45.683331}}, {"id": 665758, "name": "Supuru de Jos", "state": "", "country": "RO", "coord": {"lon": 22.799999, "lat": 47.466671}}, {"id": 665764, "name": "Suplac", "state": "", "country": "RO", "coord": {"lon": 24.51667, "lat": 46.383331}}, {"id": 665767, "name": "\u015euncuiu\u015f", "state": "", "country": "RO", "coord": {"lon": 22.533331, "lat": 46.933331}}, {"id": 665786, "name": "Suli\u021ba", "state": "", "country": "RO", "coord": {"lon": 26.91667, "lat": 47.650002}}, {"id": 665790, "name": "Sulina", "state": "", "country": "RO", "coord": {"lon": 29.653561, "lat": 45.155899}}, {"id": 665794, "name": "\u015euletea", "state": "", "country": "RO", "coord": {"lon": 27.9, "lat": 46.283329}}, {"id": 665799, "name": "\u015euici", "state": "", "country": "RO", "coord": {"lon": 24.533331, "lat": 45.25}}, {"id": 665809, "name": "Suhar\u0103u", "state": "", "country": "RO", "coord": {"lon": 26.41667, "lat": 48.133331}}, {"id": 665813, "name": "Suhaia", "state": "", "country": "RO", "coord": {"lon": 25.25, "lat": 43.73333}}, {"id": 665820, "name": "\u015eugag", "state": "", "country": "RO", "coord": {"lon": 23.633329, "lat": 45.76667}}, {"id": 665835, "name": "Sudi\u0163i", "state": "", "country": "RO", "coord": {"lon": 27.6, "lat": 44.583328}}, {"id": 665839, "name": "Suciu de Sus", "state": "", "country": "RO", "coord": {"lon": 24.033331, "lat": 47.433331}}, {"id": 665845, "name": "Sucevi\u0163a", "state": "", "country": "RO", "coord": {"lon": 25.716669, "lat": 47.783329}}, {"id": 665849, "name": "Suceava", "state": "", "country": "RO", "coord": {"lon": 25.75, "lat": 47.583328}}, {"id": 665850, "name": "Suceava", "state": "", "country": "RO", "coord": {"lon": 26.25, "lat": 47.633331}}, {"id": 665873, "name": "Subcetate", "state": "", "country": "RO", "coord": {"lon": 21.316669, "lat": 46.183331}}, {"id": 665875, "name": "Subcetate", "state": "", "country": "RO", "coord": {"lon": 25.450001, "lat": 46.849998}}, {"id": 665879, "name": "Suatu", "state": "", "country": "RO", "coord": {"lon": 23.966669, "lat": 46.76667}}, {"id": 665899, "name": "Stulpicani", "state": "", "country": "RO", "coord": {"lon": 25.76667, "lat": 47.466671}}, {"id": 665909, "name": "Studina", "state": "", "country": "RO", "coord": {"lon": 24.41667, "lat": 43.966671}}, {"id": 665914, "name": "Strunga", "state": "", "country": "RO", "coord": {"lon": 26.98333, "lat": 47.166672}}, {"id": 665921, "name": "Strugari", "state": "", "country": "RO", "coord": {"lon": 26.716669, "lat": 46.533329}}, {"id": 665933, "name": "Stroie\u0219ti", "state": "", "country": "RO", "coord": {"lon": 26.133329, "lat": 47.616669}}, {"id": 665938, "name": "Stroe\u015fti", "state": "", "country": "RO", "coord": {"lon": 23.9, "lat": 45.083328}}, {"id": 665946, "name": "Str\u00e2mtura", "state": "", "country": "RO", "coord": {"lon": 24.133329, "lat": 47.783329}}, {"id": 665982, "name": "Strem\u0163", "state": "", "country": "RO", "coord": {"lon": 23.633329, "lat": 46.216671}}, {"id": 665990, "name": "Streje\u015fti", "state": "", "country": "RO", "coord": {"lon": 24.26667, "lat": 44.533329}}, {"id": 665997, "name": "Strehaia", "state": "", "country": "RO", "coord": {"lon": 23.200001, "lat": 44.616669}}, {"id": 666007, "name": "Str\u0103oane", "state": "", "country": "RO", "coord": {"lon": 27.049999, "lat": 45.933331}}, {"id": 666012, "name": "Straja", "state": "", "country": "RO", "coord": {"lon": 25.549999, "lat": 47.916672}}, {"id": 666029, "name": "Storob\u0103neasa", "state": "", "country": "RO", "coord": {"lon": 25.450001, "lat": 43.883331}}, {"id": 666031, "name": "Store\u015fti", "state": "", "country": "RO", "coord": {"lon": 26.866671, "lat": 47.549999}}, {"id": 666035, "name": "Stolnici", "state": "", "country": "RO", "coord": {"lon": 24.783331, "lat": 44.566669}}, {"id": 666037, "name": "Stolniceni-Pr\u0103jescu", "state": "", "country": "RO", "coord": {"lon": 26.7481, "lat": 47.198582}}, {"id": 666048, "name": "Stoina", "state": "", "country": "RO", "coord": {"lon": 23.633329, "lat": 44.683331}}, {"id": 666050, "name": "Stoile\u015fti", "state": "", "country": "RO", "coord": {"lon": 24.383329, "lat": 44.900002}}, {"id": 666058, "name": "Stoic\u0103ne\u015fti", "state": "", "country": "RO", "coord": {"lon": 24.633329, "lat": 44.183331}}, {"id": 666067, "name": "Stoene\u015fti", "state": "", "country": "RO", "coord": {"lon": 25.16667, "lat": 45.25}}, {"id": 666069, "name": "Stoene\u015fti", "state": "", "country": "RO", "coord": {"lon": 24.16667, "lat": 45.116669}}, {"id": 666074, "name": "Stoene\u015fti", "state": "", "country": "RO", "coord": {"lon": 25.895, "lat": 44.14444}}, {"id": 666075, "name": "Stoene\u015fti", "state": "", "country": "RO", "coord": {"lon": 24.5, "lat": 44.116669}}, {"id": 666083, "name": "\u015etiuca", "state": "", "country": "RO", "coord": {"lon": 21.976669, "lat": 45.571388}}, {"id": 666085, "name": "\u015etiubieni", "state": "", "country": "RO", "coord": {"lon": 26.783331, "lat": 47.966671}}, {"id": 666126, "name": "St\u00e2nceni", "state": "", "country": "RO", "coord": {"lon": 25.23333, "lat": 46.98333}}, {"id": 666146, "name": "St\u00e2lpu", "state": "", "country": "RO", "coord": {"lon": 26.716669, "lat": 45.083328}}, {"id": 666149, "name": "St\u00e2lpeni", "state": "", "country": "RO", "coord": {"lon": 24.966669, "lat": 45.049999}}, {"id": 666166, "name": "Stelnica", "state": "", "country": "RO", "coord": {"lon": 27.883329, "lat": 44.416672}}, {"id": 666187, "name": "Stejaru", "state": "", "country": "RO", "coord": {"lon": 28.549999, "lat": 44.76667}}, {"id": 666193, "name": "Stejaru", "state": "", "country": "RO", "coord": {"lon": 24.883329, "lat": 44.183331}}, {"id": 666198, "name": "Stejari", "state": "", "country": "RO", "coord": {"lon": 23.683331, "lat": 44.76667}}, {"id": 666211, "name": "\u015etefe\u015fti", "state": "", "country": "RO", "coord": {"lon": 25.9, "lat": 45.216671}}, {"id": 666214, "name": "\u015etefan Vod\u0103", "state": "", "country": "RO", "coord": {"lon": 27.316669, "lat": 44.316669}}, {"id": 666217, "name": "\u015etef\u0103ne\u015fti-Sat", "state": "", "country": "RO", "coord": {"lon": 27.183331, "lat": 47.783329}}, {"id": 666223, "name": "\u015etef\u0103ne\u015ftii de Jos", "state": "", "country": "RO", "coord": {"lon": 26.200001, "lat": 44.533329}}, {"id": 666235, "name": "\u015etef\u0103ne\u015fti", "state": "", "country": "RO", "coord": {"lon": 24.933331, "lat": 44.866669}}, {"id": 666238, "name": "\u015etef\u0103ne\u015fti", "state": "", "country": "RO", "coord": {"lon": 24.25, "lat": 44.616669}}, {"id": 666248, "name": "\u015etefan cel Mare", "state": "", "country": "RO", "coord": {"lon": 26.51667, "lat": 46.98333}}, {"id": 666249, "name": "\u015etefan cel Mare", "state": "", "country": "RO", "coord": {"lon": 27.633329, "lat": 46.716671}}, {"id": 666251, "name": "\u015etefan cel Mare", "state": "", "country": "RO", "coord": {"lon": 25.25, "lat": 44.5}}, {"id": 666253, "name": "\u015etefan cel Mare", "state": "", "country": "RO", "coord": {"lon": 24.216669, "lat": 43.816669}}, {"id": 666263, "name": "St\u0103uceni", "state": "", "country": "RO", "coord": {"lon": 26.75, "lat": 47.716671}}, {"id": 666265, "name": "Sta\u021biunea Zoologic\u0103 Marin\u0103 Agigea", "state": "", "country": "RO", "coord": {"lon": 28.6, "lat": 44.049999}}, {"id": 666271, "name": "Starchiojd", "state": "", "country": "RO", "coord": {"lon": 26.183331, "lat": 45.316669}}, {"id": 666276, "name": "St\u0103ni\u0163a", "state": "", "country": "RO", "coord": {"lon": 27.1, "lat": 47.01667}}, {"id": 666284, "name": "St\u0103ni\u015fe\u015fti", "state": "", "country": "RO", "coord": {"lon": 27.299999, "lat": 46.433331}}, {"id": 666287, "name": "St\u0103nile\u015fti", "state": "", "country": "RO", "coord": {"lon": 28.171391, "lat": 46.618328}}, {"id": 666300, "name": "St\u0103ne\u015fti", "state": "", "country": "RO", "coord": {"lon": 23.25, "lat": 45.116669}}, {"id": 666305, "name": "St\u0103ne\u015fti", "state": "", "country": "RO", "coord": {"lon": 25.83333, "lat": 43.916672}}, {"id": 666309, "name": "St\u0103ncu\u0163a", "state": "", "country": "RO", "coord": {"lon": 27.83333, "lat": 44.900002}}, {"id": 666334, "name": "\u015epring", "state": "", "country": "RO", "coord": {"lon": 23.783331, "lat": 45.966671}}, {"id": 666336, "name": "Spr\u00e2ncenata", "state": "", "country": "RO", "coord": {"lon": 24.633329, "lat": 44.083328}}, {"id": 666350, "name": "Spinu\u015f", "state": "", "country": "RO", "coord": {"lon": 22.200001, "lat": 47.200001}}, {"id": 666360, "name": "Spineni", "state": "", "country": "RO", "coord": {"lon": 24.566669, "lat": 44.700001}}, {"id": 666369, "name": "Spermezeu", "state": "", "country": "RO", "coord": {"lon": 24.15, "lat": 47.299999}}, {"id": 666385, "name": "Span\u0163ov", "state": "", "country": "RO", "coord": {"lon": 26.783331, "lat": 44.116669}}, {"id": 666390, "name": "\u0218oromiclea", "state": "", "country": "RO", "coord": {"lon": 24.799999, "lat": 46.216671}}, {"id": 666395, "name": "Sovata", "state": "", "country": "RO", "coord": {"lon": 25.066669, "lat": 46.583328}}, {"id": 666399, "name": "\u015eovarna", "state": "", "country": "RO", "coord": {"lon": 22.7925, "lat": 44.853611}}, {"id": 666404, "name": "\u015eotrile", "state": "", "country": "RO", "coord": {"lon": 25.716669, "lat": 45.216671}}, {"id": 666433, "name": "\u015eopotu Nou", "state": "", "country": "RO", "coord": {"lon": 21.86278, "lat": 44.841942}}, {"id": 666435, "name": "Sopot", "state": "", "country": "RO", "coord": {"lon": 23.5, "lat": 44.416672}}, {"id": 666443, "name": "\u015eona", "state": "", "country": "RO", "coord": {"lon": 24.01667, "lat": 46.216671}}, {"id": 666451, "name": "Somova", "state": "", "country": "RO", "coord": {"lon": 28.66667, "lat": 45.183331}}, {"id": 666467, "name": "Some\u015f-Odorhei", "state": "", "country": "RO", "coord": {"lon": 23.26667, "lat": 47.316669}}, {"id": 666475, "name": "\u015eomcuta Mare", "state": "", "country": "RO", "coord": {"lon": 23.466669, "lat": 47.51667}}, {"id": 666480, "name": "Solov\u0103stru", "state": "", "country": "RO", "coord": {"lon": 24.76667, "lat": 46.76667}}, {"id": 666483, "name": "Solon\u0163", "state": "", "country": "RO", "coord": {"lon": 26.51667, "lat": 46.549999}}, {"id": 666500, "name": "Sole\u015fti", "state": "", "country": "RO", "coord": {"lon": 27.783331, "lat": 46.76667}}, {"id": 666504, "name": "\u015eoldanu", "state": "", "country": "RO", "coord": {"lon": 26.51667, "lat": 44.216671}}, {"id": 666509, "name": "Solca", "state": "", "country": "RO", "coord": {"lon": 25.85, "lat": 47.700001}}, {"id": 666524, "name": "\u015eoimu\u015f", "state": "", "country": "RO", "coord": {"lon": 22.9, "lat": 45.916672}}, {"id": 666528, "name": "\u015eoimi", "state": "", "country": "RO", "coord": {"lon": 22.116671, "lat": 46.683331}}, {"id": 666533, "name": "\u015eoimari", "state": "", "country": "RO", "coord": {"lon": 26.200001, "lat": 45.183331}}, {"id": 666557, "name": "Sohodol", "state": "", "country": "RO", "coord": {"lon": 23.033331, "lat": 46.349998}}, {"id": 666561, "name": "Sohatu", "state": "", "country": "RO", "coord": {"lon": 26.5, "lat": 44.316669}}, {"id": 666565, "name": "\u015eofronea", "state": "", "country": "RO", "coord": {"lon": 21.299999, "lat": 46.26667}}, {"id": 666576, "name": "Socond", "state": "", "country": "RO", "coord": {"lon": 22.950001, "lat": 47.566669}}, {"id": 666580, "name": "Socol", "state": "", "country": "RO", "coord": {"lon": 21.370279, "lat": 44.860828}}, {"id": 666583, "name": "Socodor", "state": "", "country": "RO", "coord": {"lon": 21.433331, "lat": 46.51667}}, {"id": 666600, "name": "\u015eoar\u015f", "state": "", "country": "RO", "coord": {"lon": 24.91667, "lat": 45.933331}}, {"id": 666611, "name": "Snagov", "state": "", "country": "RO", "coord": {"lon": 26.183331, "lat": 44.700001}}, {"id": 666613, "name": "Smul\u0163i", "state": "", "country": "RO", "coord": {"lon": 27.75, "lat": 45.933331}}, {"id": 666619, "name": "Sm\u00e2rdioasa", "state": "", "country": "RO", "coord": {"lon": 25.433331, "lat": 43.849998}}, {"id": 666625, "name": "Sm\u00e2rdan", "state": "", "country": "RO", "coord": {"lon": 27.933331, "lat": 45.48333}}, {"id": 666641, "name": "Smeeni", "state": "", "country": "RO", "coord": {"lon": 26.85, "lat": 44.98333}}, {"id": 666663, "name": "Slobozia Moara", "state": "", "country": "RO", "coord": {"lon": 25.716669, "lat": 44.599998}}, {"id": 666665, "name": "Slobozia-M\u00e2ndra", "state": "", "country": "RO", "coord": {"lon": 24.700001, "lat": 43.916672}}, {"id": 666670, "name": "Slobozia Conachi", "state": "", "country": "RO", "coord": {"lon": 27.783331, "lat": 45.583328}}, {"id": 666673, "name": "Slobozia-Cior\u0103\u015fti", "state": "", "country": "RO", "coord": {"lon": 27.200001, "lat": 45.616669}}, {"id": 666674, "name": "Slobozia-C\u00e2mpineanca", "state": "", "country": "RO", "coord": {"lon": 27.133329, "lat": 45.700001}}, {"id": 666676, "name": "Slobozia Bradului", "state": "", "country": "RO", "coord": {"lon": 27.049999, "lat": 45.5}}, {"id": 666716, "name": "Slobozia", "state": "", "country": "RO", "coord": {"lon": 25.23333, "lat": 44.51667}}, {"id": 666719, "name": "Slobozia", "state": "", "country": "RO", "coord": {"lon": 25.9, "lat": 43.849998}}, {"id": 666724, "name": "Slivile\u015fti", "state": "", "country": "RO", "coord": {"lon": 23.133329, "lat": 44.783329}}, {"id": 666728, "name": "Slimnic", "state": "", "country": "RO", "coord": {"lon": 24.16667, "lat": 45.916672}}, {"id": 666736, "name": "Sl\u0103veni", "state": "", "country": "RO", "coord": {"lon": 24.533331, "lat": 44.083328}}, {"id": 666743, "name": "Sl\u0103tioarele", "state": "", "country": "RO", "coord": {"lon": 24.316669, "lat": 45.083328}}, {"id": 666752, "name": "Sl\u0103tioara", "state": "", "country": "RO", "coord": {"lon": 23.91667, "lat": 45.116669}}, {"id": 666753, "name": "Sl\u0103tioara", "state": "", "country": "RO", "coord": {"lon": 24.316669, "lat": 44.400002}}, {"id": 666759, "name": "Slatina-Timi\u015f", "state": "", "country": "RO", "coord": {"lon": 22.283331, "lat": 45.25}}, {"id": 666765, "name": "Slatina", "state": "", "country": "RO", "coord": {"lon": 26.01667, "lat": 47.450001}}, {"id": 666767, "name": "Slatina", "state": "", "country": "RO", "coord": {"lon": 24.366671, "lat": 44.433331}}, {"id": 666770, "name": "Sl\u0103nic-Moldova", "state": "", "country": "RO", "coord": {"lon": 26.433331, "lat": 46.200001}}, {"id": 666775, "name": "Sl\u0103nic", "state": "", "country": "RO", "coord": {"lon": 25.933331, "lat": 45.25}}, {"id": 666790, "name": "Sita Buz\u0103ului", "state": "", "country": "RO", "coord": {"lon": 26.066669, "lat": 45.650002}}, {"id": 666809, "name": "\u015eirna", "state": "", "country": "RO", "coord": {"lon": 25.950001, "lat": 44.799999}}, {"id": 666819, "name": "\u015eirineasa", "state": "", "country": "RO", "coord": {"lon": 24.200001, "lat": 44.933331}}, {"id": 666821, "name": "\u015eiria", "state": "", "country": "RO", "coord": {"lon": 21.633329, "lat": 46.26667}}, {"id": 666828, "name": "Sire\u0163el", "state": "", "country": "RO", "coord": {"lon": 26.73333, "lat": 47.400002}}, {"id": 666830, "name": "Siret", "state": "", "country": "RO", "coord": {"lon": 26.066669, "lat": 47.950001}}, {"id": 666863, "name": "S\u00e2rbeni", "state": "", "country": "RO", "coord": {"lon": 25.383329, "lat": 44.466671}}, {"id": 666877, "name": "\u015eipote", "state": "", "country": "RO", "coord": {"lon": 27.216669, "lat": 47.466671}}, {"id": 666887, "name": "S\u00e2nzieni", "state": "", "country": "RO", "coord": {"lon": 26.133329, "lat": 46.049999}}, {"id": 666908, "name": "S\u00e2ntimbru", "state": "", "country": "RO", "coord": {"lon": 23.65, "lat": 46.133331}}, {"id": 666909, "name": "\u015einteu", "state": "", "country": "RO", "coord": {"lon": 22.48333, "lat": 47.150002}}, {"id": 666916, "name": "\u015eintereag", "state": "", "country": "RO", "coord": {"lon": 24.299999, "lat": 47.183331}}, {"id": 666922, "name": "Sintea Mare", "state": "", "country": "RO", "coord": {"lon": 21.6, "lat": 46.51667}}, {"id": 666928, "name": "S\u00e2ntandrei", "state": "", "country": "RO", "coord": {"lon": 21.853519, "lat": 47.066151}}, {"id": 666936, "name": "S\u00e2ntana", "state": "", "country": "RO", "coord": {"lon": 21.5, "lat": 46.349998}}, {"id": 666942, "name": "Santa Mare", "state": "", "country": "RO", "coord": {"lon": 27.35, "lat": 47.616669}}, {"id": 666946, "name": "S\u00e2nsimion", "state": "", "country": "RO", "coord": {"lon": 25.883329, "lat": 46.25}}, {"id": 666950, "name": "S\u00e2npetru Mare", "state": "", "country": "RO", "coord": {"lon": 20.66667, "lat": 46.049999}}, {"id": 666963, "name": "S\u00e2npaul", "state": "", "country": "RO", "coord": {"lon": 23.41667, "lat": 46.883331}}, {"id": 666964, "name": "S\u00e2npaul", "state": "", "country": "RO", "coord": {"lon": 24.35, "lat": 46.450001}}, {"id": 666973, "name": "S\u00e2nnicolau Mare", "state": "", "country": "RO", "coord": {"lon": 20.633329, "lat": 46.083328}}, {"id": 666978, "name": "S\u00e2nnicoar\u0103", "state": "", "country": "RO", "coord": {"lon": 23.716669, "lat": 46.783329}}, {"id": 666981, "name": "S\u00e2nmihaiu Rom\u00e2n", "state": "", "country": "RO", "coord": {"lon": 21.08889, "lat": 45.704441}}, {"id": 666989, "name": "S\u00e2nmihaiu Alma\u015fului", "state": "", "country": "RO", "coord": {"lon": 23.299999, "lat": 47.01667}}, {"id": 667006, "name": "S\u00e2nm\u0103rtin", "state": "", "country": "RO", "coord": {"lon": 23.566669, "lat": 46.900002}}, {"id": 667008, "name": "S\u00e2nmartin", "state": "", "country": "RO", "coord": {"lon": 25.933331, "lat": 46.26667}}, {"id": 667020, "name": "Singureni", "state": "", "country": "RO", "coord": {"lon": 25.943331, "lat": 44.233608}}, {"id": 667023, "name": "S\u00e2ngeru", "state": "", "country": "RO", "coord": {"lon": 26.35, "lat": 45.133331}}, {"id": 667034, "name": "S\u00e2ngeorgiu de Mure\u015f", "state": "", "country": "RO", "coord": {"lon": 24.59453, "lat": 46.569599}}, {"id": 667043, "name": "Sine\u015fti", "state": "", "country": "RO", "coord": {"lon": 27.183331, "lat": 47.116669}}, {"id": 667045, "name": "Sine\u015fti", "state": "", "country": "RO", "coord": {"lon": 23.85, "lat": 44.950001}}, {"id": 667046, "name": "Sine\u015fti", "state": "", "country": "RO", "coord": {"lon": 26.383329, "lat": 44.566669}}, {"id": 667055, "name": "S\u00e2ndominic", "state": "", "country": "RO", "coord": {"lon": 25.780279, "lat": 46.584}}, {"id": 667057, "name": "S\u00e2ncraiu Silvaniei", "state": "", "country": "RO", "coord": {"lon": 23.15, "lat": 47.299999}}, {"id": 667059, "name": "S\u00e2ncraiu de Mure\u015f", "state": "", "country": "RO", "coord": {"lon": 24.52663, "lat": 46.551189}}, {"id": 667064, "name": "S\u00e2ncraiu", "state": "", "country": "RO", "coord": {"lon": 22.98333, "lat": 46.833328}}, {"id": 667069, "name": "S\u00e2ncr\u0103ieni", "state": "", "country": "RO", "coord": {"lon": 25.839411, "lat": 46.314388}}, {"id": 667074, "name": "S\u00e2ncel", "state": "", "country": "RO", "coord": {"lon": 23.950001, "lat": 46.200001}}, {"id": 667076, "name": "\u015einca Veche", "state": "", "country": "RO", "coord": {"lon": 25.16667, "lat": 45.76667}}, {"id": 667082, "name": "\u015eincai", "state": "", "country": "RO", "coord": {"lon": 24.383329, "lat": 46.650002}}, {"id": 667089, "name": "S\u00e2nandrei", "state": "", "country": "RO", "coord": {"lon": 21.16806, "lat": 45.853062}}, {"id": 667091, "name": "Sinaia", "state": "", "country": "RO", "coord": {"lon": 25.549999, "lat": 45.349998}}, {"id": 667094, "name": "Simone\u015fti", "state": "", "country": "RO", "coord": {"lon": 25.1, "lat": 46.333328}}, {"id": 667098, "name": "\u015eimnicu de Sus", "state": "", "country": "RO", "coord": {"lon": 23.799999, "lat": 44.383331}}, {"id": 667101, "name": "\u015eimleu Silvaniei", "state": "", "country": "RO", "coord": {"lon": 22.799999, "lat": 47.23333}}, {"id": 667109, "name": "Siminicea", "state": "", "country": "RO", "coord": {"lon": 26.4, "lat": 47.700001}}, {"id": 667118, "name": "\u015eimian", "state": "", "country": "RO", "coord": {"lon": 22.1, "lat": 47.48333}}, {"id": 667119, "name": "\u015eimian", "state": "", "country": "RO", "coord": {"lon": 22.70722, "lat": 44.61417}}, {"id": 667121, "name": "Simeria", "state": "", "country": "RO", "coord": {"lon": 23.01667, "lat": 45.849998}}, {"id": 667148, "name": "\u015eimand", "state": "", "country": "RO", "coord": {"lon": 21.450001, "lat": 46.433331}}, {"id": 667172, "name": "Sili\u015ftea Crucii", "state": "", "country": "RO", "coord": {"lon": 23.48333, "lat": 44.033329}}, {"id": 667188, "name": "Sili\u015ftea", "state": "", "country": "RO", "coord": {"lon": 27.85, "lat": 45.299999}}, {"id": 667194, "name": "Sili\u015ftea", "state": "", "country": "RO", "coord": {"lon": 28.16667, "lat": 44.400002}}, {"id": 667195, "name": "Sili\u015ftea", "state": "", "country": "RO", "coord": {"lon": 25.35, "lat": 44.383331}}, {"id": 667216, "name": "Sihlea", "state": "", "country": "RO", "coord": {"lon": 27.116671, "lat": 45.5}}, {"id": 667227, "name": "Sighetu Marma\u0163iei", "state": "", "country": "RO", "coord": {"lon": 23.883329, "lat": 47.933331}}, {"id": 667232, "name": "\u015eieu\u0163", "state": "", "country": "RO", "coord": {"lon": 24.65, "lat": 46.98333}}, {"id": 667235, "name": "\u015eieu-Odorhei", "state": "", "country": "RO", "coord": {"lon": 24.316669, "lat": 47.150002}}, {"id": 667238, "name": "\u015eieu-M\u0103gheru\u015f", "state": "", "country": "RO", "coord": {"lon": 24.383329, "lat": 47.083328}}, {"id": 667242, "name": "\u015eieu", "state": "", "country": "RO", "coord": {"lon": 24.6, "lat": 47.01667}}, {"id": 667243, "name": "Siculeni", "state": "", "country": "RO", "coord": {"lon": 25.75, "lat": 46.416672}}, {"id": 667245, "name": "\u015eicula", "state": "", "country": "RO", "coord": {"lon": 21.75, "lat": 46.433331}}, {"id": 667256, "name": "Sichevi\u0163a", "state": "", "country": "RO", "coord": {"lon": 21.84861, "lat": 44.735001}}, {"id": 667262, "name": "Sic", "state": "", "country": "RO", "coord": {"lon": 23.883329, "lat": 46.933331}}, {"id": 667265, "name": "\u015eibot", "state": "", "country": "RO", "coord": {"lon": 23.33333, "lat": 45.950001}}, {"id": 667267, "name": "Sibiu", "state": "", "country": "RO", "coord": {"lon": 24.143829, "lat": 45.784279}}, {"id": 667268, "name": "Sibiu", "state": "", "country": "RO", "coord": {"lon": 24.15, "lat": 45.799999}}, {"id": 667303, "name": "Sf\u00e2ntu Gheorghe", "state": "", "country": "RO", "coord": {"lon": 25.783331, "lat": 45.866669}}, {"id": 667306, "name": "Sf\u00e2ntu Gheorghe", "state": "", "country": "RO", "coord": {"lon": 26.83333, "lat": 44.650002}}, {"id": 667311, "name": "Sfin\u0163e\u015fti", "state": "", "country": "RO", "coord": {"lon": 25.1, "lat": 44.183331}}, {"id": 667350, "name": "\u015eercaia", "state": "", "country": "RO", "coord": {"lon": 25.133329, "lat": 45.833328}}, {"id": 667380, "name": "\u015eerb\u0103ne\u015fti", "state": "", "country": "RO", "coord": {"lon": 24.700001, "lat": 44.333328}}, {"id": 667395, "name": "\u015eendriceni", "state": "", "country": "RO", "coord": {"lon": 26.299999, "lat": 47.950001}}, {"id": 667402, "name": "\u015eendreni", "state": "", "country": "RO", "coord": {"lon": 27.91667, "lat": 45.400002}}, {"id": 667408, "name": "Semlac", "state": "", "country": "RO", "coord": {"lon": 20.933331, "lat": 46.116669}}, {"id": 667420, "name": "\u015eelimb\u0103r", "state": "", "country": "RO", "coord": {"lon": 24.200001, "lat": 45.76667}}, {"id": 667424, "name": "Seleu\u015f", "state": "", "country": "RO", "coord": {"lon": 21.716669, "lat": 46.383331}}, {"id": 667429, "name": "\u015eelaru", "state": "", "country": "RO", "coord": {"lon": 25.299999, "lat": 44.466671}}, {"id": 667434, "name": "\u015eeitin", "state": "", "country": "RO", "coord": {"lon": 20.85, "lat": 46.099998}}, {"id": 667437, "name": "Seini", "state": "", "country": "RO", "coord": {"lon": 23.283331, "lat": 47.75}}, {"id": 667441, "name": "Seimeni", "state": "", "country": "RO", "coord": {"lon": 28.066669, "lat": 44.383331}}, {"id": 667443, "name": "\u015eeica Mic\u0103", "state": "", "country": "RO", "coord": {"lon": 24.133329, "lat": 46.049999}}, {"id": 667445, "name": "\u015ee\u00edca Mare", "state": "", "country": "RO", "coord": {"lon": 24.15, "lat": 46.01667}}, {"id": 667449, "name": "Segarcea Vale", "state": "", "country": "RO", "coord": {"lon": 24.799999, "lat": 43.816669}}, {"id": 667453, "name": "Segarcea", "state": "", "country": "RO", "coord": {"lon": 23.75, "lat": 44.099998}}, {"id": 667458, "name": "Secusigiu", "state": "", "country": "RO", "coord": {"lon": 20.98333, "lat": 46.083328}}, {"id": 667465, "name": "Secuieni", "state": "", "country": "RO", "coord": {"lon": 27.1, "lat": 46.650002}}, {"id": 667481, "name": "Secu", "state": "", "country": "RO", "coord": {"lon": 23.299999, "lat": 44.466671}}, {"id": 667507, "name": "Sec\u0103ria", "state": "", "country": "RO", "coord": {"lon": 25.683331, "lat": 45.283329}}, {"id": 667515, "name": "Sebi\u015f", "state": "", "country": "RO", "coord": {"lon": 22.116671, "lat": 46.366669}}, {"id": 667526, "name": "Sebe\u015f", "state": "", "country": "RO", "coord": {"lon": 23.566669, "lat": 45.966671}}, {"id": 667532, "name": "Seaca de C\u00e2mp", "state": "", "country": "RO", "coord": {"lon": 23.216669, "lat": 43.933331}}, {"id": 667545, "name": "Seaca", "state": "", "country": "RO", "coord": {"lon": 24.75, "lat": 44.166672}}, {"id": 667546, "name": "Seaca", "state": "", "country": "RO", "coord": {"lon": 25.066669, "lat": 43.75}}, {"id": 667548, "name": "Scutelnici", "state": "", "country": "RO", "coord": {"lon": 26.91667, "lat": 44.849998}}, {"id": 667553, "name": "Scurtu Mare", "state": "", "country": "RO", "coord": {"lon": 25.26667, "lat": 44.349998}}, {"id": 667564, "name": "Scundu", "state": "", "country": "RO", "coord": {"lon": 24.200001, "lat": 44.833328}}, {"id": 667572, "name": "Scrioa\u015ftea", "state": "", "country": "RO", "coord": {"lon": 24.950001, "lat": 44.150002}}, {"id": 667582, "name": "Scor\u0163oasa", "state": "", "country": "RO", "coord": {"lon": 26.66667, "lat": 45.366669}}, {"id": 667585, "name": "Scor\u0163eni", "state": "", "country": "RO", "coord": {"lon": 26.65, "lat": 46.549999}}, {"id": 667586, "name": "Scor\u0163eni", "state": "", "country": "RO", "coord": {"lon": 25.85, "lat": 45.099998}}, {"id": 667590, "name": "Scor\u0163aru Nou", "state": "", "country": "RO", "coord": {"lon": 27.6, "lat": 45.316669}}, {"id": 667593, "name": "Scornice\u015fti", "state": "", "country": "RO", "coord": {"lon": 24.549999, "lat": 44.566669}}, {"id": 667606, "name": "Scobin\u0163i", "state": "", "country": "RO", "coord": {"lon": 26.933331, "lat": 47.383331}}, {"id": 667612, "name": "Scoar\u0163a", "state": "", "country": "RO", "coord": {"lon": 23.450001, "lat": 45.01667}}, {"id": 667620, "name": "Sc\u00e2nteia", "state": "", "country": "RO", "coord": {"lon": 27.566669, "lat": 46.916672}}, {"id": 667634, "name": "Schitu-Sl\u0103tioarele", "state": "", "country": "RO", "coord": {"lon": 24.366671, "lat": 45.099998}}, {"id": 667639, "name": "Schitu-Ostrov", "state": "", "country": "RO", "coord": {"lon": 24.33333, "lat": 45.23333}}, {"id": 667641, "name": "Schitu-Manu", "state": "", "country": "RO", "coord": {"lon": 24.26667, "lat": 44.650002}}, {"id": 667646, "name": "Schitu-Gole\u015fti", "state": "", "country": "RO", "coord": {"lon": 25, "lat": 45.200001}}, {"id": 667653, "name": "Schitu-Duca", "state": "", "country": "RO", "coord": {"lon": 27.76667, "lat": 47.033329}}, {"id": 667669, "name": "Schitu", "state": "", "country": "RO", "coord": {"lon": 24.566669, "lat": 44.349998}}, {"id": 667670, "name": "Schitu", "state": "", "country": "RO", "coord": {"lon": 25.83667, "lat": 44.140831}}, {"id": 667676, "name": "V\u0103leni", "state": "", "country": "RO", "coord": {"lon": 28.0625, "lat": 46.592781}}, {"id": 667691, "name": "Schela", "state": "", "country": "RO", "coord": {"lon": 27.816669, "lat": 45.5}}, {"id": 667692, "name": "Schela", "state": "", "country": "RO", "coord": {"lon": 23.299999, "lat": 45.166672}}, {"id": 667706, "name": "Scheia", "state": "", "country": "RO", "coord": {"lon": 26.23333, "lat": 47.650002}}, {"id": 667708, "name": "\u015echeia", "state": "", "country": "RO", "coord": {"lon": 27.51667, "lat": 46.933331}}, {"id": 667721, "name": "Sc\u0103ri\u015foara", "state": "", "country": "RO", "coord": {"lon": 22.85, "lat": 46.466671}}, {"id": 667727, "name": "Sc\u0103ri\u015foara", "state": "", "country": "RO", "coord": {"lon": 24.566669, "lat": 44}}, {"id": 667739, "name": "Sc\u0103e\u015fti", "state": "", "country": "RO", "coord": {"lon": 23.58333, "lat": 44.466671}}, {"id": 667748, "name": "S\u0103v\u00e2r\u015fin", "state": "", "country": "RO", "coord": {"lon": 22.23333, "lat": 46.01667}}, {"id": 667751, "name": "S\u0103vine\u015fti", "state": "", "country": "RO", "coord": {"lon": 26.466669, "lat": 46.849998}}, {"id": 667757, "name": "S\u0103veni", "state": "", "country": "RO", "coord": {"lon": 26.866671, "lat": 47.950001}}, {"id": 667759, "name": "S\u0103veni", "state": "", "country": "RO", "coord": {"lon": 27.65, "lat": 44.599998}}, {"id": 667763, "name": "S\u0103v\u0103disla", "state": "", "country": "RO", "coord": {"lon": 23.450001, "lat": 46.683331}}, {"id": 667771, "name": "\u015e\u0103ulia", "state": "", "country": "RO", "coord": {"lon": 24.216669, "lat": 46.633331}}, {"id": 667774, "name": "S\u0103ule\u015fti", "state": "", "country": "RO", "coord": {"lon": 23.48333, "lat": 44.799999}}, {"id": 667783, "name": "S\u0103uca", "state": "", "country": "RO", "coord": {"lon": 22.48333, "lat": 47.466671}}, {"id": 667793, "name": "Satu Nou Calop\u0103r", "state": "", "country": "RO", "coord": {"lon": 23.76667, "lat": 44.166672}}, {"id": 667869, "name": "Satu Mare", "state": "", "country": "RO", "coord": {"lon": 23, "lat": 47.75}}, {"id": 667872, "name": "Satu Mare", "state": "", "country": "RO", "coord": {"lon": 26.01667, "lat": 47.833328}}, {"id": 667873, "name": "Satu Mare", "state": "", "country": "RO", "coord": {"lon": 22.883329, "lat": 47.799999}}, {"id": 667882, "name": "Satulung", "state": "", "country": "RO", "coord": {"lon": 23.433331, "lat": 47.566669}}, {"id": 667900, "name": "Satchinez", "state": "", "country": "RO", "coord": {"lon": 21.04056, "lat": 45.9375}}, {"id": 667917, "name": "Sascut", "state": "", "country": "RO", "coord": {"lon": 27.1, "lat": 46.200001}}, {"id": 667919, "name": "S\u0103sciori", "state": "", "country": "RO", "coord": {"lon": 23.58333, "lat": 45.866669}}, {"id": 667923, "name": "Saschiz", "state": "", "country": "RO", "coord": {"lon": 24.966669, "lat": 46.183331}}, {"id": 667948, "name": "S\u0103rule\u015fti", "state": "", "country": "RO", "coord": {"lon": 26.75, "lat": 45.5}}, {"id": 667950, "name": "S\u0103rule\u015fti", "state": "", "country": "RO", "coord": {"lon": 26.65, "lat": 44.416672}}, {"id": 667952, "name": "\u015earu Dornei", "state": "", "country": "RO", "coord": {"lon": 25.35, "lat": 47.283329}}, {"id": 667964, "name": "Sarmizegetusa", "state": "", "country": "RO", "coord": {"lon": 22.783331, "lat": 45.51667}}, {"id": 667966, "name": "S\u0103rma\u015fu", "state": "", "country": "RO", "coord": {"lon": 24.16667, "lat": 46.75}}, {"id": 667970, "name": "\u015e\u0103rm\u0103\u015fag", "state": "", "country": "RO", "coord": {"lon": 22.83333, "lat": 47.349998}}, {"id": 667972, "name": "S\u0103rma\u015f", "state": "", "country": "RO", "coord": {"lon": 25.466669, "lat": 46.883331}}, {"id": 667991, "name": "Sarichioi", "state": "", "country": "RO", "coord": {"lon": 28.85, "lat": 44.950001}}, {"id": 668062, "name": "Saraiu", "state": "", "country": "RO", "coord": {"lon": 28.15, "lat": 44.716671}}, {"id": 668073, "name": "S\u0103poca", "state": "", "country": "RO", "coord": {"lon": 26.75, "lat": 45.25}}, {"id": 668076, "name": "S\u0103p\u00e2n\u0163a", "state": "", "country": "RO", "coord": {"lon": 23.700001, "lat": 47.966671}}, {"id": 668089, "name": "Sant\u0103u", "state": "", "country": "RO", "coord": {"lon": 22.51667, "lat": 47.51667}}, {"id": 668091, "name": "\u0218an\u021b", "state": "", "country": "RO", "coord": {"lon": 24.9, "lat": 47.450001}}, {"id": 668096, "name": "Sanisl\u0103u", "state": "", "country": "RO", "coord": {"lon": 22.33333, "lat": 47.633331}}, {"id": 668101, "name": "S\u0103ndule\u015fti", "state": "", "country": "RO", "coord": {"lon": 23.716669, "lat": 46.583328}}, {"id": 668104, "name": "S\u0103nduleni", "state": "", "country": "RO", "coord": {"lon": 26.73333, "lat": 46.450001}}, {"id": 668116, "name": "\u015eam\u015fud", "state": "", "country": "RO", "coord": {"lon": 22.950001, "lat": 47.349998}}, {"id": 668119, "name": "Samarine\u015fti", "state": "", "country": "RO", "coord": {"lon": 23.049999, "lat": 44.75}}, {"id": 668124, "name": "Salva", "state": "", "country": "RO", "coord": {"lon": 24.35, "lat": 47.299999}}, {"id": 668128, "name": "S\u0103lsig", "state": "", "country": "RO", "coord": {"lon": 23.299999, "lat": 47.533329}}, {"id": 668129, "name": "Salonta", "state": "", "country": "RO", "coord": {"lon": 21.65, "lat": 46.799999}}, {"id": 668142, "name": "S\u0103li\u015ftea de Sus", "state": "", "country": "RO", "coord": {"lon": 24.35, "lat": 47.650002}}, {"id": 668143, "name": "S\u0103li\u015ftea-Deal", "state": "", "country": "RO", "coord": {"lon": 23.4, "lat": 45.900002}}, {"id": 668153, "name": "S\u0103li\u015fte", "state": "", "country": "RO", "coord": {"lon": 23.88677, "lat": 45.796329}}, {"id": 668167, "name": "S\u0103lcu\u0163a", "state": "", "country": "RO", "coord": {"lon": 23.433331, "lat": 44.25}}, {"id": 668173, "name": "S\u0103lciua de Sus", "state": "", "country": "RO", "coord": {"lon": 23.41667, "lat": 46.400002}}, {"id": 668186, "name": "S\u0103lcioara", "state": "", "country": "RO", "coord": {"lon": 25.58333, "lat": 44.716671}}, {"id": 668188, "name": "S\u0103lcioara", "state": "", "country": "RO", "coord": {"lon": 26.883329, "lat": 44.533329}}, {"id": 668193, "name": "S\u0103lciile", "state": "", "country": "RO", "coord": {"lon": 26.48333, "lat": 44.816669}}, {"id": 668198, "name": "Salcia Tudor", "state": "", "country": "RO", "coord": {"lon": 27.51667, "lat": 45.366669}}, {"id": 668210, "name": "Salcia", "state": "", "country": "RO", "coord": {"lon": 26.33333, "lat": 45.183331}}, {"id": 668214, "name": "Salcia", "state": "", "country": "RO", "coord": {"lon": 22.92778, "lat": 44.140831}}, {"id": 668215, "name": "Salcia", "state": "", "country": "RO", "coord": {"lon": 24.91667, "lat": 43.950001}}, {"id": 668219, "name": "Salcea", "state": "", "country": "RO", "coord": {"lon": 26.366671, "lat": 47.650002}}, {"id": 668226, "name": "S\u0103l\u0103trucu", "state": "", "country": "RO", "coord": {"lon": 24.51667, "lat": 45.333328}}, {"id": 668229, "name": "S\u0103l\u0103trucel", "state": "", "country": "RO", "coord": {"lon": 24.383329, "lat": 45.25}}, {"id": 668236, "name": "S\u0103l\u0103\u0163ig", "state": "", "country": "RO", "coord": {"lon": 23.133329, "lat": 47.366669}}, {"id": 668238, "name": "S\u0103la\u015fu de Sus", "state": "", "country": "RO", "coord": {"lon": 22.950001, "lat": 45.51667}}, {"id": 668243, "name": "S\u0103lard", "state": "", "country": "RO", "coord": {"lon": 22.049999, "lat": 47.216671}}, {"id": 668248, "name": "S\u0103laj", "state": "", "country": "RO", "coord": {"lon": 23.25, "lat": 47.166672}}, {"id": 668252, "name": "S\u0103lacea", "state": "", "country": "RO", "coord": {"lon": 22.316669, "lat": 47.466671}}, {"id": 668257, "name": "S\u0103h\u0103teni", "state": "", "country": "RO", "coord": {"lon": 26.51667, "lat": 45.033329}}, {"id": 668261, "name": "\u015eagu", "state": "", "country": "RO", "coord": {"lon": 21.283331, "lat": 46.049999}}, {"id": 668263, "name": "Sagna", "state": "", "country": "RO", "coord": {"lon": 27.01667, "lat": 46.98333}}, {"id": 668266, "name": "S\u0103geata", "state": "", "country": "RO", "coord": {"lon": 26.98333, "lat": 45.099998}}, {"id": 668269, "name": "\u015eag", "state": "", "country": "RO", "coord": {"lon": 21.17556, "lat": 45.648609}}, {"id": 668278, "name": "Sadu", "state": "", "country": "RO", "coord": {"lon": 24.183331, "lat": 45.666672}}, {"id": 668286, "name": "Sadova", "state": "", "country": "RO", "coord": {"lon": 25.5, "lat": 47.533329}}, {"id": 668287, "name": "Sadova", "state": "", "country": "RO", "coord": {"lon": 23.950001, "lat": 43.900002}}, {"id": 668297, "name": "S\u0103cueni", "state": "", "country": "RO", "coord": {"lon": 22.1, "lat": 47.349998}}, {"id": 668300, "name": "Sacu", "state": "", "country": "RO", "coord": {"lon": 22.116671, "lat": 45.566669}}, {"id": 668304, "name": "Saco\u015fu Turcesc", "state": "", "country": "RO", "coord": {"lon": 21.42889, "lat": 45.651939}}, {"id": 668310, "name": "S\u0103ceni", "state": "", "country": "RO", "coord": {"lon": 25.066669, "lat": 44.23333}}, {"id": 668312, "name": "S\u0103celu", "state": "", "country": "RO", "coord": {"lon": 23.533331, "lat": 45.099998}}, {"id": 668314, "name": "S\u0103cele", "state": "", "country": "RO", "coord": {"lon": 25.694269, "lat": 45.617401}}, {"id": 668315, "name": "S\u0103cele", "state": "", "country": "RO", "coord": {"lon": 28.65, "lat": 44.48333}}, {"id": 668320, "name": "S\u0103cel", "state": "", "country": "RO", "coord": {"lon": 24.433331, "lat": 47.633331}}, {"id": 668322, "name": "S\u0103cel", "state": "", "country": "RO", "coord": {"lon": 24.933331, "lat": 46.299999}}, {"id": 668330, "name": "S\u0103c\u0103\u015feni", "state": "", "country": "RO", "coord": {"lon": 22.683331, "lat": 47.48333}}, {"id": 668342, "name": "S\u0103c\u0103laz", "state": "", "country": "RO", "coord": {"lon": 21.112221, "lat": 45.758331}}, {"id": 668353, "name": "S\u0103c\u0103dat", "state": "", "country": "RO", "coord": {"lon": 22.15, "lat": 47.033329}}, {"id": 668365, "name": "S\u0103b\u0103oani", "state": "", "country": "RO", "coord": {"lon": 26.85, "lat": 47.01667}}, {"id": 668382, "name": "Ru\u015fii Mun\u0163i", "state": "", "country": "RO", "coord": {"lon": 24.85, "lat": 46.916672}}, {"id": 668394, "name": "Ru\u015fe\u0163u", "state": "", "country": "RO", "coord": {"lon": 27.216669, "lat": 44.950001}}, {"id": 668431, "name": "Rus\u0103ne\u015fti", "state": "", "country": "RO", "coord": {"lon": 24.6, "lat": 43.933331}}, {"id": 668435, "name": "Rus", "state": "", "country": "RO", "coord": {"lon": 23.6, "lat": 47.283329}}, {"id": 668442, "name": "Rupea", "state": "", "country": "RO", "coord": {"lon": 25.216669, "lat": 46.033329}}, {"id": 668465, "name": "Runcu", "state": "", "country": "RO", "coord": {"lon": 25.383329, "lat": 45.183331}}, {"id": 668466, "name": "Runcu", "state": "", "country": "RO", "coord": {"lon": 24.450001, "lat": 45.166672}}, {"id": 668467, "name": "Runcu", "state": "", "country": "RO", "coord": {"lon": 23.133329, "lat": 45.116669}}, {"id": 668474, "name": "Runc", "state": "", "country": "RO", "coord": {"lon": 24.66667, "lat": 47.650002}}, {"id": 668488, "name": "Ruginoasa", "state": "", "country": "RO", "coord": {"lon": 26.85, "lat": 47.25}}, {"id": 668495, "name": "Rugine\u015fti", "state": "", "country": "RO", "coord": {"lon": 27.116671, "lat": 46.066669}}, {"id": 668542, "name": "Ruc\u0103r", "state": "", "country": "RO", "coord": {"lon": 25.16667, "lat": 45.400002}}, {"id": 668546, "name": "Roznov", "state": "", "country": "RO", "coord": {"lon": 26.51667, "lat": 46.833328}}, {"id": 668548, "name": "Rozavlea", "state": "", "country": "RO", "coord": {"lon": 24.216669, "lat": 47.73333}}, {"id": 668552, "name": "Pecica", "state": "", "country": "RO", "coord": {"lon": 21.066669, "lat": 46.166672}}, {"id": 668555, "name": "Rovinari", "state": "", "country": "RO", "coord": {"lon": 23.183331, "lat": 44.916672}}, {"id": 668569, "name": "Rotunda", "state": "", "country": "RO", "coord": {"lon": 24.316669, "lat": 43.98333}}, {"id": 668600, "name": "Ro\u0219u", "state": "", "country": "RO", "coord": {"lon": 26.01667, "lat": 44.450001}}, {"id": 668605, "name": "Ro\u0219iorii de Vede", "state": "", "country": "RO", "coord": {"lon": 24.98333, "lat": 44.116669}}, {"id": 668618, "name": "Ro\u015fiori", "state": "", "country": "RO", "coord": {"lon": 27.08333, "lat": 46.716671}}, {"id": 668620, "name": "Ro\u015fiori", "state": "", "country": "RO", "coord": {"lon": 27.383329, "lat": 44.799999}}, {"id": 668628, "name": "Ro\u015fiile", "state": "", "country": "RO", "coord": {"lon": 23.933331, "lat": 44.866669}}, {"id": 668631, "name": "Ro\u015fie\u015fti", "state": "", "country": "RO", "coord": {"lon": 27.883329, "lat": 46.433331}}, {"id": 668643, "name": "Ro\u015fia de Seca\u015f", "state": "", "country": "RO", "coord": {"lon": 23.883329, "lat": 46.049999}}, {"id": 668645, "name": "Ro\u015fia de Amaradia", "state": "", "country": "RO", "coord": {"lon": 23.75, "lat": 45.049999}}, {"id": 668653, "name": "Ro\u015fia", "state": "", "country": "RO", "coord": {"lon": 22.4, "lat": 46.799999}}, {"id": 668656, "name": "Ro\u015fia", "state": "", "country": "RO", "coord": {"lon": 24.316669, "lat": 45.816669}}, {"id": 668660, "name": "Rose\u0163i", "state": "", "country": "RO", "coord": {"lon": 27.433331, "lat": 44.216671}}, {"id": 668681, "name": "Rona de Sus", "state": "", "country": "RO", "coord": {"lon": 24.049999, "lat": 47.900002}}, {"id": 668683, "name": "Rona de Jos", "state": "", "country": "RO", "coord": {"lon": 24.01667, "lat": 47.916672}}, {"id": 668687, "name": "Romuli", "state": "", "country": "RO", "coord": {"lon": 24.433331, "lat": 47.533329}}, {"id": 668693, "name": "Romos", "state": "", "country": "RO", "coord": {"lon": 23.283331, "lat": 45.833328}}, {"id": 668698, "name": "Rom\u00e2ni", "state": "", "country": "RO", "coord": {"lon": 26.683331, "lat": 46.783329}}, {"id": 668723, "name": "Romanu", "state": "", "country": "RO", "coord": {"lon": 27.73333, "lat": 45.283329}}, {"id": 668732, "name": "Roman", "state": "", "country": "RO", "coord": {"lon": 26.91667, "lat": 46.916672}}, {"id": 668737, "name": "Roma", "state": "", "country": "RO", "coord": {"lon": 26.6, "lat": 47.833328}}, {"id": 668742, "name": "Rohia", "state": "", "country": "RO", "coord": {"lon": 23.860161, "lat": 47.406891}}, {"id": 668751, "name": "Rogova", "state": "", "country": "RO", "coord": {"lon": 22.806669, "lat": 44.471668}}, {"id": 668766, "name": "Roe\u015fti", "state": "", "country": "RO", "coord": {"lon": 24.08333, "lat": 44.916672}}, {"id": 668772, "name": "Rodna", "state": "", "country": "RO", "coord": {"lon": 24.816669, "lat": 47.416672}}, {"id": 668781, "name": "Rociu", "state": "", "country": "RO", "coord": {"lon": 25.033331, "lat": 44.666672}}, {"id": 668788, "name": "Robeasca", "state": "", "country": "RO", "coord": {"lon": 27.133329, "lat": 45.166672}}, {"id": 668799, "name": "Roata de Jos", "state": "", "country": "RO", "coord": {"lon": 25.543329, "lat": 44.410831}}, {"id": 668815, "name": "R\u00e2u de Mori", "state": "", "country": "RO", "coord": {"lon": 22.85, "lat": 45.48333}}, {"id": 668828, "name": "R\u00e2\u015fnov", "state": "", "country": "RO", "coord": {"lon": 25.450001, "lat": 45.583328}}, {"id": 668849, "name": "Ripiceni", "state": "", "country": "RO", "coord": {"lon": 27.133329, "lat": 47.950001}}, {"id": 668872, "name": "R\u00e2mnicu V\u00e2lcea", "state": "", "country": "RO", "coord": {"lon": 24.366671, "lat": 45.099998}}, {"id": 668873, "name": "R\u00e2mnicu S\u0103rat", "state": "", "country": "RO", "coord": {"lon": 27.049999, "lat": 45.383331}}, {"id": 668882, "name": "R\u00e2mnicelu", "state": "", "country": "RO", "coord": {"lon": 27.116671, "lat": 45.366669}}, {"id": 668883, "name": "R\u00e2mnicelu", "state": "", "country": "RO", "coord": {"lon": 27.533331, "lat": 45.283329}}, {"id": 668898, "name": "R\u00e2me\u0163", "state": "", "country": "RO", "coord": {"lon": 23.533331, "lat": 46.299999}}, {"id": 668900, "name": "Rimetea", "state": "", "country": "RO", "coord": {"lon": 23.566669, "lat": 46.450001}}, {"id": 668911, "name": "R\u00e2fov", "state": "", "country": "RO", "coord": {"lon": 26.133329, "lat": 44.866669}}, {"id": 668913, "name": "Rieni", "state": "", "country": "RO", "coord": {"lon": 22.450001, "lat": 46.566669}}, {"id": 668915, "name": "R\u00e2ciu", "state": "", "country": "RO", "coord": {"lon": 24.4, "lat": 46.683331}}, {"id": 668928, "name": "Ribi\u0163a", "state": "", "country": "RO", "coord": {"lon": 22.76667, "lat": 46.183331}}, {"id": 668933, "name": "Reviga", "state": "", "country": "RO", "coord": {"lon": 27.1, "lat": 44.716671}}, {"id": 668936, "name": "Rev\u0103rsarea", "state": "", "country": "RO", "coord": {"lon": 28.466669, "lat": 45.26667}}, {"id": 668954, "name": "Re\u015fi\u0163a", "state": "", "country": "RO", "coord": {"lon": 21.88917, "lat": 45.300831}}, {"id": 668963, "name": "Repedea", "state": "", "country": "RO", "coord": {"lon": 24.4, "lat": 47.833328}}, {"id": 668973, "name": "Reme\u0163i", "state": "", "country": "RO", "coord": {"lon": 23.633329, "lat": 47.98333}}, {"id": 668979, "name": "Remetea Mare", "state": "", "country": "RO", "coord": {"lon": 21.37611, "lat": 45.779442}}, {"id": 668983, "name": "Remetea Chioarului", "state": "", "country": "RO", "coord": {"lon": 23.549999, "lat": 47.533329}}, {"id": 668986, "name": "Remetea", "state": "", "country": "RO", "coord": {"lon": 25.450001, "lat": 46.783329}}, {"id": 668987, "name": "Remetea", "state": "", "country": "RO", "coord": {"lon": 22.35, "lat": 46.73333}}, {"id": 668988, "name": "Remetea", "state": "", "country": "RO", "coord": {"lon": 24.51359, "lat": 46.574322}}, {"id": 668994, "name": "Reghiu", "state": "", "country": "RO", "coord": {"lon": 26.83333, "lat": 45.783329}}, {"id": 668995, "name": "Reghin-Sat", "state": "", "country": "RO", "coord": {"lon": 24.716669, "lat": 46.783329}}, {"id": 668997, "name": "Reghin", "state": "", "country": "RO", "coord": {"lon": 24.70216, "lat": 46.7742}}, {"id": 669013, "name": "Rediu", "state": "", "country": "RO", "coord": {"lon": 27.5, "lat": 47.216671}}, {"id": 669018, "name": "Rediu", "state": "", "country": "RO", "coord": {"lon": 26.566669, "lat": 46.75}}, {"id": 669022, "name": "Rediu", "state": "", "country": "RO", "coord": {"lon": 27.83333, "lat": 45.716671}}, {"id": 669026, "name": "Redea", "state": "", "country": "RO", "coord": {"lon": 24.299999, "lat": 44.049999}}, {"id": 669029, "name": "Reci", "state": "", "country": "RO", "coord": {"lon": 25.933331, "lat": 45.849998}}, {"id": 669037, "name": "Recea Cristur", "state": "", "country": "RO", "coord": {"lon": 23.533331, "lat": 47.066669}}, {"id": 669043, "name": "Recea", "state": "", "country": "RO", "coord": {"lon": 23.51667, "lat": 47.633331}}, {"id": 669051, "name": "Recea", "state": "", "country": "RO", "coord": {"lon": 24.93152, "lat": 45.713341}}, {"id": 669054, "name": "Recea", "state": "", "country": "RO", "coord": {"lon": 25.01667, "lat": 44.533329}}, {"id": 669058, "name": "Reca\u015f", "state": "", "country": "RO", "coord": {"lon": 21.50083, "lat": 45.798889}}, {"id": 669060, "name": "Rebri\u015foara", "state": "", "country": "RO", "coord": {"lon": 24.450001, "lat": 47.283329}}, {"id": 669064, "name": "Rebricea", "state": "", "country": "RO", "coord": {"lon": 27.549999, "lat": 46.866669}}, {"id": 669067, "name": "Rebra", "state": "", "country": "RO", "coord": {"lon": 24.5, "lat": 47.316669}}, {"id": 669072, "name": "R\u0103zvad", "state": "", "country": "RO", "coord": {"lon": 25.533331, "lat": 44.933331}}, {"id": 669088, "name": "R\u0103zboieni", "state": "", "country": "RO", "coord": {"lon": 26.533331, "lat": 47.083328}}, {"id": 669098, "name": "R\u0103useni", "state": "", "country": "RO", "coord": {"lon": 27.200001, "lat": 47.566669}}, {"id": 669102, "name": "R\u0103uce\u015fti", "state": "", "country": "RO", "coord": {"lon": 26.41667, "lat": 47.25}}, {"id": 669116, "name": "R\u0103te\u015fti", "state": "", "country": "RO", "coord": {"lon": 25.133329, "lat": 44.73333}}, {"id": 669126, "name": "R\u0103suceni", "state": "", "country": "RO", "coord": {"lon": 25.663891, "lat": 44.091671}}, {"id": 669128, "name": "Rast", "state": "", "country": "RO", "coord": {"lon": 23.283331, "lat": 43.883331}}, {"id": 669133, "name": "R\u0103stoli\u0163a", "state": "", "country": "RO", "coord": {"lon": 24.99287, "lat": 46.97258}}, {"id": 669148, "name": "Rasova", "state": "", "country": "RO", "coord": {"lon": 27.933331, "lat": 44.25}}, {"id": 669154, "name": "R\u0103smire\u015fti", "state": "", "country": "RO", "coord": {"lon": 25.549999, "lat": 43.98333}}, {"id": 669156, "name": "R\u0103\u015finari", "state": "", "country": "RO", "coord": {"lon": 24.066669, "lat": 45.700001}}, {"id": 669183, "name": "Rapoltu Mare", "state": "", "country": "RO", "coord": {"lon": 23.066669, "lat": 45.866669}}, {"id": 669186, "name": "R\u0103p\u0103na\u015fu", "state": "", "country": "RO", "coord": {"lon": 24.183331, "lat": 47.383331}}, {"id": 669192, "name": "Ramna", "state": "", "country": "RO", "coord": {"lon": 21.68833, "lat": 45.438332}}, {"id": 669241, "name": "R\u0103duc\u0103neni", "state": "", "country": "RO", "coord": {"lon": 27.933331, "lat": 46.950001}}, {"id": 669244, "name": "Radovanu", "state": "", "country": "RO", "coord": {"lon": 26.51667, "lat": 44.200001}}, {"id": 669245, "name": "Radovan", "state": "", "country": "RO", "coord": {"lon": 23.616671, "lat": 44.166672}}, {"id": 669253, "name": "Radomire\u015fti", "state": "", "country": "RO", "coord": {"lon": 24.683331, "lat": 44.116669}}, {"id": 669255, "name": "R\u0103doie\u0219ti-Deal", "state": "", "country": "RO", "coord": {"lon": 25.133329, "lat": 44.150002}}, {"id": 669272, "name": "R\u0103de\u015fti", "state": "", "country": "RO", "coord": {"lon": 23.716669, "lat": 46.26667}}, {"id": 669288, "name": "R\u0103d\u0103u\u021bi-Prut", "state": "", "country": "RO", "coord": {"lon": 26.799999, "lat": 48.23333}}, {"id": 669289, "name": "R\u0103d\u0103u\u021bi", "state": "", "country": "RO", "coord": {"lon": 25.91667, "lat": 47.849998}}, {"id": 669292, "name": "R\u0103d\u0103\u015feni", "state": "", "country": "RO", "coord": {"lon": 26.25, "lat": 47.466671}}, {"id": 669308, "name": "Racovi\u0163eni", "state": "", "country": "RO", "coord": {"lon": 26.9, "lat": 45.366669}}, {"id": 669320, "name": "Racovi\u0163a", "state": "", "country": "RO", "coord": {"lon": 21.63583, "lat": 45.69833}}, {"id": 669321, "name": "Racovi\u0163a", "state": "", "country": "RO", "coord": {"lon": 24.35, "lat": 45.683331}}, {"id": 669322, "name": "Racovi\u0163a", "state": "", "country": "RO", "coord": {"lon": 24.316669, "lat": 45.416672}}, {"id": 669323, "name": "Racovi\u0163a", "state": "", "country": "RO", "coord": {"lon": 27.450001, "lat": 45.299999}}, {"id": 669326, "name": "Racovi\u021ba", "state": "", "country": "RO", "coord": {"lon": 24.950001, "lat": 44.966671}}, {"id": 669339, "name": "Racova", "state": "", "country": "RO", "coord": {"lon": 26.75, "lat": 46.700001}}, {"id": 669344, "name": "Raco\u0219ul de Sus", "state": "", "country": "RO", "coord": {"lon": 25.533331, "lat": 46.083328}}, {"id": 669348, "name": "R\u0103coasa", "state": "", "country": "RO", "coord": {"lon": 26.883329, "lat": 46}}, {"id": 669360, "name": "R\u0103chitova", "state": "", "country": "RO", "coord": {"lon": 22.75, "lat": 45.599998}}, {"id": 669364, "name": "R\u0103chitoasa", "state": "", "country": "RO", "coord": {"lon": 27.366671, "lat": 46.433331}}, {"id": 669371, "name": "R\u0103chi\u0163i", "state": "", "country": "RO", "coord": {"lon": 26.683331, "lat": 47.76667}}, {"id": 669398, "name": "R\u0103c\u0103\u015fdia", "state": "", "country": "RO", "coord": {"lon": 21.618059, "lat": 44.993061}}, {"id": 669405, "name": "R\u0103cari", "state": "", "country": "RO", "coord": {"lon": 25.73333, "lat": 44.633331}}, {"id": 669408, "name": "R\u0103c\u0103ciuni", "state": "", "country": "RO", "coord": {"lon": 26.98333, "lat": 46.333328}}, {"id": 669412, "name": "R\u0103b\u0103gani", "state": "", "country": "RO", "coord": {"lon": 22.23333, "lat": 46.75}}, {"id": 669436, "name": "Putna", "state": "", "country": "RO", "coord": {"lon": 25.616671, "lat": 47.866669}}, {"id": 669443, "name": "Putineiu", "state": "", "country": "RO", "coord": {"lon": 25.73333, "lat": 43.900002}}, {"id": 669444, "name": "Putineiu", "state": "", "country": "RO", "coord": {"lon": 24.966669, "lat": 43.900002}}, {"id": 669491, "name": "Punghina", "state": "", "country": "RO", "coord": {"lon": 22.934719, "lat": 44.28194}}, {"id": 669493, "name": "Punge\u015fti", "state": "", "country": "RO", "coord": {"lon": 27.33333, "lat": 46.700001}}, {"id": 669499, "name": "Puie\u015fti", "state": "", "country": "RO", "coord": {"lon": 27.5, "lat": 46.416672}}, {"id": 669501, "name": "Pui", "state": "", "country": "RO", "coord": {"lon": 23.1, "lat": 45.51667}}, {"id": 669504, "name": "Pufe\u015fti", "state": "", "country": "RO", "coord": {"lon": 27.200001, "lat": 46}}, {"id": 669517, "name": "Pucioasa", "state": "", "country": "RO", "coord": {"lon": 25.41667, "lat": 45.083328}}, {"id": 669522, "name": "Puchenii Mari", "state": "", "country": "RO", "coord": {"lon": 26.08333, "lat": 44.816669}}, {"id": 669525, "name": "Pucheni", "state": "", "country": "RO", "coord": {"lon": 25.283331, "lat": 45.183331}}, {"id": 669528, "name": "Pruni\u015for", "state": "", "country": "RO", "coord": {"lon": 22.915279, "lat": 44.60944}}, {"id": 669545, "name": "Prundu", "state": "", "country": "RO", "coord": {"lon": 26.22694, "lat": 44.094719}}, {"id": 669549, "name": "Prundeni", "state": "", "country": "RO", "coord": {"lon": 24.26667, "lat": 44.73333}}, {"id": 669554, "name": "Provi\u0163a de Sus", "state": "", "country": "RO", "coord": {"lon": 25.633329, "lat": 45.133331}}, {"id": 669556, "name": "Provi\u0163a de Jos", "state": "", "country": "RO", "coord": {"lon": 25.65, "lat": 45.116669}}, {"id": 669569, "name": "Progresul", "state": "", "country": "RO", "coord": {"lon": 26.4, "lat": 47.950001}}, {"id": 669574, "name": "Proieni", "state": "", "country": "RO", "coord": {"lon": 24.26667, "lat": 45.349998}}, {"id": 669576, "name": "Produle\u015fti", "state": "", "country": "RO", "coord": {"lon": 25.5, "lat": 44.700001}}, {"id": 669587, "name": "Probota", "state": "", "country": "RO", "coord": {"lon": 27.5, "lat": 47.383331}}, {"id": 669590, "name": "Pristol", "state": "", "country": "RO", "coord": {"lon": 22.709169, "lat": 44.22472}}, {"id": 669610, "name": "Priseaca", "state": "", "country": "RO", "coord": {"lon": 24.450001, "lat": 44.51667}}, {"id": 669618, "name": "Pris\u0103cani", "state": "", "country": "RO", "coord": {"lon": 27.883329, "lat": 47.083328}}, {"id": 669630, "name": "Pripone\u015fti", "state": "", "country": "RO", "coord": {"lon": 27.433331, "lat": 46.083328}}, {"id": 669643, "name": "Prigoria", "state": "", "country": "RO", "coord": {"lon": 23.683331, "lat": 45.066669}}, {"id": 669647, "name": "Prigor", "state": "", "country": "RO", "coord": {"lon": 22.113331, "lat": 44.938332}}, {"id": 669654, "name": "Priboieni", "state": "", "country": "RO", "coord": {"lon": 25.08333, "lat": 44.883331}}, {"id": 669665, "name": "Preute\u015fti", "state": "", "country": "RO", "coord": {"lon": 26.41667, "lat": 47.450001}}, {"id": 669672, "name": "Preo\u0163e\u015fti", "state": "", "country": "RO", "coord": {"lon": 26.08333, "lat": 44.616669}}, {"id": 669691, "name": "Prejmer", "state": "", "country": "RO", "coord": {"lon": 25.76667, "lat": 45.716671}}, {"id": 669698, "name": "Prede\u015fti", "state": "", "country": "RO", "coord": {"lon": 23.6, "lat": 44.349998}}, {"id": 669704, "name": "Predeal", "state": "", "country": "RO", "coord": {"lon": 25.566669, "lat": 45.5}}, {"id": 669730, "name": "Pr\u0103jeni", "state": "", "country": "RO", "coord": {"lon": 27.01667, "lat": 47.51667}}, {"id": 669735, "name": "Praid", "state": "", "country": "RO", "coord": {"lon": 25.133329, "lat": 46.549999}}, {"id": 669737, "name": "Prahova", "state": "", "country": "RO", "coord": {"lon": 26, "lat": 45.166672}}, {"id": 669753, "name": "Potlogi", "state": "", "country": "RO", "coord": {"lon": 25.58333, "lat": 44.549999}}, {"id": 669772, "name": "Potcoava", "state": "", "country": "RO", "coord": {"lon": 24.65, "lat": 44.48333}}, {"id": 669783, "name": "Po\u015fta C\u00e2ln\u0103u", "state": "", "country": "RO", "coord": {"lon": 26.85, "lat": 45.23333}}, {"id": 669800, "name": "Pose\u0219tii-Ungureni", "state": "", "country": "RO", "coord": {"lon": 26.133329, "lat": 45.26667}}, {"id": 669803, "name": "Po\u015faga de Sus", "state": "", "country": "RO", "coord": {"lon": 23.383329, "lat": 46.466671}}, {"id": 669818, "name": "Porumbacu de Jos", "state": "", "country": "RO", "coord": {"lon": 24.450001, "lat": 45.75}}, {"id": 669832, "name": "Poroschia", "state": "", "country": "RO", "coord": {"lon": 25.366671, "lat": 43.933331}}, {"id": 669836, "name": "Poroina Mare", "state": "", "country": "RO", "coord": {"lon": 22.93639, "lat": 44.495281}}, {"id": 669847, "name": "Popricani", "state": "", "country": "RO", "coord": {"lon": 27.51667, "lat": 47.299999}}, {"id": 669850, "name": "Poporogi", "state": "", "country": "RO", "coord": {"lon": 25.183331, "lat": 44.366669}}, {"id": 669855, "name": "Poplaca", "state": "", "country": "RO", "coord": {"lon": 24.049999, "lat": 45.716671}}, {"id": 669870, "name": "Pope\u015fti-Leordeni", "state": "", "country": "RO", "coord": {"lon": 26.16667, "lat": 44.383331}}, {"id": 669882, "name": "Pope\u015fti", "state": "", "country": "RO", "coord": {"lon": 22.41667, "lat": 47.23333}}, {"id": 669883, "name": "Pope\u015fti", "state": "", "country": "RO", "coord": {"lon": 27.23333, "lat": 47.150002}}, {"id": 669897, "name": "Pope\u015fti", "state": "", "country": "RO", "coord": {"lon": 24.1, "lat": 44.98333}}, {"id": 669904, "name": "Pope\u015fti", "state": "", "country": "RO", "coord": {"lon": 25.066669, "lat": 44.76667}}, {"id": 669940, "name": "Ponoarele", "state": "", "country": "RO", "coord": {"lon": 22.764441, "lat": 44.973888}}, {"id": 669947, "name": "Pom\u00e2rla", "state": "", "country": "RO", "coord": {"lon": 26.316669, "lat": 48.066669}}, {"id": 669950, "name": "Pomi", "state": "", "country": "RO", "coord": {"lon": 23.316669, "lat": 47.700001}}, {"id": 669952, "name": "Pomezeu", "state": "", "country": "RO", "coord": {"lon": 22.283331, "lat": 46.783329}}, {"id": 669955, "name": "Polovragi", "state": "", "country": "RO", "coord": {"lon": 23.799999, "lat": 45.183331}}, {"id": 669968, "name": "Pojor\u00e2ta", "state": "", "country": "RO", "coord": {"lon": 25.450001, "lat": 47.51667}}, {"id": 669980, "name": "Pojejena", "state": "", "country": "RO", "coord": {"lon": 21.57917, "lat": 44.77417}}, {"id": 669992, "name": "Poienile-Mogo\u015f", "state": "", "country": "RO", "coord": {"lon": 23.283331, "lat": 46.283329}}, {"id": 669993, "name": "Poienile Izei", "state": "", "country": "RO", "coord": {"lon": 24.116671, "lat": 47.700001}}, {"id": 669995, "name": "Poienile de sub Munte", "state": "", "country": "RO", "coord": {"lon": 24.433331, "lat": 47.816669}}, {"id": 669998, "name": "Poienile", "state": "", "country": "RO", "coord": {"lon": 27.183331, "lat": 46.933331}}, {"id": 670006, "name": "Poiene\u015fti", "state": "", "country": "RO", "coord": {"lon": 27.533331, "lat": 46.616669}}, {"id": 670008, "name": "Poienari", "state": "", "country": "RO", "coord": {"lon": 27.133329, "lat": 46.900002}}, {"id": 670015, "name": "Poiana Vadului", "state": "", "country": "RO", "coord": {"lon": 22.883329, "lat": 46.400002}}, {"id": 670021, "name": "Poiana Teiului", "state": "", "country": "RO", "coord": {"lon": 25.966669, "lat": 47.099998}}, {"id": 670028, "name": "Poiana Stampei", "state": "", "country": "RO", "coord": {"lon": 25.133329, "lat": 47.316669}}, {"id": 670033, "name": "Poiana Sibiului", "state": "", "country": "RO", "coord": {"lon": 23.73333, "lat": 45.799999}}, {"id": 670059, "name": "Poiana M\u0103rului (Bra\u0219ov)", "state": "", "country": "RO", "coord": {"lon": 25.299999, "lat": 45.599998}}, {"id": 670064, "name": "Poiana Mare", "state": "", "country": "RO", "coord": {"lon": 23.066669, "lat": 43.916672}}, {"id": 670075, "name": "Poiana Lacului", "state": "", "country": "RO", "coord": {"lon": 24.73333, "lat": 44.816669}}, {"id": 670092, "name": "Poiana Cristei", "state": "", "country": "RO", "coord": {"lon": 26.98333, "lat": 45.650002}}, {"id": 670093, "name": "Poiana Cr\u0103c\u0103oani", "state": "", "country": "RO", "coord": {"lon": 26.316669, "lat": 47.066669}}, {"id": 670098, "name": "Poiana C\u00e2mpina", "state": "", "country": "RO", "coord": {"lon": 25.683331, "lat": 45.133331}}, {"id": 670103, "name": "Poiana Blenchii", "state": "", "country": "RO", "coord": {"lon": 23.75, "lat": 47.299999}}, {"id": 670155, "name": "Poiana", "state": "", "country": "RO", "coord": {"lon": 25.683331, "lat": 44.566669}}, {"id": 670162, "name": "Poian", "state": "", "country": "RO", "coord": {"lon": 26.15, "lat": 46.066669}}, {"id": 670167, "name": "Pogoanele", "state": "", "country": "RO", "coord": {"lon": 27, "lat": 44.916672}}, {"id": 670178, "name": "Pogana", "state": "", "country": "RO", "coord": {"lon": 27.566669, "lat": 46.316669}}, {"id": 670180, "name": "Pog\u0103ceaua", "state": "", "country": "RO", "coord": {"lon": 24.299999, "lat": 46.683331}}, {"id": 670213, "name": "Poieni", "state": "", "country": "RO", "coord": {"lon": 22.9, "lat": 46.916672}}, {"id": 670222, "name": "Poeni", "state": "", "country": "RO", "coord": {"lon": 25.33333, "lat": 44.400002}}, {"id": 670232, "name": "Poienarii Burchii", "state": "", "country": "RO", "coord": {"lon": 26.01667, "lat": 44.75}}, {"id": 670244, "name": "Poienari", "state": "", "country": "RO", "coord": {"lon": 24.65, "lat": 45.316669}}, {"id": 670245, "name": "Poienari", "state": "", "country": "RO", "coord": {"lon": 25.049999, "lat": 45.216671}}, {"id": 670257, "name": "Podu Turcului", "state": "", "country": "RO", "coord": {"lon": 27.383329, "lat": 46.200001}}, {"id": 670273, "name": "Poduri", "state": "", "country": "RO", "coord": {"lon": 24.066669, "lat": 46.616669}}, {"id": 670274, "name": "Poduri", "state": "", "country": "RO", "coord": {"lon": 26.533331, "lat": 46.466671}}, {"id": 670297, "name": "Podu Iloaiei", "state": "", "country": "RO", "coord": {"lon": 27.26667, "lat": 47.216671}}, {"id": 670319, "name": "Podoleni", "state": "", "country": "RO", "coord": {"lon": 26.616671, "lat": 46.799999}}, {"id": 670330, "name": "Podgoria", "state": "", "country": "RO", "coord": {"lon": 27.01667, "lat": 45.416672}}, {"id": 670336, "name": "Podenii Noi", "state": "", "country": "RO", "coord": {"lon": 26.16667, "lat": 45.116669}}, {"id": 670347, "name": "Podeni", "state": "", "country": "RO", "coord": {"lon": 22.543329, "lat": 44.88139}}, {"id": 670353, "name": "Podari", "state": "", "country": "RO", "coord": {"lon": 23.783331, "lat": 44.25}}, {"id": 670360, "name": "Pocola", "state": "", "country": "RO", "coord": {"lon": 22.283331, "lat": 46.683331}}, {"id": 670372, "name": "Poboru", "state": "", "country": "RO", "coord": {"lon": 24.5, "lat": 44.666672}}, {"id": 670376, "name": "Poarta Alb\u0103", "state": "", "country": "RO", "coord": {"lon": 28.4, "lat": 44.216671}}, {"id": 670390, "name": "Plugari", "state": "", "country": "RO", "coord": {"lon": 27.1, "lat": 47.48333}}, {"id": 670409, "name": "Plosca", "state": "", "country": "RO", "coord": {"lon": 25.133329, "lat": 44.033329}}, {"id": 670425, "name": "Plopu", "state": "", "country": "RO", "coord": {"lon": 26.15, "lat": 45.01667}}, {"id": 670432, "name": "Plop\u015foru", "state": "", "country": "RO", "coord": {"lon": 23.35, "lat": 44.783329}}, {"id": 670443, "name": "Plopi\u015f", "state": "", "country": "RO", "coord": {"lon": 22.683331, "lat": 47.133331}}, {"id": 670446, "name": "Plopii Sl\u0103vi\u0163e\u015ft\u00ed", "state": "", "country": "RO", "coord": {"lon": 24.683331, "lat": 43.966671}}, {"id": 670467, "name": "Plopeni", "state": "", "country": "RO", "coord": {"lon": 25.98333, "lat": 45.066669}}, {"id": 670472, "name": "Plopana", "state": "", "country": "RO", "coord": {"lon": 27.216669, "lat": 46.683331}}, {"id": 670474, "name": "Ploie\u015fti", "state": "", "country": "RO", "coord": {"lon": 26.01667, "lat": 44.950001}}, {"id": 670494, "name": "Ple\u015foiu", "state": "", "country": "RO", "coord": {"lon": 24.26667, "lat": 44.466671}}, {"id": 670515, "name": "Ple\u015fcu\u0163a", "state": "", "country": "RO", "coord": {"lon": 22.433331, "lat": 46.299999}}, {"id": 670528, "name": "Pleni\u0163a", "state": "", "country": "RO", "coord": {"lon": 23.183331, "lat": 44.216671}}, {"id": 670552, "name": "Pl\u0103t\u0103re\u015fti", "state": "", "country": "RO", "coord": {"lon": 26.366671, "lat": 44.349998}}, {"id": 670609, "name": "Pite\u015fti", "state": "", "country": "RO", "coord": {"lon": 24.866671, "lat": 44.849998}}, {"id": 670623, "name": "Piscu Vechi", "state": "", "country": "RO", "coord": {"lon": 23.16667, "lat": 43.900002}}, {"id": 670649, "name": "Piscu", "state": "", "country": "RO", "coord": {"lon": 27.73333, "lat": 45.5}}, {"id": 670652, "name": "Pi\u015fcolt", "state": "", "country": "RO", "coord": {"lon": 22.299999, "lat": 47.583328}}, {"id": 670659, "name": "Pi\u015fchia", "state": "", "country": "RO", "coord": {"lon": 21.337219, "lat": 45.903061}}, {"id": 670686, "name": "P\u00e2rscov", "state": "", "country": "RO", "coord": {"lon": 26.549999, "lat": 45.283329}}, {"id": 670706, "name": "P\u00e2rjol", "state": "", "country": "RO", "coord": {"lon": 26.6, "lat": 46.583328}}, {"id": 670715, "name": "P\u00e2r\u00e2ul Rece", "state": "", "country": "RO", "coord": {"lon": 25.566669, "lat": 45.5}}, {"id": 670768, "name": "P\u00e2rg\u0103re\u015fti", "state": "", "country": "RO", "coord": {"lon": 26.65, "lat": 46.25}}, {"id": 670775, "name": "Pir", "state": "", "country": "RO", "coord": {"lon": 22.366671, "lat": 47.466671}}, {"id": 670777, "name": "Pipirig", "state": "", "country": "RO", "coord": {"lon": 26.066669, "lat": 47.25}}, {"id": 670778, "name": "Pipera", "state": "", "country": "RO", "coord": {"lon": 26.133329, "lat": 44.5}}, {"id": 670794, "name": "P\u00e2ncota", "state": "", "country": "RO", "coord": {"lon": 21.700001, "lat": 46.333328}}, {"id": 670801, "name": "Pilu", "state": "", "country": "RO", "coord": {"lon": 21.35, "lat": 46.566669}}, {"id": 670815, "name": "Pietro\u015fi\u0163a", "state": "", "country": "RO", "coord": {"lon": 25.433331, "lat": 45.183331}}, {"id": 670819, "name": "Pietro\u015fani", "state": "", "country": "RO", "coord": {"lon": 24.85, "lat": 45.183331}}, {"id": 670821, "name": "Pietro\u015fani", "state": "", "country": "RO", "coord": {"lon": 25.633329, "lat": 43.716671}}, {"id": 670826, "name": "Pietroasele", "state": "", "country": "RO", "coord": {"lon": 26.566669, "lat": 45.099998}}, {"id": 670832, "name": "Pietroasa", "state": "", "country": "RO", "coord": {"lon": 22.549999, "lat": 46.583328}}, {"id": 670834, "name": "Pietroasa", "state": "", "country": "RO", "coord": {"lon": 22.4, "lat": 45.833328}}, {"id": 670862, "name": "Pietrari", "state": "", "country": "RO", "coord": {"lon": 24.133329, "lat": 45.099998}}, {"id": 670869, "name": "Piele\u015ft\u00ed", "state": "", "country": "RO", "coord": {"lon": 23.950001, "lat": 44.333328}}, {"id": 670884, "name": "Piatra \u015eoimului", "state": "", "country": "RO", "coord": {"lon": 26.433331, "lat": 46.833328}}, {"id": 670888, "name": "Piatra Olt", "state": "", "country": "RO", "coord": {"lon": 24.26667, "lat": 44.366669}}, {"id": 670889, "name": "Piatra Neam\u0163", "state": "", "country": "RO", "coord": {"lon": 26.33333, "lat": 46.916672}}, {"id": 670923, "name": "Piatra", "state": "", "country": "RO", "coord": {"lon": 25.16667, "lat": 43.816669}}, {"id": 670925, "name": "Pianu de Sus", "state": "", "country": "RO", "coord": {"lon": 23.48333, "lat": 45.900002}}, {"id": 670934, "name": "Petrova", "state": "", "country": "RO", "coord": {"lon": 24.21533, "lat": 47.829811}}, {"id": 670938, "name": "Petro\u015fani", "state": "", "country": "RO", "coord": {"lon": 23.366671, "lat": 45.416672}}, {"id": 670942, "name": "Petroman", "state": "", "country": "RO", "coord": {"lon": 21.116671, "lat": 45.533329}}, {"id": 670959, "name": "Petri\u015f", "state": "", "country": "RO", "coord": {"lon": 22.383329, "lat": 46.049999}}, {"id": 670969, "name": "Petrila", "state": "", "country": "RO", "coord": {"lon": 23.41667, "lat": 45.450001}}, {"id": 670981, "name": "Petricani", "state": "", "country": "RO", "coord": {"lon": 26.466669, "lat": 47.166672}}, {"id": 670985, "name": "Petre\u015ftii de Jos", "state": "", "country": "RO", "coord": {"lon": 23.65, "lat": 46.583328}}, {"id": 670993, "name": "Petre\u015fti", "state": "", "country": "RO", "coord": {"lon": 22.366671, "lat": 47.599998}}, {"id": 671003, "name": "Petre\u015fti", "state": "", "country": "RO", "coord": {"lon": 25.33333, "lat": 44.650002}}, {"id": 671015, "name": "Petr\u0103chioaia", "state": "", "country": "RO", "coord": {"lon": 26.299999, "lat": 44.583328}}, {"id": 671034, "name": "Petelea", "state": "", "country": "RO", "coord": {"lon": 24.706539, "lat": 46.72892}}, {"id": 671049, "name": "Pe\u015fti\u015fu Mic", "state": "", "country": "RO", "coord": {"lon": 22.883329, "lat": 45.799999}}, {"id": 671053, "name": "Pe\u015fti\u015fani", "state": "", "country": "RO", "coord": {"lon": 23.033331, "lat": 45.066669}}, {"id": 671067, "name": "Pe\u015ftera", "state": "", "country": "RO", "coord": {"lon": 28.133329, "lat": 44.183331}}, {"id": 671080, "name": "Pesceana", "state": "", "country": "RO", "coord": {"lon": 24.15, "lat": 44.883331}}, {"id": 671110, "name": "Peri\u015foru", "state": "", "country": "RO", "coord": {"lon": 27.549999, "lat": 44.450001}}, {"id": 671116, "name": "Peri\u015fani", "state": "", "country": "RO", "coord": {"lon": 24.4, "lat": 45.383331}}, {"id": 671118, "name": "Peri\u015f", "state": "", "country": "RO", "coord": {"lon": 26.013889, "lat": 44.684719}}, {"id": 671128, "name": "Perie\u0163i", "state": "", "country": "RO", "coord": {"lon": 27.216669, "lat": 44.549999}}, {"id": 671129, "name": "Perie\u0163i", "state": "", "country": "RO", "coord": {"lon": 24.549999, "lat": 44.400002}}, {"id": 671132, "name": "Perieni", "state": "", "country": "RO", "coord": {"lon": 27.616671, "lat": 46.299999}}, {"id": 671136, "name": "Pericei", "state": "", "country": "RO", "coord": {"lon": 22.883329, "lat": 47.23333}}, {"id": 671138, "name": "Periam", "state": "", "country": "RO", "coord": {"lon": 20.866671, "lat": 46.049999}}, {"id": 671145, "name": "Peretu", "state": "", "country": "RO", "coord": {"lon": 25.08333, "lat": 44.049999}}, {"id": 671151, "name": "Peregu Mare", "state": "", "country": "RO", "coord": {"lon": 20.9, "lat": 46.23333}}, {"id": 671182, "name": "Peciu Nou", "state": "", "country": "RO", "coord": {"lon": 21.057779, "lat": 45.606392}}, {"id": 671184, "name": "Pecineaga", "state": "", "country": "RO", "coord": {"lon": 28.5, "lat": 43.900002}}, {"id": 671187, "name": "Pechea", "state": "", "country": "RO", "coord": {"lon": 27.799999, "lat": 45.633331}}, {"id": 671191, "name": "Peceneaga", "state": "", "country": "RO", "coord": {"lon": 28.133329, "lat": 45.01667}}, {"id": 671196, "name": "Pausesti", "state": "", "country": "RO", "coord": {"lon": 24.133329, "lat": 45.066669}}, {"id": 671200, "name": "P\u0103u\u015fe\u015fti-M\u0103gla\u015fi", "state": "", "country": "RO", "coord": {"lon": 24.25, "lat": 45.133331}}, {"id": 671209, "name": "P\u0103une\u015fti", "state": "", "country": "RO", "coord": {"lon": 27.1, "lat": 46.033329}}, {"id": 671218, "name": "P\u0103uli\u015f", "state": "", "country": "RO", "coord": {"lon": 21.58333, "lat": 46.116669}}, {"id": 671224, "name": "P\u0103ule\u015fti", "state": "", "country": "RO", "coord": {"lon": 22.91667, "lat": 47.783329}}, {"id": 671228, "name": "P\u0103ule\u015fti", "state": "", "country": "RO", "coord": {"lon": 25.98333, "lat": 45}}, {"id": 671229, "name": "P\u0103uleni-Ciuc", "state": "", "country": "RO", "coord": {"lon": 25.83333, "lat": 46.400002}}, {"id": 671243, "name": "P\u0103uca", "state": "", "country": "RO", "coord": {"lon": 23.9, "lat": 46.01667}}, {"id": 671248, "name": "P\u0103tulele", "state": "", "country": "RO", "coord": {"lon": 22.772779, "lat": 44.34528}}, {"id": 671263, "name": "P\u0103tr\u0103u\u0163i", "state": "", "country": "RO", "coord": {"lon": 26.200001, "lat": 47.716671}}, {"id": 671281, "name": "P\u0103str\u0103veni", "state": "", "country": "RO", "coord": {"lon": 26.566669, "lat": 47.166672}}, {"id": 671300, "name": "P\u0103s\u0103reni", "state": "", "country": "RO", "coord": {"lon": 24.700001, "lat": 46.48333}}, {"id": 671311, "name": "Parva", "state": "", "country": "RO", "coord": {"lon": 24.549999, "lat": 47.400002}}, {"id": 671319, "name": "P\u0103rte\u015ftii de Jos", "state": "", "country": "RO", "coord": {"lon": 25.966669, "lat": 47.633331}}, {"id": 671337, "name": "Parincea", "state": "", "country": "RO", "coord": {"lon": 27.1, "lat": 46.48333}}, {"id": 671352, "name": "Parava", "state": "", "country": "RO", "coord": {"lon": 27, "lat": 46.299999}}, {"id": 671374, "name": "Panticeu", "state": "", "country": "RO", "coord": {"lon": 23.566669, "lat": 47.033329}}, {"id": 671376, "name": "Pantelimon de Jos", "state": "", "country": "RO", "coord": {"lon": 28.383329, "lat": 44.566669}}, {"id": 671382, "name": "Pantelimon", "state": "", "country": "RO", "coord": {"lon": 26.200001, "lat": 44.450001}}, {"id": 671390, "name": "P\u0103net", "state": "", "country": "RO", "coord": {"lon": 24.46973, "lat": 46.555141}}, {"id": 671398, "name": "Panciu", "state": "", "country": "RO", "coord": {"lon": 27.08333, "lat": 45.900002}}, {"id": 671402, "name": "P\u0103nce\u015fti", "state": "", "country": "RO", "coord": {"lon": 27.08333, "lat": 46.333328}}, {"id": 671413, "name": "Panaci", "state": "", "country": "RO", "coord": {"lon": 25.383329, "lat": 47.26667}}, {"id": 671418, "name": "P\u0103ltinoasa", "state": "", "country": "RO", "coord": {"lon": 25.950001, "lat": 47.549999}}, {"id": 671427, "name": "P\u0103ltini\u015f", "state": "", "country": "RO", "coord": {"lon": 26.65, "lat": 48.216671}}, {"id": 671435, "name": "P\u0103ltini\u015f", "state": "", "country": "RO", "coord": {"lon": 22.15, "lat": 45.433331}}, {"id": 671443, "name": "Paltin", "state": "", "country": "RO", "coord": {"lon": 26.716669, "lat": 45.783329}}, {"id": 671460, "name": "P\u0103latca", "state": "", "country": "RO", "coord": {"lon": 23.98333, "lat": 46.849998}}, {"id": 671471, "name": "Palanca", "state": "", "country": "RO", "coord": {"lon": 26.116671, "lat": 46.533329}}, {"id": 671550, "name": "Padina Mic\u0103", "state": "", "country": "RO", "coord": {"lon": 22.9925, "lat": 44.427219}}, {"id": 671556, "name": "Padina", "state": "", "country": "RO", "coord": {"lon": 27.116671, "lat": 44.833328}}, {"id": 671559, "name": "Pade\u015f", "state": "", "country": "RO", "coord": {"lon": 22.85, "lat": 45.01667}}, {"id": 671565, "name": "P\u0103curi", "state": "", "country": "RO", "coord": {"lon": 25.73333, "lat": 45.133331}}, {"id": 671568, "name": "P\u0103cure\u0163i", "state": "", "country": "RO", "coord": {"lon": 26.133329, "lat": 45.150002}}, {"id": 671580, "name": "Ozun", "state": "", "country": "RO", "coord": {"lon": 25.85, "lat": 45.799999}}, {"id": 671584, "name": "Ovidiu", "state": "", "country": "RO", "coord": {"lon": 28.566669, "lat": 44.26667}}, {"id": 671586, "name": "Oveselu", "state": "", "country": "RO", "coord": {"lon": 24.01667, "lat": 44.75}}, {"id": 671590, "name": "Otopeni", "state": "", "country": "RO", "coord": {"lon": 26.066669, "lat": 44.549999}}, {"id": 671600, "name": "Ote\u015fani", "state": "", "country": "RO", "coord": {"lon": 24.033331, "lat": 45.066669}}, {"id": 671603, "name": "O\u0163elu Ro\u015fu", "state": "", "country": "RO", "coord": {"lon": 22.366671, "lat": 45.533329}}, {"id": 671607, "name": "O\u0163eleni", "state": "", "country": "RO", "coord": {"lon": 27.033331, "lat": 47.083328}}, {"id": 671620, "name": "Ostrovu Azacl\u0103u", "state": "", "country": "RO", "coord": {"lon": 28.049999, "lat": 45.450001}}, {"id": 671626, "name": "Ostroveni", "state": "", "country": "RO", "coord": {"lon": 23.9, "lat": 43.799999}}, {"id": 671634, "name": "Ostrov", "state": "", "country": "RO", "coord": {"lon": 28.15, "lat": 44.933331}}, {"id": 671636, "name": "Ostrov", "state": "", "country": "RO", "coord": {"lon": 27.366671, "lat": 44.116669}}, {"id": 671641, "name": "Ostra", "state": "", "country": "RO", "coord": {"lon": 25.76667, "lat": 47.400002}}, {"id": 671644, "name": "O\u0219orhei", "state": "", "country": "RO", "coord": {"lon": 22.049999, "lat": 47.033329}}, {"id": 671657, "name": "Osica de Sus", "state": "", "country": "RO", "coord": {"lon": 24.316669, "lat": 44.25}}, {"id": 671661, "name": "O\u015fe\u015fti", "state": "", "country": "RO", "coord": {"lon": 27.466669, "lat": 46.76667}}, {"id": 671676, "name": "Or\u0163i\u015foara", "state": "", "country": "RO", "coord": {"lon": 21.19833, "lat": 45.963612}}, {"id": 671681, "name": "Or\u015fova", "state": "", "country": "RO", "coord": {"lon": 22.396111, "lat": 44.725281}}, {"id": 671691, "name": "Orodel", "state": "", "country": "RO", "coord": {"lon": 23.23333, "lat": 44.23333}}, {"id": 671699, "name": "Ormeni\u015f", "state": "", "country": "RO", "coord": {"lon": 25.549999, "lat": 46.01667}}, {"id": 671705, "name": "Orle\u015fti", "state": "", "country": "RO", "coord": {"lon": 24.216669, "lat": 44.799999}}, {"id": 671709, "name": "Orlea", "state": "", "country": "RO", "coord": {"lon": 24.383329, "lat": 43.75}}, {"id": 671711, "name": "Orlat", "state": "", "country": "RO", "coord": {"lon": 23.966669, "lat": 45.75}}, {"id": 671737, "name": "Orbeni", "state": "", "country": "RO", "coord": {"lon": 27.01667, "lat": 46.283329}}, {"id": 671738, "name": "Orbeasca de Sus", "state": "", "country": "RO", "coord": {"lon": 25.316669, "lat": 44.150002}}, {"id": 671746, "name": "Oravi\u0163a", "state": "", "country": "RO", "coord": {"lon": 21.68944, "lat": 45.032501}}, {"id": 671751, "name": "Ora\u015fu Nou", "state": "", "country": "RO", "coord": {"lon": 23.283331, "lat": 47.833328}}, {"id": 671753, "name": "Or\u0103\u015ftioara de Sus", "state": "", "country": "RO", "coord": {"lon": 23.16667, "lat": 45.73333}}, {"id": 671757, "name": "Or\u0103\u015ftie", "state": "", "country": "RO", "coord": {"lon": 23.200001, "lat": 45.833328}}, {"id": 671758, "name": "Or\u0103\u0219ti", "state": "", "country": "RO", "coord": {"lon": 23.41667, "lat": 46.433331}}, {"id": 671768, "name": "Oradea", "state": "", "country": "RO", "coord": {"lon": 21.933331, "lat": 47.066669}}, {"id": 671771, "name": "Opta\u015fi", "state": "", "country": "RO", "coord": {"lon": 24.65, "lat": 44.583328}}, {"id": 671776, "name": "Opri\u015for", "state": "", "country": "RO", "coord": {"lon": 23.08333, "lat": 44.283329}}, {"id": 671790, "name": "Oporelu", "state": "", "country": "RO", "coord": {"lon": 24.41667, "lat": 44.599998}}, {"id": 671800, "name": "Oniceni", "state": "", "country": "RO", "coord": {"lon": 27.15, "lat": 46.816669}}, {"id": 671812, "name": "Once\u015fti", "state": "", "country": "RO", "coord": {"lon": 27.25, "lat": 46.466671}}, {"id": 671824, "name": "Oltina", "state": "", "country": "RO", "coord": {"lon": 27.66667, "lat": 44.166672}}, {"id": 671832, "name": "Olteni\u0163a", "state": "", "country": "RO", "coord": {"lon": 26.633329, "lat": 44.083328}}, {"id": 671846, "name": "Olteni", "state": "", "country": "RO", "coord": {"lon": 25.283331, "lat": 44.183331}}, {"id": 671849, "name": "Oltene\u015fti", "state": "", "country": "RO", "coord": {"lon": 27.9, "lat": 46.583328}}, {"id": 671857, "name": "Olt", "state": "", "country": "RO", "coord": {"lon": 24.5, "lat": 44.333328}}, {"id": 671869, "name": "Olcea", "state": "", "country": "RO", "coord": {"lon": 21.98333, "lat": 46.683331}}, {"id": 671873, "name": "Olari", "state": "", "country": "RO", "coord": {"lon": 21.549999, "lat": 46.383331}}, {"id": 671884, "name": "Olanu", "state": "", "country": "RO", "coord": {"lon": 24.299999, "lat": 44.866669}}, {"id": 671890, "name": "Ojdula", "state": "", "country": "RO", "coord": {"lon": 26.25, "lat": 45.98333}}, {"id": 671896, "name": "Oituz", "state": "", "country": "RO", "coord": {"lon": 26.616671, "lat": 46.200001}}, {"id": 671902, "name": "Oinacu", "state": "", "country": "RO", "coord": {"lon": 26.01667, "lat": 43.950001}}, {"id": 671933, "name": "Ogrezeni", "state": "", "country": "RO", "coord": {"lon": 25.76833, "lat": 44.41972}}, {"id": 671948, "name": "Ogra", "state": "", "country": "RO", "coord": {"lon": 24.316669, "lat": 46.433331}}, {"id": 671963, "name": "Odrihei", "state": "", "country": "RO", "coord": {"lon": 24.566669, "lat": 46.400002}}, {"id": 671964, "name": "Odorheiu Secuiesc", "state": "", "country": "RO", "coord": {"lon": 25.299999, "lat": 46.299999}}, {"id": 671966, "name": "Odoreu", "state": "", "country": "RO", "coord": {"lon": 23, "lat": 47.799999}}, {"id": 671974, "name": "Odobe\u015fti", "state": "", "country": "RO", "coord": {"lon": 27.049999, "lat": 45.76667}}, {"id": 671975, "name": "Odobe\u015fti", "state": "", "country": "RO", "coord": {"lon": 25.566669, "lat": 44.616669}}, {"id": 671983, "name": "Od\u0103ile", "state": "", "country": "RO", "coord": {"lon": 26.549999, "lat": 45.383331}}, {"id": 671986, "name": "Od\u0103ile", "state": "", "country": "RO", "coord": {"lon": 26.049999, "lat": 44.533329}}, {"id": 672016, "name": "Ocni\u0163a", "state": "", "country": "RO", "coord": {"lon": 25.549999, "lat": 44.98333}}, {"id": 672019, "name": "Ocnele Mari", "state": "", "country": "RO", "coord": {"lon": 24.316669, "lat": 45.083328}}, {"id": 672021, "name": "Ocna \u015eugatag", "state": "", "country": "RO", "coord": {"lon": 23.933331, "lat": 47.783329}}, {"id": 672023, "name": "Ocna Sibiului", "state": "", "country": "RO", "coord": {"lon": 24.049999, "lat": 45.883331}}, {"id": 672024, "name": "Ocna Mure\u015f", "state": "", "country": "RO", "coord": {"lon": 23.85, "lat": 46.383331}}, {"id": 672031, "name": "Ocland", "state": "", "country": "RO", "coord": {"lon": 25.41667, "lat": 46.166672}}, {"id": 672050, "name": "Obreja", "state": "", "country": "RO", "coord": {"lon": 22.25, "lat": 45.48333}}, {"id": 672060, "name": "Oboga", "state": "", "country": "RO", "coord": {"lon": 24.1, "lat": 44.416672}}, {"id": 672073, "name": "Ob\u00e2r\u0219ia de C\u00e2mp", "state": "", "country": "RO", "coord": {"lon": 22.98, "lat": 44.172218}}, {"id": 672084, "name": "Ob\u00e2r\u015fia", "state": "", "country": "RO", "coord": {"lon": 24.33333, "lat": 43.883331}}, {"id": 672105, "name": "Oar\u0163a de Jos", "state": "", "country": "RO", "coord": {"lon": 23.133329, "lat": 47.450001}}, {"id": 672108, "name": "Oarja Sat", "state": "", "country": "RO", "coord": {"lon": 24.971411, "lat": 44.76429}}, {"id": 672110, "name": "Oarda", "state": "", "country": "RO", "coord": {"lon": 23.566669, "lat": 46.033329}}, {"id": 672118, "name": "Oancea", "state": "", "country": "RO", "coord": {"lon": 28.1, "lat": 45.916672}}, {"id": 672123, "name": "Nu\u015ffal\u0103u", "state": "", "country": "RO", "coord": {"lon": 22.73333, "lat": 47.200001}}, {"id": 672125, "name": "Nu\u015feni", "state": "", "country": "RO", "coord": {"lon": 24.200001, "lat": 47.099998}}, {"id": 672128, "name": "Nuf\u0103ru", "state": "", "country": "RO", "coord": {"lon": 28.91667, "lat": 45.150002}}, {"id": 672134, "name": "Nuc\u015foara", "state": "", "country": "RO", "coord": {"lon": 24.783331, "lat": 45.333328}}, {"id": 672135, "name": "Nuci", "state": "", "country": "RO", "coord": {"lon": 26.299999, "lat": 44.716671}}, {"id": 672142, "name": "Nucet", "state": "", "country": "RO", "coord": {"lon": 22.58333, "lat": 46.466671}}, {"id": 672146, "name": "Nucet", "state": "", "country": "RO", "coord": {"lon": 25.549999, "lat": 44.783329}}, {"id": 672151, "name": "Novaci", "state": "", "country": "RO", "coord": {"lon": 23.66667, "lat": 45.183331}}, {"id": 672167, "name": "No\u015flac", "state": "", "country": "RO", "coord": {"lon": 23.933331, "lat": 46.400002}}, {"id": 672171, "name": "Nojorid", "state": "", "country": "RO", "coord": {"lon": 21.883329, "lat": 46.98333}}, {"id": 672176, "name": "Nocrich", "state": "", "country": "RO", "coord": {"lon": 24.450001, "lat": 45.900002}}, {"id": 672185, "name": "Ni\u0163chidorf", "state": "", "country": "RO", "coord": {"lon": 21.533331, "lat": 45.583328}}, {"id": 672192, "name": "Nistore\u015fti", "state": "", "country": "RO", "coord": {"lon": 26.73333, "lat": 45.833328}}, {"id": 672216, "name": "Nimigea de Sus", "state": "", "country": "RO", "coord": {"lon": 24.316669, "lat": 47.283329}}, {"id": 672229, "name": "Niculi\u0163el", "state": "", "country": "RO", "coord": {"lon": 28.48333, "lat": 45.183331}}, {"id": 672240, "name": "Nic\u015feni", "state": "", "country": "RO", "coord": {"lon": 26.633329, "lat": 47.866669}}, {"id": 672246, "name": "Nicore\u015fti", "state": "", "country": "RO", "coord": {"lon": 27.308661, "lat": 45.932232}}, {"id": 672263, "name": "Nicolae Titulescu", "state": "", "country": "RO", "coord": {"lon": 24.799999, "lat": 44.299999}}, {"id": 672275, "name": "Nicolae B\u0103lcescu", "state": "", "country": "RO", "coord": {"lon": 26.91667, "lat": 46.466671}}, {"id": 672279, "name": "Nicolae B\u0103lcescu", "state": "", "country": "RO", "coord": {"lon": 26.76667, "lat": 44.450001}}, {"id": 672280, "name": "Nicolae B\u0103lcescu", "state": "", "country": "RO", "coord": {"lon": 28.383329, "lat": 44.383331}}, {"id": 672301, "name": "Nereju", "state": "", "country": "RO", "coord": {"lon": 26.716669, "lat": 45.716671}}, {"id": 672331, "name": "Nehoiu", "state": "", "country": "RO", "coord": {"lon": 26.299999, "lat": 45.416672}}, {"id": 672343, "name": "Negru Vod\u0103", "state": "", "country": "RO", "coord": {"lon": 28.200001, "lat": 43.816669}}, {"id": 672364, "name": "Negri", "state": "", "country": "RO", "coord": {"lon": 26.966669, "lat": 46.700001}}, {"id": 672365, "name": "Negre\u015fti-Oa\u015f", "state": "", "country": "RO", "coord": {"lon": 23.433331, "lat": 47.866669}}, {"id": 672375, "name": "Negre\u015fti", "state": "", "country": "RO", "coord": {"lon": 27.433331, "lat": 46.833328}}, {"id": 672406, "name": "Negra\u015fi", "state": "", "country": "RO", "coord": {"lon": 25.116671, "lat": 44.599998}}, {"id": 672414, "name": "Negomir", "state": "", "country": "RO", "coord": {"lon": 23.16667, "lat": 44.833328}}, {"id": 672449, "name": "Nec\u015fe\u015fti", "state": "", "country": "RO", "coord": {"lon": 25.15, "lat": 44.25}}, {"id": 672456, "name": "Neaua", "state": "", "country": "RO", "coord": {"lon": 24.83333, "lat": 46.48333}}, {"id": 672460, "name": "Neam\u0163", "state": "", "country": "RO", "coord": {"lon": 26.5, "lat": 47}}, {"id": 672486, "name": "N\u0103vodari", "state": "", "country": "RO", "coord": {"lon": 28.6, "lat": 44.316669}}, {"id": 672492, "name": "N\u0103sturelu", "state": "", "country": "RO", "coord": {"lon": 25.466669, "lat": 43.666672}}, {"id": 672497, "name": "N\u0103s\u0103ud", "state": "", "country": "RO", "coord": {"lon": 24.4, "lat": 47.283329}}, {"id": 672502, "name": "N\u0103ruja", "state": "", "country": "RO", "coord": {"lon": 26.783331, "lat": 45.833328}}, {"id": 672507, "name": "N\u0103pradea", "state": "", "country": "RO", "coord": {"lon": 23.316669, "lat": 47.366669}}, {"id": 672512, "name": "Nanov", "state": "", "country": "RO", "coord": {"lon": 25.299999, "lat": 44}}, {"id": 672518, "name": "N\u0103ne\u015fti", "state": "", "country": "RO", "coord": {"lon": 27.5, "lat": 45.549999}}, {"id": 672523, "name": "Nana", "state": "", "country": "RO", "coord": {"lon": 26.58333, "lat": 44.26667}}, {"id": 672525, "name": "N\u0103moloasa-Sat", "state": "", "country": "RO", "coord": {"lon": 27.58333, "lat": 45.533329}}, {"id": 672532, "name": "Nalbant", "state": "", "country": "RO", "coord": {"lon": 28.616671, "lat": 45.049999}}, {"id": 672540, "name": "N\u0103eni", "state": "", "country": "RO", "coord": {"lon": 26.48333, "lat": 45.099998}}, {"id": 672544, "name": "N\u0103drag", "state": "", "country": "RO", "coord": {"lon": 22.183331, "lat": 45.650002}}, {"id": 672546, "name": "N\u0103dlac", "state": "", "country": "RO", "coord": {"lon": 20.75, "lat": 46.166672}}, {"id": 672551, "name": "Nade\u015f", "state": "", "country": "RO", "coord": {"lon": 24.73333, "lat": 46.316669}}, {"id": 672581, "name": "Mu\u0219\u0103te\u0219ti", "state": "", "country": "RO", "coord": {"lon": 24.783331, "lat": 45.216671}}, {"id": 672582, "name": "Mu\u015fete\u015fti", "state": "", "country": "RO", "coord": {"lon": 23.466669, "lat": 45.150002}}, {"id": 672583, "name": "Mu\u015feni\u0163a", "state": "", "country": "RO", "coord": {"lon": 26, "lat": 47.966671}}, {"id": 672602, "name": "Murighiol", "state": "", "country": "RO", "coord": {"lon": 29.16667, "lat": 45.033329}}, {"id": 672609, "name": "Murge\u015fti", "state": "", "country": "RO", "coord": {"lon": 26.883329, "lat": 45.400002}},