[{"id": 6360602, "name": "Villarmuerto", "state": "", "country": "ES", "coord": {"lon": -6.35008, "lat": 41.06522}}, {"id": 6360603, "name": "Villasbuenas", "state": "", "country": "ES", "coord": {"lon": -6.58791, "lat": 41.032509}}, {"id": 6360604, "name": "Villasdardo", "state": "", "country": "ES", "coord": {"lon": -6.16674, "lat": 41.006088}}, {"id": 6360605, "name": "Villaseco de los Gamitos", "state": "", "country": "ES", "coord": {"lon": -6.10319, "lat": 41.038471}}, {"id": 6360606, "name": "Villaseco de los Reyes", "state": "", "country": "ES", "coord": {"lon": -6.14574, "lat": 41.141079}}, {"id": 6360607, "name": "Villasrubias", "state": "", "country": "ES", "coord": {"lon": -6.62058, "lat": 40.324619}}, {"id": 6360608, "name": "Villaverde de Guare\u00f1a", "state": "", "country": "ES", "coord": {"lon": -5.50544, "lat": 41.07217}}, {"id": 6360609, "name": "Villavieja de Yeltes", "state": "", "country": "ES", "coord": {"lon": -6.45564, "lat": 40.865742}}, {"id": 6360610, "name": "Villoria", "state": "", "country": "ES", "coord": {"lon": -5.35911, "lat": 40.99033}}, {"id": 6360611, "name": "Villoruela", "state": "", "country": "ES", "coord": {"lon": -5.39386, "lat": 41.009708}}, {"id": 6360612, "name": "Vitigudino", "state": "", "country": "ES", "coord": {"lon": -6.41966, "lat": 41.012909}}, {"id": 6360613, "name": "Yecla de Yeltes", "state": "", "country": "ES", "coord": {"lon": -6.48063, "lat": 40.946781}}, {"id": 6360614, "name": "Zamarra", "state": "", "country": "ES", "coord": {"lon": -6.44121, "lat": 40.500599}}, {"id": 6360615, "name": "Zamay\u00f3n", "state": "", "country": "ES", "coord": {"lon": -5.82775, "lat": 41.160412}}, {"id": 6360616, "name": "Zarapicos", "state": "", "country": "ES", "coord": {"lon": -5.83848, "lat": 41.037521}}, {"id": 6360618, "name": "Zorita de la Frontera", "state": "", "country": "ES", "coord": {"lon": -5.20495, "lat": 41.014679}}, {"id": 6360619, "name": "Adeje", "state": "", "country": "ES", "coord": {"lon": -16.74332, "lat": 28.126329}}, {"id": 6360620, "name": "Arafo", "state": "", "country": "ES", "coord": {"lon": -16.39889, "lat": 28.346291}}, {"id": 6360621, "name": "Arico", "state": "", "country": "ES", "coord": {"lon": -16.481939, "lat": 28.166309}}, {"id": 6360622, "name": "Arona", "state": "", "country": "ES", "coord": {"lon": -16.690451, "lat": 28.037661}}, {"id": 6360623, "name": "Buenavista del Norte", "state": "", "country": "ES", "coord": {"lon": -16.872181, "lat": 28.34236}}, {"id": 6360624, "name": "Candelaria", "state": "", "country": "ES", "coord": {"lon": -16.384251, "lat": 28.35808}}, {"id": 6360625, "name": "Fasnia", "state": "", "country": "ES", "coord": {"lon": -16.44211, "lat": 28.231911}}, {"id": 6360626, "name": "Garachico", "state": "", "country": "ES", "coord": {"lon": -16.761169, "lat": 28.36051}}, {"id": 6360627, "name": "Granadilla de Abona", "state": "", "country": "ES", "coord": {"lon": -16.55765, "lat": 28.10211}}, {"id": 6360628, "name": "La Guancha", "state": "", "country": "ES", "coord": {"lon": -16.660351, "lat": 28.378889}}, {"id": 6360629, "name": "Gu\u00eda de Isora", "state": "", "country": "ES", "coord": {"lon": -16.796499, "lat": 28.190689}}, {"id": 6360630, "name": "G\u00fc\u00edmar", "state": "", "country": "ES", "coord": {"lon": -16.408291, "lat": 28.27371}}, {"id": 6360631, "name": "Icod de los Vinos", "state": "", "country": "ES", "coord": {"lon": -16.699921, "lat": 28.367041}}, {"id": 6360632, "name": "La Matanza de Acentejo", "state": "", "country": "ES", "coord": {"lon": -16.449739, "lat": 28.44512}}, {"id": 6360633, "name": "Orotava, La", "state": "", "country": "ES", "coord": {"lon": -16.547621, "lat": 28.319321}}, {"id": 6360634, "name": "Puerto de la Cruz", "state": "", "country": "ES", "coord": {"lon": -16.54623, "lat": 28.41046}}, {"id": 6360635, "name": "Realejos, Los", "state": "", "country": "ES", "coord": {"lon": -16.59104, "lat": 28.381981}}, {"id": 6360637, "name": "San Miguel de Abona", "state": "", "country": "ES", "coord": {"lon": -16.617849, "lat": 28.09712}}, {"id": 6360638, "name": "Santa Cruz de Tenerife", "state": "", "country": "ES", "coord": {"lon": -16.20302, "lat": 28.53924}}, {"id": 6360639, "name": "Santa \u00darsula", "state": "", "country": "ES", "coord": {"lon": -16.481701, "lat": 28.4153}}, {"id": 6360640, "name": "Santiago del Teide", "state": "", "country": "ES", "coord": {"lon": -16.823351, "lat": 28.263479}}, {"id": 6360641, "name": "Sauzal, El", "state": "", "country": "ES", "coord": {"lon": -16.434629, "lat": 28.461321}}, {"id": 6360642, "name": "Silos, Los", "state": "", "country": "ES", "coord": {"lon": -16.812941, "lat": 28.358431}}, {"id": 6360643, "name": "Tacoronte", "state": "", "country": "ES", "coord": {"lon": -16.41292, "lat": 28.493839}}, {"id": 6360644, "name": "Tanque, El", "state": "", "country": "ES", "coord": {"lon": -16.780531, "lat": 28.339161}}, {"id": 6360645, "name": "Tegueste", "state": "", "country": "ES", "coord": {"lon": -16.33782, "lat": 28.515369}}, {"id": 6360646, "name": "Victoria de Acentejo, La", "state": "", "country": "ES", "coord": {"lon": -16.455721, "lat": 28.42288}}, {"id": 6360647, "name": "Vilaflor", "state": "", "country": "ES", "coord": {"lon": -16.64002, "lat": 28.155991}}, {"id": 6360648, "name": "Alfoz de Lloredo", "state": "", "country": "ES", "coord": {"lon": -4.17346, "lat": 43.390678}}, {"id": 6360649, "name": "Ampuero", "state": "", "country": "ES", "coord": {"lon": -3.43059, "lat": 43.322239}}, {"id": 6360651, "name": "Arenas de Igu\u00f1a", "state": "", "country": "ES", "coord": {"lon": -4.08769, "lat": 43.180241}}, {"id": 6360652, "name": "Argo\u00f1os", "state": "", "country": "ES", "coord": {"lon": -3.49307, "lat": 43.457329}}, {"id": 6360653, "name": "Arnuero", "state": "", "country": "ES", "coord": {"lon": -3.55729, "lat": 43.49308}}, {"id": 6360654, "name": "Arredondo", "state": "", "country": "ES", "coord": {"lon": -3.63949, "lat": 43.26659}}, {"id": 6360655, "name": "El Astillero", "state": "", "country": "ES", "coord": {"lon": -3.82751, "lat": 43.402512}}, {"id": 6360656, "name": "B\u00e1rcena de Cicero", "state": "", "country": "ES", "coord": {"lon": -3.48577, "lat": 43.405472}}, {"id": 6360657, "name": "B\u00e1rcena de Pie de Concha", "state": "", "country": "ES", "coord": {"lon": -4.0616, "lat": 43.11578}}, {"id": 6360658, "name": "Bareyo", "state": "", "country": "ES", "coord": {"lon": -3.61178, "lat": 43.491821}}, {"id": 6360659, "name": "Cabez\u00f3n de la Sal", "state": "", "country": "ES", "coord": {"lon": -4.23016, "lat": 43.308941}}, {"id": 6360660, "name": "Cabez\u00f3n de Li\u00e9bana", "state": "", "country": "ES", "coord": {"lon": -4.53294, "lat": 43.129822}}, {"id": 6360661, "name": "Cabu\u00e9rniga", "state": "", "country": "ES", "coord": {"lon": -4.29452, "lat": 43.214828}}, {"id": 6360662, "name": "Camale\u00f1o", "state": "", "country": "ES", "coord": {"lon": -4.74539, "lat": 43.162121}}, {"id": 6360663, "name": "Camargo", "state": "", "country": "ES", "coord": {"lon": -3.85983, "lat": 43.42054}}, {"id": 6360664, "name": "Campoo de Yuso", "state": "", "country": "ES", "coord": {"lon": -3.98589, "lat": 43.032711}}, {"id": 6360665, "name": "Cartes", "state": "", "country": "ES", "coord": {"lon": -4.09372, "lat": 43.316299}}, {"id": 6360666, "name": "Casta\u00f1eda", "state": "", "country": "ES", "coord": {"lon": -3.92198, "lat": 43.314072}}, {"id": 6360667, "name": "Castro-Urdiales", "state": "", "country": "ES", "coord": {"lon": -3.24397, "lat": 43.380539}}, {"id": 6360669, "name": "Cillorigo de Li\u00e9bana", "state": "", "country": "ES", "coord": {"lon": -4.63535, "lat": 43.210861}}, {"id": 6360670, "name": "Colindres", "state": "", "country": "ES", "coord": {"lon": -3.43533, "lat": 43.386391}}, {"id": 6360671, "name": "Comillas", "state": "", "country": "ES", "coord": {"lon": -4.30004, "lat": 43.378342}}, {"id": 6360672, "name": "Corrales de Buelna, Los", "state": "", "country": "ES", "coord": {"lon": -4.08442, "lat": 43.263149}}, {"id": 6360674, "name": "Campoo de Enmedio", "state": "", "country": "ES", "coord": {"lon": -4.12392, "lat": 43.00013}}, {"id": 6360675, "name": "Entrambasaguas", "state": "", "country": "ES", "coord": {"lon": -3.68523, "lat": 43.372669}}, {"id": 6360676, "name": "Escalante", "state": "", "country": "ES", "coord": {"lon": -3.50624, "lat": 43.43668}}, {"id": 6360677, "name": "Guriezo", "state": "", "country": "ES", "coord": {"lon": -3.2906, "lat": 43.3283}}, {"id": 6360678, "name": "Hazas de Cesto", "state": "", "country": "ES", "coord": {"lon": -3.58296, "lat": 43.409401}}, {"id": 6360679, "name": "Hermandad de Campoo de Suso", "state": "", "country": "ES", "coord": {"lon": -4.25535, "lat": 43.024899}}, {"id": 6360680, "name": "Herrer\u00edas", "state": "", "country": "ES", "coord": {"lon": -4.48215, "lat": 43.301842}}, {"id": 6360681, "name": "Lamas\u00f3n", "state": "", "country": "ES", "coord": {"lon": -4.4868, "lat": 43.233608}}, {"id": 6360682, "name": "Laredo", "state": "", "country": "ES", "coord": {"lon": -3.42035, "lat": 43.41663}}, {"id": 6360684, "name": "Limpias", "state": "", "country": "ES", "coord": {"lon": -3.42092, "lat": 43.37476}}, {"id": 6360685, "name": "Luena", "state": "", "country": "ES", "coord": {"lon": -3.89056, "lat": 43.107948}}, {"id": 6360686, "name": "Marina de Cudeyo", "state": "", "country": "ES", "coord": {"lon": -3.76582, "lat": 43.4245}}, {"id": 6360687, "name": "Mazcuerras", "state": "", "country": "ES", "coord": {"lon": -4.18006, "lat": 43.289989}}, {"id": 6360688, "name": "Medio Cudeyo", "state": "", "country": "ES", "coord": {"lon": -3.75243, "lat": 43.383888}}, {"id": 6360689, "name": "Meruelo", "state": "", "country": "ES", "coord": {"lon": -3.58839, "lat": 43.447231}}, {"id": 6360690, "name": "Miengo", "state": "", "country": "ES", "coord": {"lon": -4.00298, "lat": 43.43821}}, {"id": 6360692, "name": "Molledo", "state": "", "country": "ES", "coord": {"lon": -4.01381, "lat": 43.123741}}, {"id": 6360693, "name": "Noja", "state": "", "country": "ES", "coord": {"lon": -3.51571, "lat": 43.485939}}, {"id": 6360694, "name": "Penagos", "state": "", "country": "ES", "coord": {"lon": -3.81486, "lat": 43.34129}}, {"id": 6360695, "name": "Pe\u00f1arrubia", "state": "", "country": "ES", "coord": {"lon": -4.58308, "lat": 43.258949}}, {"id": 6360696, "name": "Pesaguero", "state": "", "country": "ES", "coord": {"lon": -4.52507, "lat": 43.0751}}, {"id": 6360697, "name": "Pesquera", "state": "", "country": "ES", "coord": {"lon": -4.06549, "lat": 43.087181}}, {"id": 6360699, "name": "Polanco", "state": "", "country": "ES", "coord": {"lon": -4.02076, "lat": 43.383411}}, {"id": 6360700, "name": "Potes", "state": "", "country": "ES", "coord": {"lon": -4.62456, "lat": 43.149429}}, {"id": 6360701, "name": "Puente Viesgo", "state": "", "country": "ES", "coord": {"lon": -3.97084, "lat": 43.302952}}, {"id": 6360702, "name": "Ramales de la Victoria", "state": "", "country": "ES", "coord": {"lon": -3.43947, "lat": 43.26355}}, {"id": 6360703, "name": "Rasines", "state": "", "country": "ES", "coord": {"lon": -3.41672, "lat": 43.297539}}, {"id": 6360704, "name": "Reinosa", "state": "", "country": "ES", "coord": {"lon": -4.13203, "lat": 43.000919}}, {"id": 6360705, "name": "Reoc\u00edn", "state": "", "country": "ES", "coord": {"lon": -4.1364, "lat": 43.348518}}, {"id": 6360706, "name": "Ribamont\u00e1n al Mar", "state": "", "country": "ES", "coord": {"lon": -3.7074, "lat": 43.465012}}, {"id": 6360707, "name": "Ribamont\u00e1n al Monte", "state": "", "country": "ES", "coord": {"lon": -3.6778, "lat": 43.415581}}, {"id": 6360708, "name": "Rionansa", "state": "", "country": "ES", "coord": {"lon": -4.41657, "lat": 43.229012}}, {"id": 6360709, "name": "Riotuerto", "state": "", "country": "ES", "coord": {"lon": -3.6953, "lat": 43.332649}}, {"id": 6360710, "name": "Rozas de Valdearroyo, Las", "state": "", "country": "ES", "coord": {"lon": -4.02006, "lat": 42.96553}}, {"id": 6360711, "name": "Ruente", "state": "", "country": "ES", "coord": {"lon": -4.24538, "lat": 43.24136}}, {"id": 6360712, "name": "Ruesga", "state": "", "country": "ES", "coord": {"lon": -3.56412, "lat": 43.288761}}, {"id": 6360715, "name": "San Miguel de Aguayo", "state": "", "country": "ES", "coord": {"lon": -3.99454, "lat": 43.075932}}, {"id": 6360716, "name": "San Pedro del Romeral", "state": "", "country": "ES", "coord": {"lon": -3.82795, "lat": 43.124371}}, {"id": 6360718, "name": "Santa Cruz de Bezana", "state": "", "country": "ES", "coord": {"lon": -3.89898, "lat": 43.46064}}, {"id": 6360719, "name": "Santa Mar\u00eda de Cay\u00f3n", "state": "", "country": "ES", "coord": {"lon": -3.87555, "lat": 43.307911}}, {"id": 6360720, "name": "Santander", "state": "", "country": "ES", "coord": {"lon": -3.81994, "lat": 43.472252}}, {"id": 6360721, "name": "Santillana del Mar", "state": "", "country": "ES", "coord": {"lon": -4.09922, "lat": 43.404289}}, {"id": 6360722, "name": "Santiurde de Reinosa", "state": "", "country": "ES", "coord": {"lon": -4.08948, "lat": 43.064621}}, {"id": 6360723, "name": "Santiurde de Toranzo", "state": "", "country": "ES", "coord": {"lon": -3.91803, "lat": 43.227219}}, {"id": 6360724, "name": "Santo\u00f1a", "state": "", "country": "ES", "coord": {"lon": -3.44362, "lat": 43.453812}}, {"id": 6360725, "name": "San Vicente de la Barquera", "state": "", "country": "ES", "coord": {"lon": -4.38436, "lat": 43.379581}}, {"id": 6360726, "name": "Saro", "state": "", "country": "ES", "coord": {"lon": -3.8084, "lat": 43.26403}}, {"id": 6360727, "name": "Selaya", "state": "", "country": "ES", "coord": {"lon": -3.77178, "lat": 43.201908}}, {"id": 6360728, "name": "Sol\u00f3rzano", "state": "", "country": "ES", "coord": {"lon": -3.59412, "lat": 43.361092}}, {"id": 6360729, "name": "Suances", "state": "", "country": "ES", "coord": {"lon": -4.06067, "lat": 43.427071}}, {"id": 6360731, "name": "Torrelavega", "state": "", "country": "ES", "coord": {"lon": -4.0511, "lat": 43.344582}}, {"id": 6360732, "name": "Tresviso", "state": "", "country": "ES", "coord": {"lon": -4.68158, "lat": 43.254662}}, {"id": 6360734, "name": "Ud\u00edas", "state": "", "country": "ES", "coord": {"lon": -4.26707, "lat": 43.339722}}, {"id": 6360735, "name": "Vald\u00e1liga", "state": "", "country": "ES", "coord": {"lon": -4.33457, "lat": 43.337631}}, {"id": 6360736, "name": "Valdeolea", "state": "", "country": "ES", "coord": {"lon": -4.18501, "lat": 42.907261}}, {"id": 6360738, "name": "Valderredible", "state": "", "country": "ES", "coord": {"lon": -3.95874, "lat": 42.856449}}, {"id": 6360739, "name": "Val de San Vicente", "state": "", "country": "ES", "coord": {"lon": -4.46891, "lat": 43.384628}}, {"id": 6360741, "name": "Vega de Pas", "state": "", "country": "ES", "coord": {"lon": -3.77911, "lat": 43.155689}}, {"id": 6360742, "name": "Villacarriedo", "state": "", "country": "ES", "coord": {"lon": -3.82479, "lat": 43.2215}}, {"id": 6360743, "name": "Villaescusa", "state": "", "country": "ES", "coord": {"lon": -3.85281, "lat": 43.36375}}, {"id": 6360744, "name": "Villafufre", "state": "", "country": "ES", "coord": {"lon": -3.8687, "lat": 43.265228}}, {"id": 6360745, "name": "Valle de Villaverde", "state": "", "country": "ES", "coord": {"lon": -3.27722, "lat": 43.231831}}, {"id": 6360746, "name": "Voto", "state": "", "country": "ES", "coord": {"lon": -3.48669, "lat": 43.355621}}, {"id": 6360747, "name": "Abades", "state": "", "country": "ES", "coord": {"lon": -4.26981, "lat": 40.90873}}, {"id": 6360748, "name": "Adrada de Pir\u00f3n", "state": "", "country": "ES", "coord": {"lon": -4.05222, "lat": 41.06308}}, {"id": 6360749, "name": "Adrados", "state": "", "country": "ES", "coord": {"lon": -4.10786, "lat": 41.367821}}, {"id": 6360750, "name": "Aguilafuente", "state": "", "country": "ES", "coord": {"lon": -4.08655, "lat": 41.24757}}, {"id": 6360751, "name": "Alconada de Maderuelo", "state": "", "country": "ES", "coord": {"lon": -3.49318, "lat": 41.453579}}, {"id": 6360752, "name": "Aldealcorvo", "state": "", "country": "ES", "coord": {"lon": -3.78544, "lat": 41.2598}}, {"id": 6360754, "name": "Aldealengua de Santa Mar\u00eda", "state": "", "country": "ES", "coord": {"lon": -3.46026, "lat": 41.467941}}, {"id": 6360756, "name": "Aldeanueva del Codonal", "state": "", "country": "ES", "coord": {"lon": -4.52366, "lat": 41.086948}}, {"id": 6360757, "name": "Aldea Real", "state": "", "country": "ES", "coord": {"lon": -4.17867, "lat": 41.185001}}, {"id": 6360758, "name": "Aldeaso\u00f1a", "state": "", "country": "ES", "coord": {"lon": -4.0566, "lat": 41.476509}}, {"id": 6360760, "name": "Aldehuela del Codonal", "state": "", "country": "ES", "coord": {"lon": -4.53496, "lat": 41.053089}}, {"id": 6360761, "name": "Aldeonte", "state": "", "country": "ES", "coord": {"lon": -3.69064, "lat": 41.338799}}, {"id": 6360762, "name": "Anaya", "state": "", "country": "ES", "coord": {"lon": -4.31235, "lat": 40.991821}}, {"id": 6360763, "name": "A\u00f1e", "state": "", "country": "ES", "coord": {"lon": -4.28708, "lat": 41.03857}}, {"id": 6360764, "name": "Arahuetes", "state": "", "country": "ES", "coord": {"lon": -3.85921, "lat": 41.149872}}, {"id": 6360765, "name": "Arcones", "state": "", "country": "ES", "coord": {"lon": -3.71498, "lat": 41.1129}}, {"id": 6360766, "name": "Arevalillo de Cega", "state": "", "country": "ES", "coord": {"lon": -3.88523, "lat": 41.17218}}, {"id": 6360767, "name": "Armu\u00f1a", "state": "", "country": "ES", "coord": {"lon": -4.28642, "lat": 41.069248}}, {"id": 6360768, "name": "Ayll\u00f3n", "state": "", "country": "ES", "coord": {"lon": -3.33665, "lat": 41.360088}}, {"id": 6360769, "name": "Barbolla", "state": "", "country": "ES", "coord": {"lon": -3.66034, "lat": 41.313862}}, {"id": 6360770, "name": "Basardilla", "state": "", "country": "ES", "coord": {"lon": -3.97095, "lat": 40.999001}}, {"id": 6360771, "name": "Bercial", "state": "", "country": "ES", "coord": {"lon": -4.43251, "lat": 40.891521}}, {"id": 6360772, "name": "Bercimuel", "state": "", "country": "ES", "coord": {"lon": -3.56475, "lat": 41.399391}}, {"id": 6360773, "name": "Bernardos", "state": "", "country": "ES", "coord": {"lon": -4.33204, "lat": 41.134232}}, {"id": 6360774, "name": "Bernuy de Porreros", "state": "", "country": "ES", "coord": {"lon": -4.11496, "lat": 40.99926}}, {"id": 6360775, "name": "Boceguillas", "state": "", "country": "ES", "coord": {"lon": -3.59565, "lat": 41.32444}}, {"id": 6360776, "name": "Brieva", "state": "", "country": "ES", "coord": {"lon": -4.04403, "lat": 41.040562}}, {"id": 6360777, "name": "Caballar", "state": "", "country": "ES", "coord": {"lon": -3.95939, "lat": 41.125931}}, {"id": 6360778, "name": "Caba\u00f1as de Polendos", "state": "", "country": "ES", "coord": {"lon": -4.10385, "lat": 41.047321}}, {"id": 6360779, "name": "Cabezuela", "state": "", "country": "ES", "coord": {"lon": -3.97802, "lat": 41.226768}}, {"id": 6360781, "name": "Campo de San Pedro", "state": "", "country": "ES", "coord": {"lon": -3.55498, "lat": 41.457939}}, {"id": 6360782, "name": "Cantalejo", "state": "", "country": "ES", "coord": {"lon": -3.92499, "lat": 41.259178}}, {"id": 6360783, "name": "Cantimpalos", "state": "", "country": "ES", "coord": {"lon": -4.16282, "lat": 41.065842}}, {"id": 6360784, "name": "Carbonero el Mayor", "state": "", "country": "ES", "coord": {"lon": -4.29246, "lat": 41.151081}}, {"id": 6360785, "name": "Carrascal del R\u00edo", "state": "", "country": "ES", "coord": {"lon": -3.88465, "lat": 41.346931}}, {"id": 6360786, "name": "Casla", "state": "", "country": "ES", "coord": {"lon": -3.6527, "lat": 41.161091}}, {"id": 6360787, "name": "Castillejo de Mesle\u00f3n", "state": "", "country": "ES", "coord": {"lon": -3.59496, "lat": 41.283119}}, {"id": 6360788, "name": "Castro de Fuentidue\u00f1a", "state": "", "country": "ES", "coord": {"lon": -3.85709, "lat": 41.423988}}, {"id": 6360789, "name": "Castrojimeno", "state": "", "country": "ES", "coord": {"lon": -3.83836, "lat": 41.405602}}, {"id": 6360790, "name": "Castroserna de Abajo", "state": "", "country": "ES", "coord": {"lon": -3.73132, "lat": 41.20771}}, {"id": 6360791, "name": "Castroserrac\u00edn", "state": "", "country": "ES", "coord": {"lon": -3.79586, "lat": 41.405869}}, {"id": 6360792, "name": "Cedillo de la Torre", "state": "", "country": "ES", "coord": {"lon": -3.62917, "lat": 41.430092}}, {"id": 6360793, "name": "Cerezo de Abajo", "state": "", "country": "ES", "coord": {"lon": -3.57747, "lat": 41.216949}}, {"id": 6360794, "name": "Cerezo de Arriba", "state": "", "country": "ES", "coord": {"lon": -3.5185, "lat": 41.217411}}, {"id": 6360795, "name": "Cilleruelo de San Mam\u00e9s", "state": "", "country": "ES", "coord": {"lon": -3.58893, "lat": 41.440559}}, {"id": 6360796, "name": "Cobos de Fuentidue\u00f1a", "state": "", "country": "ES", "coord": {"lon": -3.91958, "lat": 41.386089}}, {"id": 6360797, "name": "Coca", "state": "", "country": "ES", "coord": {"lon": -4.53195, "lat": 41.21825}}, {"id": 6360798, "name": "Codorniz", "state": "", "country": "ES", "coord": {"lon": -4.60865, "lat": 41.06007}}, {"id": 6360799, "name": "Collado Hermoso", "state": "", "country": "ES", "coord": {"lon": -3.90678, "lat": 41.021912}}, {"id": 6360801, "name": "Corral de Ayll\u00f3n", "state": "", "country": "ES", "coord": {"lon": -3.45316, "lat": 41.38998}}, {"id": 6360802, "name": "Cubillo", "state": "", "country": "ES", "coord": {"lon": -3.91645, "lat": 41.107819}}, {"id": 6360803, "name": "Cu\u00e9llar", "state": "", "country": "ES", "coord": {"lon": -4.30837, "lat": 41.36792}}, {"id": 6360804, "name": "Cha\u00f1e", "state": "", "country": "ES", "coord": {"lon": -4.43374, "lat": 41.353161}}, {"id": 6360805, "name": "Domingo Garc\u00eda", "state": "", "country": "ES", "coord": {"lon": -4.3935, "lat": 41.120819}}, {"id": 6360806, "name": "Donhierro", "state": "", "country": "ES", "coord": {"lon": -4.69699, "lat": 41.111099}}, {"id": 6360807, "name": "Duruelo", "state": "", "country": "ES", "coord": {"lon": -3.64252, "lat": 41.222672}}, {"id": 6360808, "name": "Encinas", "state": "", "country": "ES", "coord": {"lon": -3.67913, "lat": 41.398579}}, {"id": 6360809, "name": "Encinillas", "state": "", "country": "ES", "coord": {"lon": -4.14932, "lat": 41.02668}}, {"id": 6360810, "name": "Escalona del Prado", "state": "", "country": "ES", "coord": {"lon": -4.11486, "lat": 41.16526}}, {"id": 6360811, "name": "Escarabajosa de Cabezas", "state": "", "country": "ES", "coord": {"lon": -4.17908, "lat": 41.10857}}, {"id": 6360812, "name": "Escobar de Polendos", "state": "", "country": "ES", "coord": {"lon": -4.10863, "lat": 41.10284}}, {"id": 6360813, "name": "Espinar, El", "state": "", "country": "ES", "coord": {"lon": -4.2128, "lat": 40.72995}}, {"id": 6360814, "name": "Espirdo", "state": "", "country": "ES", "coord": {"lon": -4.07241, "lat": 41.001732}}, {"id": 6360815, "name": "Fresneda de Cu\u00e9llar", "state": "", "country": "ES", "coord": {"lon": -4.46181, "lat": 41.297031}}, {"id": 6360816, "name": "Fresno de Cantespino", "state": "", "country": "ES", "coord": {"lon": -3.49055, "lat": 41.363918}}, {"id": 6360817, "name": "Fresno de la Fuente", "state": "", "country": "ES", "coord": {"lon": -3.64322, "lat": 41.403759}}, {"id": 6360818, "name": "Frumales", "state": "", "country": "ES", "coord": {"lon": -4.18781, "lat": 41.374722}}, {"id": 6360819, "name": "Fuente de Santa Cruz", "state": "", "country": "ES", "coord": {"lon": -4.62357, "lat": 41.212978}}, {"id": 6360820, "name": "Fuente el Olmo de Fuentidue\u00f1a", "state": "", "country": "ES", "coord": {"lon": -3.98607, "lat": 41.401981}}, {"id": 6360822, "name": "Fuentepelayo", "state": "", "country": "ES", "coord": {"lon": -4.17095, "lat": 41.228409}}, {"id": 6360823, "name": "Fuentepi\u00f1el", "state": "", "country": "ES", "coord": {"lon": -4.03662, "lat": 41.407871}}, {"id": 6360825, "name": "Fuentesa\u00faco de Fuentidue\u00f1a", "state": "", "country": "ES", "coord": {"lon": -4.06135, "lat": 41.429649}}, {"id": 6360826, "name": "Fuentesoto", "state": "", "country": "ES", "coord": {"lon": -3.90666, "lat": 41.451191}}, {"id": 6360827, "name": "Fuentidue\u00f1a", "state": "", "country": "ES", "coord": {"lon": -3.98115, "lat": 41.40287}}, {"id": 6360828, "name": "Gallegos", "state": "", "country": "ES", "coord": {"lon": -3.77468, "lat": 41.068829}}, {"id": 6360829, "name": "Garcill\u00e1n", "state": "", "country": "ES", "coord": {"lon": -4.26558, "lat": 40.993771}}, {"id": 6360831, "name": "Grajera", "state": "", "country": "ES", "coord": {"lon": -3.61024, "lat": 41.37336}}, {"id": 6360832, "name": "Honrubia de la Cuesta", "state": "", "country": "ES", "coord": {"lon": -3.70279, "lat": 41.497688}}, {"id": 6360833, "name": "Hontalbilla", "state": "", "country": "ES", "coord": {"lon": -4.11527, "lat": 41.337879}}, {"id": 6360834, "name": "Hontanares de Eresma", "state": "", "country": "ES", "coord": {"lon": -4.20072, "lat": 40.984489}}, {"id": 6360836, "name": "Ituero y Lama", "state": "", "country": "ES", "coord": {"lon": -4.37267, "lat": 40.798889}}, {"id": 6360838, "name": "Juarros de Voltoya", "state": "", "country": "ES", "coord": {"lon": -4.50863, "lat": 41.046249}}, {"id": 6360839, "name": "Labajos", "state": "", "country": "ES", "coord": {"lon": -4.51779, "lat": 40.849251}}, {"id": 6360840, "name": "Laguna de Contreras", "state": "", "country": "ES", "coord": {"lon": -4.02001, "lat": 41.492641}}, {"id": 6360841, "name": "Languilla", "state": "", "country": "ES", "coord": {"lon": -3.40863, "lat": 41.454529}}, {"id": 6360842, "name": "Lastras de Cu\u00e9llar", "state": "", "country": "ES", "coord": {"lon": -4.08249, "lat": 41.28019}}, {"id": 6360843, "name": "Lastras del Pozo", "state": "", "country": "ES", "coord": {"lon": -4.31273, "lat": 40.870419}}, {"id": 6360844, "name": "Lastrilla, La", "state": "", "country": "ES", "coord": {"lon": -4.0905, "lat": 40.968979}}, {"id": 6360846, "name": "Maderuelo", "state": "", "country": "ES", "coord": {"lon": -3.52019, "lat": 41.51334}}, {"id": 6360847, "name": "Marazuela", "state": "", "country": "ES", "coord": {"lon": -4.35694, "lat": 40.980461}}, {"id": 6360848, "name": "Mart\u00edn Miguel", "state": "", "country": "ES", "coord": {"lon": -4.27931, "lat": 40.95705}}, {"id": 6360849, "name": "Mart\u00edn Mu\u00f1oz de la Dehesa", "state": "", "country": "ES", "coord": {"lon": -4.67998, "lat": 41.067959}}, {"id": 6360850, "name": "Mart\u00edn Mu\u00f1oz de las Posadas", "state": "", "country": "ES", "coord": {"lon": -4.54738, "lat": 40.988831}}, {"id": 6360851, "name": "Marug\u00e1n", "state": "", "country": "ES", "coord": {"lon": -4.38807, "lat": 40.897049}}, {"id": 6360852, "name": "Matabuena", "state": "", "country": "ES", "coord": {"lon": -3.75094, "lat": 41.091969}}, {"id": 6360853, "name": "Mata de Cu\u00e9llar", "state": "", "country": "ES", "coord": {"lon": -4.47965, "lat": 41.399929}}, {"id": 6360856, "name": "Membibre de la Hoz", "state": "", "country": "ES", "coord": {"lon": -4.09625, "lat": 41.45792}}, {"id": 6360857, "name": "Miguel\u00e1\u00f1ez", "state": "", "country": "ES", "coord": {"lon": -4.3794, "lat": 41.142551}}, {"id": 6360858, "name": "Montejo de Ar\u00e9valo", "state": "", "country": "ES", "coord": {"lon": -4.66873, "lat": 41.148548}}, {"id": 6360859, "name": "Montejo de la Vega de la Serrezuela", "state": "", "country": "ES", "coord": {"lon": -3.61615, "lat": 41.551579}}, {"id": 6360860, "name": "Monterrubio", "state": "", "country": "ES", "coord": {"lon": -4.36715, "lat": 40.841541}}, {"id": 6360862, "name": "Mozoncillo", "state": "", "country": "ES", "coord": {"lon": -4.1856, "lat": 41.150421}}, {"id": 6360863, "name": "Mu\u00f1opedro", "state": "", "country": "ES", "coord": {"lon": -4.48883, "lat": 40.881538}}, {"id": 6360864, "name": "Mu\u00f1overos", "state": "", "country": "ES", "coord": {"lon": -3.94852, "lat": 41.183289}}, {"id": 6360865, "name": "Nava de la Asunci\u00f3n", "state": "", "country": "ES", "coord": {"lon": -4.4905, "lat": 41.148891}}, {"id": 6360866, "name": "Navafr\u00eda", "state": "", "country": "ES", "coord": {"lon": -3.83262, "lat": 41.031288}}, {"id": 6360867, "name": "Navalilla", "state": "", "country": "ES", "coord": {"lon": -3.93851, "lat": 41.338589}}, {"id": 6360868, "name": "Navalmanzano", "state": "", "country": "ES", "coord": {"lon": -4.25447, "lat": 41.22208}}, {"id": 6360869, "name": "Navares de Ayuso", "state": "", "country": "ES", "coord": {"lon": -3.69717, "lat": 41.37323}}, {"id": 6360870, "name": "Navares de Enmedio", "state": "", "country": "ES", "coord": {"lon": -3.73326, "lat": 41.424122}}, {"id": 6360871, "name": "Navares de las Cuevas", "state": "", "country": "ES", "coord": {"lon": -3.75267, "lat": 41.424992}}, {"id": 6360872, "name": "Navas de Oro", "state": "", "country": "ES", "coord": {"lon": -4.42138, "lat": 41.208118}}, {"id": 6360874, "name": "Nieva", "state": "", "country": "ES", "coord": {"lon": -4.45246, "lat": 41.092331}}, {"id": 6360875, "name": "Olombrada", "state": "", "country": "ES", "coord": {"lon": -4.15046, "lat": 41.432259}}, {"id": 6360877, "name": "Ortigosa de Pesta\u00f1o", "state": "", "country": "ES", "coord": {"lon": -4.38979, "lat": 41.093449}}, {"id": 6360878, "name": "Otero de Herreros", "state": "", "country": "ES", "coord": {"lon": -4.21201, "lat": 40.81728}}, {"id": 6360879, "name": "Pajarejos", "state": "", "country": "ES", "coord": {"lon": -3.5935, "lat": 41.390991}}, {"id": 6360880, "name": "Palazuelos de Eresma", "state": "", "country": "ES", "coord": {"lon": -4.0193, "lat": 40.924961}}, {"id": 6360881, "name": "Pedraza", "state": "", "country": "ES", "coord": {"lon": -3.81231, "lat": 41.133331}}, {"id": 6360882, "name": "Pelayos del Arroyo", "state": "", "country": "ES", "coord": {"lon": -3.95147, "lat": 41.058819}}, {"id": 6360883, "name": "Perosillo", "state": "", "country": "ES", "coord": {"lon": -4.14419, "lat": 41.388149}}, {"id": 6360884, "name": "Pinarejos", "state": "", "country": "ES", "coord": {"lon": -4.27681, "lat": 41.24968}}, {"id": 6360885, "name": "Pinarnegrillo", "state": "", "country": "ES", "coord": {"lon": -4.27534, "lat": 41.18523}}, {"id": 6360886, "name": "Pradales", "state": "", "country": "ES", "coord": {"lon": -3.69187, "lat": 41.451679}}, {"id": 6360887, "name": "Pr\u00e1dena", "state": "", "country": "ES", "coord": {"lon": -3.68715, "lat": 41.150139}}, {"id": 6360888, "name": "Puebla de Pedraza", "state": "", "country": "ES", "coord": {"lon": -3.92226, "lat": 41.198589}}, {"id": 6360889, "name": "Rapariegos", "state": "", "country": "ES", "coord": {"lon": -4.63018, "lat": 41.094879}}, {"id": 6360890, "name": "Rebollo", "state": "", "country": "ES", "coord": {"lon": -3.8583, "lat": 41.19268}}, {"id": 6360891, "name": "Remondo", "state": "", "country": "ES", "coord": {"lon": -4.4869, "lat": 41.347382}}, {"id": 6360892, "name": "Riaguas de San Bartolom\u00e9", "state": "", "country": "ES", "coord": {"lon": -3.48689, "lat": 41.425301}}, {"id": 6360893, "name": "Riaza", "state": "", "country": "ES", "coord": {"lon": -3.44909, "lat": 41.30051}}, {"id": 6360894, "name": "Ribota", "state": "", "country": "ES", "coord": {"lon": -3.42571, "lat": 41.352718}}, {"id": 6360896, "name": "Roda de Eresma", "state": "", "country": "ES", "coord": {"lon": -4.17872, "lat": 41.032669}}, {"id": 6360897, "name": "Sacramenia", "state": "", "country": "ES", "coord": {"lon": -3.93933, "lat": 41.516102}}, {"id": 6360898, "name": "Samboal", "state": "", "country": "ES", "coord": {"lon": -4.4257, "lat": 41.26833}}, {"id": 6360899, "name": "San Crist\u00f3bal de Cu\u00e9llar", "state": "", "country": "ES", "coord": {"lon": -4.3904, "lat": 41.429329}}, {"id": 6360900, "name": "San Crist\u00f3bal de la Vega", "state": "", "country": "ES", "coord": {"lon": -4.62197, "lat": 41.120628}}, {"id": 6360901, "name": "Sanchonu\u00f1o", "state": "", "country": "ES", "coord": {"lon": -4.2832, "lat": 41.326111}}, {"id": 6360902, "name": "Sangarc\u00eda", "state": "", "country": "ES", "coord": {"lon": -4.42709, "lat": 40.947319}}, {"id": 6360903, "name": "Real Sitio de San Ildefonso", "state": "", "country": "ES", "coord": {"lon": -4.03385, "lat": 40.85611}}, {"id": 6360906, "name": "San Pedro de Ga\u00edllos", "state": "", "country": "ES", "coord": {"lon": -3.82074, "lat": 41.229961}}, {"id": 6360907, "name": "Santa Mar\u00eda la Real de Nieva", "state": "", "country": "ES", "coord": {"lon": -4.42123, "lat": 41.01189}}, {"id": 6360908, "name": "Santa Marta del Cerro", "state": "", "country": "ES", "coord": {"lon": -3.68107, "lat": 41.212719}}, {"id": 6360909, "name": "Santiuste de Pedraza", "state": "", "country": "ES", "coord": {"lon": -3.87574, "lat": 41.0895}}, {"id": 6360910, "name": "Santiuste de San Juan Bautista", "state": "", "country": "ES", "coord": {"lon": -4.56244, "lat": 41.162659}}, {"id": 6360911, "name": "Santo Domingo de Pir\u00f3n", "state": "", "country": "ES", "coord": {"lon": -3.96076, "lat": 41.010799}}, {"id": 6360912, "name": "Santo Tom\u00e9 del Puerto", "state": "", "country": "ES", "coord": {"lon": -3.57782, "lat": 41.187222}}, {"id": 6360913, "name": "Sauquillo de Cabezas", "state": "", "country": "ES", "coord": {"lon": -4.05767, "lat": 41.202591}}, {"id": 6360914, "name": "Seb\u00falcor", "state": "", "country": "ES", "coord": {"lon": -3.86304, "lat": 41.289249}}, {"id": 6360915, "name": "Segovia", "state": "", "country": "ES", "coord": {"lon": -4.18299, "lat": 40.901939}}, {"id": 6360916, "name": "Sep\u00falveda", "state": "", "country": "ES", "coord": {"lon": -3.78145, "lat": 41.289879}}, {"id": 6360917, "name": "Sequera de Fresno", "state": "", "country": "ES", "coord": {"lon": -3.55455, "lat": 41.357819}}, {"id": 6360918, "name": "Sotillo", "state": "", "country": "ES", "coord": {"lon": -3.65001, "lat": 41.261669}}, {"id": 6360919, "name": "Sotosalbos", "state": "", "country": "ES", "coord": {"lon": -3.9305, "lat": 41.025181}}, {"id": 6360920, "name": "Tabanera la Luenga", "state": "", "country": "ES", "coord": {"lon": -4.24505, "lat": 41.09557}}, {"id": 6360921, "name": "Tolocirio", "state": "", "country": "ES", "coord": {"lon": -4.6302, "lat": 41.136169}}, {"id": 6360922, "name": "Torreadrada", "state": "", "country": "ES", "coord": {"lon": -3.83392, "lat": 41.46011}}, {"id": 6360923, "name": "Torrecaballeros", "state": "", "country": "ES", "coord": {"lon": -3.98479, "lat": 40.983059}}, {"id": 6360924, "name": "Torrecilla del Pinar", "state": "", "country": "ES", "coord": {"lon": -4.0543, "lat": 41.362289}}, {"id": 6360925, "name": "Torreiglesias", "state": "", "country": "ES", "coord": {"lon": -4.04411, "lat": 41.104481}}, {"id": 6360926, "name": "Torre Val de San Pedro", "state": "", "country": "ES", "coord": {"lon": -3.86958, "lat": 41.04216}}, {"id": 6360927, "name": "Trescasas", "state": "", "country": "ES", "coord": {"lon": -4.0054, "lat": 40.95105}}, {"id": 6360928, "name": "Tur\u00e9gano", "state": "", "country": "ES", "coord": {"lon": -3.98884, "lat": 41.13673}}, {"id": 6360929, "name": "Urue\u00f1as", "state": "", "country": "ES", "coord": {"lon": -3.75731, "lat": 41.35775}}, {"id": 6360930, "name": "Valdeprados", "state": "", "country": "ES", "coord": {"lon": -4.27505, "lat": 40.82494}}, {"id": 6360931, "name": "Valdevacas de Montejo", "state": "", "country": "ES", "coord": {"lon": -3.62543, "lat": 41.520618}}, {"id": 6360933, "name": "Valseca", "state": "", "country": "ES", "coord": {"lon": -4.16661, "lat": 40.99651}}, {"id": 6360934, "name": "Valtiendas", "state": "", "country": "ES", "coord": {"lon": -3.90545, "lat": 41.48848}}, {"id": 6360935, "name": "Valverde del Majano", "state": "", "country": "ES", "coord": {"lon": -4.20744, "lat": 40.95285}}, {"id": 6360936, "name": "Valle de Tabladillo", "state": "", "country": "ES", "coord": {"lon": -3.83342, "lat": 41.368179}}, {"id": 6360937, "name": "Vallelado", "state": "", "country": "ES", "coord": {"lon": -4.42327, "lat": 41.392818}}, {"id": 6360938, "name": "Valleruela de Pedraza", "state": "", "country": "ES", "coord": {"lon": -3.82311, "lat": 41.172459}}, {"id": 6360939, "name": "Valleruela de Sep\u00falveda", "state": "", "country": "ES", "coord": {"lon": -3.76641, "lat": 41.191898}}, {"id": 6360940, "name": "Veganzones", "state": "", "country": "ES", "coord": {"lon": -3.99891, "lat": 41.214321}}, {"id": 6360941, "name": "Vegas de Matute", "state": "", "country": "ES", "coord": {"lon": -4.26695, "lat": 40.790749}}, {"id": 6360943, "name": "Villacast\u00edn", "state": "", "country": "ES", "coord": {"lon": -4.41601, "lat": 40.763641}}, {"id": 6360945, "name": "Villaverde de Montejo", "state": "", "country": "ES", "coord": {"lon": -3.66759, "lat": 41.505451}}, {"id": 6360946, "name": "Villeguillo", "state": "", "country": "ES", "coord": {"lon": -4.57768, "lat": 41.252731}}, {"id": 6360947, "name": "Yanguas de Eresma", "state": "", "country": "ES", "coord": {"lon": -4.25148, "lat": 41.066921}}, {"id": 6360948, "name": "Zarzuela del Monte", "state": "", "country": "ES", "coord": {"lon": -4.32637, "lat": 40.811249}}, {"id": 6360949, "name": "Zarzuela del Pinar", "state": "", "country": "ES", "coord": {"lon": -4.17963, "lat": 41.265949}}, {"id": 6360950, "name": "Ortigosa del Monte", "state": "", "country": "ES", "coord": {"lon": -4.16611, "lat": 40.827888}}, {"id": 6360951, "name": "Cozuelos de Fuentidue\u00f1a", "state": "", "country": "ES", "coord": {"lon": -4.08487, "lat": 41.398281}}, {"id": 6360952, "name": "Marazoleja", "state": "", "country": "ES", "coord": {"lon": -4.33962, "lat": 40.942871}}, {"id": 6360954, "name": "Cuevas de Provanco", "state": "", "country": "ES", "coord": {"lon": -3.93553, "lat": 41.539631}}, {"id": 6360955, "name": "San Crist\u00f3bal de Segovia", "state": "", "country": "ES", "coord": {"lon": -4.07921, "lat": 40.954491}}, {"id": 6360956, "name": "Aguadulce", "state": "", "country": "ES", "coord": {"lon": -4.97988, "lat": 37.25069}}, {"id": 6360957, "name": "Alan\u00eds", "state": "", "country": "ES", "coord": {"lon": -5.64318, "lat": 38.028011}}, {"id": 6360958, "name": "Albaida del Aljarafe", "state": "", "country": "ES", "coord": {"lon": -6.17372, "lat": 37.435879}}, {"id": 6360959, "name": "Alcal\u00e1 de Guada\u00edra", "state": "", "country": "ES", "coord": {"lon": -5.81642, "lat": 37.274559}}, {"id": 6360961, "name": "Alcolea del R\u00edo", "state": "", "country": "ES", "coord": {"lon": -5.64431, "lat": 37.634029}}, {"id": 6360962, "name": "La Algaba", "state": "", "country": "ES", "coord": {"lon": -6.01916, "lat": 37.476391}}, {"id": 6360963, "name": "Alg\u00e1mitas", "state": "", "country": "ES", "coord": {"lon": -5.15144, "lat": 37.025131}}, {"id": 6360964, "name": "Almad\u00e9n de la Plata", "state": "", "country": "ES", "coord": {"lon": -6.03365, "lat": 37.830341}}, {"id": 6360965, "name": "Almensilla", "state": "", "country": "ES", "coord": {"lon": -6.11103, "lat": 37.30658}}, {"id": 6360966, "name": "Arahal", "state": "", "country": "ES", "coord": {"lon": -5.55492, "lat": 37.186352}}, {"id": 6360968, "name": "Aznalc\u00f3llar", "state": "", "country": "ES", "coord": {"lon": -6.31661, "lat": 37.549122}}, {"id": 6360969, "name": "Badolatosa", "state": "", "country": "ES", "coord": {"lon": -4.68928, "lat": 37.307018}}, {"id": 6360970, "name": "Benacaz\u00f3n", "state": "", "country": "ES", "coord": {"lon": -6.21053, "lat": 37.340359}}, {"id": 6360971, "name": "Bollullos de la Mitaci\u00f3n", "state": "", "country": "ES", "coord": {"lon": -6.14158, "lat": 37.334221}}, {"id": 6360972, "name": "Bormujos", "state": "", "country": "ES", "coord": {"lon": -6.08618, "lat": 37.36459}}, {"id": 6360973, "name": "Brenes", "state": "", "country": "ES", "coord": {"lon": -5.88182, "lat": 37.55394}}, {"id": 6360974, "name": "Burguillos", "state": "", "country": "ES", "coord": {"lon": -5.95502, "lat": 37.598598}}, {"id": 6360975, "name": "Cabezas de San Juan, Las", "state": "", "country": "ES", "coord": {"lon": -5.90631, "lat": 36.97509}}, {"id": 6360976, "name": "Camas", "state": "", "country": "ES", "coord": {"lon": -6.03644, "lat": 37.399368}}, {"id": 6360977, "name": "Campana, La", "state": "", "country": "ES", "coord": {"lon": -5.39797, "lat": 37.571079}}, {"id": 6360978, "name": "Cantillana", "state": "", "country": "ES", "coord": {"lon": -5.81939, "lat": 37.620911}}, {"id": 6360979, "name": "Carmona", "state": "", "country": "ES", "coord": {"lon": -5.63152, "lat": 37.46553}}, {"id": 6360980, "name": "Carri\u00f3n de los C\u00e9spedes", "state": "", "country": "ES", "coord": {"lon": -6.32792, "lat": 37.363251}}, {"id": 6360981, "name": "Casariche", "state": "", "country": "ES", "coord": {"lon": -4.75817, "lat": 37.303699}}, {"id": 6360982, "name": "Castilblanco de los Arroyos", "state": "", "country": "ES", "coord": {"lon": -6.00028, "lat": 37.725979}}, {"id": 6360983, "name": "Castilleja de Guzm\u00e1n", "state": "", "country": "ES", "coord": {"lon": -6.05029, "lat": 37.409359}}, {"id": 6360984, "name": "Castilleja de la Cuesta", "state": "", "country": "ES", "coord": {"lon": -6.05461, "lat": 37.387009}}, {"id": 6360985, "name": "Castilleja del Campo", "state": "", "country": "ES", "coord": {"lon": -6.33837, "lat": 37.38586}}, {"id": 6360986, "name": "Castillo de las Guardas, El", "state": "", "country": "ES", "coord": {"lon": -6.35031, "lat": 37.689121}}, {"id": 6360987, "name": "Cazalla de la Sierra", "state": "", "country": "ES", "coord": {"lon": -5.76233, "lat": 37.945999}}, {"id": 6360988, "name": "Constantina", "state": "", "country": "ES", "coord": {"lon": -5.60296, "lat": 37.849579}}, {"id": 6360989, "name": "Coria del R\u00edo", "state": "", "country": "ES", "coord": {"lon": -6.04203, "lat": 37.244411}}, {"id": 6360990, "name": "Coripe", "state": "", "country": "ES", "coord": {"lon": -5.39837, "lat": 36.996368}}, {"id": 6360992, "name": "Corrales, Los", "state": "", "country": "ES", "coord": {"lon": -5.02136, "lat": 37.117859}}, {"id": 6360993, "name": "Dos Hermanas", "state": "", "country": "ES", "coord": {"lon": -5.95985, "lat": 37.252171}}, {"id": 6360994, "name": "\u00c9cija", "state": "", "country": "ES", "coord": {"lon": -5.0979, "lat": 37.566971}}, {"id": 6360995, "name": "Espartinas", "state": "", "country": "ES", "coord": {"lon": -6.1269, "lat": 37.386452}}, {"id": 6360996, "name": "Estepa", "state": "", "country": "ES", "coord": {"lon": -4.88297, "lat": 37.311161}}, {"id": 6360997, "name": "Fuentes de Andaluc\u00eda", "state": "", "country": "ES", "coord": {"lon": -5.33272, "lat": 37.52684}}, {"id": 6360999, "name": "Gelves", "state": "", "country": "ES", "coord": {"lon": -6.06141, "lat": 37.33485}}, {"id": 6361000, "name": "Gerena", "state": "", "country": "ES", "coord": {"lon": -6.16213, "lat": 37.556061}}, {"id": 6361001, "name": "Gilena", "state": "", "country": "ES", "coord": {"lon": -4.92567, "lat": 37.23513}}, {"id": 6361002, "name": "Gines", "state": "", "country": "ES", "coord": {"lon": -6.0777, "lat": 37.387051}}, {"id": 6361003, "name": "Guadalcanal", "state": "", "country": "ES", "coord": {"lon": -5.82036, "lat": 38.098591}}, {"id": 6361004, "name": "Guillena", "state": "", "country": "ES", "coord": {"lon": -6.08918, "lat": 37.60762}}, {"id": 6361005, "name": "Herrera", "state": "", "country": "ES", "coord": {"lon": -4.85852, "lat": 37.38673}}, {"id": 6361007, "name": "Lantejuela, La", "state": "", "country": "ES", "coord": {"lon": -5.21884, "lat": 37.35841}}, {"id": 6361008, "name": "Lebrija", "state": "", "country": "ES", "coord": {"lon": -6.02983, "lat": 36.921101}}, {"id": 6361009, "name": "Lora de Estepa", "state": "", "country": "ES", "coord": {"lon": -4.82082, "lat": 37.276508}}, {"id": 6361010, "name": "Lora del R\u00edo", "state": "", "country": "ES", "coord": {"lon": -5.48845, "lat": 37.660149}}, {"id": 6361011, "name": "Luisiana, La", "state": "", "country": "ES", "coord": {"lon": -5.22339, "lat": 37.549629}}, {"id": 6361013, "name": "Mairena del Alcor", "state": "", "country": "ES", "coord": {"lon": -5.74201, "lat": 37.345322}}, {"id": 6361014, "name": "Mairena del Aljarafe", "state": "", "country": "ES", "coord": {"lon": -6.07384, "lat": 37.335758}}, {"id": 6361015, "name": "Marchena", "state": "", "country": "ES", "coord": {"lon": -5.39396, "lat": 37.305359}}, {"id": 6361016, "name": "Marinaleda", "state": "", "country": "ES", "coord": {"lon": -4.94233, "lat": 37.370289}}, {"id": 6361017, "name": "Mart\u00edn de la Jara", "state": "", "country": "ES", "coord": {"lon": -4.96794, "lat": 37.139339}}, {"id": 6361018, "name": "Molares, Los", "state": "", "country": "ES", "coord": {"lon": -5.69152, "lat": 37.159962}}, {"id": 6361019, "name": "Montellano", "state": "", "country": "ES", "coord": {"lon": -5.53448, "lat": 36.997261}}, {"id": 6361020, "name": "Mor\u00f3n de la Frontera", "state": "", "country": "ES", "coord": {"lon": -5.40797, "lat": 37.103748}}, {"id": 6361022, "name": "Olivares", "state": "", "country": "ES", "coord": {"lon": -6.16425, "lat": 37.44735}}, {"id": 6361023, "name": "Osuna", "state": "", "country": "ES", "coord": {"lon": -5.11371, "lat": 37.22229}}, {"id": 6361024, "name": "Palacios y Villafranca, Los", "state": "", "country": "ES", "coord": {"lon": -5.91361, "lat": 37.156818}}, {"id": 6361025, "name": "Palomares del R\u00edo", "state": "", "country": "ES", "coord": {"lon": -6.05662, "lat": 37.31625}}, {"id": 6361026, "name": "Paradas", "state": "", "country": "ES", "coord": {"lon": -5.48163, "lat": 37.285591}}, {"id": 6361027, "name": "Pedrera", "state": "", "country": "ES", "coord": {"lon": -4.90345, "lat": 37.201241}}, {"id": 6361029, "name": "Pe\u00f1aflor", "state": "", "country": "ES", "coord": {"lon": -5.36379, "lat": 37.727619}}, {"id": 6361030, "name": "Pilas", "state": "", "country": "ES", "coord": {"lon": -6.31623, "lat": 37.312309}}, {"id": 6361031, "name": "Pruna", "state": "", "country": "ES", "coord": {"lon": -5.22262, "lat": 37.006222}}, {"id": 6361033, "name": "Puebla de los Infantes, La", "state": "", "country": "ES", "coord": {"lon": -5.41071, "lat": 37.813271}}, {"id": 6361036, "name": "Rinconada, La", "state": "", "country": "ES", "coord": {"lon": -5.91013, "lat": 37.479481}}, {"id": 6361037, "name": "Roda de Andaluc\u00eda, La", "state": "", "country": "ES", "coord": {"lon": -4.78133, "lat": 37.20892}}, {"id": 6361038, "name": "Ronquillo, El", "state": "", "country": "ES", "coord": {"lon": -6.17136, "lat": 37.743328}}, {"id": 6361039, "name": "Rubio, El", "state": "", "country": "ES", "coord": {"lon": -5.00582, "lat": 37.342609}}, {"id": 6361040, "name": "Salteras", "state": "", "country": "ES", "coord": {"lon": -6.08014, "lat": 37.4515}}, {"id": 6361041, "name": "San Juan de Aznalfarache", "state": "", "country": "ES", "coord": {"lon": -6.03134, "lat": 37.36499}}, {"id": 6361042, "name": "Sanl\u00facar la Mayor", "state": "", "country": "ES", "coord": {"lon": -6.2354, "lat": 37.482979}}, {"id": 6361043, "name": "San Nicol\u00e1s del Puerto", "state": "", "country": "ES", "coord": {"lon": -5.64306, "lat": 37.98008}}, {"id": 6361044, "name": "Santiponce", "state": "", "country": "ES", "coord": {"lon": -6.02856, "lat": 37.433739}}, {"id": 6361045, "name": "Saucejo, El", "state": "", "country": "ES", "coord": {"lon": -5.09638, "lat": 37.078701}}, {"id": 6361046, "name": "Seville", "state": "", "country": "ES", "coord": {"lon": -5.95918, "lat": 37.391411}}, {"id": 6361047, "name": "Tocina", "state": "", "country": "ES", "coord": {"lon": -5.72413, "lat": 37.60107}}, {"id": 6361049, "name": "Umbrete", "state": "", "country": "ES", "coord": {"lon": -6.17262, "lat": 37.350189}}, {"id": 6361050, "name": "Utrera", "state": "", "country": "ES", "coord": {"lon": -5.78614, "lat": 37.086102}}, {"id": 6361051, "name": "Valencina de la Concepci\u00f3n", "state": "", "country": "ES", "coord": {"lon": -6.06969, "lat": 37.419338}}, {"id": 6361052, "name": "Villamanrique de la Condesa", "state": "", "country": "ES", "coord": {"lon": -6.31854, "lat": 37.238789}}, {"id": 6361053, "name": "Villanueva del Ariscal", "state": "", "country": "ES", "coord": {"lon": -6.13989, "lat": 37.39616}}, {"id": 6361054, "name": "Villanueva del R\u00edo y Minas", "state": "", "country": "ES", "coord": {"lon": -5.71075, "lat": 37.639111}}, {"id": 6361055, "name": "Villanueva de San Juan", "state": "", "country": "ES", "coord": {"lon": -5.18145, "lat": 37.082081}}, {"id": 6361056, "name": "Villaverde del R\u00edo", "state": "", "country": "ES", "coord": {"lon": -5.89514, "lat": 37.60083}}, {"id": 6361057, "name": "Viso del Alcor, El", "state": "", "country": "ES", "coord": {"lon": -5.71455, "lat": 37.388271}}, {"id": 6361058, "name": "Ca\u00f1ada Rosal", "state": "", "country": "ES", "coord": {"lon": -5.22413, "lat": 37.59996}}, {"id": 6361060, "name": "Cuervo de Sevilla, El", "state": "", "country": "ES", "coord": {"lon": -6.01245, "lat": 36.86924}}, {"id": 6361061, "name": "Abejar", "state": "", "country": "ES", "coord": {"lon": -2.7808, "lat": 41.800091}}, {"id": 6361062, "name": "Adradas", "state": "", "country": "ES", "coord": {"lon": -2.48342, "lat": 41.339958}}, {"id": 6361063, "name": "\u00c1greda", "state": "", "country": "ES", "coord": {"lon": -1.89357, "lat": 41.86137}}, {"id": 6361064, "name": "Alconaba", "state": "", "country": "ES", "coord": {"lon": -2.40383, "lat": 41.733921}}, {"id": 6361065, "name": "Alcubilla de Avellaneda", "state": "", "country": "ES", "coord": {"lon": -3.29502, "lat": 41.714169}}, {"id": 6361066, "name": "Alcubilla de las Pe\u00f1as", "state": "", "country": "ES", "coord": {"lon": -2.51096, "lat": 41.279339}}, {"id": 6361067, "name": "Aldealafuente", "state": "", "country": "ES", "coord": {"lon": -2.33059, "lat": 41.64481}}, {"id": 6361069, "name": "Aldealpozo", "state": "", "country": "ES", "coord": {"lon": -2.19488, "lat": 41.789841}}, {"id": 6361070, "name": "Aldealse\u00f1or", "state": "", "country": "ES", "coord": {"lon": -2.30846, "lat": 41.885368}}, {"id": 6361073, "name": "Alentisque", "state": "", "country": "ES", "coord": {"lon": -2.34387, "lat": 41.40123}}, {"id": 6361074, "name": "Aliud", "state": "", "country": "ES", "coord": {"lon": -2.24576, "lat": 41.655621}}, {"id": 6361075, "name": "Almajano", "state": "", "country": "ES", "coord": {"lon": -2.33618, "lat": 41.84639}}, {"id": 6361076, "name": "Almaluez", "state": "", "country": "ES", "coord": {"lon": -2.30941, "lat": 41.311298}}, {"id": 6361077, "name": "Almarza", "state": "", "country": "ES", "coord": {"lon": -2.46791, "lat": 41.942348}}, {"id": 6361078, "name": "Almaz\u00e1n", "state": "", "country": "ES", "coord": {"lon": -2.53581, "lat": 41.502838}}, {"id": 6361079, "name": "Almazul", "state": "", "country": "ES", "coord": {"lon": -2.15722, "lat": 41.565269}}, {"id": 6361080, "name": "Almenar de Soria", "state": "", "country": "ES", "coord": {"lon": -2.13928, "lat": 41.68325}}, {"id": 6361081, "name": "Alpanseque", "state": "", "country": "ES", "coord": {"lon": -2.69517, "lat": 41.27441}}, {"id": 6361082, "name": "Aranc\u00f3n", "state": "", "country": "ES", "coord": {"lon": -2.25082, "lat": 41.782928}}, {"id": 6361083, "name": "Arcos de Jal\u00f3n", "state": "", "country": "ES", "coord": {"lon": -2.28177, "lat": 41.191898}}, {"id": 6361084, "name": "Arenillas", "state": "", "country": "ES", "coord": {"lon": -2.83964, "lat": 41.335018}}, {"id": 6361085, "name": "Ar\u00e9valo de la Sierra", "state": "", "country": "ES", "coord": {"lon": -2.40715, "lat": 41.963509}}, {"id": 6361086, "name": "Ausejo de la Sierra", "state": "", "country": "ES", "coord": {"lon": -2.35781, "lat": 41.91328}}, {"id": 6361087, "name": "Baraona", "state": "", "country": "ES", "coord": {"lon": -2.62344, "lat": 41.29073}}, {"id": 6361088, "name": "Barca", "state": "", "country": "ES", "coord": {"lon": -2.63752, "lat": 41.455681}}, {"id": 6361089, "name": "Barcones", "state": "", "country": "ES", "coord": {"lon": -2.80589, "lat": 41.291672}}, {"id": 6361090, "name": "Bayubas de Abajo", "state": "", "country": "ES", "coord": {"lon": -2.90706, "lat": 41.517681}}, {"id": 6361091, "name": "Bayubas de Arriba", "state": "", "country": "ES", "coord": {"lon": -2.89343, "lat": 41.56049}}, {"id": 6361092, "name": "Berat\u00f3n", "state": "", "country": "ES", "coord": {"lon": -1.81891, "lat": 41.718849}}, {"id": 6361093, "name": "Berlanga de Duero", "state": "", "country": "ES", "coord": {"lon": -2.8624, "lat": 41.468029}}, {"id": 6361094, "name": "Blacos", "state": "", "country": "ES", "coord": {"lon": -2.87435, "lat": 41.695381}}, {"id": 6361095, "name": "Bliecos", "state": "", "country": "ES", "coord": {"lon": -2.26302, "lat": 41.533161}}, {"id": 6361096, "name": "Borjabad", "state": "", "country": "ES", "coord": {"lon": -2.40455, "lat": 41.56419}}, {"id": 6361097, "name": "Borobia", "state": "", "country": "ES", "coord": {"lon": -1.87719, "lat": 41.683781}}, {"id": 6361098, "name": "Buberos", "state": "", "country": "ES", "coord": {"lon": -2.17168, "lat": 41.651211}}, {"id": 6361099, "name": "Buitrago", "state": "", "country": "ES", "coord": {"lon": -2.40434, "lat": 41.843369}}, {"id": 6361100, "name": "Burgo de Osma-Ciudad de Osma", "state": "", "country": "ES", "coord": {"lon": -3.06524, "lat": 41.60363}}, {"id": 6361101, "name": "Cabrejas del Campo", "state": "", "country": "ES", "coord": {"lon": -2.27652, "lat": 41.691021}}, {"id": 6361102, "name": "Cabrejas del Pinar", "state": "", "country": "ES", "coord": {"lon": -2.88279, "lat": 41.771938}}, {"id": 6361103, "name": "Calata\u00f1azor", "state": "", "country": "ES", "coord": {"lon": -2.80085, "lat": 41.729}}, {"id": 6361104, "name": "Caltojar", "state": "", "country": "ES", "coord": {"lon": -2.7424, "lat": 41.40284}}, {"id": 6361105, "name": "Candilichera", "state": "", "country": "ES", "coord": {"lon": -2.29735, "lat": 41.73122}}, {"id": 6361106, "name": "Ca\u00f1amaque", "state": "", "country": "ES", "coord": {"lon": -2.224, "lat": 41.451759}}, {"id": 6361107, "name": "Carabantes", "state": "", "country": "ES", "coord": {"lon": -1.99117, "lat": 41.550079}}, {"id": 6361108, "name": "Caracena", "state": "", "country": "ES", "coord": {"lon": -3.10426, "lat": 41.393108}}, {"id": 6361109, "name": "Carrascosa de Abajo", "state": "", "country": "ES", "coord": {"lon": -3.09153, "lat": 41.430882}}, {"id": 6361110, "name": "Carrascosa de la Sierra", "state": "", "country": "ES", "coord": {"lon": -2.25673, "lat": 41.913609}}, {"id": 6361111, "name": "Casarejos", "state": "", "country": "ES", "coord": {"lon": -3.04972, "lat": 41.820759}}, {"id": 6361112, "name": "Castilfr\u00edo de la Sierra", "state": "", "country": "ES", "coord": {"lon": -2.29142, "lat": 41.93251}}, {"id": 6361113, "name": "Castilruiz", "state": "", "country": "ES", "coord": {"lon": -2.02015, "lat": 41.888531}}, {"id": 6361114, "name": "Castillejo de Robledo", "state": "", "country": "ES", "coord": {"lon": -3.50295, "lat": 41.572182}}, {"id": 6361115, "name": "Centenera de Andaluz", "state": "", "country": "ES", "coord": {"lon": -2.73541, "lat": 41.49929}}, {"id": 6361116, "name": "Cerb\u00f3n", "state": "", "country": "ES", "coord": {"lon": -2.16115, "lat": 41.947029}}, {"id": 6361117, "name": "Cidones", "state": "", "country": "ES", "coord": {"lon": -2.67197, "lat": 41.824131}}, {"id": 6361118, "name": "Cigudosa", "state": "", "country": "ES", "coord": {"lon": -2.06811, "lat": 41.933762}}, {"id": 6361119, "name": "Cihuela", "state": "", "country": "ES", "coord": {"lon": -1.98592, "lat": 41.416019}}, {"id": 6361120, "name": "Ciria", "state": "", "country": "ES", "coord": {"lon": -1.95677, "lat": 41.635151}}, {"id": 6361121, "name": "Cirujales del R\u00edo", "state": "", "country": "ES", "coord": {"lon": -2.3251, "lat": 41.86882}}, {"id": 6361122, "name": "Coscurita", "state": "", "country": "ES", "coord": {"lon": -2.47827, "lat": 41.43996}}, {"id": 6361123, "name": "Covaleda", "state": "", "country": "ES", "coord": {"lon": -2.87017, "lat": 41.950668}}, {"id": 6361124, "name": "Cubilla", "state": "", "country": "ES", "coord": {"lon": -2.94077, "lat": 41.734741}}, {"id": 6361125, "name": "Cubo de la Solana", "state": "", "country": "ES", "coord": {"lon": -2.471, "lat": 41.6087}}, {"id": 6361126, "name": "Cueva de \u00c1greda", "state": "", "country": "ES", "coord": {"lon": -1.88381, "lat": 41.7593}}, {"id": 6361128, "name": "Deza", "state": "", "country": "ES", "coord": {"lon": -2.02108, "lat": 41.48201}}, {"id": 6361129, "name": "Duruelo de la Sierra", "state": "", "country": "ES", "coord": {"lon": -2.92531, "lat": 41.966099}}, {"id": 6361130, "name": "Escobosa de Almaz\u00e1n", "state": "", "country": "ES", "coord": {"lon": -2.36862, "lat": 41.487728}}, {"id": 6361131, "name": "Espeja de San Marcelino", "state": "", "country": "ES", "coord": {"lon": -3.23546, "lat": 41.78363}}, {"id": 6361132, "name": "Espej\u00f3n", "state": "", "country": "ES", "coord": {"lon": -3.26815, "lat": 41.856491}}, {"id": 6361133, "name": "Estepa de San Juan", "state": "", "country": "ES", "coord": {"lon": -2.32035, "lat": 41.938839}}, {"id": 6361134, "name": "Frechilla de Almaz\u00e1n", "state": "", "country": "ES", "coord": {"lon": -2.51611, "lat": 41.421921}}, {"id": 6361135, "name": "Fresno de Caracena", "state": "", "country": "ES", "coord": {"lon": -3.1031, "lat": 41.458809}}, {"id": 6361136, "name": "Fuentearmegil", "state": "", "country": "ES", "coord": {"lon": -3.18863, "lat": 41.715462}}, {"id": 6361137, "name": "Fuentecambr\u00f3n", "state": "", "country": "ES", "coord": {"lon": -3.33711, "lat": 41.490311}}, {"id": 6361138, "name": "Fuentecantos", "state": "", "country": "ES", "coord": {"lon": -2.4323, "lat": 41.84425}}, {"id": 6361140, "name": "Fuentelsaz de Soria", "state": "", "country": "ES", "coord": {"lon": -2.42579, "lat": 41.868961}}, {"id": 6361141, "name": "Fuentepinilla", "state": "", "country": "ES", "coord": {"lon": -2.74577, "lat": 41.553452}}, {"id": 6361142, "name": "Fuentes de Maga\u00f1a", "state": "", "country": "ES", "coord": {"lon": -2.20067, "lat": 41.929501}}, {"id": 6361143, "name": "Fuentestr\u00fan", "state": "", "country": "ES", "coord": {"lon": -2.09369, "lat": 41.862999}}, {"id": 6361144, "name": "Garray", "state": "", "country": "ES", "coord": {"lon": -2.49639, "lat": 41.83744}}, {"id": 6361145, "name": "Golmayo", "state": "", "country": "ES", "coord": {"lon": -2.64966, "lat": 41.722542}}, {"id": 6361146, "name": "G\u00f3mara", "state": "", "country": "ES", "coord": {"lon": -2.22196, "lat": 41.590672}}, {"id": 6361147, "name": "Gormaz", "state": "", "country": "ES", "coord": {"lon": -3.01404, "lat": 41.510761}}, {"id": 6361148, "name": "Herrera de Soria", "state": "", "country": "ES", "coord": {"lon": -3.03936, "lat": 41.76194}}, {"id": 6361149, "name": "Hinojosa del Campo", "state": "", "country": "ES", "coord": {"lon": -2.08476, "lat": 41.74678}}, {"id": 6361150, "name": "Langa de Duero", "state": "", "country": "ES", "coord": {"lon": -3.36973, "lat": 41.618}}, {"id": 6361151, "name": "Liceras", "state": "", "country": "ES", "coord": {"lon": -3.23328, "lat": 41.398258}}, {"id": 6361153, "name": "Maga\u00f1a", "state": "", "country": "ES", "coord": {"lon": -2.18344, "lat": 41.89299}}, {"id": 6361154, "name": "Maj\u00e1n", "state": "", "country": "ES", "coord": {"lon": -2.29761, "lat": 41.468441}}, {"id": 6361155, "name": "Matalebreras", "state": "", "country": "ES", "coord": {"lon": -2.05464, "lat": 41.829418}}, {"id": 6361156, "name": "Matamala de Almaz\u00e1n", "state": "", "country": "ES", "coord": {"lon": -2.63169, "lat": 41.494839}}, {"id": 6361157, "name": "Medinaceli", "state": "", "country": "ES", "coord": {"lon": -2.41892, "lat": 41.155472}}, {"id": 6361159, "name": "Mi\u00f1o de San Esteban", "state": "", "country": "ES", "coord": {"lon": -3.3418, "lat": 41.553181}}, {"id": 6361160, "name": "Molinos de Duero", "state": "", "country": "ES", "coord": {"lon": -2.8276, "lat": 41.882511}}, {"id": 6361161, "name": "Momblona", "state": "", "country": "ES", "coord": {"lon": -2.32416, "lat": 41.441261}}, {"id": 6361162, "name": "Monteagudo de las Vicar\u00edas", "state": "", "country": "ES", "coord": {"lon": -2.20382, "lat": 41.375332}}, {"id": 6361163, "name": "Montejo de Tiermes", "state": "", "country": "ES", "coord": {"lon": -3.20805, "lat": 41.383709}}, {"id": 6361164, "name": "Montenegro de Cameros", "state": "", "country": "ES", "coord": {"lon": -2.74913, "lat": 42.086349}}, {"id": 6361165, "name": "Mor\u00f3n de Almaz\u00e1n", "state": "", "country": "ES", "coord": {"lon": -2.38518, "lat": 41.40184}}, {"id": 6361166, "name": "Muriel de la Fuente", "state": "", "country": "ES", "coord": {"lon": -2.86784, "lat": 41.725071}}, {"id": 6361167, "name": "Muriel Viejo", "state": "", "country": "ES", "coord": {"lon": -2.9078, "lat": 41.77626}}, {"id": 6361168, "name": "Nafr\u00eda de Ucero", "state": "", "country": "ES", "coord": {"lon": -3.10085, "lat": 41.721458}}, {"id": 6361169, "name": "Narros", "state": "", "country": "ES", "coord": {"lon": -2.27753, "lat": 41.852951}}, {"id": 6361170, "name": "Navaleno", "state": "", "country": "ES", "coord": {"lon": -3.00553, "lat": 41.851181}}, {"id": 6361171, "name": "Nepas", "state": "", "country": "ES", "coord": {"lon": -2.40953, "lat": 41.514992}}, {"id": 6361172, "name": "Nolay", "state": "", "country": "ES", "coord": {"lon": -2.34514, "lat": 41.522518}}, {"id": 6361173, "name": "Noviercas", "state": "", "country": "ES", "coord": {"lon": -1.99236, "lat": 41.689659}}, {"id": 6361174, "name": "\u00d3lvega", "state": "", "country": "ES", "coord": {"lon": -1.97983, "lat": 41.791481}}, {"id": 6361175, "name": "Oncala", "state": "", "country": "ES", "coord": {"lon": -2.28793, "lat": 41.96629}}, {"id": 6361176, "name": "Pinilla del Campo", "state": "", "country": "ES", "coord": {"lon": -2.10784, "lat": 41.70927}}, {"id": 6361177, "name": "Portillo de Soria", "state": "", "country": "ES", "coord": {"lon": -2.11507, "lat": 41.631962}}, {"id": 6361179, "name": "Pozalmuro", "state": "", "country": "ES", "coord": {"lon": -2.10294, "lat": 41.771801}}, {"id": 6361180, "name": "Quintana Redonda", "state": "", "country": "ES", "coord": {"lon": -2.64692, "lat": 41.622608}}, {"id": 6361181, "name": "Quintanas de Gormaz", "state": "", "country": "ES", "coord": {"lon": -2.96223, "lat": 41.50396}}, {"id": 6361183, "name": "R\u00e1banos, Los", "state": "", "country": "ES", "coord": {"lon": -2.47565, "lat": 41.685169}}, {"id": 6361185, "name": "Recuerda", "state": "", "country": "ES", "coord": {"lon": -2.99482, "lat": 41.444111}}, {"id": 6361186, "name": "Rello", "state": "", "country": "ES", "coord": {"lon": -2.74951, "lat": 41.334431}}, {"id": 6361187, "name": "Renieblas", "state": "", "country": "ES", "coord": {"lon": -2.36678, "lat": 41.801991}}, {"id": 6361188, "name": "Retortillo de Soria", "state": "", "country": "ES", "coord": {"lon": -3.02336, "lat": 41.3256}}, {"id": 6361189, "name": "Reznos", "state": "", "country": "ES", "coord": {"lon": -2.01441, "lat": 41.594421}}, {"id": 6361191, "name": "Rioseco de Soria", "state": "", "country": "ES", "coord": {"lon": -2.87734, "lat": 41.649288}}, {"id": 6361192, "name": "Rollamienta", "state": "", "country": "ES", "coord": {"lon": -2.53021, "lat": 41.933331}}, {"id": 6361193, "name": "Royo, El", "state": "", "country": "ES", "coord": {"lon": -2.67195, "lat": 41.92469}}, {"id": 6361194, "name": "Salduero", "state": "", "country": "ES", "coord": {"lon": -2.80906, "lat": 41.899139}}, {"id": 6361195, "name": "San Esteban de Gormaz", "state": "", "country": "ES", "coord": {"lon": -3.2284, "lat": 41.548141}}, {"id": 6361196, "name": "San Felices", "state": "", "country": "ES", "coord": {"lon": -2.01478, "lat": 41.92347}}, {"id": 6361197, "name": "San Leonardo de Yag\u00fce", "state": "", "country": "ES", "coord": {"lon": -3.08203, "lat": 41.831821}}, {"id": 6361198, "name": "San Pedro Manrique", "state": "", "country": "ES", "coord": {"lon": -2.17841, "lat": 42.03817}}, {"id": 6361199, "name": "Santa Cruz de Yanguas", "state": "", "country": "ES", "coord": {"lon": -2.46783, "lat": 42.065922}}, {"id": 6361200, "name": "Santa Mar\u00eda de Huerta", "state": "", "country": "ES", "coord": {"lon": -2.16484, "lat": 41.220711}}, {"id": 6361201, "name": "Santa Mar\u00eda de las Hoyas", "state": "", "country": "ES", "coord": {"lon": -3.12715, "lat": 41.776421}}, {"id": 6361203, "name": "Soliedra", "state": "", "country": "ES", "coord": {"lon": -2.39182, "lat": 41.45945}}, {"id": 6361204, "name": "Soria", "state": "", "country": "ES", "coord": {"lon": -2.65119, "lat": 41.81517}}, {"id": 6361205, "name": "Sotillo del Rinc\u00f3n", "state": "", "country": "ES", "coord": {"lon": -2.61484, "lat": 41.957321}}, {"id": 6361206, "name": "Suellacabras", "state": "", "country": "ES", "coord": {"lon": -2.20212, "lat": 41.860142}}, {"id": 6361207, "name": "Tajahuerce", "state": "", "country": "ES", "coord": {"lon": -2.15802, "lat": 41.75021}}, {"id": 6361208, "name": "Tajueco", "state": "", "country": "ES", "coord": {"lon": -2.84637, "lat": 41.53717}}, {"id": 6361210, "name": "Tardelcuende", "state": "", "country": "ES", "coord": {"lon": -2.63003, "lat": 41.59037}}, {"id": 6361211, "name": "Taroda", "state": "", "country": "ES", "coord": {"lon": -2.42967, "lat": 41.325729}}, {"id": 6361212, "name": "Tejado", "state": "", "country": "ES", "coord": {"lon": -2.3024, "lat": 41.58271}}, {"id": 6361213, "name": "Torlengua", "state": "", "country": "ES", "coord": {"lon": -2.13468, "lat": 41.460522}}, {"id": 6361214, "name": "Torreblacos", "state": "", "country": "ES", "coord": {"lon": -2.89311, "lat": 41.673241}}, {"id": 6361215, "name": "Torrubia de Soria", "state": "", "country": "ES", "coord": {"lon": -2.06052, "lat": 41.630051}}, {"id": 6361217, "name": "Ucero", "state": "", "country": "ES", "coord": {"lon": -3.05952, "lat": 41.724171}}, {"id": 6361218, "name": "Vadillo", "state": "", "country": "ES", "coord": {"lon": -3.00242, "lat": 41.815392}}, {"id": 6361219, "name": "Valdeavellano de Tera", "state": "", "country": "ES", "coord": {"lon": -2.57534, "lat": 41.936291}}, {"id": 6361221, "name": "Valdelagua del Cerro", "state": "", "country": "ES", "coord": {"lon": -2.11066, "lat": 41.887482}}, {"id": 6361222, "name": "Valdemaluque", "state": "", "country": "ES", "coord": {"lon": -3.03965, "lat": 41.688469}}, {"id": 6361223, "name": "Valdenebro", "state": "", "country": "ES", "coord": {"lon": -2.92727, "lat": 41.587601}}, {"id": 6361224, "name": "Valdeprado", "state": "", "country": "ES", "coord": {"lon": -2.12734, "lat": 41.95335}}, {"id": 6361225, "name": "Valderrodilla", "state": "", "country": "ES", "coord": {"lon": -2.81163, "lat": 41.567249}}, {"id": 6361226, "name": "Valtajeros", "state": "", "country": "ES", "coord": {"lon": -2.23296, "lat": 41.939251}}, {"id": 6361227, "name": "Velamaz\u00e1n", "state": "", "country": "ES", "coord": {"lon": -2.72872, "lat": 41.483921}}, {"id": 6361229, "name": "Velilla de los Ajos", "state": "", "country": "ES", "coord": {"lon": -2.27836, "lat": 41.496681}}, {"id": 6361230, "name": "Viana de Duero", "state": "", "country": "ES", "coord": {"lon": -2.46349, "lat": 41.526371}}, {"id": 6361231, "name": "Villaciervos", "state": "", "country": "ES", "coord": {"lon": -2.65912, "lat": 41.76815}}, {"id": 6361232, "name": "Villanueva de Gormaz", "state": "", "country": "ES", "coord": {"lon": -3.05758, "lat": 41.474529}}, {"id": 6361233, "name": "Villar del Ala", "state": "", "country": "ES", "coord": {"lon": -2.56089, "lat": 41.914371}}, {"id": 6361234, "name": "Villar del Campo", "state": "", "country": "ES", "coord": {"lon": -2.14937, "lat": 41.79623}}, {"id": 6361235, "name": "Villar del R\u00edo", "state": "", "country": "ES", "coord": {"lon": -2.39935, "lat": 42.06356}}, {"id": 6361237, "name": "Villasayas", "state": "", "country": "ES", "coord": {"lon": -2.61607, "lat": 41.3582}}, {"id": 6361238, "name": "Villaseca de Arciel", "state": "", "country": "ES", "coord": {"lon": -2.1477, "lat": 41.618568}}, {"id": 6361239, "name": "Vinuesa", "state": "", "country": "ES", "coord": {"lon": -2.77398, "lat": 41.950008}}, {"id": 6361240, "name": "Vizmanos", "state": "", "country": "ES", "coord": {"lon": -2.40562, "lat": 42.03693}}, {"id": 6361241, "name": "Vozmediano", "state": "", "country": "ES", "coord": {"lon": -1.83876, "lat": 41.842049}}, {"id": 6361242, "name": "Yanguas", "state": "", "country": "ES", "coord": {"lon": -2.32504, "lat": 42.117161}}, {"id": 6361243, "name": "Yelo", "state": "", "country": "ES", "coord": {"lon": -2.542, "lat": 41.220219}}, {"id": 6361245, "name": "Albinyana", "state": "", "country": "ES", "coord": {"lon": 1.49536, "lat": 41.241879}}, {"id": 6361248, "name": "Alcover", "state": "", "country": "ES", "coord": {"lon": 1.16649, "lat": 41.269249}}, {"id": 6361252, "name": "Alforja", "state": "", "country": "ES", "coord": {"lon": 0.95248, "lat": 41.205898}}, {"id": 6361253, "name": "Ali\u00f3", "state": "", "country": "ES", "coord": {"lon": 1.3115, "lat": 41.298199}}, {"id": 6361255, "name": "Altafulla", "state": "", "country": "ES", "coord": {"lon": 1.38422, "lat": 41.154881}}, {"id": 6361256, "name": "l'Ametlla de Mar", "state": "", "country": "ES", "coord": {"lon": 0.79242, "lat": 40.896278}}, {"id": 6361257, "name": "Amposta", "state": "", "country": "ES", "coord": {"lon": 0.57781, "lat": 40.708881}}, {"id": 6361260, "name": "l'Argentera", "state": "", "country": "ES", "coord": {"lon": 0.90497, "lat": 41.134579}}, {"id": 6361262, "name": "Asc\u00f3", "state": "", "country": "ES", "coord": {"lon": 0.55208, "lat": 41.16288}}, {"id": 6361263, "name": "Banyeres del Pened\u00e8s", "state": "", "country": "ES", "coord": {"lon": 1.56095, "lat": 41.270401}}, {"id": 6361265, "name": "Batea", "state": "", "country": "ES", "coord": {"lon": 0.30247, "lat": 41.10664}}, {"id": 6361267, "name": "Bellvei", "state": "", "country": "ES", "coord": {"lon": 1.57155, "lat": 41.236382}}, {"id": 6361268, "name": "Benifallet", "state": "", "country": "ES", "coord": {"lon": 0.52388, "lat": 40.966011}}, {"id": 6361271, "name": "la Bisbal del Pened\u00e8s", "state": "", "country": "ES", "coord": {"lon": 1.4793, "lat": 41.279598}}, {"id": 6361272, "name": "Blancafort", "state": "", "country": "ES", "coord": {"lon": 1.15771, "lat": 41.444691}}, {"id": 6361273, "name": "Bonastre", "state": "", "country": "ES", "coord": {"lon": 1.43872, "lat": 41.220268}}, {"id": 6361275, "name": "Bot", "state": "", "country": "ES", "coord": {"lon": 0.36712, "lat": 41.017529}}, {"id": 6361276, "name": "Botarell", "state": "", "country": "ES", "coord": {"lon": 1.00665, "lat": 41.153782}}, {"id": 6361279, "name": "Cabra del Camp", "state": "", "country": "ES", "coord": {"lon": 1.30935, "lat": 41.401009}}, {"id": 6361280, "name": "Calafell", "state": "", "country": "ES", "coord": {"lon": 1.56521, "lat": 41.199322}}, {"id": 6361281, "name": "Cambrils", "state": "", "country": "ES", "coord": {"lon": 1.04832, "lat": 41.07613}}, {"id": 6361282, "name": "Capafonts", "state": "", "country": "ES", "coord": {"lon": 1.02824, "lat": 41.295952}}, {"id": 6361284, "name": "Caseres", "state": "", "country": "ES", "coord": {"lon": 0.27683, "lat": 41.04488}}, {"id": 6361286, "name": "el Catllar", "state": "", "country": "ES", "coord": {"lon": 1.31205, "lat": 41.179729}}, {"id": 6361288, "name": "Colldejou", "state": "", "country": "ES", "coord": {"lon": 0.88457, "lat": 41.099018}}, {"id": 6361289, "name": "Conesa", "state": "", "country": "ES", "coord": {"lon": 1.28158, "lat": 41.5168}}, {"id": 6361290, "name": "Constant\u00ed", "state": "", "country": "ES", "coord": {"lon": 1.21056, "lat": 41.15358}}, {"id": 6361292, "name": "Cornudella de Montsant", "state": "", "country": "ES", "coord": {"lon": 0.92856, "lat": 41.26387}}, {"id": 6361293, "name": "Creixell", "state": "", "country": "ES", "coord": {"lon": 1.43177, "lat": 41.184601}}, {"id": 6361294, "name": "Cunit", "state": "", "country": "ES", "coord": {"lon": 1.63319, "lat": 41.19751}}, {"id": 6361296, "name": "Duesaig\u00fces", "state": "", "country": "ES", "coord": {"lon": 0.9255, "lat": 41.162109}}, {"id": 6361299, "name": "la Fatarella", "state": "", "country": "ES", "coord": {"lon": 0.48756, "lat": 41.159679}}, {"id": 6361302, "name": "Figuerola del Camp", "state": "", "country": "ES", "coord": {"lon": 1.25968, "lat": 41.362289}}, {"id": 6361303, "name": "Flix", "state": "", "country": "ES", "coord": {"lon": 0.54794, "lat": 41.228771}}, {"id": 6361304, "name": "For\u00e8s", "state": "", "country": "ES", "coord": {"lon": 1.23693, "lat": 41.50108}}, {"id": 6361306, "name": "la Galera", "state": "", "country": "ES", "coord": {"lon": 0.44895, "lat": 40.696629}}, {"id": 6361307, "name": "Gandesa", "state": "", "country": "ES", "coord": {"lon": 0.4326, "lat": 41.0481}}, {"id": 6361308, "name": "Garcia", "state": "", "country": "ES", "coord": {"lon": 0.65274, "lat": 41.14151}}, {"id": 6361310, "name": "Ginestar", "state": "", "country": "ES", "coord": {"lon": 0.63303, "lat": 41.026878}}, {"id": 6361314, "name": "Horta de Sant Joan", "state": "", "country": "ES", "coord": {"lon": 0.31646, "lat": 40.94458}}, {"id": 6361318, "name": "Margalef", "state": "", "country": "ES", "coord": {"lon": 0.78046, "lat": 41.303661}}, {"id": 6361319, "name": "Mar\u00e7\u00e0", "state": "", "country": "ES", "coord": {"lon": 0.80607, "lat": 41.1241}}, {"id": 6361320, "name": "Mas de Barberans", "state": "", "country": "ES", "coord": {"lon": 0.35516, "lat": 40.716869}}, {"id": 6361321, "name": "Masdenverge", "state": "", "country": "ES", "coord": {"lon": 0.52834, "lat": 40.717079}}, {"id": 6361325, "name": "el Masroig", "state": "", "country": "ES", "coord": {"lon": 0.72617, "lat": 41.132092}}, {"id": 6361327, "name": "Miravet", "state": "", "country": "ES", "coord": {"lon": 0.5817, "lat": 41.043701}}, {"id": 6361329, "name": "Montblanc", "state": "", "country": "ES", "coord": {"lon": 1.14321, "lat": 41.346519}}, {"id": 6361331, "name": "Montferri", "state": "", "country": "ES", "coord": {"lon": 1.3782, "lat": 41.26202}}, {"id": 6361332, "name": "el Montmell", "state": "", "country": "ES", "coord": {"lon": 1.49613, "lat": 41.335091}}, {"id": 6361333, "name": "Mont-ral", "state": "", "country": "ES", "coord": {"lon": 1.1112, "lat": 41.29911}}, {"id": 6361338, "name": "la Morera de Montsant", "state": "", "country": "ES", "coord": {"lon": 0.83942, "lat": 41.264}}, {"id": 6361342, "name": "els Pallaresos", "state": "", "country": "ES", "coord": {"lon": 1.25836, "lat": 41.169491}}, {"id": 6361346, "name": "el Perell\u00f3", "state": "", "country": "ES", "coord": {"lon": 0.68802, "lat": 40.858261}}, {"id": 6361350, "name": "el Pla de Santa Maria", "state": "", "country": "ES", "coord": {"lon": 1.30467, "lat": 41.34153}}, {"id": 6361352, "name": "la Pobla de Massaluca", "state": "", "country": "ES", "coord": {"lon": 0.36024, "lat": 41.194481}}, {"id": 6361358, "name": "Prades", "state": "", "country": "ES", "coord": {"lon": 1.01632, "lat": 41.32103}}, {"id": 6361361, "name": "Puigpelat", "state": "", "country": "ES", "coord": {"lon": 1.2987, "lat": 41.277271}}, {"id": 6361362, "name": "Querol", "state": "", "country": "ES", "coord": {"lon": 1.43839, "lat": 41.420219}}, {"id": 6361363, "name": "Rasquera", "state": "", "country": "ES", "coord": {"lon": 0.61309, "lat": 40.976292}}, {"id": 6361364, "name": "Renau", "state": "", "country": "ES", "coord": {"lon": 1.31742, "lat": 41.21793}}, {"id": 6361365, "name": "Reus", "state": "", "country": "ES", "coord": {"lon": 1.10533, "lat": 41.155521}}, {"id": 6361369, "name": "Riudecanyes", "state": "", "country": "ES", "coord": {"lon": 0.95195, "lat": 41.133862}}, {"id": 6361370, "name": "Riudecols", "state": "", "country": "ES", "coord": {"lon": 0.96204, "lat": 41.17548}}, {"id": 6361371, "name": "Riudoms", "state": "", "country": "ES", "coord": {"lon": 1.0571, "lat": 41.14307}}, {"id": 6361373, "name": "Roda de Bar\u00e0", "state": "", "country": "ES", "coord": {"lon": 1.466, "lat": 41.177601}}, {"id": 6361377, "name": "Salom\u00f3", "state": "", "country": "ES", "coord": {"lon": 1.36258, "lat": 41.238258}}, {"id": 6361378, "name": "Sant Carles de la R\u00e0pita", "state": "", "country": "ES", "coord": {"lon": 0.63991, "lat": 40.599018}}, {"id": 6361379, "name": "Sant Jaume dels Domenys", "state": "", "country": "ES", "coord": {"lon": 1.55844, "lat": 41.3046}}, {"id": 6361380, "name": "Santa B\u00e0rbara", "state": "", "country": "ES", "coord": {"lon": 0.48769, "lat": 40.725529}}, {"id": 6361381, "name": "Santa Coloma de Queralt", "state": "", "country": "ES", "coord": {"lon": 1.39142, "lat": 41.5466}}, {"id": 6361386, "name": "la Secuita", "state": "", "country": "ES", "coord": {"lon": 1.28413, "lat": 41.21526}}, {"id": 6361387, "name": "la Selva del Camp", "state": "", "country": "ES", "coord": {"lon": 1.12996, "lat": 41.21143}}, {"id": 6361388, "name": "Senan", "state": "", "country": "ES", "coord": {"lon": 1.07415, "lat": 41.477421}}, {"id": 6361390, "name": "Tarragona", "state": "", "country": "ES", "coord": {"lon": 1.26639, "lat": 41.123859}}, {"id": 6361391, "name": "Tivenys", "state": "", "country": "ES", "coord": {"lon": 0.56806, "lat": 40.913368}}, {"id": 6361392, "name": "Tivissa", "state": "", "country": "ES", "coord": {"lon": 0.75886, "lat": 41.033009}}, {"id": 6361395, "name": "Torredembarra", "state": "", "country": "ES", "coord": {"lon": 1.40506, "lat": 41.14888}}, {"id": 6361397, "name": "Tortosa", "state": "", "country": "ES", "coord": {"lon": 0.47756, "lat": 40.83485}}, {"id": 6361398, "name": "Ulldecona", "state": "", "country": "ES", "coord": {"lon": 0.44726, "lat": 40.59724}}, {"id": 6361399, "name": "Ulldemolins", "state": "", "country": "ES", "coord": {"lon": 0.85445, "lat": 41.317909}}, {"id": 6361400, "name": "Vallclara", "state": "", "country": "ES", "coord": {"lon": 0.9868, "lat": 41.369991}}, {"id": 6361401, "name": "Vallfogona de Riucorb", "state": "", "country": "ES", "coord": {"lon": 1.23892, "lat": 41.559589}}, {"id": 6361403, "name": "Valls", "state": "", "country": "ES", "coord": {"lon": 1.23633, "lat": 41.291111}}, {"id": 6361404, "name": "Vandell\u00f2s i l'Hospitalet de l'Infant", "state": "", "country": "ES", "coord": {"lon": 0.8642, "lat": 40.99445}}, {"id": 6361405, "name": "el Vendrell", "state": "", "country": "ES", "coord": {"lon": 1.52882, "lat": 41.20657}}, {"id": 6361407, "name": "Vilabella", "state": "", "country": "ES", "coord": {"lon": 1.33388, "lat": 41.242668}}, {"id": 6361409, "name": "Vilanova d'Escornalbou", "state": "", "country": "ES", "coord": {"lon": 0.93067, "lat": 41.111881}}, {"id": 6361410, "name": "Vilanova de Prades", "state": "", "country": "ES", "coord": {"lon": 0.94561, "lat": 41.34412}}, {"id": 6361411, "name": "Vilaplana", "state": "", "country": "ES", "coord": {"lon": 1.02463, "lat": 41.248421}}, {"id": 6361412, "name": "Vila-rodona", "state": "", "country": "ES", "coord": {"lon": 1.36844, "lat": 41.311588}}, {"id": 6361413, "name": "Vila-seca", "state": "", "country": "ES", "coord": {"lon": 1.14975, "lat": 41.090969}}, {"id": 6361417, "name": "Vilalba dels Arcs", "state": "", "country": "ES", "coord": {"lon": 0.39473, "lat": 41.159908}}, {"id": 6361418, "name": "Vimbod\u00ed i Poblet", "state": "", "country": "ES", "coord": {"lon": 1.04664, "lat": 41.362331}}, {"id": 6361419, "name": "Vinebre", "state": "", "country": "ES", "coord": {"lon": 0.63038, "lat": 41.21743}}, {"id": 6361421, "name": "Deltebre", "state": "", "country": "ES", "coord": {"lon": 0.7868, "lat": 40.74987}}, {"id": 6361423, "name": "Camarles", "state": "", "country": "ES", "coord": {"lon": 0.64348, "lat": 40.790932}}, {"id": 6361426, "name": "l'Ampolla", "state": "", "country": "ES", "coord": {"lon": 0.69306, "lat": 40.8302}}, {"id": 6361427, "name": "Ababuj", "state": "", "country": "ES", "coord": {"lon": -0.82612, "lat": 40.551472}}, {"id": 6361429, "name": "Aguat\u00f3n", "state": "", "country": "ES", "coord": {"lon": -1.22497, "lat": 40.668449}}, {"id": 6361430, "name": "Aguaviva", "state": "", "country": "ES", "coord": {"lon": -0.19909, "lat": 40.822029}}, {"id": 6361431, "name": "Aguilar del Alfambra", "state": "", "country": "ES", "coord": {"lon": -0.8135, "lat": 40.58947}}, {"id": 6361432, "name": "Alac\u00f3n", "state": "", "country": "ES", "coord": {"lon": -0.70769, "lat": 41.05331}}, {"id": 6361433, "name": "Alba", "state": "", "country": "ES", "coord": {"lon": -1.35822, "lat": 40.616451}}, {"id": 6361434, "name": "Albalate del Arzobispo", "state": "", "country": "ES", "coord": {"lon": -0.58158, "lat": 41.113628}}, {"id": 6361435, "name": "Albarrac\u00edn", "state": "", "country": "ES", "coord": {"lon": -1.54087, "lat": 40.363289}}, {"id": 6361437, "name": "Alcaine", "state": "", "country": "ES", "coord": {"lon": -0.70665, "lat": 40.951809}}, {"id": 6361438, "name": "Alcal\u00e1 de la Selva", "state": "", "country": "ES", "coord": {"lon": -0.69776, "lat": 40.356892}}, {"id": 6361439, "name": "Alca\u00f1iz", "state": "", "country": "ES", "coord": {"lon": -0.19124, "lat": 41.050171}}, {"id": 6361440, "name": "Alcorisa", "state": "", "country": "ES", "coord": {"lon": -0.35186, "lat": 40.92783}}, {"id": 6361441, "name": "Alfambra", "state": "", "country": "ES", "coord": {"lon": -1.03353, "lat": 40.530289}}, {"id": 6361442, "name": "Aliaga", "state": "", "country": "ES", "coord": {"lon": -0.67562, "lat": 40.68462}}, {"id": 6361443, "name": "Almohaja", "state": "", "country": "ES", "coord": {"lon": -1.4309, "lat": 40.60265}}, {"id": 6361444, "name": "Alobras", "state": "", "country": "ES", "coord": {"lon": -1.38224, "lat": 40.185329}}, {"id": 6361445, "name": "Alpe\u00f1\u00e9s", "state": "", "country": "ES", "coord": {"lon": -1.0775, "lat": 40.805241}}, {"id": 6361446, "name": "Allepuz", "state": "", "country": "ES", "coord": {"lon": -0.67916, "lat": 40.469879}}, {"id": 6361447, "name": "Alloza", "state": "", "country": "ES", "coord": {"lon": -0.54874, "lat": 40.967651}}, {"id": 6361448, "name": "Allueva", "state": "", "country": "ES", "coord": {"lon": -1.04151, "lat": 40.980881}}, {"id": 6361449, "name": "Anad\u00f3n", "state": "", "country": "ES", "coord": {"lon": -0.96964, "lat": 40.987}}, {"id": 6361450, "name": "Andorra", "state": "", "country": "ES", "coord": {"lon": -0.41223, "lat": 41.021252}}, {"id": 6361451, "name": "Arcos de las Salinas", "state": "", "country": "ES", "coord": {"lon": -1.05553, "lat": 40.01302}}, {"id": 6361452, "name": "Arenys de Lled\u00f3 / Arens de Lled\u00f3", "state": "", "country": "ES", "coord": {"lon": 0.26779, "lat": 40.99247}}, {"id": 6361453, "name": "Argente", "state": "", "country": "ES", "coord": {"lon": -1.17901, "lat": 40.692169}}, {"id": 6361454, "name": "Ari\u00f1o", "state": "", "country": "ES", "coord": {"lon": -0.60491, "lat": 41.050461}}, {"id": 6361456, "name": "B\u00e1denas", "state": "", "country": "ES", "coord": {"lon": -1.12129, "lat": 41.092079}}, {"id": 6361457, "name": "B\u00e1guena", "state": "", "country": "ES", "coord": {"lon": -1.34987, "lat": 41.034679}}, {"id": 6361458, "name": "Ba\u00f1\u00f3n", "state": "", "country": "ES", "coord": {"lon": -1.2119, "lat": 40.828091}}, {"id": 6361459, "name": "Barrachina", "state": "", "country": "ES", "coord": {"lon": -1.14236, "lat": 40.89006}}, {"id": 6361460, "name": "Bea", "state": "", "country": "ES", "coord": {"lon": -1.13763, "lat": 41.01984}}, {"id": 6361463, "name": "Bello", "state": "", "country": "ES", "coord": {"lon": -1.51313, "lat": 40.915699}}, {"id": 6361464, "name": "Berge", "state": "", "country": "ES", "coord": {"lon": -0.41056, "lat": 40.848991}}, {"id": 6361465, "name": "Bezas", "state": "", "country": "ES", "coord": {"lon": -1.32885, "lat": 40.32888}}, {"id": 6361466, "name": "Blancas", "state": "", "country": "ES", "coord": {"lon": -1.47038, "lat": 40.822571}}, {"id": 6361467, "name": "Blesa", "state": "", "country": "ES", "coord": {"lon": -0.90216, "lat": 41.077412}}, {"id": 6361468, "name": "Bord\u00f3n", "state": "", "country": "ES", "coord": {"lon": -0.3448, "lat": 40.685558}}, {"id": 6361469, "name": "Bronchales", "state": "", "country": "ES", "coord": {"lon": -1.55935, "lat": 40.52853}}, {"id": 6361470, "name": "Bue\u00f1a", "state": "", "country": "ES", "coord": {"lon": -1.27097, "lat": 40.716789}}, {"id": 6361471, "name": "Burb\u00e1guena", "state": "", "country": "ES", "coord": {"lon": -1.33659, "lat": 41.01096}}, {"id": 6361472, "name": "Cabra de Mora", "state": "", "country": "ES", "coord": {"lon": -0.81042, "lat": 40.30624}}, {"id": 6361473, "name": "Calaceite", "state": "", "country": "ES", "coord": {"lon": 0.20279, "lat": 41.014832}}, {"id": 6361474, "name": "Calamocha", "state": "", "country": "ES", "coord": {"lon": -1.23548, "lat": 40.94825}}, {"id": 6361475, "name": "Calanda", "state": "", "country": "ES", "coord": {"lon": -0.21098, "lat": 40.937229}}, {"id": 6361476, "name": "Calomarde", "state": "", "country": "ES", "coord": {"lon": -1.57658, "lat": 40.372002}}, {"id": 6361477, "name": "Cama\u00f1as", "state": "", "country": "ES", "coord": {"lon": -1.1519, "lat": 40.601028}}, {"id": 6361478, "name": "Camarena de la Sierra", "state": "", "country": "ES", "coord": {"lon": -1.0581, "lat": 40.133121}}, {"id": 6361479, "name": "Camarillas", "state": "", "country": "ES", "coord": {"lon": -0.76852, "lat": 40.62146}}, {"id": 6361480, "name": "Caminreal", "state": "", "country": "ES", "coord": {"lon": -1.34201, "lat": 40.841179}}, {"id": 6361481, "name": "Cantavieja", "state": "", "country": "ES", "coord": {"lon": -0.35791, "lat": 40.52235}}, {"id": 6361482, "name": "Ca\u00f1ada de Benatanduz", "state": "", "country": "ES", "coord": {"lon": -0.52753, "lat": 40.58445}}, {"id": 6361484, "name": "Ca\u00f1ada Vellida", "state": "", "country": "ES", "coord": {"lon": -0.922, "lat": 40.702919}}, {"id": 6361485, "name": "Ca\u00f1izar del Olivar", "state": "", "country": "ES", "coord": {"lon": -0.64647, "lat": 40.795311}}, {"id": 6361486, "name": "Cascante del R\u00edo", "state": "", "country": "ES", "coord": {"lon": -1.13487, "lat": 40.194881}}, {"id": 6361487, "name": "Castej\u00f3n de Tornos", "state": "", "country": "ES", "coord": {"lon": -1.40806, "lat": 40.998661}}, {"id": 6361488, "name": "Castel de Cabra", "state": "", "country": "ES", "coord": {"lon": -0.69869, "lat": 40.798458}}, {"id": 6361489, "name": "Castelnou", "state": "", "country": "ES", "coord": {"lon": -0.34303, "lat": 41.238312}}, {"id": 6361490, "name": "Castelser\u00e1s", "state": "", "country": "ES", "coord": {"lon": -0.1419, "lat": 40.962559}}, {"id": 6361491, "name": "El Castellar", "state": "", "country": "ES", "coord": {"lon": -0.83619, "lat": 40.384521}}, {"id": 6361492, "name": "Castellote", "state": "", "country": "ES", "coord": {"lon": -0.34924, "lat": 40.748089}}, {"id": 6361493, "name": "Cedrillas", "state": "", "country": "ES", "coord": {"lon": -0.85281, "lat": 40.429279}}, {"id": 6361495, "name": "Cella", "state": "", "country": "ES", "coord": {"lon": -1.29384, "lat": 40.441872}}, {"id": 6361498, "name": "Corbal\u00e1n", "state": "", "country": "ES", "coord": {"lon": -0.97256, "lat": 40.410591}}, {"id": 6361499, "name": "Cortes de Arag\u00f3n", "state": "", "country": "ES", "coord": {"lon": -0.8172, "lat": 40.982201}}, {"id": 6361500, "name": "Cosa", "state": "", "country": "ES", "coord": {"lon": -1.1256, "lat": 40.80402}}, {"id": 6361502, "name": "Crivill\u00e9n", "state": "", "country": "ES", "coord": {"lon": -0.57944, "lat": 40.900249}}, {"id": 6361504, "name": "Cubla", "state": "", "country": "ES", "coord": {"lon": -1.05957, "lat": 40.21558}}, {"id": 6361505, "name": "Cucal\u00f3n", "state": "", "country": "ES", "coord": {"lon": -1.191, "lat": 41.078602}}, {"id": 6361507, "name": "Cuevas de Almud\u00e9n", "state": "", "country": "ES", "coord": {"lon": -0.81453, "lat": 40.733662}}, {"id": 6361508, "name": "Cuevas Labradas", "state": "", "country": "ES", "coord": {"lon": -1.00745, "lat": 40.452999}}, {"id": 6361509, "name": "Ejulve", "state": "", "country": "ES", "coord": {"lon": -0.56223, "lat": 40.752781}}, {"id": 6361510, "name": "Escorihuela", "state": "", "country": "ES", "coord": {"lon": -0.94614, "lat": 40.530041}}, {"id": 6361511, "name": "Escucha", "state": "", "country": "ES", "coord": {"lon": -0.84671, "lat": 40.77599}}, {"id": 6361512, "name": "Estercuel", "state": "", "country": "ES", "coord": {"lon": -0.62508, "lat": 40.88736}}, {"id": 6361513, "name": "Ferreruela de Huerva", "state": "", "country": "ES", "coord": {"lon": -1.23774, "lat": 41.05603}}, {"id": 6361514, "name": "Fonfr\u00eda", "state": "", "country": "ES", "coord": {"lon": -1.08514, "lat": 40.990108}}, {"id": 6361515, "name": "Formiche Alto", "state": "", "country": "ES", "coord": {"lon": -0.87968, "lat": 40.319939}}, {"id": 6361516, "name": "F\u00f3rnoles", "state": "", "country": "ES", "coord": {"lon": -0.00863, "lat": 40.892139}}, {"id": 6361517, "name": "Fortanete", "state": "", "country": "ES", "coord": {"lon": -0.53263, "lat": 40.498192}}, {"id": 6361518, "name": "Foz-Calanda", "state": "", "country": "ES", "coord": {"lon": -0.26919, "lat": 40.913448}}, {"id": 6361520, "name": "Fr\u00edas de Albarrac\u00edn", "state": "", "country": "ES", "coord": {"lon": -1.61455, "lat": 40.33532}}, {"id": 6361521, "name": "Fuenferrada", "state": "", "country": "ES", "coord": {"lon": -1.01271, "lat": 40.866119}}, {"id": 6361522, "name": "Fuentes Calientes", "state": "", "country": "ES", "coord": {"lon": -0.97546, "lat": 40.690128}}, {"id": 6361523, "name": "Fuentes Claras", "state": "", "country": "ES", "coord": {"lon": -1.32551, "lat": 40.864262}}, {"id": 6361524, "name": "Fuentes de Rubielos", "state": "", "country": "ES", "coord": {"lon": -0.59947, "lat": 40.165958}}, {"id": 6361525, "name": "Fuentespalda", "state": "", "country": "ES", "coord": {"lon": 0.06766, "lat": 40.820549}}, {"id": 6361526, "name": "Galve", "state": "", "country": "ES", "coord": {"lon": -0.87617, "lat": 40.647709}}, {"id": 6361527, "name": "Gargallo", "state": "", "country": "ES", "coord": {"lon": -0.58883, "lat": 40.83152}}, {"id": 6361528, "name": "Gea de Albarrac\u00edn", "state": "", "country": "ES", "coord": {"lon": -1.34881, "lat": 40.398811}}, {"id": 6361529, "name": "La Ginebrosa", "state": "", "country": "ES", "coord": {"lon": -0.19389, "lat": 40.856731}}, {"id": 6361530, "name": "Griegos", "state": "", "country": "ES", "coord": {"lon": -1.71699, "lat": 40.44202}}, {"id": 6361531, "name": "Guadalaviar", "state": "", "country": "ES", "coord": {"lon": -1.74385, "lat": 40.406502}}, {"id": 6361532, "name": "G\u00fadar", "state": "", "country": "ES", "coord": {"lon": -0.69119, "lat": 40.43232}}, {"id": 6361533, "name": "H\u00edjar", "state": "", "country": "ES", "coord": {"lon": -0.45813, "lat": 41.163101}}, {"id": 6361534, "name": "Hinojosa de Jarque", "state": "", "country": "ES", "coord": {"lon": -0.76562, "lat": 40.67482}}, {"id": 6361536, "name": "Huesa del Com\u00fan", "state": "", "country": "ES", "coord": {"lon": -0.9603, "lat": 41.011028}}, {"id": 6361537, "name": "La Iglesuela del Cid", "state": "", "country": "ES", "coord": {"lon": -0.31233, "lat": 40.484131}}, {"id": 6361538, "name": "Jabaloyas", "state": "", "country": "ES", "coord": {"lon": -1.40806, "lat": 40.237041}}, {"id": 6361539, "name": "Jarque de la Val", "state": "", "country": "ES", "coord": {"lon": -0.79543, "lat": 40.709949}}, {"id": 6361540, "name": "Jatiel", "state": "", "country": "ES", "coord": {"lon": -0.39446, "lat": 41.237968}}, {"id": 6361541, "name": "Jorcas", "state": "", "country": "ES", "coord": {"lon": -0.75389, "lat": 40.548271}}, {"id": 6361542, "name": "Josa", "state": "", "country": "ES", "coord": {"lon": -0.77276, "lat": 40.962791}}, {"id": 6361543, "name": "Lagueruela", "state": "", "country": "ES", "coord": {"lon": -1.1991, "lat": 41.029259}}, {"id": 6361544, "name": "Lanzuela", "state": "", "country": "ES", "coord": {"lon": -1.18661, "lat": 41.108509}}, {"id": 6361545, "name": "Libros", "state": "", "country": "ES", "coord": {"lon": -1.21908, "lat": 40.1422}}, {"id": 6361546, "name": "Lid\u00f3n", "state": "", "country": "ES", "coord": {"lon": -1.10542, "lat": 40.728199}}, {"id": 6361547, "name": "Linares de Mora", "state": "", "country": "ES", "coord": {"lon": -0.55175, "lat": 40.309029}}, {"id": 6361548, "name": "Loscos", "state": "", "country": "ES", "coord": {"lon": -1.05907, "lat": 41.06604}}, {"id": 6361549, "name": "Lled\u00f3", "state": "", "country": "ES", "coord": {"lon": 0.27449, "lat": 40.954491}}, {"id": 6361550, "name": "Maicas", "state": "", "country": "ES", "coord": {"lon": -0.88939, "lat": 40.965488}}, {"id": 6361551, "name": "Manzanera", "state": "", "country": "ES", "coord": {"lon": -0.8589, "lat": 40.018509}}, {"id": 6361552, "name": "Mart\u00edn del R\u00edo", "state": "", "country": "ES", "coord": {"lon": -0.91749, "lat": 40.8349}}, {"id": 6361553, "name": "Mas de las Matas", "state": "", "country": "ES", "coord": {"lon": -0.26136, "lat": 40.850029}}, {"id": 6361555, "name": "Mazale\u00f3n", "state": "", "country": "ES", "coord": {"lon": 0.1021, "lat": 41.02409}}, {"id": 6361556, "name": "Mezquita de Jarque", "state": "", "country": "ES", "coord": {"lon": -0.87395, "lat": 40.73299}}, {"id": 6361558, "name": "Molinos", "state": "", "country": "ES", "coord": {"lon": -0.46396, "lat": 40.81992}}, {"id": 6361559, "name": "Monforte de Moyuela", "state": "", "country": "ES", "coord": {"lon": -0.99973, "lat": 41.054779}}, {"id": 6361560, "name": "Monreal del Campo", "state": "", "country": "ES", "coord": {"lon": -1.33461, "lat": 40.77203}}, {"id": 6361561, "name": "Monroyo", "state": "", "country": "ES", "coord": {"lon": -0.01375, "lat": 40.78812}}, {"id": 6361562, "name": "Montalb\u00e1n", "state": "", "country": "ES", "coord": {"lon": -0.79763, "lat": 40.849548}}, {"id": 6361563, "name": "Monteagudo del Castillo", "state": "", "country": "ES", "coord": {"lon": -0.78042, "lat": 40.452808}}, {"id": 6361564, "name": "Monterde de Albarrac\u00edn", "state": "", "country": "ES", "coord": {"lon": -1.4863, "lat": 40.499809}}, {"id": 6361565, "name": "Mora de Rubielos", "state": "", "country": "ES", "coord": {"lon": -0.73177, "lat": 40.226639}}, {"id": 6361566, "name": "Moscard\u00f3n", "state": "", "country": "ES", "coord": {"lon": -1.54707, "lat": 40.322708}}, {"id": 6361567, "name": "Mosqueruela", "state": "", "country": "ES", "coord": {"lon": -0.4006, "lat": 40.36272}}, {"id": 6361568, "name": "Muniesa", "state": "", "country": "ES", "coord": {"lon": -0.76065, "lat": 41.074409}}, {"id": 6361570, "name": "Nogueras", "state": "", "country": "ES", "coord": {"lon": -1.07575, "lat": 41.146702}}, {"id": 6361571, "name": "Nogueruelas", "state": "", "country": "ES", "coord": {"lon": -0.62245, "lat": 40.252659}}, {"id": 6361572, "name": "Ob\u00f3n", "state": "", "country": "ES", "coord": {"lon": -0.72487, "lat": 40.912861}}, {"id": 6361573, "name": "Od\u00f3n", "state": "", "country": "ES", "coord": {"lon": -1.55767, "lat": 40.882179}}, {"id": 6361574, "name": "Ojos Negros", "state": "", "country": "ES", "coord": {"lon": -1.47174, "lat": 40.728298}}, {"id": 6361575, "name": "Olba", "state": "", "country": "ES", "coord": {"lon": -0.64169, "lat": 40.125969}}, {"id": 6361576, "name": "Oliete", "state": "", "country": "ES", "coord": {"lon": -0.63968, "lat": 40.993759}}, {"id": 6361578, "name": "Orihuela del Tremedal", "state": "", "country": "ES", "coord": {"lon": -1.62716, "lat": 40.54805}}, {"id": 6361579, "name": "Orrios", "state": "", "country": "ES", "coord": {"lon": -0.95473, "lat": 40.583752}}, {"id": 6361580, "name": "Palomar de Arroyos", "state": "", "country": "ES", "coord": {"lon": -0.71986, "lat": 40.773602}}, {"id": 6361581, "name": "Pancrudo", "state": "", "country": "ES", "coord": {"lon": -0.99868, "lat": 40.794769}}, {"id": 6361584, "name": "Peracense", "state": "", "country": "ES", "coord": {"lon": -1.46692, "lat": 40.660198}}, {"id": 6361585, "name": "Peralejos", "state": "", "country": "ES", "coord": {"lon": -0.99266, "lat": 40.482399}}, {"id": 6361586, "name": "Perales del Alfambra", "state": "", "country": "ES", "coord": {"lon": -0.9591, "lat": 40.632381}}, {"id": 6361587, "name": "Pitarque", "state": "", "country": "ES", "coord": {"lon": -0.61639, "lat": 40.618481}}, {"id": 6361588, "name": "Plou", "state": "", "country": "ES", "coord": {"lon": -0.84874, "lat": 40.999538}}, {"id": 6361591, "name": "Pozond\u00f3n", "state": "", "country": "ES", "coord": {"lon": -1.44887, "lat": 40.559471}}, {"id": 6361592, "name": "Pozuel del Campo", "state": "", "country": "ES", "coord": {"lon": -1.48358, "lat": 40.77626}}, {"id": 6361594, "name": "Puebla de Valverde, La", "state": "", "country": "ES", "coord": {"lon": -0.94823, "lat": 40.205872}}, {"id": 6361595, "name": "Puertomingalvo", "state": "", "country": "ES", "coord": {"lon": -0.45308, "lat": 40.29361}}, {"id": 6361596, "name": "R\u00e1fales", "state": "", "country": "ES", "coord": {"lon": 0.0196, "lat": 40.845699}}, {"id": 6361597, "name": "Rillo", "state": "", "country": "ES", "coord": {"lon": -0.97659, "lat": 40.730961}}, {"id": 6361598, "name": "Riodeva", "state": "", "country": "ES", "coord": {"lon": -1.14058, "lat": 40.121899}}, {"id": 6361599, "name": "R\u00f3denas", "state": "", "country": "ES", "coord": {"lon": -1.51128, "lat": 40.623711}}, {"id": 6361600, "name": "Royuela", "state": "", "country": "ES", "coord": {"lon": -1.51072, "lat": 40.35688}}, {"id": 6361601, "name": "Rubiales", "state": "", "country": "ES", "coord": {"lon": -1.2724, "lat": 40.270191}}, {"id": 6361602, "name": "Rubielos de la C\u00e9rida", "state": "", "country": "ES", "coord": {"lon": -1.21699, "lat": 40.771179}}, {"id": 6361603, "name": "Rubielos de Mora", "state": "", "country": "ES", "coord": {"lon": -0.67023, "lat": 40.18272}}, {"id": 6361604, "name": "Salcedillo", "state": "", "country": "ES", "coord": {"lon": -1.00987, "lat": 40.94511}}, {"id": 6361605, "name": "Sald\u00f3n", "state": "", "country": "ES", "coord": {"lon": -1.42076, "lat": 40.33004}}, {"id": 6361606, "name": "Samper de Calanda", "state": "", "country": "ES", "coord": {"lon": -0.32756, "lat": 41.19249}}, {"id": 6361607, "name": "San Agust\u00edn", "state": "", "country": "ES", "coord": {"lon": -0.67161, "lat": 40.092548}}, {"id": 6361608, "name": "San Mart\u00edn del R\u00edo", "state": "", "country": "ES", "coord": {"lon": -1.37975, "lat": 41.062092}}, {"id": 6361609, "name": "Santa Cruz de Nogueras", "state": "", "country": "ES", "coord": {"lon": -1.08261, "lat": 41.118568}}, {"id": 6361610, "name": "Santa Eulalia", "state": "", "country": "ES", "coord": {"lon": -1.288, "lat": 40.558472}}, {"id": 6361611, "name": "Sarri\u00f3n", "state": "", "country": "ES", "coord": {"lon": -0.81374, "lat": 40.158401}}, {"id": 6361612, "name": "Segura de los Ba\u00f1os", "state": "", "country": "ES", "coord": {"lon": -0.96198, "lat": 40.929642}}, {"id": 6361613, "name": "Seno", "state": "", "country": "ES", "coord": {"lon": -0.34996, "lat": 40.828308}}, {"id": 6361614, "name": "Singra", "state": "", "country": "ES", "coord": {"lon": -1.29383, "lat": 40.662899}}, {"id": 6361615, "name": "Terriente", "state": "", "country": "ES", "coord": {"lon": -1.49733, "lat": 40.29208}}, {"id": 6361616, "name": "Teruel", "state": "", "country": "ES", "coord": {"lon": -1.08938, "lat": 40.363338}}, {"id": 6361618, "name": "Torm\u00f3n", "state": "", "country": "ES", "coord": {"lon": -1.33575, "lat": 40.212219}}, {"id": 6361619, "name": "Tornos", "state": "", "country": "ES", "coord": {"lon": -1.41173, "lat": 40.950211}}, {"id": 6361620, "name": "Torralba de los Sisones", "state": "", "country": "ES", "coord": {"lon": -1.43782, "lat": 40.892052}}, {"id": 6361621, "name": "Torrecilla de Alca\u00f1iz", "state": "", "country": "ES", "coord": {"lon": -0.09515, "lat": 40.968109}}, {"id": 6361622, "name": "Torrecilla del Rebollar", "state": "", "country": "ES", "coord": {"lon": -1.06118, "lat": 40.915421}}, {"id": 6361623, "name": "Torre de Arcas", "state": "", "country": "ES", "coord": {"lon": -0.10967, "lat": 40.76376}}, {"id": 6361624, "name": "Torre de las Arcas", "state": "", "country": "ES", "coord": {"lon": -0.70407, "lat": 40.85059}}, {"id": 6361625, "name": "Torre del Compte", "state": "", "country": "ES", "coord": {"lon": 0.12204, "lat": 40.945969}},