[{"id": 7626991, "name": "Unanu Municipality", "state": "", "country": "FM", "coord": {"lon": 150.339493, "lat": 8.75}}, {"id": 7626992, "name": "Weno Municipality", "state": "", "country": "FM", "coord": {"lon": 151.880997, "lat": 7.44}}, {"id": 7627032, "name": "Kapingamarangi", "state": "", "country": "FM", "coord": {"lon": 154.807526, "lat": 1.07861}}, {"id": 7627037, "name": "Nukuoro", "state": "", "country": "FM", "coord": {"lon": 154.971436, "lat": 3.83619}}, {"id": 7627067, "name": "Bah\u00e7elievler", "state": "", "country": "TR", "coord": {"lon": 28.8598, "lat": 41.002312}}, {"id": 7627089, "name": "Ngatik", "state": "", "country": "FM", "coord": {"lon": 157.159424, "lat": 5.7885}}, {"id": 7627186, "name": "Pingelap", "state": "", "country": "FM", "coord": {"lon": 160.703278, "lat": 6.20589}}, {"id": 7627319, "name": "Seebenalp", "state": "", "country": "CH", "coord": {"lon": 9.24671, "lat": 47.078308}}, {"id": 7627586, "name": "Namoluk", "state": "", "country": "FM", "coord": {"lon": 153.139999, "lat": 5.915}}, {"id": 7627628, "name": "Houk", "state": "", "country": "FM", "coord": {"lon": 149.299088, "lat": 6.6894}}, {"id": 7628103, "name": "Polowat", "state": "", "country": "FM", "coord": {"lon": 149.199081, "lat": 7.35661}}, {"id": 7628250, "name": "Pulap", "state": "", "country": "FM", "coord": {"lon": 149.428787, "lat": 7.6366}}, {"id": 7628253, "name": "Tamatam", "state": "", "country": "FM", "coord": {"lon": 149.414276, "lat": 7.53868}}, {"id": 7628259, "name": "Onoun", "state": "", "country": "FM", "coord": {"lon": 149.686996, "lat": 8.575}}, {"id": 7628274, "name": "Pisaras", "state": "", "country": "FM", "coord": {"lon": 150.419495, "lat": 8.569}}, {"id": 7628277, "name": "Onou", "state": "", "country": "FM", "coord": {"lon": 150.291504, "lat": 8.799}}, {"id": 7628280, "name": "Unanu", "state": "", "country": "FM", "coord": {"lon": 150.341003, "lat": 8.75}}, {"id": 7628283, "name": "Makur", "state": "", "country": "FM", "coord": {"lon": 150.127502, "lat": 8.985}}, {"id": 7628298, "name": "Dundagas Novads", "state": "", "country": "LV", "coord": {"lon": 22.39472, "lat": 57.566669}}, {"id": 7628302, "name": "Rucavas Novads", "state": "", "country": "LV", "coord": {"lon": 21.209721, "lat": 56.21167}}, {"id": 7628303, "name": "Grobi\u0146as Novads", "state": "", "country": "LV", "coord": {"lon": 21.235559, "lat": 56.486938}}, {"id": 7628304, "name": "Durbes Novads", "state": "", "country": "LV", "coord": {"lon": 21.395281, "lat": 56.607498}}, {"id": 7628305, "name": "Aizputes Novads", "state": "", "country": "LV", "coord": {"lon": 21.56889, "lat": 56.716671}}, {"id": 7628308, "name": "Skrundas Novads", "state": "", "country": "LV", "coord": {"lon": 21.98889, "lat": 56.66111}}, {"id": 7628309, "name": "Broc\u0113nu Novads", "state": "", "country": "LV", "coord": {"lon": 22.65667, "lat": 56.714169}}, {"id": 7628316, "name": "Ozolnieku Novads", "state": "", "country": "LV", "coord": {"lon": 23.928061, "lat": 56.65139}}, {"id": 7628319, "name": "M\u0101rupes Novads", "state": "", "country": "LV", "coord": {"lon": 23.958891, "lat": 56.886391}}, {"id": 7628320, "name": "Olaines Novads", "state": "", "country": "LV", "coord": {"lon": 23.948059, "lat": 56.791389}}, {"id": 7628321, "name": "Iecavas Novads", "state": "", "country": "LV", "coord": {"lon": 24.206671, "lat": 56.60944}}, {"id": 7628324, "name": "Baldones Novads", "state": "", "country": "LV", "coord": {"lon": 24.372499, "lat": 56.73111}}, {"id": 7628326, "name": "Carnikavas Novads", "state": "", "country": "LV", "coord": {"lon": 24.245831, "lat": 57.117222}}, {"id": 7628333, "name": "Jaunjelgavas Novads", "state": "", "country": "LV", "coord": {"lon": 25.29583, "lat": 56.514172}}, {"id": 7628339, "name": "Il\u016bkstes Novads", "state": "", "country": "LV", "coord": {"lon": 26.148331, "lat": 56.011669}}, {"id": 7628345, "name": "Aglonas Novads", "state": "", "country": "LV", "coord": {"lon": 27.100559, "lat": 56.10667}}, {"id": 7628353, "name": "Cesvaines Novads", "state": "", "country": "LV", "coord": {"lon": 26.27667, "lat": 57.0075}}, {"id": 7628354, "name": "Lub\u0101nas Novads", "state": "", "country": "LV", "coord": {"lon": 26.735559, "lat": 56.927502}}, {"id": 7628357, "name": "Kokneses Novads", "state": "", "country": "LV", "coord": {"lon": 25.463329, "lat": 56.710281}}, {"id": 7628358, "name": "Ik\u0161\u0137iles Novads", "state": "", "country": "LV", "coord": {"lon": 24.583611, "lat": 56.860279}}, {"id": 7628360, "name": "In\u010dukalna Novads", "state": "", "country": "LV", "coord": {"lon": 24.650829, "lat": 57.102219}}, {"id": 7628362, "name": "Siguldas Novads", "state": "", "country": "LV", "coord": {"lon": 24.86389, "lat": 57.129719}}, {"id": 7628364, "name": "M\u0101lpils Novads", "state": "", "country": "LV", "coord": {"lon": 24.973061, "lat": 56.994438}}, {"id": 7628367, "name": "Salacgr\u012bvas Novads", "state": "", "country": "LV", "coord": {"lon": 24.451941, "lat": 57.74028}}, {"id": 7628368, "name": "Alojas Novads", "state": "", "country": "LV", "coord": {"lon": 24.835279, "lat": 57.800831}}, {"id": 7628378, "name": "Stren\u010du Novads", "state": "", "country": "LV", "coord": {"lon": 25.78306, "lat": 57.62611}}, {"id": 7628381, "name": "Jaunpiebalgas Novads", "state": "", "country": "LV", "coord": {"lon": 25.97361, "lat": 57.150002}}, {"id": 7628416, "name": "Sultangazi", "state": "", "country": "TR", "coord": {"lon": 28.868469, "lat": 41.106522}}, {"id": 7628419, "name": "Sultanbeyli", "state": "", "country": "TR", "coord": {"lon": 29.27067, "lat": 40.96072}}, {"id": 7628420, "name": "Sancaktepe", "state": "", "country": "TR", "coord": {"lon": 29.231871, "lat": 41.002441}}, {"id": 7628452, "name": "Mokil", "state": "", "country": "FM", "coord": {"lon": 159.762833, "lat": 6.69281}}, {"id": 7628535, "name": "Nanzheng Chengguanzhen", "state": "", "country": "CN", "coord": {"lon": 106.934662, "lat": 33.00452}}, {"id": 7628559, "name": "Minyue", "state": "", "country": "CN", "coord": {"lon": 127.048897, "lat": 45.0518}}, {"id": 7628562, "name": "Ashihe", "state": "", "country": "CN", "coord": {"lon": 126.973701, "lat": 45.535801}}, {"id": 7628595, "name": "Yonghe", "state": "", "country": "CN", "coord": {"lon": 127.106468, "lat": 45.827808}}, {"id": 7628605, "name": "Guang\u2019en", "state": "", "country": "CN", "coord": {"lon": 127.816261, "lat": 45.64777}}, {"id": 7628682, "name": "Yanhe", "state": "", "country": "CN", "coord": {"lon": 126.919746, "lat": 45.11586}}, {"id": 7628701, "name": "Wanbaoshan", "state": "", "country": "CN", "coord": {"lon": 127.198952, "lat": 44.919399}}, {"id": 7630035, "name": "Songhuajiang", "state": "", "country": "CN", "coord": {"lon": 127.325508, "lat": 46.037159}}, {"id": 7630128, "name": "Xiaoshanzi", "state": "", "country": "CN", "coord": {"lon": 127.602402, "lat": 44.90712}}, {"id": 7630129, "name": "Hedong", "state": "", "country": "CN", "coord": {"lon": 128.03096, "lat": 45.25668}}, {"id": 7630130, "name": "Jiaojie", "state": "", "country": "CN", "coord": {"lon": 127.088753, "lat": 45.34724}}, {"id": 7630131, "name": "Songfengshan", "state": "", "country": "CN", "coord": {"lon": 127.430679, "lat": 45.402088}}, {"id": 7630132, "name": "Shuangfeng", "state": "", "country": "CN", "coord": {"lon": 126.966652, "lat": 45.44138}}, {"id": 7630133, "name": "Pingfang", "state": "", "country": "CN", "coord": {"lon": 127.464088, "lat": 45.55415}}, {"id": 7630134, "name": "Ningyuan", "state": "", "country": "CN", "coord": {"lon": 127.916199, "lat": 45.730869}}, {"id": 7630135, "name": "Feiketu", "state": "", "country": "CN", "coord": {"lon": 127.145187, "lat": 45.746941}}, {"id": 7630136, "name": "Juren", "state": "", "country": "CN", "coord": {"lon": 127.279762, "lat": 45.76075}}, {"id": 7630137, "name": "Yongyuan", "state": "", "country": "CN", "coord": {"lon": 127.008171, "lat": 45.773869}}, {"id": 7630138, "name": "Tangfang", "state": "", "country": "CN", "coord": {"lon": 127.057289, "lat": 45.909431}}, {"id": 7630139, "name": "Zhiguang", "state": "", "country": "CN", "coord": {"lon": 127.461166, "lat": 44.971329}}, {"id": 7630140, "name": "Weiguo", "state": "", "country": "CN", "coord": {"lon": 127.34832, "lat": 45.023762}}, {"id": 7630141, "name": "Changbao", "state": "", "country": "CN", "coord": {"lon": 127.20932, "lat": 45.035191}}, {"id": 7630142, "name": "Yingchengzi", "state": "", "country": "CN", "coord": {"lon": 126.955879, "lat": 45.167782}}, {"id": 7630143, "name": "Bajiazi", "state": "", "country": "CN", "coord": {"lon": 127.041512, "lat": 45.229279}}, {"id": 7630144, "name": "Changshou", "state": "", "country": "CN", "coord": {"lon": 127.93293, "lat": 45.2696}}, {"id": 7630145, "name": "Daling", "state": "", "country": "CN", "coord": {"lon": 127.112663, "lat": 45.506302}}, {"id": 7630146, "name": "Sheli", "state": "", "country": "CN", "coord": {"lon": 126.927834, "lat": 45.564178}}, {"id": 7630147, "name": "Hongxing", "state": "", "country": "CN", "coord": {"lon": 127.111259, "lat": 45.565762}}, {"id": 7630148, "name": "Xiangyang", "state": "", "country": "CN", "coord": {"lon": 126.923042, "lat": 45.752972}}, {"id": 7630149, "name": "Sanbao", "state": "", "country": "CN", "coord": {"lon": 127.668411, "lat": 45.755951}}, {"id": 7630150, "name": "Chang\u2019an", "state": "", "country": "CN", "coord": {"lon": 127.837997, "lat": 45.763519}}, {"id": 7630151, "name": "Yonghe", "state": "", "country": "CN", "coord": {"lon": 127.087372, "lat": 45.83989}}, {"id": 7630152, "name": "Niaohe", "state": "", "country": "CN", "coord": {"lon": 127.457703, "lat": 45.902229}}, {"id": 7630153, "name": "Minhe", "state": "", "country": "CN", "coord": {"lon": 127.561958, "lat": 45.905869}}, {"id": 7630154, "name": "Manjing", "state": "", "country": "CN", "coord": {"lon": 127.272018, "lat": 45.909321}}, {"id": 7630155, "name": "Jianguo", "state": "", "country": "CN", "coord": {"lon": 128.067047, "lat": 45.992859}}, {"id": 7630156, "name": "Jixing", "state": "", "country": "CN", "coord": {"lon": 127.911583, "lat": 46.006039}}, {"id": 7630157, "name": "Fujiang", "state": "", "country": "CN", "coord": {"lon": 127.456383, "lat": 46.032669}}, {"id": 7630159, "name": "Yanglin", "state": "", "country": "CN", "coord": {"lon": 127.131554, "lat": 46.077599}}, {"id": 7630442, "name": "\u015eal\u0101lah al Jad\u012bdah", "state": "", "country": "OM", "coord": {"lon": 54.099201, "lat": 17.01882}}, {"id": 7632853, "name": "Haitangwan", "state": "", "country": "CN", "coord": {"lon": 109.750038, "lat": 18.40337}}, {"id": 7632854, "name": "Donghe", "state": "", "country": "CN", "coord": {"lon": 108.937683, "lat": 19.0508}}, {"id": 7632860, "name": "Khas\u0101r\u0101t", "state": "", "country": "SY", "coord": {"lon": 40.165939, "lat": 35.307098}}, {"id": 7634835, "name": "Bindor", "state": "", "country": "PK", "coord": {"lon": 70.272301, "lat": 28.378599}}, {"id": 7635189, "name": "Yelin", "state": "", "country": "CN", "coord": {"lon": 110.041061, "lat": 18.52216}}, {"id": 7635190, "name": "Maogan", "state": "", "country": "CN", "coord": {"lon": 109.503922, "lat": 18.61471}}, {"id": 7635419, "name": "Taipinghu", "state": "", "country": "CN", "coord": {"lon": 118.039742, "lat": 30.36727}}, {"id": 7636830, "name": "Haoshan", "state": "", "country": "CN", "coord": {"lon": 116.790604, "lat": 29.884541}}, {"id": 7636833, "name": "Chengshan", "state": "", "country": "CN", "coord": {"lon": 116.25708, "lat": 29.6015}}, {"id": 7636834, "name": "Wushan", "state": "", "country": "CN", "coord": {"lon": 116.330917, "lat": 29.583481}}, {"id": 7636836, "name": "Shishan", "state": "", "country": "CN", "coord": {"lon": 116.482933, "lat": 29.36097}}, {"id": 7636837, "name": "Yaquehu", "state": "", "country": "CN", "coord": {"lon": 116.629402, "lat": 29.3239}}, {"id": 7636840, "name": "Dingshan", "state": "", "country": "CN", "coord": {"lon": 116.40992, "lat": 29.823561}}, {"id": 7636841, "name": "Liaohua", "state": "", "country": "CN", "coord": {"lon": 115.996101, "lat": 29.39308}}, {"id": 7636842, "name": "Changyi", "state": "", "country": "CN", "coord": {"lon": 116.0606, "lat": 29.024429}}, {"id": 7636843, "name": "Yujiahe", "state": "", "country": "CN", "coord": {"lon": 116.046242, "lat": 29.68516}}, {"id": 7636846, "name": "Mingshan", "state": "", "country": "CN", "coord": {"lon": 116.463593, "lat": 29.42103}}, {"id": 7636847, "name": "Baishazhou", "state": "", "country": "CN", "coord": {"lon": 116.614479, "lat": 29.160259}}, {"id": 7636848, "name": "Huanghua", "state": "", "country": "CN", "coord": {"lon": 116.594704, "lat": 29.86256}}, {"id": 7636849, "name": "Maying", "state": "", "country": "CN", "coord": {"lon": 116.292038, "lat": 29.72463}}, {"id": 7636850, "name": "Tuanlin", "state": "", "country": "CN", "coord": {"lon": 116.702744, "lat": 29.072041}}, {"id": 7636852, "name": "Tianhong", "state": "", "country": "CN", "coord": {"lon": 116.43811, "lat": 29.684561}}, {"id": 7636855, "name": "Xiangxi", "state": "", "country": "CN", "coord": {"lon": 116.548241, "lat": 29.24073}}, {"id": 7636858, "name": "Yangfeng", "state": "", "country": "CN", "coord": {"lon": 116.377647, "lat": 29.29108}}, {"id": 7636859, "name": "Dagang", "state": "", "country": "CN", "coord": {"lon": 116.482353, "lat": 29.54661}}, {"id": 7636860, "name": "Cailing", "state": "", "country": "CN", "coord": {"lon": 116.381088, "lat": 29.499849}}, {"id": 7636862, "name": "Fulong", "state": "", "country": "CN", "coord": {"lon": 116.337517, "lat": 29.66007}}, {"id": 7636867, "name": "Beishan", "state": "", "country": "CN", "coord": {"lon": 116.195267, "lat": 29.29258}}, {"id": 7636868, "name": "Bailu", "state": "", "country": "CN", "coord": {"lon": 116.039391, "lat": 29.486191}}, {"id": 7636869, "name": "Yinbaohu", "state": "", "country": "CN", "coord": {"lon": 116.579498, "lat": 29.290939}}, {"id": 7636871, "name": "Shuanggang", "state": "", "country": "CN", "coord": {"lon": 116.615601, "lat": 29.075109}}, {"id": 7636878, "name": "Dongsheng", "state": "", "country": "CN", "coord": {"lon": 116.695518, "lat": 29.83041}}, {"id": 7636879, "name": "Hehe", "state": "", "country": "CN", "coord": {"lon": 116.294899, "lat": 29.23068}}, {"id": 7636880, "name": "Xiyuan", "state": "", "country": "CN", "coord": {"lon": 116.423012, "lat": 29.21608}}, {"id": 7636881, "name": "Huangcun", "state": "", "country": "CN", "coord": {"lon": 116.319962, "lat": 29.770809}}, {"id": 7636882, "name": "Furongdun", "state": "", "country": "CN", "coord": {"lon": 116.493217, "lat": 29.85943}}, {"id": 7636883, "name": "Dasha", "state": "", "country": "CN", "coord": {"lon": 116.327492, "lat": 29.26465}}, {"id": 7636884, "name": "Dashu", "state": "", "country": "CN", "coord": {"lon": 116.261917, "lat": 29.27808}}, {"id": 7636886, "name": "Duobao", "state": "", "country": "CN", "coord": {"lon": 116.123398, "lat": 29.40366}}, {"id": 7636888, "name": "Chunqiao", "state": "", "country": "CN", "coord": {"lon": 116.279251, "lat": 29.53742}}, {"id": 7636889, "name": "Zhangqing", "state": "", "country": "CN", "coord": {"lon": 116.33223, "lat": 29.715099}}, {"id": 7636891, "name": "Zuoli", "state": "", "country": "CN", "coord": {"lon": 116.196671, "lat": 29.424}}, {"id": 7636892, "name": "Dalong", "state": "", "country": "CN", "coord": {"lon": 116.384331, "lat": 29.744129}}, {"id": 7636895, "name": "Zhegang", "state": "", "country": "CN", "coord": {"lon": 116.730812, "lat": 29.345501}}, {"id": 7636896, "name": "Zhuhu", "state": "", "country": "CN", "coord": {"lon": 116.670441, "lat": 29.18647}}, {"id": 7636899, "name": "Sushan", "state": "", "country": "CN", "coord": {"lon": 116.206253, "lat": 29.50108}}, {"id": 7636900, "name": "Zhongguan", "state": "", "country": "CN", "coord": {"lon": 116.532639, "lat": 29.383789}}, {"id": 7637147, "name": "\u1e28ayy al \u1e28am\u012bd\u012byah", "state": "", "country": "SY", "coord": {"lon": 36.717419, "lat": 34.73325}}, {"id": 7637212, "name": "Ma\u1e29alleh-ye Kh\u0101var", "state": "", "country": "IR", "coord": {"lon": 52.36055, "lat": 36.462719}}, {"id": 7637537, "name": "Sixi", "state": "", "country": "CN", "coord": {"lon": 118.056458, "lat": 30.01866}}, {"id": 7637571, "name": "Yingzhou", "state": "", "country": "CN", "coord": {"lon": 118.644341, "lat": 30.061729}}, {"id": 7637609, "name": "Xiancun", "state": "", "country": "CN", "coord": {"lon": 118.01458, "lat": 30.13665}}, {"id": 7637669, "name": "Jiapeng", "state": "", "country": "CN", "coord": {"lon": 118.80909, "lat": 30.240271}}, {"id": 7637859, "name": "Taohuatan", "state": "", "country": "CN", "coord": {"lon": 118.1455, "lat": 30.488689}}, {"id": 7638021, "name": "Yangong", "state": "", "country": "CN", "coord": {"lon": 118.450188, "lat": 30.65062}}, {"id": 7638138, "name": "Changqiao", "state": "", "country": "CN", "coord": {"lon": 118.405441, "lat": 30.76}}, {"id": 7638154, "name": "Sanli", "state": "", "country": "CN", "coord": {"lon": 118.254761, "lat": 30.77545}}, {"id": 7638278, "name": "Daihui", "state": "", "country": "CN", "coord": {"lon": 118.183067, "lat": 30.89089}}, {"id": 7638315, "name": "Tianhu", "state": "", "country": "CN", "coord": {"lon": 118.596863, "lat": 30.91674}}, {"id": 7638511, "name": "Marcos", "state": "", "country": "PH", "coord": {"lon": 120.912697, "lat": 15.3395}}, {"id": 7638764, "name": "Hanlin", "state": "", "country": "CN", "coord": {"lon": 110.258263, "lat": 19.333879}}, {"id": 7638765, "name": "Fuwen", "state": "", "country": "CN", "coord": {"lon": 110.255402, "lat": 19.551371}}, {"id": 7640667, "name": "Xiaxin", "state": "", "country": "CN", "coord": {"lon": 116.006737, "lat": 29.98971}}, {"id": 7640668, "name": "Liuzuo", "state": "", "country": "CN", "coord": {"lon": 116.097298, "lat": 29.82296}}, {"id": 7640676, "name": "Tielu", "state": "", "country": "CN", "coord": {"lon": 116.708794, "lat": 29.608259}}, {"id": 7640683, "name": "Longquan", "state": "", "country": "CN", "coord": {"lon": 116.81353, "lat": 29.64007}}, {"id": 7641247, "name": "Huangbai", "state": "", "country": "CN", "coord": {"lon": 116.005959, "lat": 25.955299}}, {"id": 7641248, "name": "Zeqin", "state": "", "country": "CN", "coord": {"lon": 116.01545, "lat": 25.843559}}, {"id": 7641674, "name": "S\u00edtio Jo\u00e3o da S. Passos", "state": "", "country": "BR", "coord": {"lon": -48.816429, "lat": -25.46546}}, {"id": 7642294, "name": "Shahrak-e D\u0101neshg\u0101h", "state": "", "country": "IR", "coord": {"lon": 52.64043, "lat": 36.703781}}, {"id": 7642392, "name": "G\u00fclekildam", "state": "", "country": "TR", "coord": {"lon": 35.241241, "lat": 36.97467}}, {"id": 7642566, "name": "Al Mujtahid", "state": "", "country": "SY", "coord": {"lon": 36.297699, "lat": 33.500599}}, {"id": 7642903, "name": "Yonglu", "state": "", "country": "CN", "coord": {"lon": 110.466171, "lat": 19.938459}}, {"id": 7643644, "name": "Chengmen", "state": "", "country": "CN", "coord": {"lon": 115.81237, "lat": 29.64353}}, {"id": 7643645, "name": "Lianhua", "state": "", "country": "CN", "coord": {"lon": 115.979301, "lat": 29.640949}}, {"id": 7643646, "name": "Shizi", "state": "", "country": "CN", "coord": {"lon": 115.836243, "lat": 29.60284}}, {"id": 7643650, "name": "Jinhu", "state": "", "country": "CN", "coord": {"lon": 115.814629, "lat": 29.289841}}, {"id": 7643651, "name": "Jiangshang", "state": "", "country": "CN", "coord": {"lon": 115.594841, "lat": 29.164181}}, {"id": 7643652, "name": "Xiafan", "state": "", "country": "CN", "coord": {"lon": 115.54216, "lat": 29.767469}}, {"id": 7643653, "name": "Lixin", "state": "", "country": "CN", "coord": {"lon": 115.741112, "lat": 29.02224}}, {"id": 7643654, "name": "Zequan", "state": "", "country": "CN", "coord": {"lon": 115.847023, "lat": 29.324329}}, {"id": 7643655, "name": "Baiyang", "state": "", "country": "CN", "coord": {"lon": 115.649422, "lat": 29.73333}}, {"id": 7643656, "name": "Nanyang", "state": "", "country": "CN", "coord": {"lon": 115.51564, "lat": 29.73485}}, {"id": 7643657, "name": "Liaonan", "state": "", "country": "CN", "coord": {"lon": 115.968788, "lat": 29.30126}}, {"id": 7643658, "name": "Yong\u2019an", "state": "", "country": "CN", "coord": {"lon": 115.789726, "lat": 29.765341}}, {"id": 7643659, "name": "Linquan", "state": "", "country": "CN", "coord": {"lon": 115.727089, "lat": 29.4608}}, {"id": 7643661, "name": "Chengzi", "state": "", "country": "CN", "coord": {"lon": 115.688393, "lat": 29.83762}}, {"id": 7643662, "name": "Wujiao", "state": "", "country": "CN", "coord": {"lon": 115.622452, "lat": 29.76881}}, {"id": 7643666, "name": "Meitang", "state": "", "country": "CN", "coord": {"lon": 115.628082, "lat": 29.24452}}, {"id": 7643668, "name": "Gaotang", "state": "", "country": "CN", "coord": {"lon": 115.77491, "lat": 29.41465}}, {"id": 7643670, "name": "Wushan", "state": "", "country": "CN", "coord": {"lon": 115.656281, "lat": 29.451759}}, {"id": 7643671, "name": "Xinhe", "state": "", "country": "CN", "coord": {"lon": 115.769058, "lat": 29.61964}}, {"id": 7643672, "name": "Sujiadang", "state": "", "country": "CN", "coord": {"lon": 115.871979, "lat": 29.27615}}, {"id": 7643673, "name": "Fenglin", "state": "", "country": "CN", "coord": {"lon": 115.717712, "lat": 29.392929}}, {"id": 7643674, "name": "Jiuhe", "state": "", "country": "CN", "coord": {"lon": 115.818268, "lat": 29.05579}}, {"id": 7643676, "name": "Tiehe", "state": "", "country": "CN", "coord": {"lon": 115.971031, "lat": 29.027031}}, {"id": 7643681, "name": "Sanjiao", "state": "", "country": "CN", "coord": {"lon": 115.843918, "lat": 29.04982}}, {"id": 7643682, "name": "Gaofeng", "state": "", "country": "CN", "coord": {"lon": 115.555573, "lat": 29.642731}}, {"id": 7643683, "name": "Yanfang", "state": "", "country": "CN", "coord": {"lon": 115.70076, "lat": 29.22369}}, {"id": 7643684, "name": "Hedong", "state": "", "country": "CN", "coord": {"lon": 115.766273, "lat": 29.338261}}, {"id": 7643685, "name": "Yongquan", "state": "", "country": "CN", "coord": {"lon": 115.669098, "lat": 29.617201}}, {"id": 7643686, "name": "Hualin", "state": "", "country": "CN", "coord": {"lon": 115.951118, "lat": 29.3687}}, {"id": 7643687, "name": "Minshan", "state": "", "country": "CN", "coord": {"lon": 115.748833, "lat": 29.505831}}, {"id": 7643688, "name": "Baota", "state": "", "country": "CN", "coord": {"lon": 115.752579, "lat": 29.32428}}, {"id": 7643690, "name": "Saiyang", "state": "", "country": "CN", "coord": {"lon": 115.924538, "lat": 29.57885}}, {"id": 7643695, "name": "Aimin", "state": "", "country": "CN", "coord": {"lon": 115.541641, "lat": 29.44091}}, {"id": 7644170, "name": "Xianggui", "state": "", "country": "CN", "coord": {"lon": 113.760834, "lat": 24.07889}}, {"id": 7644224, "name": "Yinghua", "state": "", "country": "CN", "coord": {"lon": 113.66333, "lat": 24.225559}}, {"id": 7644499, "name": "Caishan", "state": "", "country": "CN", "coord": {"lon": 115.786842, "lat": 29.883659}}, {"id": 7644500, "name": "Xinkai", "state": "", "country": "CN", "coord": {"lon": 115.810463, "lat": 29.81246}}, {"id": 7644501, "name": "Dajin", "state": "", "country": "CN", "coord": {"lon": 115.612099, "lat": 29.99785}}, {"id": 7644927, "name": "Khordha", "state": "", "country": "IN", "coord": {"lon": 85.599998, "lat": 20.200001}}, {"id": 7644931, "name": "Nomwin", "state": "", "country": "FM", "coord": {"lon": 151.748001, "lat": 8.43}}, {"id": 7644951, "name": "Kommila", "state": "", "country": "FI", "coord": {"lon": 27.90012, "lat": 62.32315}}, {"id": 7644992, "name": "Kanava", "state": "", "country": "FI", "coord": {"lon": 27.86588, "lat": 62.18469}}, {"id": 7645026, "name": "Linnanpelto", "state": "", "country": "FI", "coord": {"lon": 27.69095, "lat": 62.90054}}, {"id": 7645152, "name": "Gr\u00e8zes-Herminis", "state": "", "country": "FR", "coord": {"lon": 2.28627, "lat": 43.221569}}, {"id": 7645169, "name": "Fananu", "state": "", "country": "FM", "coord": {"lon": 151.909225, "lat": 8.55811}}, {"id": 7645176, "name": "Zira", "state": "", "country": "IN", "coord": {"lon": 74.991058, "lat": 30.968531}}, {"id": 7645190, "name": "Murilo", "state": "", "country": "FM", "coord": {"lon": 152.343506, "lat": 8.692}}, {"id": 7645195, "name": "Ruo", "state": "", "country": "FM", "coord": {"lon": 152.245499, "lat": 8.609}}, {"id": 7645213, "name": "Nema", "state": "", "country": "FM", "coord": {"lon": 152.574997, "lat": 6.993}}, {"id": 7645217, "name": "Losap", "state": "", "country": "FM", "coord": {"lon": 152.740005, "lat": 6.894}}, {"id": 7645221, "name": "Piis", "state": "", "country": "FM", "coord": {"lon": 152.701004, "lat": 6.834}}, {"id": 7645232, "name": "Kauriala", "state": "", "country": "FI", "coord": {"lon": 24.44353, "lat": 60.99417}}, {"id": 7645253, "name": "Ried", "state": "", "country": "IT", "coord": {"lon": 11.52414, "lat": 46.929932}}, {"id": 7645270, "name": "Ettal", "state": "", "country": "FM", "coord": {"lon": 153.563995, "lat": 5.592}}, {"id": 7645369, "name": "Lukunor", "state": "", "country": "FM", "coord": {"lon": 153.820496, "lat": 5.507}}, {"id": 7645372, "name": "Oneop", "state": "", "country": "FM", "coord": {"lon": 153.710495, "lat": 5.5066}}, {"id": 7645375, "name": "Moch", "state": "", "country": "FM", "coord": {"lon": 153.539993, "lat": 5.4918}}, {"id": 7645378, "name": "Kuttu", "state": "", "country": "FM", "coord": {"lon": 153.457504, "lat": 5.453}}, {"id": 7645381, "name": "Ta", "state": "", "country": "FM", "coord": {"lon": 153.647995, "lat": 5.2842}}, {"id": 7645384, "name": "Satowan", "state": "", "country": "FM", "coord": {"lon": 153.738007, "lat": 5.334}}, {"id": 7645419, "name": "La Batie", "state": "", "country": "FR", "coord": {"lon": 4.2475, "lat": 45.23761}}, {"id": 7645541, "name": "Sunila", "state": "", "country": "FI", "coord": {"lon": 28.3, "lat": 61}}, {"id": 7645643, "name": "Jylkynkangas", "state": "", "country": "FI", "coord": {"lon": 25.52493, "lat": 65.07803}}, {"id": 7645664, "name": "P\u00e4iv\u00e4rinne", "state": "", "country": "FI", "coord": {"lon": 25.87099, "lat": 64.88954}}, {"id": 7645723, "name": "Satawal", "state": "", "country": "FM", "coord": {"lon": 147.032196, "lat": 7.382}}, {"id": 7645726, "name": "Lamotrek", "state": "", "country": "FM", "coord": {"lon": 146.304993, "lat": 7.491}}, {"id": 7645731, "name": "Elato", "state": "", "country": "FM", "coord": {"lon": 146.166, "lat": 7.502}}, {"id": 7645749, "name": "Faraulep", "state": "", "country": "FM", "coord": {"lon": 144.507996, "lat": 8.588}}, {"id": 7645754, "name": "Ifalik", "state": "", "country": "FM", "coord": {"lon": 144.444504, "lat": 7.25}}, {"id": 7645763, "name": "Eauripik", "state": "", "country": "FM", "coord": {"lon": 143.037506, "lat": 6.687}}, {"id": 7645768, "name": "Sorol", "state": "", "country": "FM", "coord": {"lon": 140.393997, "lat": 8.1435}}, {"id": 7645769, "name": "Fais", "state": "", "country": "FM", "coord": {"lon": 140.520004, "lat": 9.766}}, {"id": 7645772, "name": "Ngulu", "state": "", "country": "FM", "coord": {"lon": 137.483994, "lat": 8.45}}, {"id": 7646423, "name": "Matku", "state": "", "country": "FI", "coord": {"lon": 24.73259, "lat": 60.52428}}, {"id": 7646541, "name": "Lanseria", "state": "", "country": "ZA", "coord": {"lon": 27.934891, "lat": -25.93981}}, {"id": 7646561, "name": "Nypp\u00f6senmutka", "state": "", "country": "FI", "coord": {"lon": 25.67127, "lat": 62.41136}}, {"id": 7646978, "name": "Deep Cove", "state": "", "country": "CA", "coord": {"lon": -122.948601, "lat": 49.326908}}, {"id": 7647006, "name": "Sindhupalchok", "state": "", "country": "NP", "coord": {"lon": 85.545036, "lat": 27.829359}}, {"id": 7647007, "name": "San Carlos de Bariloche", "state": "", "country": "AR", "coord": {"lon": -71.30822, "lat": -41.145569}}, {"id": 7647230, "name": "Koukkuniemi", "state": "", "country": "FI", "coord": {"lon": 24.76467, "lat": 60.15261}}, {"id": 7647247, "name": "Vartiovuori", "state": "", "country": "FI", "coord": {"lon": 22.27761, "lat": 60.44668}}, {"id": 7647281, "name": "Uusi-Koivisto", "state": "", "country": "FI", "coord": {"lon": 21.81019, "lat": 61.46972}}, {"id": 7647293, "name": "Tiilim\u00e4ki", "state": "", "country": "FI", "coord": {"lon": 21.78141, "lat": 61.47476}}, {"id": 7647765, "name": "Ottignies-Louvain-la-Neuve", "state": "", "country": "BE", "coord": {"lon": 4.55023, "lat": 50.667141}}, {"id": 7647864, "name": "Greinveien", "state": "", "country": "NO", "coord": {"lon": 10.47466, "lat": 59.290829}}, {"id": 7648072, "name": "Dak Cheung", "state": "", "country": "LA", "coord": {"lon": 107.26667, "lat": 15.46667}}, {"id": 7648112, "name": "Colonia", "state": "", "country": "FM", "coord": {"lon": 138.121674, "lat": 9.51638}}, {"id": 7648249, "name": "Lelu", "state": "", "country": "FM", "coord": {"lon": 163.022476, "lat": 5.33359}}, {"id": 7648250, "name": "Tafunsak", "state": "", "country": "FM", "coord": {"lon": 162.985321, "lat": 5.3671}}, {"id": 7648268, "name": "Chastre", "state": "", "country": "BE", "coord": {"lon": 4.634, "lat": 50.60067}}, {"id": 7648299, "name": "Sanaxy", "state": "", "country": "LA", "coord": {"lon": 107.260162, "lat": 15.02207}}, {"id": 7648310, "name": "Huameung", "state": "", "country": "LA", "coord": {"lon": 103.858948, "lat": 20.148951}}, {"id": 7648323, "name": "Viengxay", "state": "", "country": "LA", "coord": {"lon": 104.344643, "lat": 20.34222}}, {"id": 7648328, "name": "Xamtay", "state": "", "country": "LA", "coord": {"lon": 104.51722, "lat": 19.94515}}, {"id": 7648330, "name": "Viengthong", "state": "", "country": "LA", "coord": {"lon": 103.408562, "lat": 20.327921}}, {"id": 7648367, "name": "Walhain", "state": "", "country": "BE", "coord": {"lon": 4.69477, "lat": 50.616798}}, {"id": 7648379, "name": "Dhanusa", "state": "", "country": "NP", "coord": {"lon": 86.010002, "lat": 26.83}}, {"id": 7648382, "name": "Weesperzijde", "state": "", "country": "NL", "coord": {"lon": 4.91055, "lat": 52.353008}}, {"id": 7648389, "name": "Barrio Brazil", "state": "", "country": "CL", "coord": {"lon": -70.666512, "lat": -33.43837}}, {"id": 7648440, "name": "Malem", "state": "", "country": "FM", "coord": {"lon": 163.026093, "lat": 5.28599}}, {"id": 7648441, "name": "Utwe", "state": "", "country": "FM", "coord": {"lon": 162.976562, "lat": 5.27486}}, {"id": 7648466, "name": "Total\u00e1n", "state": "", "country": "ES", "coord": {"lon": -4.29707, "lat": 36.765259}}, {"id": 7648533, "name": "Lennik", "state": "", "country": "BE", "coord": {"lon": 4.16219, "lat": 50.809029}}, {"id": 7648535, "name": "Moyross", "state": "", "country": "IE", "coord": {"lon": -8.63955, "lat": 52.68198}}, {"id": 7648744, "name": "Metaxourgio", "state": "", "country": "GR", "coord": {"lon": 23.720751, "lat": 37.98661}}, {"id": 7648752, "name": "Kolonia", "state": "", "country": "FM", "coord": {"lon": 158.206406, "lat": 6.964}}, {"id": 7648816, "name": "Shamshabad", "state": "", "country": "IN", "coord": {"lon": 78.41835, "lat": 17.25186}}, {"id": 7648817, "name": "\u0417\u0443\u0443\u043d\u043c\u043e\u0434", "state": "", "country": "MN", "coord": {"lon": 106.952759, "lat": 47.706928}}, {"id": 7648891, "name": "Kharkhorin", "state": "", "country": "MN", "coord": {"lon": 102.813492, "lat": 47.192451}}, {"id": 7648907, "name": "Alborz", "state": "", "country": "IR", "coord": {"lon": 50.809559, "lat": 36.011169}}, {"id": 7648916, "name": "Lyme Town Offices", "state": "NH", "country": "US", "coord": {"lon": -72.149422, "lat": 43.81525}}, {"id": 7649119, "name": "Surkhet", "state": "", "country": "NP", "coord": {"lon": 81.778702, "lat": 28.51746}}, {"id": 7649128, "name": "Nazir Town", "state": "", "country": "PK", "coord": {"lon": 73.483299, "lat": 33.306141}}, {"id": 7649203, "name": "Talas", "state": "", "country": "KG", "coord": {"lon": 72.656776, "lat": 42.354729}}, {"id": 7650833, "name": "Huanglin", "state": "", "country": "CN", "coord": {"lon": 115.620934, "lat": 25.91798}}, {"id": 7650835, "name": "Yunshishan", "state": "", "country": "CN", "coord": {"lon": 115.863319, "lat": 25.864111}}, {"id": 7650838, "name": "Zhongshi", "state": "", "country": "CN", "coord": {"lon": 115.416779, "lat": 25.387461}}, {"id": 7650839, "name": "Lianjiang", "state": "", "country": "CN", "coord": {"lon": 115.39286, "lat": 25.131411}}, {"id": 7650840, "name": "Xinlong", "state": "", "country": "CN", "coord": {"lon": 115.326767, "lat": 25.145149}}, {"id": 7650841, "name": "Gaoyunshan", "state": "", "country": "CN", "coord": {"lon": 115.521912, "lat": 25.16902}}, {"id": 7650842, "name": "Hushan", "state": "", "country": "CN", "coord": {"lon": 115.10936, "lat": 25.067141}}, {"id": 7650844, "name": "Jingshi", "state": "", "country": "CN", "coord": {"lon": 115.496719, "lat": 25.668631}}, {"id": 7650845, "name": "Shuiyuan", "state": "", "country": "CN", "coord": {"lon": 115.637627, "lat": 25.126141}}, {"id": 7650846, "name": "Changsha", "state": "", "country": "CN", "coord": {"lon": 115.522743, "lat": 25.47496}}, {"id": 7650850, "name": "Fucha", "state": "", "country": "CN", "coord": {"lon": 115.432129, "lat": 25.541121}}, {"id": 7650851, "name": "Zhuangkou", "state": "", "country": "CN", "coord": {"lon": 115.655663, "lat": 25.738871}}, {"id": 7650852, "name": "Wenwuba", "state": "", "country": "CN", "coord": {"lon": 115.796288, "lat": 25.60317}}, {"id": 7651294, "name": "Xingangshan", "state": "", "country": "CN", "coord": {"lon": 117.942978, "lat": 29.10486}}, {"id": 7652261, "name": "Zheyuan", "state": "", "country": "CN", "coord": {"lon": 117.865738, "lat": 29.472349}}, {"id": 7652262, "name": "Hetang", "state": "", "country": "CN", "coord": {"lon": 117.138443, "lat": 29.17753}}, {"id": 7652264, "name": "Dongxi", "state": "", "country": "CN", "coord": {"lon": 117.012657, "lat": 29.13566}}, {"id": 7652266, "name": "Hongyan", "state": "", "country": "CN", "coord": {"lon": 117.46299, "lat": 29.03997}}, {"id": 7652269, "name": "Tuochuan", "state": "", "country": "CN", "coord": {"lon": 117.815918, "lat": 29.51932}}, {"id": 7652271, "name": "Wanggang", "state": "", "country": "CN", "coord": {"lon": 117.31427, "lat": 29.38875}}, {"id": 7652273, "name": "Shuangtian", "state": "", "country": "CN", "coord": {"lon": 117.155769, "lat": 29.05654}}, {"id": 7652275, "name": "Fengzhou", "state": "", "country": "CN", "coord": {"lon": 117.554497, "lat": 29.076429}}, {"id": 7652277, "name": "Jingcheng", "state": "", "country": "CN", "coord": {"lon": 117.218163, "lat": 29.28437}}, {"id": 7652278, "name": "Zhangshan", "state": "", "country": "CN", "coord": {"lon": 117.72831, "lat": 29.45332}}, {"id": 7652285, "name": "Hecheng", "state": "", "country": "CN", "coord": {"lon": 117.718651, "lat": 29.657379}}, {"id": 7652324, "name": "Qiaoshan", "state": "", "country": "CN", "coord": {"lon": 117.719269, "lat": 29.76399}}, {"id": 7652374, "name": "Henglian", "state": "", "country": "CN", "coord": {"lon": 117.8722, "lat": 29.848961}}, {"id": 7652386, "name": "Dengta", "state": "", "country": "CN", "coord": {"lon": 117.665558, "lat": 29.869101}}, {"id": 7652402, "name": "Xinxi Wudui", "state": "", "country": "CN", "coord": {"lon": 117.819229, "lat": 29.904819}}, {"id": 7653967, "name": "Yandian", "state": "", "country": "CN", "coord": {"lon": 113.566521, "lat": 31.335171}}, {"id": 7653968, "name": "Huaxi", "state": "", "country": "CN", "coord": {"lon": 113.859497, "lat": 31.19923}}, {"id": 7653969, "name": "Fengjiang", "state": "", "country": "CN", "coord": {"lon": 113.337639, "lat": 31.973721}}, {"id": 7653970, "name": "Taiping", "state": "", "country": "CN", "coord": {"lon": 113.920891, "lat": 31.4552}}, {"id": 7653971, "name": "Qingminghe", "state": "", "country": "CN", "coord": {"lon": 113.689171, "lat": 31.03537}}, {"id": 7653972, "name": "Nancheng", "state": "", "country": "CN", "coord": {"lon": 113.696922, "lat": 31.207991}}, {"id": 7653973, "name": "Wupu", "state": "", "country": "CN", "coord": {"lon": 113.800758, "lat": 31.03956}}, {"id": 7653974, "name": "Xinzha", "state": "", "country": "CN", "coord": {"lon": 113.629349, "lat": 31.116659}}, {"id": 7653975, "name": "Nanjiao", "state": "", "country": "CN", "coord": {"lon": 113.349602, "lat": 31.713261}}, {"id": 7653976, "name": "Beifan", "state": "", "country": "CN", "coord": {"lon": 113.52285, "lat": 31.38378}}, {"id": 7653977, "name": "Dougang", "state": "", "country": "CN", "coord": {"lon": 113.850937, "lat": 31.040251}}, {"id": 7653979, "name": "Xinjie", "state": "", "country": "CN", "coord": {"lon": 113.211761, "lat": 31.818541}}, {"id": 7653980, "name": "Fuhe", "state": "", "country": "CN", "coord": {"lon": 113.566452, "lat": 31.509581}}, {"id": 7653981, "name": "Dayanpo", "state": "", "country": "CN", "coord": {"lon": 113.4375, "lat": 31.6089}}, {"id": 7653982, "name": "Xihe", "state": "", "country": "CN", "coord": {"lon": 114.009598, "lat": 31.00843}}, {"id": 7653983, "name": "L\u00fclin", "state": "", "country": "CN", "coord": {"lon": 113.076759, "lat": 31.31354}}, {"id": 7653984, "name": "Doushan", "state": "", "country": "CN", "coord": {"lon": 114.003052, "lat": 31.202471}}, {"id": 7653985, "name": "Daodian", "state": "", "country": "CN", "coord": {"lon": 113.72625, "lat": 31.1849}}, {"id": 7654016, "name": "Mmale", "state": "", "country": "BW", "coord": {"lon": 26.983419, "lat": -22.2827}}, {"id": 7656068, "name": "Baimiao", "state": "", "country": "CN", "coord": {"lon": 112.221153, "lat": 31.03484}}, {"id": 7656069, "name": "Wenji", "state": "", "country": "CN", "coord": {"lon": 112.528671, "lat": 31.158751}}, {"id": 7656071, "name": "Zhengji", "state": "", "country": "CN", "coord": {"lon": 112.301003, "lat": 31.648121}}, {"id": 7658285, "name": "Xingqiao", "state": "", "country": "CN", "coord": {"lon": 114.87426, "lat": 27.140169}}, {"id": 7658290, "name": "Lucun", "state": "", "country": "CN", "coord": {"lon": 114.455406, "lat": 27.927509}}, {"id": 7658291, "name": "Chigu", "state": "", "country": "CN", "coord": {"lon": 114.652657, "lat": 27.549761}}, {"id": 7658293, "name": "Shangxian", "state": "", "country": "CN", "coord": {"lon": 114.960999, "lat": 27.36064}}, {"id": 7658294, "name": "Hushang", "state": "", "country": "CN", "coord": {"lon": 114.048477, "lat": 27.26507}}, {"id": 7658295, "name": "Chuntai", "state": "", "country": "CN", "coord": {"lon": 114.383408, "lat": 27.802271}}, {"id": 7658298, "name": "Dagangshan", "state": "", "country": "CN", "coord": {"lon": 114.588142, "lat": 27.6556}}, {"id": 7658299, "name": "Tailing", "state": "", "country": "CN", "coord": {"lon": 114.111237, "lat": 27.068649}}, {"id": 7658300, "name": "Yuannan", "state": "", "country": "CN", "coord": {"lon": 114.031502, "lat": 27.670931}}, {"id": 7658302, "name": "Denglong", "state": "", "country": "CN", "coord": {"lon": 114.750961, "lat": 27.012211}}, {"id": 7658305, "name": "Ouli", "state": "", "country": "CN", "coord": {"lon": 114.833519, "lat": 27.9266}}, {"id": 7658306, "name": "Jinjiang", "state": "", "country": "CN", "coord": {"lon": 114.985497, "lat": 27.585569}}, {"id": 7658307, "name": "Yuanzhou", "state": "", "country": "CN", "coord": {"lon": 114.376083, "lat": 27.79846}}, {"id": 7658308, "name": "Huze", "state": "", "country": "CN", "coord": {"lon": 114.75074, "lat": 27.865641}}, {"id": 7658309, "name": "Tiantai", "state": "", "country": "CN", "coord": {"lon": 114.019478, "lat": 27.82976}}, {"id": 7658310, "name": "Hebu", "state": "", "country": "CN", "coord": {"lon": 114.966957, "lat": 27.101379}}, {"id": 7658311, "name": "Shanshi", "state": "", "country": "CN", "coord": {"lon": 114.057167, "lat": 27.2904}}, {"id": 7658314, "name": "Gaoqiaolou", "state": "", "country": "CN", "coord": {"lon": 114.365059, "lat": 27.01969}}, {"id": 7658317, "name": "Matian", "state": "", "country": "CN", "coord": {"lon": 114.101707, "lat": 27.49868}}, {"id": 7658318, "name": "Longmen", "state": "", "country": "CN", "coord": {"lon": 114.143059, "lat": 27.090269}}, {"id": 7658324, "name": "Huayun", "state": "", "country": "CN", "coord": {"lon": 114.135017, "lat": 27.576059}}, {"id": 7658326, "name": "Yinhe", "state": "", "country": "CN", "coord": {"lon": 114.117767, "lat": 27.699881}}, {"id": 7658327, "name": "Xiangxing", "state": "", "country": "CN", "coord": {"lon": 114.225868, "lat": 27.12994}}, {"id": 7658328, "name": "Zhangjiafang", "state": "", "country": "CN", "coord": {"lon": 114.009308, "lat": 27.51516}}, {"id": 7658330, "name": "Lianzhou", "state": "", "country": "CN", "coord": {"lon": 114.257538, "lat": 27.045731}}, {"id": 7658331, "name": "Dachong", "state": "", "country": "CN", "coord": {"lon": 114.846519, "lat": 27.334579}}, {"id": 7658333, "name": "Henglong", "state": "", "country": "CN", "coord": {"lon": 114.551064, "lat": 27.39127}}, {"id": 7658334, "name": "Guashe", "state": "", "country": "CN", "coord": {"lon": 114.720177, "lat": 27.412741}}, {"id": 7658339, "name": "Longtian", "state": "", "country": "CN", "coord": {"lon": 114.03067, "lat": 27.02001}}, {"id": 7658344, "name": "Nanmu", "state": "", "country": "CN", "coord": {"lon": 114.166283, "lat": 27.987801}}, {"id": 7658345, "name": "Yuankeng", "state": "", "country": "CN", "coord": {"lon": 114.727463, "lat": 27.64887}}, {"id": 7658348, "name": "Jiulongshan", "state": "", "country": "CN", "coord": {"lon": 114.839409, "lat": 27.64521}}, {"id": 7658349, "name": "Liaotang", "state": "", "country": "CN", "coord": {"lon": 114.593193, "lat": 27.275221}}, {"id": 7658350, "name": "Antang", "state": "", "country": "CN", "coord": {"lon": 114.680946, "lat": 27.001261}}, {"id": 7658358, "name": "Taishan", "state": "", "country": "CN", "coord": {"lon": 114.269608, "lat": 27.4436}}, {"id": 7658360, "name": "Gaoshi", "state": "", "country": "CN", "coord": {"lon": 114.203537, "lat": 27.033279}}, {"id": 7658361, "name": "Tiantaishan", "state": "", "country": "CN", "coord": {"lon": 114.000839, "lat": 27.88534}}, {"id": 7658368, "name": "Wanlongshan", "state": "", "country": "CN", "coord": {"lon": 114.167938, "lat": 27.601419}}, {"id": 7658375, "name": "Wojiang", "state": "", "country": "CN", "coord": {"lon": 114.436943, "lat": 27.84057}}, {"id": 7658379, "name": "Zhushan", "state": "", "country": "CN", "coord": {"lon": 114.942627, "lat": 27.777479}}, {"id": 7658380, "name": "Hutian", "state": "", "country": "CN", "coord": {"lon": 114.347122, "lat": 27.82276}}, {"id": 7658381, "name": "Xinquan", "state": "", "country": "CN", "coord": {"lon": 114.069267, "lat": 27.52173}}, {"id": 7658382, "name": "Yangmen", "state": "", "country": "CN", "coord": {"lon": 114.397102, "lat": 27.135469}}, {"id": 7658383, "name": "Pengfang", "state": "", "country": "CN", "coord": {"lon": 114.316811, "lat": 27.23386}}, {"id": 7658384, "name": "Ganluo", "state": "", "country": "CN", "coord": {"lon": 114.586151, "lat": 27.208469}}, {"id": 7659437, "name": "Xiaoying", "state": "", "country": "CN", "coord": {"lon": 129.52066, "lat": 42.91206}}, {"id": 7660482, "name": "Yuanjiaqiao", "state": "", "country": "CN", "coord": {"lon": 112.86042, "lat": 30.42074}}, {"id": 7661834, "name": "Yingcheng", "state": "", "country": "CN", "coord": {"lon": 112.19944, "lat": 30.368601}}, {"id": 7661835, "name": "Gaoshibei", "state": "", "country": "CN", "coord": {"lon": 112.669067, "lat": 30.55164}}, {"id": 7661836, "name": "Yangshi", "state": "", "country": "CN", "coord": {"lon": 112.899979, "lat": 30.36978}}, {"id": 7661837, "name": "Yanmenkou", "state": "", "country": "CN", "coord": {"lon": 112.974693, "lat": 30.83473}}, {"id": 7661838, "name": "Huangxiekou", "state": "", "country": "CN", "coord": {"lon": 112.852562, "lat": 30.033001}}, {"id": 7661841, "name": "Jiyukou", "state": "", "country": "CN", "coord": {"lon": 112.590248, "lat": 30.455339}}, {"id": 7661844, "name": "Luochang", "state": "", "country": "CN", "coord": {"lon": 112.334709, "lat": 30.359699}}, {"id": 7661846, "name": "Zhouji", "state": "", "country": "CN", "coord": {"lon": 112.780724, "lat": 30.4121}}, {"id": 7661848, "name": "Dongcheng", "state": "", "country": "CN", "coord": {"lon": 112.18824, "lat": 30.35104}}, {"id": 7661850, "name": "Wangchang", "state": "", "country": "CN", "coord": {"lon": 112.767548, "lat": 30.5084}}, {"id": 7661851, "name": "Zhoulaozui", "state": "", "country": "CN", "coord": {"lon": 112.980431, "lat": 30.03385}}, {"id": 7661852, "name": "Jiangchang", "state": "", "country": "CN", "coord": {"lon": 112.933662, "lat": 30.60928}}, {"id": 7661853, "name": "Gaoyang", "state": "", "country": "CN", "coord": {"lon": 112.512451, "lat": 30.76614}}, {"id": 7661854, "name": "Jishan", "state": "", "country": "CN", "coord": {"lon": 112.176987, "lat": 30.53932}}, {"id": 7661855, "name": "Guanghua", "state": "", "country": "CN", "coord": {"lon": 112.684464, "lat": 30.443781}}, {"id": 7661856, "name": "Jinan", "state": "", "country": "CN", "coord": {"lon": 112.20031, "lat": 30.44738}}, {"id": 7661857, "name": "Lishi", "state": "", "country": "CN", "coord": {"lon": 112.567741, "lat": 30.58946}}, {"id": 7661858, "name": "Xicheng", "state": "", "country": "CN", "coord": {"lon": 112.18026, "lat": 30.359039}}, {"id": 7661859, "name": "Zhanghe", "state": "", "country": "CN", "coord": {"lon": 112.070763, "lat": 30.95698}}, {"id": 7661860, "name": "Tuoshi", "state": "", "country": "CN", "coord": {"lon": 112.826973, "lat": 30.72788}}, {"id": 7661861, "name": "Chengnan", "state": "", "country": "CN", "coord": {"lon": 112.176491, "lat": 30.348351}}, {"id": 7661862, "name": "Zhugentan", "state": "", "country": "CN", "coord": {"lon": 112.902367, "lat": 30.497761}}, {"id": 7665065, "name": "Bandaragung", "state": "", "country": "ID", "coord": {"lon": 105.692551, "lat": -5.29229}}, {"id": 7665091, "name": "Gadingrejo", "state": "", "country": "ID", "coord": {"lon": 105.06163, "lat": -5.37233}}, {"id": 7665492, "name": "Palas", "state": "", "country": "ID", "coord": {"lon": 105.680107, "lat": -5.65191}}, {"id": 7665500, "name": "Sidorejo", "state": "", "country": "ID", "coord": {"lon": 105.523643, "lat": -5.58471}}, {"id": 7665509, "name": "Pasuruan", "state": "", "country": "ID", "coord": {"lon": 105.677071, "lat": -5.7463}}, {"id": 7665512, "name": "Penengahan", "state": "", "country": "ID", "coord": {"lon": 105.696899, "lat": -5.7706}}, {"id": 7665618, "name": "Timurjaya", "state": "", "country": "ID", "coord": {"lon": 106.285088, "lat": -5.81409}}, {"id": 7666359, "name": "Palembang", "state": "", "country": "ID", "coord": {"lon": 105.264122, "lat": -5.45206}}, {"id": 7666470, "name": "Kedondong", "state": "", "country": "ID", "coord": {"lon": 105.0009, "lat": -5.46284}}, {"id": 7666931, "name": "Talangrebo", "state": "", "country": "ID", "coord": {"lon": 105.095627, "lat": -5.16626}}, {"id": 7667386, "name": "Schr\u00f6cken", "state": "", "country": "AT", "coord": {"lon": 10.09272, "lat": 47.257401}}, {"id": 7667450, "name": "Surkhet", "state": "", "country": "NP", "coord": {"lon": 81.778702, "lat": 28.51746}}, {"id": 7667505, "name": "Laakdal", "state": "", "country": "BE", "coord": {"lon": 5.00556, "lat": 51.080669}}, {"id": 7667578, "name": "Marneuli", "state": "", "country": "GE", "coord": {"lon": 44.810829, "lat": 41.463612}}, {"id": 7667580, "name": "Gurjaani", "state": "", "country": "GE", "coord": {"lon": 45.799999, "lat": 41.75}}, {"id": 7667581, "name": "Telavi", "state": "", "country": "GE", "coord": {"lon": 45.48333, "lat": 41.916672}}, {"id": 7667608, "name": "Madolenihm Municipality Government", "state": "", "country": "FM", "coord": {"lon": 158.298706, "lat": 6.83493}}, {"id": 7667714, "name": "Tsalka", "state": "", "country": "GE", "coord": {"lon": 44.083328, "lat": 41.583328}}, {"id": 7667751, "name": "Kharagauli", "state": "", "country": "GE", "coord": {"lon": 43.197731, "lat": 42.02137}}, {"id": 7667785, "name": "Koka", "state": "", "country": "ET", "coord": {"lon": 39.0308, "lat": 8.43442}}, {"id": 7667930, "name": "Ymittos", "state": "", "country": "GR", "coord": {"lon": 23.74897, "lat": 37.953419}}, {"id": 7668030, "name": "La Paz Centro", "state": "", "country": "NI", "coord": {"lon": -86.676079, "lat": 12.33953}}, {"id": 7668056, "name": "Makry-Gialos", "state": "", "country": "GR", "coord": {"lon": 25.972191, "lat": 35.037022}}, {"id": 7668824, "name": "Artemisa", "state": "", "country": "CU", "coord": {"lon": -82.756058, "lat": 22.813999}}, {"id": 7668827, "name": "Provincia Mayabeque", "state": "", "country": "CU", "coord": {"lon": -82.147179, "lat": 22.96155}}, {"id": 7668874, "name": "Tonoas Municipal Building", "state": "", "country": "FM", "coord": {"lon": 151.884323, "lat": 7.37597}}, {"id": 7668879, "name": "Weno Municipal Offices", "state": "", "country": "FM", "coord": {"lon": 151.841034, "lat": 7.44428}}, {"id": 7668886, "name": "Weno - Chuuk State Legislature", "state": "", "country": "FM", "coord": {"lon": 151.84346, "lat": 7.4564}}, {"id": 7668893, "name": "Scherpenheuvel-Zichem", "state": "", "country": "BE", "coord": {"lon": 4.97492, "lat": 51.01041}}, {"id": 7668950, "name": "Realejo-San Mat\u00edas", "state": "", "country": "ES", "coord": {"lon": -3.59389, "lat": 37.173328}}, {"id": 7669002, "name": "Silver Creek", "state": "", "country": "CA", "coord": {"lon": -121.464539, "lat": 49.360802}}, {"id": 7669003, "name": "Popkum", "state": "", "country": "CA", "coord": {"lon": -121.738129, "lat": 49.203659}}, {"id": 7669010, "name": "Yarrow", "state": "", "country": "CA", "coord": {"lon": -122.050339, "lat": 49.082069}}, {"id": 7669012, "name": "Walnut Grove", "state": "", "country": "CA", "coord": {"lon": -122.640419, "lat": 49.16473}}, {"id": 7669017, "name": "Gloucester", "state": "", "country": "CA", "coord": {"lon": -122.47361, "lat": 49.098042}}, {"id": 7669018, "name": "Aldergrove", "state": "", "country": "CA", "coord": {"lon": -122.470871, "lat": 49.05801}}, {"id": 7669102, "name": "Bi\u00e9ville-en-Auge", "state": "", "country": "FR", "coord": {"lon": -0.03897, "lat": 49.12624}}, {"id": 7669105, "name": "Le Molay", "state": "", "country": "FR", "coord": {"lon": -0.88629, "lat": 49.25346}}, {"id": 7669107, "name": "Beaufour", "state": "", "country": "FR", "coord": {"lon": 0.02528, "lat": 49.21381}}, {"id": 7669118, "name": "Paraparaumu North", "state": "", "country": "NZ", "coord": {"lon": 175.018387, "lat": -40.90551}}, {"id": 7669249, "name": "Sacromonte", "state": "", "country": "ES", "coord": {"lon": -3.59278, "lat": 37.180828}}, {"id": 7669365, "name": "Ledro", "state": "", "country": "IT", "coord": {"lon": 10.73558, "lat": 45.88678}}, {"id": 7669414, "name": "Schliern", "state": "", "country": "CH", "coord": {"lon": 7.41718, "lat": 46.9105}}, {"id": 7669417, "name": "St. Mang", "state": "", "country": "DE", "coord": {"lon": 10.32629, "lat": 47.71265}}, {"id": 7669427, "name": "Aeschiried", "state": "", "country": "CH", "coord": {"lon": 7.72582, "lat": 46.646229}}, {"id": 7669429, "name": "Agriswil", "state": "", "country": "CH", "coord": {"lon": 7.19784, "lat": 46.95546}}, {"id": 7669430, "name": "Alchenfl\u00fch", "state": "", "country": "CH", "coord": {"lon": 7.58115, "lat": 47.084702}}, {"id": 7669440, "name": "Ammerzwil", "state": "", "country": "CH", "coord": {"lon": 7.34176, "lat": 47.070389}}, {"id": 7669443, "name": "Anglikon", "state": "", "country": "CH", "coord": {"lon": 8.2633, "lat": 47.36636}}, {"id": 7669445, "name": "Au", "state": "", "country": "CH", "coord": {"lon": 8.95418, "lat": 47.398441}}, {"id": 7669461, "name": "Birri", "state": "", "country": "CH", "coord": {"lon": 8.36832, "lat": 47.280861}}, {"id": 7669463, "name": "Blickensdorf", "state": "", "country": "CH", "coord": {"lon": 8.5165, "lat": 47.20348}}, {"id": 7669464, "name": "Boll", "state": "", "country": "CH", "coord": {"lon": 8.27698, "lat": 47.343842}}, {"id": 7669469, "name": "Branson", "state": "", "country": "CH", "coord": {"lon": 7.0923, "lat": 46.13089}}, {"id": 7669475, "name": "B\u00fcblikon", "state": "", "country": "CH", "coord": {"lon": 8.26, "lat": 47.41795}}, {"id": 7669498, "name": "Chandonne", "state": "", "country": "CH", "coord": {"lon": 7.18058, "lat": 46.006611}}, {"id": 7669508, "name": "Corcelles", "state": "", "country": "CH", "coord": {"lon": 6.87751, "lat": 46.98642}}, {"id": 7669512, "name": "Cornes de Cerf", "state": "", "country": "CH", "coord": {"lon": 6.77054, "lat": 46.54298}}, {"id": 7669513, "name": "Corpataux", "state": "", "country": "CH", "coord": {"lon": 7.09708, "lat": 46.743301}}, {"id": 7669532, "name": "Dietfurt", "state": "", "country": "CH", "coord": {"lon": 9.08092, "lat": 47.348808}}, {"id": 7669533, "name": "Dietingen", "state": "", "country": "CH", "coord": {"lon": 8.81369, "lat": 47.587769}}, {"id": 7669540, "name": "Dussnang", "state": "", "country": "CH", "coord": {"lon": 8.96309, "lat": 47.431412}}, {"id": 7669551, "name": "Englisberg", "state": "", "country": "CH", "coord": {"lon": 7.46928, "lat": 46.899239}}, {"id": 7669564, "name": "Eschi", "state": "", "country": "CH", "coord": {"lon": 7.37522, "lat": 46.61314}}, {"id": 7669565, "name": "Ettenhausen", "state": "", "country": "CH", "coord": {"lon": 8.90078, "lat": 47.479031}}, {"id": 7669572, "name": "Flanthey", "state": "", "country": "CH", "coord": {"lon": 7.45463, "lat": 46.271881}}, {"id": 7669576, "name": "Forst", "state": "", "country": "CH", "coord": {"lon": 9.53997, "lat": 47.374741}}, {"id": 7669590, "name": "Gasenried", "state": "", "country": "CH", "coord": {"lon": 7.82561, "lat": 46.17979}}, {"id": 7669596, "name": "Gimmiz", "state": "", "country": "CH", "coord": {"lon": 7.23749, "lat": 47.055069}}, {"id": 7669598, "name": "Gl\u00e4nd", "state": "", "country": "CH", "coord": {"lon": 7.90484, "lat": 47.29636}}, {"id": 7669604, "name": "Greich", "state": "", "country": "CH", "coord": {"lon": 8.04023, "lat": 46.367931}}, {"id": 7669611, "name": "Gr\u00fcnen", "state": "", "country": "CH", "coord": {"lon": 7.74319, "lat": 47.0266}}, {"id": 7669618, "name": "Gutenburg", "state": "", "country": "CH", "coord": {"lon": 7.79483, "lat": 47.183788}}, {"id": 7669622, "name": "Hagenwil", "state": "", "country": "CH", "coord": {"lon": 9.3078, "lat": 47.53006}}, {"id": 7669625, "name": "Happerswil", "state": "", "country": "CH", "coord": {"lon": 9.22407, "lat": 47.579071}}, {"id": 7669629, "name": "Hasli", "state": "", "country": "CH", "coord": {"lon": 9.01373, "lat": 47.590771}}, {"id": 7669640, "name": "Hinterthal", "state": "", "country": "CH", "coord": {"lon": 8.7725, "lat": 46.973598}}, {"id": 7669663, "name": "Kaltenbach", "state": "", "country": "CH", "coord": {"lon": 8.84388, "lat": 47.654491}}, {"id": 7669673, "name": "Kosthofen", "state": "", "country": "CH", "coord": {"lon": 7.34375, "lat": 47.053711}}, {"id": 7669679, "name": "K\u00fcngoldingen", "state": "", "country": "CH", "coord": {"lon": 7.94325, "lat": 47.308739}}, {"id": 7669680, "name": "La Capite", "state": "", "country": "CH", "coord": {"lon": 6.20498, "lat": 46.236229}}, {"id": 7669688, "name": "La Forclaz", "state": "", "country": "CH", "coord": {"lon": 7.52117, "lat": 46.087238}}, {"id": 7669695, "name": "Lanterswil", "state": "", "country": "CH", "coord": {"lon": 9.09713, "lat": 47.522049}}, {"id": 7669701, "name": "La Sagne", "state": "", "country": "CH", "coord": {"lon": 6.49819, "lat": 46.81654}}, {"id": 7669715, "name": "Lenggenwil", "state": "", "country": "CH", "coord": {"lon": 9.15042, "lat": 47.476269}}, {"id": 7669730, "name": "Les Vacheries", "state": "", "country": "CH", "coord": {"lon": 6.9974, "lat": 47.209389}}, {"id": 7669737, "name": "Lobsigen", "state": "", "country": "CH", "coord": {"lon": 7.29449, "lat": 47.028179}}, {"id": 7669742, "name": "Luc", "state": "", "country": "CH", "coord": {"lon": 7.41947, "lat": 46.28447}}, {"id": 7669745, "name": "Lullier", "state": "", "country": "CH", "coord": {"lon": 6.25729, "lat": 46.228851}}, {"id": 7669761, "name": "Mellstorf", "state": "", "country": "CH", "coord": {"lon": 8.37545, "lat": 47.555779}}, {"id": 7669770, "name": "Monruz", "state": "", "country": "CH", "coord": {"lon": 6.95982, "lat": 47.004978}}, {"id": 7669772, "name": "Montagny-les-Monts", "state": "", "country": "CH", "coord": {"lon": 6.9915, "lat": 46.810719}}, {"id": 7669789, "name": "Mutschellen", "state": "", "country": "CH", "coord": {"lon": 8.36789, "lat": 47.360439}}, {"id": 7669790, "name": "Nant", "state": "", "country": "CH", "coord": {"lon": 7.10707, "lat": 46.957989}}, {"id": 7669793, "name": "Nesselnbach", "state": "", "country": "CH", "coord": {"lon": 8.29138, "lat": 47.389679}}, {"id": 7669799, "name": "Niederneunforn", "state": "", "country": "CH", "coord": {"lon": 8.78482, "lat": 47.59729}}, {"id": 7669801, "name": "Niederwangen", "state": "", "country": "CH", "coord": {"lon": 7.37298, "lat": 46.927021}}, {"id": 7669803, "name": "Niederwil", "state": "", "country": "CH", "coord": {"lon": 9.19917, "lat": 47.439571}}, {"id": 7669809, "name": "Oberb\u00fctschel", "state": "", "country": "CH", "coord": {"lon": 7.46414, "lat": 46.83894}}, {"id": 7669824, "name": "Oberzeihen", "state": "", "country": "CH", "coord": {"lon": 8.08644, "lat": 47.467079}}, {"id": 7669835, "name": "Pardisla", "state": "", "country": "CH", "coord": {"lon": 9.63588, "lat": 46.98114}}, {"id": 7669843, "name": "Platz", "state": "", "country": "CH", "coord": {"lon": 9.61209, "lat": 47.44376}}, {"id": 7669849, "name": "Privilasco", "state": "", "country": "CH", "coord": {"lon": 10.06018, "lat": 46.340591}}, {"id": 7669850, "name": "Progero", "state": "", "country": "CH", "coord": {"lon": 8.94115, "lat": 46.175259}}, {"id": 7669873, "name": "Ros\u00e9", "state": "", "country": "CH", "coord": {"lon": 7.0629, "lat": 46.784012}}, {"id": 7669881, "name": "R\u00fcediswil", "state": "", "country": "CH", "coord": {"lon": 8.11061, "lat": 47.090961}}, {"id": 7669890, "name": "Sagen", "state": "", "country": "CH", "coord": {"lon": 7.89398, "lat": 47.233669}}, {"id": 7669891, "name": "Salavaux", "state": "", "country": "CH", "coord": {"lon": 7.02324, "lat": 46.919682}}, {"id": 7669904, "name": "Schachen", "state": "", "country": "CH", "coord": {"lon": 7.95596, "lat": 47.35656}}, {"id": 7669906, "name": "Scharnachtal", "state": "", "country": "CH", "coord": {"lon": 7.69923, "lat": 46.618599}}, {"id": 7669907, "name": "Scheunenberg", "state": "", "country": "CH", "coord": {"lon": 7.37953, "lat": 47.086651}}, {"id": 7669914, "name": "Sch\u00fcrberg", "state": "", "country": "CH", "coord": {"lon": 7.94283, "lat": 47.255199}}, {"id": 7669939, "name": "Starrberg", "state": "", "country": "CH", "coord": {"lon": 9.00817, "lat": 47.20385}}, {"id": 7669941, "name": "Steffen", "state": "", "country": "CH", "coord": {"lon": 7.58232, "lat": 47.425079}}, {"id": 7669943, "name": "Steinegg", "state": "", "country": "CH", "coord": {"lon": 9.43146, "lat": 47.321949}}, {"id": 7669949, "name": "St. Loretto", "state": "", "country": "CH", "coord": {"lon": 9.08594, "lat": 47.332802}}, {"id": 7669957, "name": "Suen", "state": "", "country": "CH", "coord": {"lon": 7.4378, "lat": 46.182369}}, {"id": 7669959, "name": "Sulz", "state": "", "country": "CH", "coord": {"lon": 8.324, "lat": 47.383121}}, {"id": 7669966, "name": "Trin Mulin", "state": "", "country": "CH", "coord": {"lon": 9.34107, "lat": 46.833672}}, {"id": 7669969, "name": "Tufertschwil", "state": "", "country": "CH", "coord": {"lon": 9.10077, "lat": 47.395229}}, {"id": 7669970, "name": "Turtig", "state": "", "country": "CH", "coord": {"lon": 7.80192, "lat": 46.304821}}, {"id": 7669989, "name": "Vezio", "state": "", "country": "CH", "coord": {"lon": 8.8832, "lat": 46.046051}}, {"id": 7670000, "name": "Vogelsang", "state": "", "country": "CH", "coord": {"lon": 8.32322, "lat": 47.541851}}, {"id": 7670016, "name": "Wasserfluh", "state": "", "country": "CH", "coord": {"lon": 9.11531, "lat": 47.327271}}, {"id": 7670023, "name": "Wiezikon", "state": "", "country": "CH", "coord": {"lon": 8.98748, "lat": 47.451321}}, {"id": 7670036, "name": "Wyler", "state": "", "country": "CH", "coord": {"lon": 8.24835, "lat": 46.711578}}, {"id": 7670044, "name": "Aawangen", "state": "", "country": "CH", "coord": {"lon": 8.90078, "lat": 47.51329}}, {"id": 7670054, "name": "Arnis\u00e4ge", "state": "", "country": "CH", "coord": {"lon": 7.65322, "lat": 46.935741}}, {"id": 7670066, "name": "B\u00e4renburg", "state": "", "country": "CH", "coord": {"lon": 9.4291, "lat": 46.595451}}, {"id": 7670080, "name": "Bodio", "state": "", "country": "CH", "coord": {"lon": 9.12033, "lat": 46.33242}}, {"id": 7670124, "name": "Corjolens", "state": "", "country": "CH", "coord": {"lon": 7.04646, "lat": 46.78693}}, {"id": 7670132, "name": "Cutterwil", "state": "", "country": "CH", "coord": {"lon": 7.08607, "lat": 46.841122}}, {"id": 7670133, "name": "Dalin", "state": "", "country": "CH", "coord": {"lon": 9.40558, "lat": 46.736382}}, {"id": 7670152, "name": "Est\u00e9venens", "state": "", "country": "CH", "coord": {"lon": 6.9551, "lat": 46.670269}}, {"id": 7670155, "name": "Ey", "state": "", "country": "CH", "coord": {"lon": 7.55254, "lat": 47.125149}}, {"id": 7670172, "name": "Forst", "state": "", "country": "CH", "coord": {"lon": 7.52325, "lat": 46.764679}}, {"id": 7670176, "name": "Fuyens", "state": "", "country": "CH", "coord": {"lon": 6.97283, "lat": 46.71529}}, {"id": 7670186, "name": "Grattavache", "state": "", "country": "CH", "coord": {"lon": 6.91345, "lat": 46.595982}}, {"id": 7670200, "name": "Heimenegg", "state": "", "country": "CH", "coord": {"lon": 7.70642, "lat": 46.815632}}, {"id": 7670203, "name": "Helgisried", "state": "", "country": "CH", "coord": {"lon": 7.42837, "lat": 46.817631}}, {"id": 7670205, "name": "Hennens", "state": "", "country": "CH", "coord": {"lon": 6.88635, "lat": 46.68372}}, {"id": 7670215, "name": "Holz", "state": "", "country": "CH", "coord": {"lon": 8.17067, "lat": 47.054569}}, {"id": 7670216, "name": "Holzh\u00e4usern", "state": "", "country": "CH", "coord": {"lon": 8.44089, "lat": 47.156502}}, {"id": 7670219, "name": "Huggerwald", "state": "", "country": "CH", "coord": {"lon": 7.4343, "lat": 47.4193}}, {"id": 7670228, "name": "Kalth\u00e4usern", "state": "", "country": "CH", "coord": {"lon": 8.97635, "lat": 47.52449}}, {"id": 7670238, "name": "La Croix", "state": "", "country": "CH", "coord": {"lon": 6.7036, "lat": 46.517899}}, {"id": 7670242, "name": "La Mothe", "state": "", "country": "CH", "coord": {"lon": 6.56711, "lat": 46.82016}}, {"id": 7670271, "name": "Lieffrens", "state": "", "country": "CH", "coord": {"lon": 6.90167, "lat": 46.637989}}, {"id": 7670286, "name": "Magnedens", "state": "", "country": "CH", "coord": {"lon": 7.08228, "lat": 46.743469}}, {"id": 7670295, "name": "Mattsand", "state": "", "country": "CH", "coord": {"lon": 7.79304, "lat": 46.148991}}, {"id": 7670335, "name": "Oberruntigen", "state": "", "country": "CH", "coord": {"lon": 7.27045, "lat": 46.981339}}, {"id": 7670360, "name": "Ramersberg", "state": "", "country": "CH", "coord": {"lon": 8.23346, "lat": 46.89925}}, {"id": 7670380, "name": "R\u00fcnkhofen", "state": "", "country": "CH", "coord": {"lon": 7.68231, "lat": 46.901829}}, {"id": 7670381, "name": "R\u00fcplisried", "state": "", "country": "CH", "coord": {"lon": 7.2467, "lat": 46.92746}}, {"id": 7670403, "name": "Selva", "state": "", "country": "CH", "coord": {"lon": 8.72166, "lat": 46.660999}}, {"id": 7670411, "name": "Stalten", "state": "", "country": "CH", "coord": {"lon": 7.73947, "lat": 47.242939}}, {"id": 7670417, "name": "St. Niklausen", "state": "", "country": "CH", "coord": {"lon": 8.34072, "lat": 47.020168}}, {"id": 7670420, "name": "Strada", "state": "", "country": "CH", "coord": {"lon": 9.18802, "lat": 46.77676}}, {"id": 7670424, "name": "S\u00fcri", "state": "", "country": "CH", "coord": {"lon": 7.26945, "lat": 46.92067}}, {"id": 7670426, "name": "Tal", "state": "", "country": "CH", "coord": {"lon": 7.77983, "lat": 47.020279}}, {"id": 7670441, "name": "Vargistagn", "state": "", "country": "CH", "coord": {"lon": 9.40838, "lat": 46.627899}}, {"id": 7670464, "name": "Vivy", "state": "", "country": "CH", "coord": {"lon": 7.17072, "lat": 46.868401}}, {"id": 7670479, "name": "Wil", "state": "", "country": "CH", "coord": {"lon": 7.92741, "lat": 47.347778}}, {"id": 7670575, "name": "Via di Villa Chigi", "state": "", "country": "IT", "coord": {"lon": 12.51424, "lat": 41.934029}}, {"id": 7670675, "name": "Datang", "state": "", "country": "CN", "coord": {"lon": 120.580704, "lat": 30.00458}}, {"id": 7670842, "name": "Diana Region", "state": "", "country": "MG", "coord": {"lon": 49, "lat": -13.5}}, {"id": 7670849, "name": "Boeny Region", "state": "", "country": "MG", "coord": {"lon": 46.099998, "lat": -16.299999}}, {"id": 7670856, "name": "Analamanga Region", "state": "", "country": "MG", "coord": {"lon": 47.5, "lat": -18.450001}}, {"id": 7670857, "name": "Atsinanana Region", "state": "", "country": "MG", "coord": {"lon": 48.900002, "lat": -19}}, {"id": 7670905, "name": "Haute Matsiatra Region", "state": "", "country": "MG", "coord": {"lon": 46.5, "lat": -21.370001}}, {"id": 7670913, "name": "Atsimo-Andrefana Region", "state": "", "country": "MG", "coord": {"lon": 44.400002, "lat": -23.200001}}, {"id": 7670962, "name": "Berghem", "state": "", "country": "SE", "coord": {"lon": 20.30411, "lat": 63.828522}}, {"id": 7670994, "name": "Kayangel", "state": "", "country": "PW", "coord": {"lon": 134.717255, "lat": 8.08228}}, {"id": 7671047, "name": "Province of Sarangani", "state": "", "country": "PH", "coord": {"lon": 125.275284, "lat": 5.87472}}, {"id": 7671048, "name": "Rangpur Division", "state": "", "country": "BD", "coord": {"lon": 89, "lat": 25.83333}}, {"id": 7671049, "name": "Northern Province", "state": "", "country": "LK", "coord": {"lon": 80.416672, "lat": 9.16667}}, {"id": 7671223, "name": "Kloulklubed", "state": "", "country": "PW", "coord": {"lon": 134.255615, "lat": 7.04192}}, {"id": 7675136, "name": "Bengkouling", "state": "", "country": "CN", "coord": {"lon": 119.422852, "lat": 30.819839}}, {"id": 7675321, "name": "Liudong", "state": "", "country": "CN", "coord": {"lon": 119.516647, "lat": 31.032471}}, {"id": 7675364, "name": "Feili", "state": "", "country": "CN", "coord": {"lon": 119.090782, "lat": 31.071329}}, {"id": 7678180, "name": "Yalukou", "state": "", "country": "CN", "coord": {"lon": 119.014763, "lat": 30.661551}}, {"id": 7678460, "name": "Yutiao", "state": "", "country": "CN", "coord": {"lon": 119.022041, "lat": 30.289709}}, {"id": 7679578, "name": "Dongyue", "state": "", "country": "CN", "coord": {"lon": 120.085381, "lat": 30.25782}}, {"id": 7679662, "name": "Zhoupu", "state": "", "country": "CN", "coord": {"lon": 120.06633, "lat": 30.092541}}, {"id": 7679663, "name": "Dongqiao", "state": "", "country": "CN", "coord": {"lon": 119.583076, "lat": 30.07605}}, {"id": 7679667, "name": "Gaohong", "state": "", "country": "CN", "coord": {"lon": 119.721458, "lat": 30.320351}}, {"id": 7679668, "name": "Xitianmu", "state": "", "country": "CN", "coord": {"lon": 119.472229, "lat": 30.26577}}, {"id": 7679669, "name": "Zhongtai", "state": "", "country": "CN", "coord": {"lon": 119.926949, "lat": 30.24094}}, {"id": 7679675, "name": "Chunjian", "state": "", "country": "CN", "coord": {"lon": 119.82653, "lat": 30.076389}}, {"id": 7679676, "name": "Kuntong", "state": "", "country": "CN", "coord": {"lon": 119.788467, "lat": 30.76136}}, {"id": 7679677, "name": "Jiangcun", "state": "", "country": "CN", "coord": {"lon": 120.064713, "lat": 30.285669}}, {"id": 7679678, "name": "Chengguan", "state": "", "country": "CN", "coord": {"lon": 120.079803, "lat": 30.548161}}, {"id": 7679680, "name": "Baique", "state": "", "country": "CN", "coord": {"lon": 120.097954, "lat": 30.92071}}, {"id": 7679681, "name": "Sanhe", "state": "", "country": "CN", "coord": {"lon": 120.032791, "lat": 30.47958}}, {"id": 7679682, "name": "Yushan", "state": "", "country": "CN", "coord": {"lon": 120.087669, "lat": 30.065861}}, {"id": 7679683, "name": "Qianhong", "state": "", "country": "CN", "coord": {"lon": 119.396156, "lat": 30.260651}}, {"id": 7679685, "name": "Lishan", "state": "", "country": "CN", "coord": {"lon": 120.062057, "lat": 30.050329}}, {"id": 7679687, "name": "Maxiao", "state": "", "country": "CN", "coord": {"lon": 118.963303, "lat": 30.14846}}, {"id": 7679689, "name": "Yaoshan", "state": "", "country": "CN", "coord": {"lon": 119.065781, "lat": 29.964439}}, {"id": 7679694, "name": "Daochang", "state": "", "country": "CN", "coord": {"lon": 120.092621, "lat": 30.84849}}, {"id": 7679698, "name": "Yihe", "state": "", "country": "CN", "coord": {"lon": 119.352966, "lat": 29.960609}}, {"id": 7679699, "name": "Erjieling", "state": "", "country": "CN", "coord": {"lon": 119.613609, "lat": 30.94829}}, {"id": 7679700, "name": "Shanggan", "state": "", "country": "CN", "coord": {"lon": 119.711349, "lat": 30.173059}}, {"id": 7679862, "name": "Qingliangfeng", "state": "", "country": "CN", "coord": {"lon": 119.028313, "lat": 30.139339}}, {"id": 7679875, "name": "Qianchuan", "state": "", "country": "CN", "coord": {"lon": 119.390266, "lat": 30.091141}}, {"id": 7680198, "name": "Ban Laem Thong Phatthana", "state": "", "country": "TH", "coord": {"lon": 102.417671, "lat": 17.506969}}, {"id": 7683765, "name": "Ash Shawati", "state": "", "country": "YE", "coord": {"lon": 43.812649, "lat": 16.78314}}, {"id": 7685342, "name": "Jinzhu", "state": "", "country": "CN", "coord": {"lon": 115.891487, "lat": 27.02207}}, {"id": 7685343, "name": "Tielu", "state": "", "country": "CN", "coord": {"lon": 115.788109, "lat": 27.87229}}, {"id": 7685345, "name": "Zhongzhou", "state": "", "country": "CN", "coord": {"lon": 115.156311, "lat": 27.92923}}, {"id": 7685347, "name": "Shenzhengqiao", "state": "", "country": "CN", "coord": {"lon": 115.463028, "lat": 27.71022}}, {"id": 7685348, "name": "Nan\u2019an", "state": "", "country": "CN", "coord": {"lon": 115.228592, "lat": 27.81315}}, {"id": 7685349, "name": "Shuitian", "state": "", "country": "CN", "coord": {"lon": 115.147636, "lat": 27.42207}}, {"id": 7685353, "name": "Yijiang", "state": "", "country": "CN", "coord": {"lon": 115.353912, "lat": 27.70178}}, {"id": 7685356, "name": "Dongbian", "state": "", "country": "CN", "coord": {"lon": 115.126251, "lat": 27.77722}}, {"id": 7685358, "name": "Pangu", "state": "", "country": "CN", "coord": {"lon": 115.006897, "lat": 27.432119}}, {"id": 7685359, "name": "Xinxi", "state": "", "country": "CN", "coord": {"lon": 115.32666, "lat": 27.8687}}, {"id": 7685360, "name": "Yicheng", "state": "", "country": "CN", "coord": {"lon": 115.174393, "lat": 27.98543}}, {"id": 7685361, "name": "Tianyu", "state": "", "country": "CN", "coord": {"lon": 115.053368, "lat": 27.1408}}, {"id": 7685369, "name": "Zhangfang", "state": "", "country": "CN", "coord": {"lon": 115.977989, "lat": 27.620581}}, {"id": 7685371, "name": "Licun", "state": "", "country": "CN", "coord": {"lon": 115.698982, "lat": 27.995041}}, {"id": 7685372, "name": "Changfu", "state": "", "country": "CN", "coord": {"lon": 115.306458, "lat": 27.920031}}, {"id": 7685373, "name": "Fumin", "state": "", "country": "CN", "coord": {"lon": 115.211227, "lat": 27.572969}}, {"id": 7685374, "name": "Xiwang", "state": "", "country": "CN", "coord": {"lon": 115.703323, "lat": 27.893789}}, {"id": 7685376, "name": "Taotang", "state": "", "country": "CN", "coord": {"lon": 115.691643, "lat": 27.067869}}, {"id": 7685749, "name": "Xintong", "state": "", "country": "CN", "coord": {"lon": 119.814743, "lat": 29.906639}}, {"id": 7685925, "name": "Spokoyevka", "state": "", "country": "RU", "coord": {"lon": 35.977501, "lat": 51.503502}}, {"id": 7686235, "name": "Chunjing", "state": "", "country": "CN", "coord": {"lon": 119.96405, "lat": 30.033279}}, {"id": 7686236, "name": "Dongzhou", "state": "", "country": "CN", "coord": {"lon": 119.984779, "lat": 30.0783}}, {"id": 7686241, "name": "Lushan", "state": "", "country": "CN", "coord": {"lon": 119.903809, "lat": 30.008989}}, {"id": 7687712, "name": "Korikovo", "state": "", "country": "RU", "coord": {"lon": 41.928299, "lat": 55.368099}}, {"id": 7687774, "name": "Belogor\u2019ye", "state": "", "country": "RU", "coord": {"lon": 37.197102, "lat": 50.822899}}, {"id": 7688048, "name": "Pamotan", "state": "", "country": "ID", "coord": {"lon": 108.76667, "lat": -7.65638}}, {"id": 7688071, "name": "Mekarsari", "state": "", "country": "ID", "coord": {"lon": 108.763298, "lat": -7.6818}}, {"id": 7688102, "name": "Rawaapu", "state": "", "country": "ID", "coord": {"lon": 108.757057, "lat": -7.63894}}, {"id": 7688114, "name": "Karanganyar", "state": "", "country": "ID", "coord": {"lon": 108.820503, "lat": -7.6659}}, {"id": 7688369, "name": "Tambaksari", "state": "", "country": "ID", "coord": {"lon": 108.751099, "lat": -7.5012}}, {"id": 7688372, "name": "Cipariuk", "state": "", "country": "ID", "coord": {"lon": 108.768387, "lat": -7.50068}}, {"id": 7688373, "name": "Kedungbakung", "state": "", "country": "ID", "coord": {"lon": 108.773331, "lat": -7.5052}}, {"id": 7688374, "name": "Mulyosari", "state": "", "country": "ID", "coord": {"lon": 108.785927, "lat": -7.50736}}, {"id": 7688383, "name": "Muktisari", "state": "", "country": "ID", "coord": {"lon": 108.8564, "lat": -7.5136}}, {"id": 7688385, "name": "Alurbulu", "state": "", "country": "ID", "coord": {"lon": 108.840424, "lat": -7.51218}}, {"id": 7688389, "name": "Ciklapa", "state": "", "country": "ID", "coord": {"lon": 108.807503, "lat": -7.5097}}, {"id": 7688401, "name": "Kemantren Satu", "state": "", "country": "ID", "coord": {"lon": 108.8619, "lat": -7.5272}}, {"id": 7688402, "name": "Gandrungmanis Lor", "state": "", "country": "ID", "coord": {"lon": 108.856796, "lat": -7.5287}}, {"id": 7688406, "name": "Wanadadi", "state": "", "country": "ID", "coord": {"lon": 108.8218, "lat": -7.53313}}, {"id": 7688412, "name": "Sidaurip", "state": "", "country": "ID", "coord": {"lon": 108.750099, "lat": -7.5417}}, {"id": 7688413, "name": "Kedungbulu", "state": "", "country": "ID", "coord": {"lon": 108.7836, "lat": -7.5379}}, {"id": 7688415, "name": "Cipari", "state": "", "country": "ID", "coord": {"lon": 108.801201, "lat": -7.537}}, {"id": 7688425, "name": "Cawilayan", "state": "", "country": "ID", "coord": {"lon": 108.855499, "lat": -7.5458}}, {"id": 7688426, "name": "Sidaurip", "state": "", "country": "ID", "coord": {"lon": 108.837097, "lat": -7.5494}}, {"id": 7688433, "name": "Pondokwungu", "state": "", "country": "ID", "coord": {"lon": 108.79631, "lat": -7.5556}}, {"id": 7688446, "name": "Cinyawang", "state": "", "country": "ID", "coord": {"lon": 108.76606, "lat": -7.57411}}, {"id": 7688453, "name": "Sidakaya", "state": "", "country": "ID", "coord": {"lon": 108.863998, "lat": -7.5753}}, {"id": 7688462, "name": "Kalenaren", "state": "", "country": "ID", "coord": {"lon": 108.785141, "lat": -7.58}}, {"id": 7688470, "name": "Kalenpring", "state": "", "country": "ID", "coord": {"lon": 108.761101, "lat": -7.585}}, {"id": 7688485, "name": "Purwodadi", "state": "", "country": "ID", "coord": {"lon": 108.761002, "lat": -7.602}}, {"id": 7688499, "name": "Kedungsalam", "state": "", "country": "ID", "coord": {"lon": 108.7556, "lat": -7.6098}}, {"id": 7688505, "name": "Cimrutu", "state": "", "country": "ID", "coord": {"lon": 108.800499, "lat": -7.6201}}, {"id": 7690138, "name": "Daqiao", "state": "", "country": "CN", "coord": {"lon": 114.108719, "lat": 28.95994}}, {"id": 7690139, "name": "Luzhou", "state": "", "country": "CN", "coord": {"lon": 114.837891, "lat": 28.20697}}, {"id": 7690141, "name": "Shangfeng", "state": "", "country": "CN", "coord": {"lon": 114.677063, "lat": 28.73863}}, {"id": 7690142, "name": "Luocheng", "state": "", "country": "CN", "coord": {"lon": 114.553658, "lat": 28.287029}}, {"id": 7690143, "name": "Shishi", "state": "", "country": "CN", "coord": {"lon": 114.771339, "lat": 28.25914}}, {"id": 7690144, "name": "Shangganshan", "state": "", "country": "CN", "coord": {"lon": 114.969681, "lat": 28.207069}}, {"id": 7690145, "name": "Yuduan", "state": "", "country": "CN", "coord": {"lon": 114.069107, "lat": 28.85404}}, {"id": 7690146, "name": "Zhendu", "state": "", "country": "CN", "coord": {"lon": 114.59964, "lat": 28.20348}}, {"id": 7690147, "name": "Shangshan", "state": "", "country": "CN", "coord": {"lon": 114.159126, "lat": 28.95051}}, {"id": 7690148, "name": "Aoqiao", "state": "", "country": "CN", "coord": {"lon": 114.804153, "lat": 28.399679}}, {"id": 7690150, "name": "Cheshang", "state": "", "country": "CN", "coord": {"lon": 114.554459, "lat": 28.426359}}, {"id": 7690153, "name": "Zaoxi", "state": "", "country": "CN", "coord": {"lon": 114.961433, "lat": 28.751579}}, {"id": 7690154, "name": "Shixi", "state": "", "country": "CN", "coord": {"lon": 114.909576, "lat": 28.740021}}, {"id": 7690155, "name": "Renhe", "state": "", "country": "CN", "coord": {"lon": 114.938179, "lat": 28.02511}}, {"id": 7690156, "name": "Fuyuan", "state": "", "country": "CN", "coord": {"lon": 114.326187, "lat": 28.73847}}, {"id": 7690158, "name": "Shuiyuan", "state": "", "country": "CN", "coord": {"lon": 114.03466, "lat": 28.998529}}, {"id": 7690160, "name": "Zhaixia", "state": "", "country": "CN", "coord": {"lon": 114.49649, "lat": 28.01071}}, {"id": 7690162, "name": "Efeng", "state": "", "country": "CN", "coord": {"lon": 114.4524, "lat": 28.11175}}, {"id": 7690164, "name": "Gaoqiao", "state": "", "country": "CN", "coord": {"lon": 114.207283, "lat": 28.607559}}, {"id": 7690165, "name": "Shuangqiao", "state": "", "country": "CN", "coord": {"lon": 114.312172, "lat": 28.183479}}, {"id": 7690166, "name": "Baimu", "state": "", "country": "CN", "coord": {"lon": 114.432091, "lat": 28.00128}}, {"id": 7690167, "name": "Lingdong", "state": "", "country": "CN", "coord": {"lon": 114.242088, "lat": 28.06488}}, {"id": 7690169, "name": "Chengfang", "state": "", "country": "CN", "coord": {"lon": 114.348488, "lat": 28.977039}}, {"id": 7690170, "name": "Wenquan", "state": "", "country": "CN", "coord": {"lon": 114.348808, "lat": 28.53746}}, {"id": 7690172, "name": "Dongcun", "state": "", "country": "CN", "coord": {"lon": 114.81485, "lat": 28.014481}}, {"id": 7690173, "name": "Zhongyuan", "state": "", "country": "CN", "coord": {"lon": 114.984383, "lat": 28.86248}}, {"id": 7690174, "name": "Jinjiang", "state": "", "country": "CN", "coord": {"lon": 114.90078, "lat": 28.232719}}, {"id": 7690178, "name": "Jiaohu", "state": "", "country": "CN", "coord": {"lon": 114.383293, "lat": 28.25803}}, {"id": 7690181, "name": "Aoshan", "state": "", "country": "CN", "coord": {"lon": 114.978638, "lat": 28.26174}}, {"id": 7690182, "name": "Qiaoxi", "state": "", "country": "CN", "coord": {"lon": 114.769562, "lat": 28.38814}}, {"id": 7690184, "name": "Chixing", "state": "", "country": "CN", "coord": {"lon": 114.238312, "lat": 28.210131}}, {"id": 7690185, "name": "Shihuajian", "state": "", "country": "CN", "coord": {"lon": 114.541679, "lat": 28.47646}}, {"id": 7690186, "name": "Taxia", "state": "", "country": "CN", "coord": {"lon": 114.950829, "lat": 28.220421}}, {"id": 7690187, "name": "Daixi", "state": "", "country": "CN", "coord": {"lon": 114.626328, "lat": 28.67428}}, {"id": 7690188, "name": "Fengdingshan", "state": "", "country": "CN", "coord": {"lon": 114.283783, "lat": 28.010969}}, {"id": 7690191, "name": "Mabu", "state": "", "country": "CN", "coord": {"lon": 114.437599, "lat": 28.10037}}, {"id": 7690192, "name": "Yeshi", "state": "", "country": "CN", "coord": {"lon": 114.933693, "lat": 28.309231}}, {"id": 7690193, "name": "Nangang", "state": "", "country": "CN", "coord": {"lon": 114.842346, "lat": 28.09001}}, {"id": 7690195, "name": "Liutou", "state": "", "country": "CN", "coord": {"lon": 114.872849, "lat": 28.680981}}, {"id": 7690196, "name": "Bailiang", "state": "", "country": "CN", "coord": {"lon": 114.411789, "lat": 28.200951}}, {"id": 7690197, "name": "Tianbao", "state": "", "country": "CN", "coord": {"lon": 114.761131, "lat": 28.530081}}, {"id": 7690648, "name": "Krasnaya Zvezda", "state": "", "country": "RU", "coord": {"lon": 38.780602, "lat": 54.254398}}, {"id": 7690909, "name": "Perkhurovo", "state": "", "country": "RU", "coord": {"lon": 41.2486, "lat": 54.9575}}, {"id": 7690918, "name": "Larino", "state": "", "country": "RU", "coord": {"lon": 41.6119, "lat": 54.916302}}, {"id": 7691503, "name": "S\u00edtio Pinheiro Solit\u00e1rio", "state": "", "country": "BR", "coord": {"lon": -48.716099, "lat": -25.454399}}, {"id": 7692215, "name": "Nanqiao", "state": "", "country": "CN", "coord": {"lon": 114.071533, "lat": 28.73768}}, {"id": 7692321, "name": "S\u00edtio Quiriri", "state": "", "country": "BR", "coord": {"lon": -48.8964, "lat": -25.9666}}, {"id": 7693243, "name": "Barra da Anta", "state": "", "country": "BR", "coord": {"lon": -49.662621, "lat": -26.91263}}, {"id": 7696231, "name": "Gaobazhou", "state": "", "country": "CN", "coord": {"lon": 111.418228, "lat": 30.43784}}, {"id": 7696232, "name": "Qixingtai", "state": "", "country": "CN", "coord": {"lon": 111.88739, "lat": 30.413549}}, {"id": 7696233, "name": "Xiann\u00fc", "state": "", "country": "CN", "coord": {"lon": 111.739922, "lat": 30.52693}}, {"id": 7696234, "name": "Nanhai", "state": "", "country": "CN", "coord": {"lon": 111.778374, "lat": 30.128189}}, {"id": 7696235, "name": "Miaoqian", "state": "", "country": "CN", "coord": {"lon": 111.871178, "lat": 30.891821}}, {"id": 7696236, "name": "Lianpeng", "state": "", "country": "CN", "coord": {"lon": 111.268822, "lat": 30.65519}}, {"id": 7696237, "name": "Hualinsi", "state": "", "country": "CN", "coord": {"lon": 111.609909, "lat": 31.00383}}, {"id": 7696238, "name": "Huya", "state": "", "country": "CN", "coord": {"lon": 111.395432, "lat": 30.570881}}, {"id": 7696239, "name": "Baling", "state": "", "country": "CN", "coord": {"lon": 111.792526, "lat": 30.842979}}, {"id": 7696240, "name": "Yuquan", "state": "", "country": "CN", "coord": {"lon": 111.774231, "lat": 30.829691}}, {"id": 7697719, "name": "Ladang Lothian", "state": "", "country": "MY", "coord": {"lon": 101.723503, "lat": 2.7379}}, {"id": 7699452, "name": "Pinhalzinho", "state": "", "country": "BR", "coord": {"lon": -50.334991, "lat": -25.674299}}, {"id": 7700531, "name": "Sal\u0131pazar\u0131", "state": "", "country": "TR", "coord": {"lon": 36.830399, "lat": 41.083981}}, {"id": 7701054, "name": "Kurtulu\u015f", "state": "", "country": "TR", "coord": {"lon": 36.574162, "lat": 41.271}}, {"id": 7701318, "name": "Monte Penice Vetta", "state": "", "country": "IT", "coord": {"lon": 9.3189, "lat": 44.791641}}, {"id": 7701334, "name": "Cancori", "state": "", "country": "CH", "coord": {"lon": 8.89944, "lat": 46.459438}}, {"id": 7701342, "name": "Bangshal", "state": "", "country": "BD", "coord": {"lon": 90.406281, "lat": 23.71558}}, {"id": 7701384, "name": "Karaba\u011flar", "state": "", "country": "TR", "coord": {"lon": 27.135201, "lat": 38.373959}}, {"id": 7701425, "name": "Kambos", "state": "", "country": "GR", "coord": {"lon": 26.123341, "lat": 38.32246}}, {"id": 7701435, "name": "Osmangazi", "state": "", "country": "TR", "coord": {"lon": 29.019011, "lat": 40.24704}}, {"id": 7701549, "name": "Ngetkib", "state": "", "country": "PW", "coord": {"lon": 134.514847, "lat": 7.36451}}, {"id": 7706672, "name": "Morley Mobile Home Park", "state": "NY", "country": "US", "coord": {"lon": -75.488693, "lat": 44.67506}}, {"id": 7707927, "name": "Airport Mobile Home Park", "state": "LA", "country": "US", "coord": {"lon": -92.675041, "lat": 30.23802}}, {"id": 7707955, "name": "Fusilier Mobile Home Estates", "state": "LA", "country": "US", "coord": {"lon": -92.120811, "lat": 30.079281}}, {"id": 7707966, "name": "Hassel's Trailer Park", "state": "LA", "country": "US", "coord": {"lon": -90.06028, "lat": 29.8528}}, {"id": 7707973, "name": "Holiday Mobile Home Park", "state": "LA", "country": "US", "coord": {"lon": -93.34169, "lat": 30.84053}}, {"id": 7708249, "name": "Cozy Acres Mobile Home Park", "state": "LA", "country": "US", "coord": {"lon": -92.126587, "lat": 30.25042}}, {"id": 7708264, "name": "Donna Lynns Mobile Home Park", "state": "LA", "country": "US", "coord": {"lon": -90.960449, "lat": 29.639339}}, {"id": 7713975, "name": "Palisades Mobile Home Estates", "state": "WA", "country": "US", "coord": {"lon": -122.179482, "lat": 47.284679}}, {"id": 7714065, "name": "Cascade Kamloops Trout Farm Mobile Home Park", "state": "WA", "country": "US", "coord": {"lon": -121.610443, "lat": 48.250778}}, {"id": 7714098, "name": "Loganberry Mobile Home Park", "state": "WA", "country": "US", "coord": {"lon": -122.256668, "lat": 47.908211}}, {"id": 7714362, "name": "Hidden Haven Mobile Home Park", "state": "WA", "country": "US", "coord": {"lon": -123.139458, "lat": 47.245621}}, {"id": 7718501, "name": "Maple Bluff Estates", "state": "WI", "country": "US", "coord": {"lon": -89.631111, "lat": 43.385281}}, {"id": 7723146, "name": "Las Palmes Mobile Home Park", "state": "AZ", "country": "US", "coord": {"lon": -110.962547, "lat": 32.124142}}, {"id": 7723170, "name": "Desert Royal Mobile Park", "state": "AZ", "country": "US", "coord": {"lon": -114.61528, "lat": 32.66748}}, {"id": 7727837, "name": "Selchs Mobile Home Park", "state": "WI", "country": "US", "coord": {"lon": -91.135559, "lat": 43.034721}}, {"id": 7728041, "name": "Enchanted Gardens Mobile Home Park", "state": "IL", "country": "US", "coord": {"lon": -89.265556, "lat": 40.710281}}, {"id": 7728111, "name": "Marion Mobile Home Village", "state": "IL", "country": "US", "coord": {"lon": -88.908333, "lat": 37.72472}}, {"id": 7728581, "name": "Shorewood Forest", "state": "IN", "country": "US", "coord": {"lon": -87.144722, "lat": 41.46315}}, {"id": 7728582, "name": "Woodlake", "state": "VA", "country": "US", "coord": {"lon": -77.679314, "lat": 37.421059}}, {"id": 7728583, "name": "Cordry Sweetwater Lakes", "state": "IN", "country": "US", "coord": {"lon": -86.11837, "lat": 39.304642}}, {"id": 7728597, "name": "Avenue A Mobile Home Estates", "state": "MI", "country": "US", "coord": {"lon": -85.251106, "lat": 42.325829}}, {"id": 7728763, "name": "Fairlane Estates Mobile Home Park", "state": "MI", "country": "US", "coord": {"lon": -83.909721, "lat": 42.600559}}, {"id": 7729130, "name": "Lakeside Village", "state": "OH", "country": "US", "coord": {"lon": -84.184998, "lat": 40.293892}}, {"id": 7729374, "name": "Highland Heights Mobile Village", "state": "WI", "country": "US", "coord": {"lon": -87.408607, "lat": 44.819172}}, {"id": 7729501, "name": "Dove Valley", "state": "CO", "country": "US", "coord": {"lon": -104.829399, "lat": 39.577709}}, {"id": 7729502, "name": "Doe Valley", "state": "KY", "country": "US", "coord": {"lon": -86.116531, "lat": 37.95665}}, {"id": 7729779, "name": "Manesty", "state": "", "country": "GB", "coord": {"lon": -3.15788, "lat": 54.559719}}, {"id": 7729816, "name": "Barrio Bellavista", "state": "", "country": "CL", "coord": {"lon": -70.635918, "lat": -33.43288}}, {"id": 7729845, "name": "Sambayanihan People's Village", "state": "", "country": "PH", "coord": {"lon": 120.998161, "lat": 14.45558}}, {"id": 7729847, "name": "Fl\u00e9malle", "state": "", "country": "BE", "coord": {"lon": 5.44355, "lat": 50.60223}}, {"id": 7730366, "name": "Auf der Geist", "state": "", "country": "DE", "coord": {"lon": 7.79227, "lat": 51.66114}}, {"id": 7731778, "name": "Bebertal Eins", "state": "", "country": "DE", "coord": {"lon": 11.33484, "lat": 52.239441}}, {"id": 7731836, "name": "Saint-L\u00e9onard", "state": "", "country": "CA", "coord": {"lon": -67.92469, "lat": 47.173031}}, {"id": 7731837, "name": "Harrison Brook", "state": "", "country": "CA", "coord": {"lon": -67.928467, "lat": 47.213039}}, {"id": 7731911, "name": "Hovila", "state": "", "country": "FI", "coord": {"lon": 29.12016, "lat": 63.55543}}, {"id": 7732032, "name": "Seixal", "state": "", "country": "PT", "coord": {"lon": -9.10371, "lat": 38.611729}}, {"id": 7732060, "name": "Thimister-Clermont", "state": "", "country": "BE", "coord": {"lon": 5.8643, "lat": 50.653709}}, {"id": 7732087, "name": "Kirjala", "state": "", "country": "FI", "coord": {"lon": 27.23791, "lat": 61.67921}}, {"id": 7732276, "name": "Ngchemiangel", "state": "", "country": "PW", "coord": {"lon": 134.476776, "lat": 7.44613}}, {"id": 7732294, "name": "Kourula", "state": "", "country": "FI", "coord": {"lon": 28.13069, "lat": 61.04628}}, {"id": 7732297, "name": "Ngardmau", "state": "", "country": "PW", "coord": {"lon": 134.574402, "lat": 7.60986}}, {"id": 7732321, "name": "B\u00fcrdenbach-Brucherm\u00fchle", "state": "", "country": "DE", "coord": {"lon": 7.53181, "lat": 50.619411}}, {"id": 7732415, "name": "Koror Town", "state": "", "country": "PW", "coord": {"lon": 134.478882, "lat": 7.34257}}, {"id": 7732472, "name": "Argentia", "state": "", "country": "CA", "coord": {"lon": -53.986038, "lat": 47.30228}}, {"id": 7732488, "name": "Norway House", "state": "", "country": "CA", "coord": {"lon": -97.827759, "lat": 53.987591}}, {"id": 7732576, "name": "Okmeydan\u0131", "state": "", "country": "TR", "coord": {"lon": 28.9639, "lat": 41.054489}}, {"id": 7732633, "name": "Garbsen-Mitte", "state": "", "country": "DE", "coord": {"lon": 9.60383, "lat": 52.42659}}, {"id": 7732704, "name": "Netherseal", "state": "", "country": "GB", "coord": {"lon": -1.57722, "lat": 52.715401}}, {"id": 7732904, "name": "Sanlucar de Barrameda", "state": "", "country": "ES", "coord": {"lon": -6.35389, "lat": 36.778889}}, {"id": 7732959, "name": "Disney", "state": "", "country": "BR", "coord": {"lon": -40.334332, "lat": -20.302851}}, {"id": 7732983, "name": "Lesoma", "state": "", "country": "BW", "coord": {"lon": 25.2374, "lat": -17.9058}}, {"id": 7733308, "name": "Korkeavaha", "state": "", "country": "FI", "coord": {"lon": 23.64228, "lat": 60.82056}}, {"id": 7734818, "name": "Hengjingqiao", "state": "", "country": "CN", "coord": {"lon": 120.658653, "lat": 30.682779}}, {"id": 7734844, "name": "Hanxia", "state": "", "country": "CN", "coord": {"lon": 120.936798, "lat": 30.133699}}, {"id": 7735121, "name": "Heshan", "state": "", "country": "CN", "coord": {"lon": 120.356133, "lat": 30.6353}}, {"id": 7735123, "name": "Xin\u2019an", "state": "", "country": "CN", "coord": {"lon": 120.21904, "lat": 30.53373}}, {"id": 7735128, "name": "Chongxian", "state": "", "country": "CN", "coord": {"lon": 120.171173, "lat": 30.3883}}, {"id": 7735129, "name": "Gudang", "state": "", "country": "CN", "coord": {"lon": 120.118423, "lat": 30.2784}}, {"id": 7735133, "name": "Huangjiabu", "state": "", "country": "CN", "coord": {"lon": 120.955658, "lat": 30.143591}}, {"id": 7735144, "name": "Huashe", "state": "", "country": "CN", "coord": {"lon": 120.482277, "lat": 30.112761}}, {"id": 7735145, "name": "Xialu", "state": "", "country": "CN", "coord": {"lon": 120.355789, "lat": 30.065901}}, {"id": 7735146, "name": "Jinhua", "state": "", "country": "CN", "coord": {"lon": 120.288658, "lat": 30.01347}}, {"id": 7735160, "name": "Balidian", "state": "", "country": "CN", "coord": {"lon": 120.152878, "lat": 30.842831}}, {"id": 7735162, "name": "Hezhuang", "state": "", "country": "CN", "coord": {"lon": 120.461067, "lat": 30.30015}}, {"id": 7735163, "name": "Jiabei", "state": "", "country": "CN", "coord": {"lon": 120.711769, "lat": 30.779591}}, {"id": 7735165, "name": "Xingqiao", "state": "", "country": "CN", "coord": {"lon": 120.251709, "lat": 30.399429}}, {"id": 7735170, "name": "Nanyang", "state": "", "country": "CN", "coord": {"lon": 120.442574, "lat": 30.26268}}, {"id": 7735171, "name": "Yinong", "state": "", "country": "CN", "coord": {"lon": 120.585762, "lat": 30.196819}}, {"id": 7735173, "name": "Daoxu", "state": "", "country": "CN", "coord": {"lon": 120.767616, "lat": 30.046089}}, {"id": 7735174, "name": "Tongfu", "state": "", "country": "CN", "coord": {"lon": 120.464828, "lat": 30.57637}}, {"id": 7735175, "name": "Xiaohe", "state": "", "country": "CN", "coord": {"lon": 120.135048, "lat": 30.309971}}, {"id": 7735182, "name": "Jiubao", "state": "", "country": "CN", "coord": {"lon": 120.265617, "lat": 30.319229}}, {"id": 7735183, "name": "Puyan", "state": "", "country": "CN", "coord": {"lon": 120.14666, "lat": 30.157301}}, {"id": 7735184, "name": "Ningwei", "state": "", "country": "CN", "coord": {"lon": 120.27652, "lat": 30.215191}}, {"id": 7735185, "name": "Hutang", "state": "", "country": "CN", "coord": {"lon": 120.421028, "lat": 30.07489}}, {"id": 7735187, "name": "Longquan", "state": "", "country": "CN", "coord": {"lon": 120.103859, "lat": 30.8692}}, {"id": 7735188, "name": "Huimin", "state": "", "country": "CN", "coord": {"lon": 120.969887, "lat": 30.83909}}, {"id": 7735191, "name": "Caoqiao", "state": "", "country": "CN", "coord": {"lon": 120.968697, "lat": 30.67234}}, {"id": 7735198, "name": "Xiangfu", "state": "", "country": "CN", "coord": {"lon": 120.09922, "lat": 30.32976}}, {"id": 7735201, "name": "Suoqian", "state": "", "country": "CN", "coord": {"lon": 120.276917, "lat": 30.11356}}, {"id": 7735206, "name": "Qianjin", "state": "", "country": "CN", "coord": {"lon": 120.237839, "lat": 30.6777}}, {"id": 7735208, "name": "Renhe", "state": "", "country": "CN", "coord": {"lon": 120.075348, "lat": 30.446091}}, {"id": 7735212, "name": "Gaibei", "state": "", "country": "CN", "coord": {"lon": 120.887802, "lat": 30.14032}}, {"id": 7735214, "name": "Banshan", "state": "", "country": "CN", "coord": {"lon": 120.178078, "lat": 30.351629}}, {"id": 7735218, "name": "Yaozhuang", "state": "", "country": "CN", "coord": {"lon": 120.956512, "lat": 30.91399}}, {"id": 7735220, "name": "Kangqiao", "state": "", "country": "CN", "coord": {"lon": 120.144096, "lat": 30.364889}}, {"id": 7735222, "name": "Sujiazhuang", "state": "", "country": "CN", "coord": {"lon": 120.070419, "lat": 30.87323}}, {"id": 7735233, "name": "Daicun", "state": "", "country": "CN", "coord": {"lon": 120.195938, "lat": 30.01759}}, {"id": 7735235, "name": "Xindong", "state": "", "country": "CN", "coord": {"lon": 120.172722, "lat": 30.306459}}, {"id": 7735236, "name": "Dingzha", "state": "", "country": "CN", "coord": {"lon": 120.944481, "lat": 30.994511}}, {"id": 7735241, "name": "Xinjie", "state": "", "country": "CN", "coord": {"lon": 120.333069, "lat": 30.19183}}, {"id": 7735247, "name": "Shangtang", "state": "", "country": "CN", "coord": {"lon": 120.15033, "lat": 30.31566}}, {"id": 7735248, "name": "Yangxunqiao", "state": "", "country": "CN", "coord": {"lon": 120.355942, "lat": 30.14328}}, {"id": 7735250, "name": "Chengnan", "state": "", "country": "CN", "coord": {"lon": 120.72937, "lat": 30.73711}}, {"id": 7735255, "name": "Xiasha", "state": "", "country": "CN", "coord": {"lon": 120.317177, "lat": 30.31023}}, {"id": 7735258, "name": "Sijiqing", "state": "", "country": "CN", "coord": {"lon": 120.184929, "lat": 30.249439}}, {"id": 7735260, "name": "Lingzhi", "state": "", "country": "CN", "coord": {"lon": 120.574188, "lat": 30.0285}}, {"id": 7735261, "name": "Tianshengjie", "state": "", "country": "CN", "coord": {"lon": 120.112297, "lat": 30.877831}}, {"id": 7735265, "name": "Pengbu", "state": "", "country": "CN", "coord": {"lon": 120.220207, "lat": 30.291109}}, {"id": 7735271, "name": "Dangwan", "state": "", "country": "CN", "coord": {"lon": 120.543709, "lat": 30.229509}}, {"id": 7735272, "name": "Shuangpu", "state": "", "country": "CN", "coord": {"lon": 120.117638, "lat": 30.11503}}, {"id": 7735273, "name": "Dingqiao", "state": "", "country": "CN", "coord": {"lon": 120.222801, "lat": 30.351749}}, {"id": 7735275, "name": "Qinshan", "state": "", "country": "CN", "coord": {"lon": 120.923058, "lat": 30.43457}}, {"id": 7735276, "name": "Yaqian", "state": "", "country": "CN", "coord": {"lon": 120.403664, "lat": 30.1621}}, {"id": 7735281, "name": "Yipeng", "state": "", "country": "CN", "coord": {"lon": 120.488838, "lat": 30.26158}}, {"id": 7735286, "name": "Dayun", "state": "", "country": "CN", "coord": {"lon": 120.946083, "lat": 30.78278}}, {"id": 7735289, "name": "Qixing", "state": "", "country": "CN", "coord": {"lon": 120.812057, "lat": 30.813551}}, {"id": 7735294, "name": "Daqiao", "state": "", "country": "CN", "coord": {"lon": 120.856842, "lat": 30.747511}}, {"id": 7735319, "name": "Jiefang", "state": "", "country": "CN", "coord": {"lon": 120.763283, "lat": 30.77817}}, {"id": 7735331, "name": "Youchegang", "state": "", "country": "CN", "coord": {"lon": 120.748093, "lat": 30.82888}}, {"id": 7735400, "name": "Yunhe", "state": "", "country": "CN", "coord": {"lon": 120.296021, "lat": 30.47496}}, {"id": 7735416, "name": "Xintang", "state": "", "country": "CN", "coord": {"lon": 120.304337, "lat": 30.1507}}, {"id": 7735862, "name": "Ban Charoen Suk", "state": "", "country": "TH", "coord": {"lon": 101.281387, "lat": 12.65972}}, {"id": 7737967, "name": "Sanlitang", "state": "", "country": "CN", "coord": {"lon": 116.268867, "lat": 27.936041}}, {"id": 7738451, "name": "Huwan", "state": "", "country": "CN", "coord": {"lon": 116.548271, "lat": 27.92086}}, {"id": 7738998, "name": "Qiaodong", "state": "", "country": "CN", "coord": {"lon": 116.361977, "lat": 27.99976}}, {"id": 7739012, "name": "Qingyun", "state": "", "country": "CN", "coord": {"lon": 116.356461, "lat": 27.98538}}, {"id": 7739021, "name": "Liujiaqiao", "state": "", "country": "CN", "coord": {"lon": 116.174294, "lat": 27.808689}}, {"id": 7739042, "name": "Zhongling", "state": "", "country": "CN", "coord": {"lon": 116.38282, "lat": 27.95627}}, {"id": 7739050, "name": "Tanxi", "state": "", "country": "CN", "coord": {"lon": 116.937492, "lat": 27.289129}}, {"id": 7739053, "name": "Wanfang", "state": "", "country": "CN", "coord": {"lon": 116.616013, "lat": 27.615931}}, {"id": 7739060, "name": "Jinggonglu", "state": "", "country": "CN", "coord": {"lon": 116.355087, "lat": 27.996059}}, {"id": 7739087, "name": "Heshang", "state": "", "country": "CN", "coord": {"lon": 116.016762, "lat": 27.86635}}, {"id": 7739100, "name": "Shazhou", "state": "", "country": "CN", "coord": {"lon": 116.825783, "lat": 27.729}}, {"id": 7739106, "name": "Laixi", "state": "", "country": "CN", "coord": {"lon": 116.577232, "lat": 27.210239}}, {"id": 7739107, "name": "Heyuan", "state": "", "country": "CN", "coord": {"lon": 116.952492, "lat": 27.99522}}, {"id": 7739108, "name": "Xidajie", "state": "", "country": "CN", "coord": {"lon": 116.352898, "lat": 27.99662}}, {"id": 7739162, "name": "Mogobe wa Kgomo", "state": "", "country": "BW", "coord": {"lon": 25.350189, "lat": -25.483721}}, {"id": 7739204, "name": "S\u00edtio Vista Alegre", "state": "", "country": "BR", "coord": {"lon": -50.243401, "lat": -23.068199}}, {"id": 7739683, "name": "S\u00edtio Santa Joana", "state": "", "country": "BR", "coord": {"lon": -50.086201, "lat": -23.0438}}, {"id": 7739883, "name": "S\u00edtio Le\u00f4ncio Corsine", "state": "", "country": "BR", "coord": {"lon": -50.106499, "lat": -23.2439}}, {"id": 7740327, "name": "S\u00edtio Santo Ant\u00f4nio", "state": "", "country": "BR", "coord": {"lon": -49.760818, "lat": -23.177299}}, {"id": 7741544, "name": "Gangkou", "state": "", "country": "CN", "coord": {"lon": 114.201942, "lat": 29.43996}}, {"id": 7741545, "name": "Qingshan", "state": "", "country": "CN", "coord": {"lon": 114.019279, "lat": 29.438881}}, {"id": 7741546, "name": "Honggangshan", "state": "", "country": "CN", "coord": {"lon": 114.868607, "lat": 29.51878}}, {"id": 7741547, "name": "Fushan", "state": "", "country": "CN", "coord": {"lon": 114.31131, "lat": 29.866301}}, {"id": 7741548, "name": "Guihua", "state": "", "country": "CN", "coord": {"lon": 114.34465, "lat": 29.71785}}, {"id": 7741549, "name": "Damu", "state": "", "country": "CN", "coord": {"lon": 114.539124, "lat": 29.808769}}, {"id": 7741550, "name": "Xiangyanghu", "state": "", "country": "CN", "coord": {"lon": 114.16391, "lat": 29.90554}}, {"id": 7741551, "name": "Dalu", "state": "", "country": "CN", "coord": {"lon": 114.431793, "lat": 29.59938}}, {"id": 7741552, "name": "Jiugongshan", "state": "", "country": "CN", "coord": {"lon": 114.681396, "lat": 29.518801}}, {"id": 7741553, "name": "Tongzhong", "state": "", "country": "CN", "coord": {"lon": 114.106071, "lat": 29.475889}}, {"id": 7741555, "name": "Baini", "state": "", "country": "CN", "coord": {"lon": 114.129448, "lat": 29.53495}}, {"id": 7741556, "name": "Chuangwang", "state": "", "country": "CN", "coord": {"lon": 114.619377, "lat": 29.49538}}, {"id": 7741557, "name": "Wangying", "state": "", "country": "CN", "coord": {"lon": 114.828552, "lat": 29.8041}},