[{"id": 1512339, "name": "Yangiyul", "state": "", "country": "UZ", "coord": {"lon": 69.047096, "lat": 41.112019}}, {"id": 1512342, "name": "Yangiyer", "state": "", "country": "UZ", "coord": {"lon": 68.822502, "lat": 40.275002}}, {"id": 1512348, "name": "Yangirabot", "state": "", "country": "UZ", "coord": {"lon": 65.960953, "lat": 40.025391}}, {"id": 1512350, "name": "Yangiqorgon", "state": "", "country": "UZ", "coord": {"lon": 71.73333, "lat": 41.187222}}, {"id": 1512372, "name": "Yangiobod", "state": "", "country": "UZ", "coord": {"lon": 70.094063, "lat": 41.11919}}, {"id": 1512423, "name": "Wobkent", "state": "", "country": "UZ", "coord": {"lon": 64.514999, "lat": 40.030281}}, {"id": 1512440, "name": "Republic of Uzbekistan", "state": "", "country": "UZ", "coord": {"lon": 63.84911, "lat": 41.707539}}, {"id": 1512449, "name": "Uychi", "state": "", "country": "UZ", "coord": {"lon": 71.923309, "lat": 41.08073}}, {"id": 1512464, "name": "Urtaowul", "state": "", "country": "UZ", "coord": {"lon": 69.145279, "lat": 41.186668}}, {"id": 1512473, "name": "Urganch", "state": "", "country": "UZ", "coord": {"lon": 60.633331, "lat": 41.549999}}, {"id": 1512480, "name": "Dashtobod", "state": "", "country": "UZ", "coord": {"lon": 68.494438, "lat": 40.126942}}, {"id": 1512501, "name": "Uchqurghon Shahri", "state": "", "country": "UZ", "coord": {"lon": 72.079147, "lat": 41.113708}}, {"id": 1512524, "name": "Tuytepa", "state": "", "country": "UZ", "coord": {"lon": 69.362534, "lat": 41.032101}}, {"id": 1512549, "name": "Turagurghon", "state": "", "country": "UZ", "coord": {"lon": 71.51162, "lat": 40.99984}}, {"id": 1512568, "name": "Toshloq", "state": "", "country": "UZ", "coord": {"lon": 71.767776, "lat": 40.477219}}, {"id": 1512569, "name": "Tashkent", "state": "", "country": "UZ", "coord": {"lon": 69.21627, "lat": 41.264648}}, {"id": 1512658, "name": "Toshbuloq", "state": "", "country": "UZ", "coord": {"lon": 71.572144, "lat": 40.923389}}, {"id": 1512675, "name": "Tomdibuloq", "state": "", "country": "UZ", "coord": {"lon": 64.617111, "lat": 41.750801}}, {"id": 1512699, "name": "Taxtakopir", "state": "", "country": "UZ", "coord": {"lon": 60.301109, "lat": 43.011711}}, {"id": 1512734, "name": "Sultan-Ayaya", "state": "", "country": "UZ", "coord": {"lon": 72.283333, "lat": 40.73333}}, {"id": 1512770, "name": "Sirdaryo", "state": "", "country": "UZ", "coord": {"lon": 68.661667, "lat": 40.843609}}, {"id": 1512790, "name": "Showot", "state": "", "country": "UZ", "coord": {"lon": 60.302502, "lat": 41.65583}}, {"id": 1512838, "name": "Shofirkon", "state": "", "country": "UZ", "coord": {"lon": 64.501389, "lat": 40.119999}}, {"id": 1512934, "name": "Salor", "state": "", "country": "UZ", "coord": {"lon": 69.381668, "lat": 41.372219}}, {"id": 1512978, "name": "Qushkupir", "state": "", "country": "UZ", "coord": {"lon": 60.345558, "lat": 41.535}}, {"id": 1512979, "name": "Qoqon", "state": "", "country": "UZ", "coord": {"lon": 70.942497, "lat": 40.52861}}, {"id": 1512986, "name": "Piskent", "state": "", "country": "UZ", "coord": {"lon": 69.350563, "lat": 40.897221}}, {"id": 1513011, "name": "Payshanba", "state": "", "country": "UZ", "coord": {"lon": 66.236938, "lat": 40.007778}}, {"id": 1513017, "name": "Parkent", "state": "", "country": "UZ", "coord": {"lon": 69.676392, "lat": 41.294441}}, {"id": 1513023, "name": "Pop", "state": "", "country": "UZ", "coord": {"lon": 71.108887, "lat": 40.873611}}, {"id": 1513038, "name": "Paxtakor", "state": "", "country": "UZ", "coord": {"lon": 67.954437, "lat": 40.315281}}, {"id": 1513064, "name": "Olmaliq", "state": "", "country": "UZ", "coord": {"lon": 69.598328, "lat": 40.844719}}, {"id": 1513072, "name": "Ohangaron", "state": "", "country": "UZ", "coord": {"lon": 69.638329, "lat": 40.906391}}, {"id": 1513087, "name": "Nurota", "state": "", "country": "UZ", "coord": {"lon": 65.688606, "lat": 40.56139}}, {"id": 1513092, "name": "Novyy Turtkul", "state": "", "country": "UZ", "coord": {"lon": 61.01667, "lat": 41.549999}}, {"id": 1513131, "name": "Navoiy", "state": "", "country": "UZ", "coord": {"lon": 65.379173, "lat": 40.084438}}, {"id": 1513157, "name": "Namangan", "state": "", "country": "UZ", "coord": {"lon": 71.672569, "lat": 40.998299}}, {"id": 1513229, "name": "Mayli-Tepe", "state": "", "country": "UZ", "coord": {"lon": 69.183327, "lat": 41.166672}}, {"id": 1513242, "name": "Marhamat", "state": "", "country": "UZ", "coord": {"lon": 72.313881, "lat": 40.48048}}, {"id": 1513243, "name": "Margilon", "state": "", "country": "UZ", "coord": {"lon": 71.724716, "lat": 40.471111}}, {"id": 1513245, "name": "Manghit", "state": "", "country": "UZ", "coord": {"lon": 60.059719, "lat": 42.115559}}, {"id": 1513255, "name": "Malikrabot", "state": "", "country": "UZ", "coord": {"lon": 65.182121, "lat": 40.128979}}, {"id": 1513271, "name": "Asaka", "state": "", "country": "UZ", "coord": {"lon": 72.238678, "lat": 40.641529}}, {"id": 1513288, "name": "Qiziltepa", "state": "", "country": "UZ", "coord": {"lon": 64.849998, "lat": 40.033058}}, {"id": 1513331, "name": "Quvasoy", "state": "", "country": "UZ", "coord": {"lon": 71.974442, "lat": 40.302219}}, {"id": 1513337, "name": "Kutarma", "state": "", "country": "UZ", "coord": {"lon": 72.683327, "lat": 40.783329}}, {"id": 1513364, "name": "Qurghontepa", "state": "", "country": "UZ", "coord": {"lon": 72.761772, "lat": 40.731918}}, {"id": 1513459, "name": "Krasnogorsk", "state": "", "country": "UZ", "coord": {"lon": 69.671112, "lat": 41.149441}}, {"id": 1513491, "name": "Komsomolskiy", "state": "", "country": "UZ", "coord": {"lon": 71.718887, "lat": 40.427219}}, {"id": 1513555, "name": "Kirgili", "state": "", "country": "UZ", "coord": {"lon": 71.76722, "lat": 40.435829}}, {"id": 1513567, "name": "Qibray", "state": "", "country": "UZ", "coord": {"lon": 69.464996, "lat": 41.389721}}, {"id": 1513600, "name": "Khujaobod", "state": "", "country": "UZ", "coord": {"lon": 72.56002, "lat": 40.668861}}, {"id": 1513604, "name": "Khiwa", "state": "", "country": "UZ", "coord": {"lon": 60.363892, "lat": 41.37833}}, {"id": 1513639, "name": "Khanavat", "state": "", "country": "UZ", "coord": {"lon": 71.216667, "lat": 40.599998}}, {"id": 1513642, "name": "Khonobod", "state": "", "country": "UZ", "coord": {"lon": 69.285004, "lat": 41.223888}}, {"id": 1513650, "name": "Hamza", "state": "", "country": "UZ", "coord": {"lon": 71.49556, "lat": 40.426392}}, {"id": 1513655, "name": "Haqqulobod", "state": "", "country": "UZ", "coord": {"lon": 72.116669, "lat": 40.916672}}, {"id": 1513714, "name": "Kosonsoy", "state": "", "country": "UZ", "coord": {"lon": 71.550827, "lat": 41.256111}}, {"id": 1513733, "name": "Qoraozak", "state": "", "country": "UZ", "coord": {"lon": 60.01701, "lat": 43.022072}}, {"id": 1513831, "name": "Konimex", "state": "", "country": "UZ", "coord": {"lon": 65.145111, "lat": 40.275928}}, {"id": 1513886, "name": "Jizzax", "state": "", "country": "UZ", "coord": {"lon": 67.842216, "lat": 40.115829}}, {"id": 1513900, "name": "Iskandar", "state": "", "country": "UZ", "coord": {"lon": 69.700829, "lat": 41.55389}}, {"id": 1513957, "name": "Hazorasp", "state": "", "country": "UZ", "coord": {"lon": 61.074169, "lat": 41.319439}}, {"id": 1513962, "name": "Gurlan", "state": "", "country": "UZ", "coord": {"lon": 60.391941, "lat": 41.844719}}, {"id": 1513966, "name": "Guliston", "state": "", "country": "UZ", "coord": {"lon": 68.784172, "lat": 40.489719}}, {"id": 1513983, "name": "Ghijduwon", "state": "", "country": "UZ", "coord": {"lon": 64.683327, "lat": 40.099998}}, {"id": 1513990, "name": "Gazli", "state": "", "country": "UZ", "coord": {"lon": 63.450001, "lat": 40.133331}}, {"id": 1513996, "name": "Gazalkent", "state": "", "country": "UZ", "coord": {"lon": 69.770828, "lat": 41.55806}}, {"id": 1514011, "name": "Gagarin", "state": "", "country": "UZ", "coord": {"lon": 68.172218, "lat": 40.661942}}, {"id": 1514019, "name": "Fargona", "state": "", "country": "UZ", "coord": {"lon": 71.784317, "lat": 40.384209}}, {"id": 1514027, "name": "Amir Timur", "state": "", "country": "UZ", "coord": {"lon": 68.940826, "lat": 41.01944}}, {"id": 1514125, "name": "Dustlik", "state": "", "country": "UZ", "coord": {"lon": 68.035828, "lat": 40.524719}}, {"id": 1514192, "name": "Chust Shahri", "state": "", "country": "UZ", "coord": {"lon": 71.228699, "lat": 41.009361}}, {"id": 1514210, "name": "Chirchiq", "state": "", "country": "UZ", "coord": {"lon": 69.582222, "lat": 41.468891}}, {"id": 1514215, "name": "Chinoz", "state": "", "country": "UZ", "coord": {"lon": 68.769722, "lat": 40.93639}}, {"id": 1514216, "name": "Chinaz", "state": "", "country": "UZ", "coord": {"lon": 68.715561, "lat": 40.91}}, {"id": 1514225, "name": "Kyzyldzhar", "state": "", "country": "UZ", "coord": {"lon": 70.01667, "lat": 41.566669}}, {"id": 1514240, "name": "Chekshura", "state": "", "country": "UZ", "coord": {"lon": 71.716667, "lat": 40.383331}}, {"id": 1514257, "name": "Sergeli", "state": "", "country": "UZ", "coord": {"lon": 69.222221, "lat": 41.19833}}, {"id": 1514258, "name": "Chortoq", "state": "", "country": "UZ", "coord": {"lon": 71.85527, "lat": 41.066559}}, {"id": 1514292, "name": "Byrkguzar", "state": "", "country": "UZ", "coord": {"lon": 69.166672, "lat": 41.299999}}, {"id": 1514330, "name": "Buka", "state": "", "country": "UZ", "coord": {"lon": 69.198608, "lat": 40.810829}}, {"id": 1514369, "name": "Beshrabot", "state": "", "country": "UZ", "coord": {"lon": 65.335281, "lat": 40.197609}}, {"id": 1514382, "name": "Beshariq", "state": "", "country": "UZ", "coord": {"lon": 70.610283, "lat": 40.435829}}, {"id": 1514387, "name": "Beruniy", "state": "", "country": "UZ", "coord": {"lon": 60.752499, "lat": 41.691109}}, {"id": 1514396, "name": "Bektemir", "state": "", "country": "UZ", "coord": {"lon": 69.334167, "lat": 41.209721}}, {"id": 1514402, "name": "Bekobod", "state": "", "country": "UZ", "coord": {"lon": 69.269722, "lat": 40.220829}}, {"id": 1514581, "name": "Angren", "state": "", "country": "UZ", "coord": {"lon": 70.143608, "lat": 41.01667}}, {"id": 1514588, "name": "Andijon", "state": "", "country": "UZ", "coord": {"lon": 72.344238, "lat": 40.782059}}, {"id": 1514589, "name": "Andijon", "state": "", "country": "UZ", "coord": {"lon": 72.361931, "lat": 40.653069}}, {"id": 1514595, "name": "Omontoy", "state": "", "country": "UZ", "coord": {"lon": 64.266212, "lat": 41.322041}}, {"id": 1514597, "name": "Alyamly", "state": "", "country": "UZ", "coord": {"lon": 67.48333, "lat": 40.066669}}, {"id": 1514615, "name": "Oltiariq", "state": "", "country": "UZ", "coord": {"lon": 71.474167, "lat": 40.391941}}, {"id": 1514635, "name": "Aktepa", "state": "", "country": "UZ", "coord": {"lon": 69.207779, "lat": 41.305}}, {"id": 1514792, "name": "Gazojak", "state": "", "country": "TM", "coord": {"lon": 61.403599, "lat": 41.187462}}, {"id": 1514801, "name": "Birata", "state": "", "country": "TM", "coord": {"lon": 62.1586, "lat": 40.48204}}, {"id": 1514829, "name": "Taboshar", "state": "", "country": "TJ", "coord": {"lon": 69.641273, "lat": 40.568642}}, {"id": 1514831, "name": "Sh\u016drob", "state": "", "country": "TJ", "coord": {"lon": 70.548882, "lat": 40.049061}}, {"id": 1514839, "name": "Proletar", "state": "", "country": "TJ", "coord": {"lon": 69.503983, "lat": 40.167042}}, {"id": 1514843, "name": "Palos", "state": "", "country": "TJ", "coord": {"lon": 69.737427, "lat": 40.31628}}, {"id": 1514844, "name": "Pakhtakoron", "state": "", "country": "TJ", "coord": {"lon": 68.74659, "lat": 40.157089}}, {"id": 1514852, "name": "Neftobod", "state": "", "country": "TJ", "coord": {"lon": 70.57193, "lat": 40.21524}}, {"id": 1514856, "name": "Nov", "state": "", "country": "TJ", "coord": {"lon": 69.370758, "lat": 40.152199}}, {"id": 1514870, "name": "Quruqsoy", "state": "", "country": "TJ", "coord": {"lon": 69.378899, "lat": 40.57579}}, {"id": 1514877, "name": "Kim", "state": "", "country": "TJ", "coord": {"lon": 70.468819, "lat": 40.207981}}, {"id": 1514879, "name": "Khujand", "state": "", "country": "TJ", "coord": {"lon": 69.627922, "lat": 40.285271}}, {"id": 1514889, "name": "Konsoy", "state": "", "country": "TJ", "coord": {"lon": 69.702454, "lat": 40.49155}}, {"id": 1514891, "name": "Konibodom", "state": "", "country": "TJ", "coord": {"lon": 70.442574, "lat": 40.28434}}, {"id": 1514896, "name": "Isfara", "state": "", "country": "TJ", "coord": {"lon": 70.625259, "lat": 40.12648}}, {"id": 1514900, "name": "Ghafurov", "state": "", "country": "TJ", "coord": {"lon": 69.728668, "lat": 40.21571}}, {"id": 1514913, "name": "B\u016dston", "state": "", "country": "TJ", "coord": {"lon": 69.333076, "lat": 40.522861}}, {"id": 1514921, "name": "Shaydon", "state": "", "country": "TJ", "coord": {"lon": 70.345963, "lat": 40.67474}}, {"id": 1514925, "name": "Oltintopkan", "state": "", "country": "TJ", "coord": {"lon": 69.598106, "lat": 40.654251}}, {"id": 1514929, "name": "Adrasmon", "state": "", "country": "TJ", "coord": {"lon": 69.985588, "lat": 40.64716}}, {"id": 1514961, "name": "Uyenchi Somon", "state": "", "country": "MN", "coord": {"lon": 92.01667, "lat": 46.049999}}, {"id": 1514967, "name": "Uvs Aymag", "state": "", "country": "MN", "coord": {"lon": 93, "lat": 49.5}}, {"id": 1514975, "name": "Uujim", "state": "", "country": "MN", "coord": {"lon": 89.616669, "lat": 48.900002}}, {"id": 1514993, "name": "Urdgol", "state": "", "country": "MN", "coord": {"lon": 92.650002, "lat": 47.833328}}, {"id": 1514994, "name": "Urda Goliin Bayshing", "state": "", "country": "MN", "coord": {"lon": 94.699997, "lat": 45.98333}}, {"id": 1515007, "name": "Uliastay", "state": "", "country": "MN", "coord": {"lon": 96.844437, "lat": 47.741669}}, {"id": 1515018, "name": "Ulaantolgoy", "state": "", "country": "MN", "coord": {"lon": 92.783333, "lat": 46.683331}}, {"id": 1515029, "name": "Ulaangom", "state": "", "country": "MN", "coord": {"lon": 92.066673, "lat": 49.98111}}, {"id": 1515092, "name": "Tsetserleg", "state": "", "country": "MN", "coord": {"lon": 94.85836, "lat": 49.271278}}, {"id": 1515097, "name": "Tsetsegnuur", "state": "", "country": "MN", "coord": {"lon": 93.26667, "lat": 46.599998}}, {"id": 1515101, "name": "Tsenher", "state": "", "country": "MN", "coord": {"lon": 92.116669, "lat": 46.916672}}, {"id": 1515106, "name": "Tseel", "state": "", "country": "MN", "coord": {"lon": 95.866669, "lat": 45.566669}}, {"id": 1515114, "name": "Tsalgar", "state": "", "country": "MN", "coord": {"lon": 93.26667, "lat": 49.716671}}, {"id": 1515117, "name": "Tsahir", "state": "", "country": "MN", "coord": {"lon": 98.851669, "lat": 48.07972}}, {"id": 1515124, "name": "Tsagaant\u00fcngi", "state": "", "country": "MN", "coord": {"lon": 90.449997, "lat": 49.049999}}, {"id": 1515131, "name": "Tsagaan-Olom", "state": "", "country": "MN", "coord": {"lon": 96.525879, "lat": 46.713268}}, {"id": 1515157, "name": "Tsagaanchuluut", "state": "", "country": "MN", "coord": {"lon": 96.671448, "lat": 47.111961}}, {"id": 1515167, "name": "Tosontsengel", "state": "", "country": "MN", "coord": {"lon": 98.28389, "lat": 48.756672}}, {"id": 1515172, "name": "Tooromt", "state": "", "country": "MN", "coord": {"lon": 93.583328, "lat": 50.466671}}, {"id": 1515180, "name": "Tolbo", "state": "", "country": "MN", "coord": {"lon": 90.283333, "lat": 48.416672}}, {"id": 1515186, "name": "T\u00f6gr\u00f6g", "state": "", "country": "MN", "coord": {"lon": 92.224388, "lat": 47.424141}}, {"id": 1515187, "name": "T\u00f6gr\u00f6g", "state": "", "country": "MN", "coord": {"lon": 94.815437, "lat": 45.829762}}, {"id": 1515194, "name": "Vlaa Vula", "state": "", "country": "MN", "coord": {"lon": 99.23333, "lat": 50.683331}}, {"id": 1515208, "name": "Tegsh", "state": "", "country": "MN", "coord": {"lon": 95.999741, "lat": 48.75132}}, {"id": 1515213, "name": "Taygan", "state": "", "country": "MN", "coord": {"lon": 97.366333, "lat": 46.353561}}, {"id": 1515229, "name": "Talshand", "state": "", "country": "MN", "coord": {"lon": 97.98333, "lat": 45.333328}}, {"id": 1515247, "name": "Tahilt", "state": "", "country": "MN", "coord": {"lon": 96.645699, "lat": 45.3466}}, {"id": 1515303, "name": "Shiree", "state": "", "country": "MN", "coord": {"lon": 96.803108, "lat": 47.497139}}, {"id": 1515329, "name": "Sharga", "state": "", "country": "MN", "coord": {"lon": 98.800003, "lat": 49.799999}}, {"id": 1515331, "name": "Sharga", "state": "", "country": "MN", "coord": {"lon": 95.26667, "lat": 46.25}}, {"id": 1515332, "name": "Sharbulag", "state": "", "country": "MN", "coord": {"lon": 93.099998, "lat": 48.816669}}, {"id": 1515367, "name": "Sayn-Ust", "state": "", "country": "MN", "coord": {"lon": 94.524483, "lat": 47.357319}}, {"id": 1515378, "name": "Sangiyn Dalay", "state": "", "country": "MN", "coord": {"lon": 97.75, "lat": 45.133331}}, {"id": 1515392, "name": "Rashaant", "state": "", "country": "MN", "coord": {"lon": 90.833328, "lat": 47.76667}}, {"id": 1515402, "name": "Oygon", "state": "", "country": "MN", "coord": {"lon": 96.543388, "lat": 48.985619}}, {"id": 1515405, "name": "Telmin Suma", "state": "", "country": "MN", "coord": {"lon": 97.618607, "lat": 48.64278}}, {"id": 1515416, "name": "Orgil", "state": "", "country": "MN", "coord": {"lon": 99.35083, "lat": 48.587219}}, {"id": 1515436, "name": "\u00d6lgii", "state": "", "country": "MN", "coord": {"lon": 89.962502, "lat": 48.96833}}, {"id": 1515454, "name": "Nuga", "state": "", "country": "MN", "coord": {"lon": 95.116669, "lat": 48.316669}}, {"id": 1515468, "name": "Nogoonnuur", "state": "", "country": "MN", "coord": {"lon": 90.242043, "lat": 49.616268}}, {"id": 1515498, "name": "Naranbulag", "state": "", "country": "MN", "coord": {"lon": 92.566673, "lat": 49.366669}}, {"id": 1515506, "name": "Namir", "state": "", "country": "MN", "coord": {"lon": 91.717819, "lat": 49.106411}}, {"id": 1515532, "name": "Tsagaanhayrhan", "state": "", "country": "MN", "coord": {"lon": 94.23333, "lat": 49.400002}}, {"id": 1515549, "name": "Mandal", "state": "", "country": "MN", "coord": {"lon": 99.433327, "lat": 49.900002}}, {"id": 1515577, "name": "Jargalant", "state": "", "country": "MN", "coord": {"lon": 95.447853, "lat": 49.30677}}, {"id": 1515578, "name": "Jargalant", "state": "", "country": "MN", "coord": {"lon": 99.633331, "lat": 47.150002}}, {"id": 1515579, "name": "Jargalant", "state": "", "country": "MN", "coord": {"lon": 91.087822, "lat": 46.926701}}, {"id": 1515580, "name": "Jargalant", "state": "", "country": "MN", "coord": {"lon": 97.175957, "lat": 45.709541}}, {"id": 1515621, "name": "Ider", "state": "", "country": "MN", "coord": {"lon": 99.873894, "lat": 48.772781}}, {"id": 1515659, "name": "Hunt", "state": "", "country": "MN", "coord": {"lon": 99.466667, "lat": 47.866669}}, {"id": 1515662, "name": "Hungiy", "state": "", "country": "MN", "coord": {"lon": 94.294281, "lat": 48.51672}}, {"id": 1515694, "name": "H\u00f6viyn Am", "state": "", "country": "MN", "coord": {"lon": 98.571404, "lat": 47.231232}}, {"id": 1515696, "name": "Hovd", "state": "", "country": "MN", "coord": {"lon": 92.5, "lat": 47}}, {"id": 1515704, "name": "H\u00f6sh\u00f6\u00f6t", "state": "", "country": "MN", "coord": {"lon": 89.143578, "lat": 48.947762}}, {"id": 1515736, "name": "Holboo", "state": "", "country": "MN", "coord": {"lon": 95.432571, "lat": 48.58876}}, {"id": 1515741, "name": "H\u00f6htolgoy", "state": "", "country": "MN", "coord": {"lon": 90.910149, "lat": 49.28001}}, {"id": 1515762, "name": "H\u00f6dr\u00f6g\u00f6", "state": "", "country": "MN", "coord": {"lon": 96.962593, "lat": 48.872841}}, {"id": 1515787, "name": "Havtsal", "state": "", "country": "MN", "coord": {"lon": 91.666672, "lat": 50.099998}}, {"id": 1515806, "name": "Har-Us", "state": "", "country": "MN", "coord": {"lon": 92.033333, "lat": 49.033329}}, {"id": 1515807, "name": "Har-Us", "state": "", "country": "MN", "coord": {"lon": 91.433327, "lat": 48.48333}}, {"id": 1515832, "name": "Harmod", "state": "", "country": "MN", "coord": {"lon": 91.606407, "lat": 50.341301}}, {"id": 1515838, "name": "Harhiraa", "state": "", "country": "MN", "coord": {"lon": 91.904243, "lat": 49.778488}}, {"id": 1515878, "name": "Haliun", "state": "", "country": "MN", "coord": {"lon": 96.162392, "lat": 45.9296}}, {"id": 1515882, "name": "Halban", "state": "", "country": "MN", "coord": {"lon": 97.740898, "lat": 49.52877}}, {"id": 1515917, "name": "Gov\u012d-Altay Aymag", "state": "", "country": "MN", "coord": {"lon": 96, "lat": 45.5}}, {"id": 1515957, "name": "Erdenet", "state": "", "country": "MN", "coord": {"lon": 99.536652, "lat": 48.948769}}, {"id": 1515979, "name": "Dz\u00fcyl", "state": "", "country": "MN", "coord": {"lon": 93.904091, "lat": 46.306862}}, {"id": 1515986, "name": "Dzuunmod", "state": "", "country": "MN", "coord": {"lon": 97.374397, "lat": 48.219872}}, {"id": 1515989, "name": "Dz\u00fc\u00fcnh\u00f6v\u00f6\u00f6", "state": "", "country": "MN", "coord": {"lon": 92.402397, "lat": 50.609772}}, {"id": 1515996, "name": "Dz\u00fcr", "state": "", "country": "MN", "coord": {"lon": 95.793228, "lat": 49.657959}}, {"id": 1515999, "name": "Dz\u00f6\u00f6l\u00f6n", "state": "", "country": "MN", "coord": {"lon": 99.672256, "lat": 51.107189}}, {"id": 1516004, "name": "Dzel", "state": "", "country": "MN", "coord": {"lon": 93.78582, "lat": 49.907131}}, {"id": 1516023, "name": "Dzalaa", "state": "", "country": "MN", "coord": {"lon": 99.26667, "lat": 44.533329}}, {"id": 1516036, "name": "Dzag", "state": "", "country": "MN", "coord": {"lon": 99.166893, "lat": 46.942291}}, {"id": 1516037, "name": "Dzadgay", "state": "", "country": "MN", "coord": {"lon": 99.598618, "lat": 46.210609}}, {"id": 1516040, "name": "Duut", "state": "", "country": "MN", "coord": {"lon": 91.633331, "lat": 47.51667}}, {"id": 1516048, "name": "Khovd", "state": "", "country": "MN", "coord": {"lon": 91.641937, "lat": 48.005562}}, {"id": 1516069, "name": "Tsagaannuur", "state": "", "country": "MN", "coord": {"lon": 99.344437, "lat": 51.356392}}, {"id": 1516082, "name": "Delgerm\u00f6r\u00f6n", "state": "", "country": "MN", "coord": {"lon": 98.287117, "lat": 46.409458}}, {"id": 1516099, "name": "Darvi", "state": "", "country": "MN", "coord": {"lon": 94.116669, "lat": 46.450001}}, {"id": 1516125, "name": "Chihertey", "state": "", "country": "MN", "coord": {"lon": 89.515572, "lat": 48.302719}}, {"id": 1516136, "name": "Chandman\u012d", "state": "", "country": "MN", "coord": {"lon": 96.25, "lat": 48.049999}}, {"id": 1516143, "name": "Buyant", "state": "", "country": "MN", "coord": {"lon": 89.547501, "lat": 48.57967}}, {"id": 1516144, "name": "Buyant", "state": "", "country": "MN", "coord": {"lon": 91.816673, "lat": 48.066669}}, {"id": 1516146, "name": "Buyant", "state": "", "country": "MN", "coord": {"lon": 97.606659, "lat": 47.212109}}, {"id": 1516147, "name": "Buyant", "state": "", "country": "MN", "coord": {"lon": 98.691727, "lat": 46.166401}}, {"id": 1516148, "name": "Buyanbat", "state": "", "country": "MN", "coord": {"lon": 95.925323, "lat": 46.978378}}, {"id": 1516173, "name": "B\u00fcrenhayrhan", "state": "", "country": "MN", "coord": {"lon": 91.566673, "lat": 46.083328}}, {"id": 1516186, "name": "Darvi", "state": "", "country": "MN", "coord": {"lon": 93.61673, "lat": 46.936779}}, {"id": 1516187, "name": "Bulgan", "state": "", "country": "MN", "coord": {"lon": 98.650002, "lat": 44.783329}}, {"id": 1516196, "name": "Bugat", "state": "", "country": "MN", "coord": {"lon": 93.816673, "lat": 49.533329}}, {"id": 1516198, "name": "Buga", "state": "", "country": "MN", "coord": {"lon": 90.183327, "lat": 49.01667}}, {"id": 1516199, "name": "Buga", "state": "", "country": "MN", "coord": {"lon": 95.000504, "lat": 47.650131}}, {"id": 1516205, "name": "Altay sumu", "state": "", "country": "MN", "coord": {"lon": 92.283333, "lat": 45.799999}}, {"id": 1516240, "name": "Bil\u00fc\u00fc", "state": "", "country": "MN", "coord": {"lon": 89.437981, "lat": 49.04372}}, {"id": 1516257, "name": "Bayshint", "state": "", "country": "MN", "coord": {"lon": 90.283333, "lat": 49.666672}}, {"id": 1516267, "name": "Bayan-Uhaa", "state": "", "country": "MN", "coord": {"lon": 98.791809, "lat": 48.719059}}, {"id": 1516272, "name": "Bayansayr", "state": "", "country": "MN", "coord": {"lon": 99.433144, "lat": 45.55529}}, {"id": 1516274, "name": "Bayan-Ovoo", "state": "", "country": "MN", "coord": {"lon": 94.916672, "lat": 44.616669}}, {"id": 1516278, "name": "Bayan-\u00d6lgiy Aymag", "state": "", "country": "MN", "coord": {"lon": 90, "lat": 48.5}}, {"id": 1516288, "name": "Bayanhoshuu", "state": "", "country": "MN", "coord": {"lon": 91.916672, "lat": 48.23333}}, {"id": 1516290, "name": "Bayanhongor Aymag", "state": "", "country": "MN", "coord": {"lon": 99.5, "lat": 45.5}}, {"id": 1516296, "name": "Bayangol", "state": "", "country": "MN", "coord": {"lon": 94.364487, "lat": 45.556549}}, {"id": 1516305, "name": "Bayanbulag", "state": "", "country": "MN", "coord": {"lon": 98.090057, "lat": 46.809811}}, {"id": 1516306, "name": "Bayanbulag", "state": "", "country": "MN", "coord": {"lon": 98.927589, "lat": 45.014332}}, {"id": 1516308, "name": "Bayan", "state": "", "country": "MN", "coord": {"lon": 99.599998, "lat": 49.433331}}, {"id": 1516309, "name": "Bayan", "state": "", "country": "MN", "coord": {"lon": 95.199623, "lat": 46.992901}}, {"id": 1516313, "name": "Baruunturuun", "state": "", "country": "MN", "coord": {"lon": 94.404137, "lat": 49.65963}}, {"id": 1516329, "name": "Balgatay", "state": "", "country": "MN", "coord": {"lon": 97.150002, "lat": 46.900002}}, {"id": 1516389, "name": "Altraga", "state": "", "country": "MN", "coord": {"lon": 98.972054, "lat": 50.1791}}, {"id": 1516392, "name": "Altay", "state": "", "country": "MN", "coord": {"lon": 96.3592, "lat": 49.703171}}, {"id": 1516393, "name": "Altai", "state": "", "country": "MN", "coord": {"lon": 96.258331, "lat": 46.372219}}, {"id": 1516395, "name": "Altanteel", "state": "", "country": "MN", "coord": {"lon": 92.843742, "lat": 47.110439}}, {"id": 1516399, "name": "Altanbulag", "state": "", "country": "MN", "coord": {"lon": 96.342369, "lat": 49.306881}}, {"id": 1516400, "name": "Altan", "state": "", "country": "MN", "coord": {"lon": 95.716667, "lat": 48.116669}}, {"id": 1516403, "name": "Aldar", "state": "", "country": "MN", "coord": {"lon": 96.536873, "lat": 47.642262}}, {"id": 1516438, "name": "Zyryanovsk", "state": "", "country": "KZ", "coord": {"lon": 84.271942, "lat": 49.738609}}, {"id": 1516476, "name": "Zhygerly", "state": "", "country": "KZ", "coord": {"lon": 67.800003, "lat": 48.150002}}, {"id": 1516519, "name": "Zhosaly", "state": "", "country": "KZ", "coord": {"lon": 64.078056, "lat": 45.487782}}, {"id": 1516527, "name": "Zholymbet", "state": "", "country": "KZ", "coord": {"lon": 71.712219, "lat": 51.743328}}, {"id": 1516589, "name": "Zhezqazghan", "state": "", "country": "KZ", "coord": {"lon": 67.76667, "lat": 47.783329}}, {"id": 1516590, "name": "Zhezkent", "state": "", "country": "KZ", "coord": {"lon": 81.361504, "lat": 50.931122}}, {"id": 1516593, "name": "Zhezdi", "state": "", "country": "KZ", "coord": {"lon": 67.053886, "lat": 48.064442}}, {"id": 1516595, "name": "Zhetysay", "state": "", "country": "KZ", "coord": {"lon": 68.300003, "lat": 40.73333}}, {"id": 1516601, "name": "Dzhetygara", "state": "", "country": "KZ", "coord": {"lon": 61.200562, "lat": 52.19083}}, {"id": 1516634, "name": "Zhelezinka", "state": "", "country": "KZ", "coord": {"lon": 75.30722, "lat": 53.540001}}, {"id": 1516673, "name": "Zhasyl", "state": "", "country": "KZ", "coord": {"lon": 70.283333, "lat": 52.799999}}, {"id": 1516678, "name": "Zharyk", "state": "", "country": "KZ", "coord": {"lon": 72.82972, "lat": 48.851669}}, {"id": 1516726, "name": "Zharkyn", "state": "", "country": "KZ", "coord": {"lon": 72.375, "lat": 54.138889}}, {"id": 1516788, "name": "Zhangatas", "state": "", "country": "KZ", "coord": {"lon": 69.75, "lat": 43.566669}}, {"id": 1516789, "name": "Ayteke Bi", "state": "", "country": "KZ", "coord": {"lon": 62.156109, "lat": 45.853611}}, {"id": 1516828, "name": "Zhanatan", "state": "", "country": "KZ", "coord": {"lon": 77.616669, "lat": 51.533329}}, {"id": 1516854, "name": "Zhanama", "state": "", "country": "KZ", "coord": {"lon": 80.76667, "lat": 46.200001}}, {"id": 1516905, "name": "Taraz", "state": "", "country": "KZ", "coord": {"lon": 71.366669, "lat": 42.900002}}, {"id": 1516968, "name": "Zhalpaktobe", "state": "", "country": "KZ", "coord": {"lon": 71.433327, "lat": 42.866669}}, {"id": 1516984, "name": "Zhalghyztobe", "state": "", "country": "KZ", "coord": {"lon": 81.215958, "lat": 49.210941}}, {"id": 1517020, "name": "Zhaqsy", "state": "", "country": "KZ", "coord": {"lon": 67.313332, "lat": 51.908329}}, {"id": 1517047, "name": "Zerenda", "state": "", "country": "KZ", "coord": {"lon": 69.152779, "lat": 52.90556}}, {"id": 1517060, "name": "Zaysan", "state": "", "country": "KZ", "coord": {"lon": 84.866669, "lat": 47.466671}}, {"id": 1517081, "name": "Zarya", "state": "", "country": "KZ", "coord": {"lon": 77.050003, "lat": 52.133331}}, {"id": 1517115, "name": "Zadar\u2019ya", "state": "", "country": "KZ", "coord": {"lon": 68.783333, "lat": 42.400002}}, {"id": 1517127, "name": "Yuzhnyy", "state": "", "country": "KZ", "coord": {"lon": 72.900558, "lat": 49.355831}}, {"id": 1517136, "name": "Yrghyz", "state": "", "country": "KZ", "coord": {"lon": 61.26667, "lat": 48.616669}}, {"id": 1517185, "name": "Yernazar", "state": "", "country": "KZ", "coord": {"lon": 70.699997, "lat": 52.016666}}, {"id": 1517243, "name": "Seyfullino", "state": "", "country": "KZ", "coord": {"lon": 69.026672, "lat": 53.534721}}, {"id": 1517252, "name": "Bereke", "state": "", "country": "KZ", "coord": {"lon": 76.708336, "lat": 43.368889}}, {"id": 1517305, "name": "Yavlenka", "state": "", "country": "KZ", "coord": {"lon": 68.457497, "lat": 54.346111}}, {"id": 1517310, "name": "Yasnaya Polyana", "state": "", "country": "KZ", "coord": {"lon": 70.283333, "lat": 53.950001}}, {"id": 1517323, "name": "Yanykurgan", "state": "", "country": "KZ", "coord": {"lon": 67.248062, "lat": 43.915001}}, {"id": 1517381, "name": "East Kazakhstan", "state": "", "country": "KZ", "coord": {"lon": 82, "lat": 48.5}}, {"id": 1517384, "name": "Voskresenovka", "state": "", "country": "KZ", "coord": {"lon": 68.470833, "lat": 54.880833}}, {"id": 1517410, "name": "Volodarskoye", "state": "", "country": "KZ", "coord": {"lon": 68.104172, "lat": 53.293331}}, {"id": 1517443, "name": "Arshaly", "state": "", "country": "KZ", "coord": {"lon": 72.178329, "lat": 50.83778}}, {"id": 1517474, "name": "Verkhniye Kayrakty", "state": "", "country": "KZ", "coord": {"lon": 73.283333, "lat": 48.683331}}, {"id": 1517501, "name": "Turar Ryskulov", "state": "", "country": "KZ", "coord": {"lon": 70.333328, "lat": 42.533329}}, {"id": 1517529, "name": "Uzynkair", "state": "", "country": "KZ", "coord": {"lon": 60.900002, "lat": 45.716667}}, {"id": 1517530, "name": "Uzynkair", "state": "", "country": "KZ", "coord": {"lon": 61.316666, "lat": 44.700001}}, {"id": 1517539, "name": "Uzynagash", "state": "", "country": "KZ", "coord": {"lon": 64.301666, "lat": 54.324169}}, {"id": 1517563, "name": "Uzunagach", "state": "", "country": "KZ", "coord": {"lon": 76.308609, "lat": 43.221668}}, {"id": 1517610, "name": "\u016ast\u2019-Talovka", "state": "", "country": "KZ", "coord": {"lon": 81.849968, "lat": 50.549271}}, {"id": 1517637, "name": "Ush-Tyube", "state": "", "country": "KZ", "coord": {"lon": 77.982224, "lat": 45.242222}}, {"id": 1517643, "name": "Ushshoky", "state": "", "country": "KZ", "coord": {"lon": 61.216671, "lat": 46.5}}, {"id": 1517671, "name": "Usharal", "state": "", "country": "KZ", "coord": {"lon": 76.849998, "lat": 44.23333}}, {"id": 1517721, "name": "Urzhar", "state": "", "country": "KZ", "coord": {"lon": 81.629387, "lat": 47.093021}}, {"id": 1517733, "name": "Ungurtas", "state": "", "country": "KZ", "coord": {"lon": 76.024719, "lat": 43.274441}}, {"id": 1517743, "name": "Ulyta\u016b", "state": "", "country": "KZ", "coord": {"lon": 67.002777, "lat": 48.654442}}, {"id": 1517824, "name": "Uglerazrez", "state": "", "country": "KZ", "coord": {"lon": 73.066666, "lat": 49.766666}}, {"id": 1517836, "name": "Usharal", "state": "", "country": "KZ", "coord": {"lon": 80.939438, "lat": 46.16972}}, {"id": 1517869, "name": "Tomenaryq", "state": "", "country": "KZ", "coord": {"lon": 67.016937, "lat": 44.03056}}, {"id": 1517945, "name": "Turkestan", "state": "", "country": "KZ", "coord": {"lon": 68.25, "lat": 43.333328}}, {"id": 1517957, "name": "Turgen", "state": "", "country": "KZ", "coord": {"lon": 77.59333, "lat": 43.400558}}, {"id": 1517961, "name": "-", "state": "", "country": "KZ", "coord": {"lon": 65, "lat": 50}}, {"id": 1518003, "name": "Aqmola Oblysy", "state": "", "country": "KZ", "coord": {"lon": 70, "lat": 51.5}}, {"id": 1518009, "name": "Timiryazevo", "state": "", "country": "KZ", "coord": {"lon": 66.520561, "lat": 53.74194}}, {"id": 1518019, "name": "Troyebratskiy", "state": "", "country": "KZ", "coord": {"lon": 66.076668, "lat": 54.432499}}, {"id": 1518062, "name": "Torghay", "state": "", "country": "KZ", "coord": {"lon": 63.498058, "lat": 49.633888}}, {"id": 1518071, "name": "Topar", "state": "", "country": "KZ", "coord": {"lon": 72.818329, "lat": 49.508331}}, {"id": 1518112, "name": "Tokarevka", "state": "", "country": "KZ", "coord": {"lon": 73.165558, "lat": 50.119171}}, {"id": 1518139, "name": "Tobol", "state": "", "country": "KZ", "coord": {"lon": 62.579441, "lat": 52.684441}}, {"id": 1518156, "name": "Timur", "state": "", "country": "KZ", "coord": {"lon": 68.432503, "lat": 42.82}}, {"id": 1518203, "name": "Terenozek", "state": "", "country": "KZ", "coord": {"lon": 64.98333, "lat": 45.049999}}, {"id": 1518262, "name": "Temirtau", "state": "", "country": "KZ", "coord": {"lon": 72.948334, "lat": 50.05444}}, {"id": 1518266, "name": "Temirlanovka", "state": "", "country": "KZ", "coord": {"lon": 69.263329, "lat": 42.599442}}, {"id": 1518296, "name": "Tekeli", "state": "", "country": "KZ", "coord": {"lon": 78.823891, "lat": 44.830002}}, {"id": 1518304, "name": "Tegiszhol", "state": "", "country": "KZ", "coord": {"lon": 72.75, "lat": 50.083328}}, {"id": 1518333, "name": "Tavricheskoye", "state": "", "country": "KZ", "coord": {"lon": 82.056671, "lat": 50.173611}}, {"id": 1518403, "name": "Tasmola", "state": "", "country": "KZ", "coord": {"lon": 73.333328, "lat": 49.700001}}, {"id": 1518431, "name": "Tasb\u00f6get", "state": "", "country": "KZ", "coord": {"lon": 65.552498, "lat": 44.772781}}, {"id": 1518462, "name": "Ayat", "state": "", "country": "KZ", "coord": {"lon": 62.516392, "lat": 52.822781}}, {"id": 1518468, "name": "Taran", "state": "", "country": "KZ", "coord": {"lon": 76.270279, "lat": 43.35833}}, {"id": 1518511, "name": "Talshik", "state": "", "country": "KZ", "coord": {"lon": 71.87722, "lat": 53.637218}}, {"id": 1518518, "name": "Talghar", "state": "", "country": "KZ", "coord": {"lon": 77.23278, "lat": 43.30444}}, {"id": 1518542, "name": "Taldykorgan", "state": "", "country": "KZ", "coord": {"lon": 78.373894, "lat": 45.01556}}, {"id": 1518543, "name": "Taldyqorghan", "state": "", "country": "KZ", "coord": {"lon": 77.916672, "lat": 45}}, {"id": 1518598, "name": "Talapker", "state": "", "country": "KZ", "coord": {"lon": 74.550003, "lat": 43.883331}}, {"id": 1518679, "name": "Sozaq", "state": "", "country": "KZ", "coord": {"lon": 68.472221, "lat": 44.14222}}, {"id": 1518687, "name": "Suykbulak", "state": "", "country": "KZ", "coord": {"lon": 81.048477, "lat": 49.708149}}, {"id": 1518768, "name": "Stepnyak", "state": "", "country": "KZ", "coord": {"lon": 70.780281, "lat": 52.833889}}, {"id": 1518789, "name": "Staryy Otar", "state": "", "country": "KZ", "coord": {"lon": 75.470833, "lat": 43.322498}}, {"id": 1518803, "name": "Stantsiya Kzyl", "state": "", "country": "KZ", "coord": {"lon": 72.966667, "lat": 49.633331}}, {"id": 1518881, "name": "Sharbulak", "state": "", "country": "KZ", "coord": {"lon": 69.48333, "lat": 41.76667}}, {"id": 1518936, "name": "Smirnovo", "state": "", "country": "KZ", "coord": {"lon": 69.422218, "lat": 54.512501}}, {"id": 1518945, "name": "Myrzakent", "state": "", "country": "KZ", "coord": {"lon": 68.533333, "lat": 40.666672}}, {"id": 1518980, "name": "Shymkent", "state": "", "country": "KZ", "coord": {"lon": 69.599998, "lat": 42.299999}}, {"id": 1518981, "name": "Shyghanaq", "state": "", "country": "KZ", "coord": {"lon": 73.985275, "lat": 45.106388}}, {"id": 1519030, "name": "Chu", "state": "", "country": "KZ", "coord": {"lon": 73.761391, "lat": 43.598331}}, {"id": 1519050, "name": "Shortandy", "state": "", "country": "KZ", "coord": {"lon": 70.999443, "lat": 51.700562}}, {"id": 1519051, "name": "Shortandy", "state": "", "country": "KZ", "coord": {"lon": 72.497223, "lat": 50.78833}}, {"id": 1519167, "name": "Shilikti", "state": "", "country": "KZ", "coord": {"lon": 74.646942, "lat": 52.870831}}, {"id": 1519226, "name": "Shemona\u012bkha", "state": "", "country": "KZ", "coord": {"lon": 81.905563, "lat": 50.632778}}, {"id": 1519244, "name": "Shchuchinsk", "state": "", "country": "KZ", "coord": {"lon": 70.199997, "lat": 52.933334}}, {"id": 1519273, "name": "Sharapkhana", "state": "", "country": "KZ", "coord": {"lon": 69.434441, "lat": 41.875832}}, {"id": 1519275, "name": "Shar", "state": "", "country": "KZ", "coord": {"lon": 81.04528, "lat": 49.588612}}, {"id": 1519277, "name": "Shantobe", "state": "", "country": "KZ", "coord": {"lon": 68.183891, "lat": 52.458061}}, {"id": 1519293, "name": "Chemolgan", "state": "", "country": "KZ", "coord": {"lon": 76.529167, "lat": 43.18972}}, {"id": 1519318, "name": "Shalakaryk", "state": "", "country": "KZ", "coord": {"lon": 65.633331, "lat": 44.700001}}, {"id": 1519327, "name": "Shakhtinsk", "state": "", "country": "KZ", "coord": {"lon": 72.587219, "lat": 49.709999}}, {"id": 1519333, "name": "Shakhan", "state": "", "country": "KZ", "coord": {"lon": 72.634171, "lat": 49.82333}}, {"id": 1519367, "name": "North Kazakhstan", "state": "", "country": "KZ", "coord": {"lon": 70, "lat": 54}}, {"id": 1519380, "name": "Seslavino", "state": "", "country": "KZ", "coord": {"lon": 70.199997, "lat": 42.450001}}, {"id": 1519385, "name": "Sergeyevka", "state": "", "country": "KZ", "coord": {"lon": 67.415833, "lat": 53.880001}}, {"id": 1519386, "name": "Sergeyevka", "state": "", "country": "KZ", "coord": {"lon": 63.18861, "lat": 52.955002}}, {"id": 1519395, "name": "Serebryansk", "state": "", "country": "KZ", "coord": {"lon": 83.289169, "lat": 49.692501}}, {"id": 1519422, "name": "Semey", "state": "", "country": "KZ", "coord": {"lon": 80.227501, "lat": 50.41111}}, {"id": 1519439, "name": "Sekisovka", "state": "", "country": "KZ", "coord": {"lon": 82.583328, "lat": 50.333328}}, {"id": 1519455, "name": "Sayram", "state": "", "country": "KZ", "coord": {"lon": 69.770279, "lat": 42.301941}}, {"id": 1519463, "name": "Sayaq", "state": "", "country": "KZ", "coord": {"lon": 77.26667, "lat": 47}}, {"id": 1519516, "name": "Sastobe", "state": "", "country": "KZ", "coord": {"lon": 70, "lat": 42.549999}}, {"id": 1519563, "name": "Saryshaghan", "state": "", "country": "KZ", "coord": {"lon": 73.619164, "lat": 46.119167}}, {"id": 1519580, "name": "Saryozek", "state": "", "country": "KZ", "coord": {"lon": 77.975281, "lat": 44.35833}}, {"id": 1519625, "name": "Sarykamys", "state": "", "country": "KZ", "coord": {"lon": 78.716667, "lat": 47.783329}}, {"id": 1519633, "name": "Sarybulak", "state": "", "country": "KZ", "coord": {"lon": 77.650002, "lat": 44.400002}}, {"id": 1519673, "name": "Saryaghash", "state": "", "country": "KZ", "coord": {"lon": 69.166672, "lat": 41.450001}}, {"id": 1519691, "name": "Sarkand", "state": "", "country": "KZ", "coord": {"lon": 79.91861, "lat": 45.41}}, {"id": 1519725, "name": "Soran", "state": "", "country": "KZ", "coord": {"lon": 72.850563, "lat": 49.779999}}, {"id": 1519809, "name": "Sadchikovka", "state": "", "country": "KZ", "coord": {"lon": 63.453892, "lat": 53.010559}}, {"id": 1519843, "name": "Rudnyy", "state": "", "country": "KZ", "coord": {"lon": 63.12056, "lat": 52.959438}}, {"id": 1519844, "name": "R\u016bdn\u012bchnyy", "state": "", "country": "KZ", "coord": {"lon": 78.904716, "lat": 44.67194}}, {"id": 1519849, "name": "Rozovka", "state": "", "country": "KZ", "coord": {"lon": 77.433327, "lat": 52.599998}}, {"id": 1519922, "name": "Kyzylorda", "state": "", "country": "KZ", "coord": {"lon": 65.509171, "lat": 44.852779}}, {"id": 1519924, "name": "Qusmuryn", "state": "", "country": "KZ", "coord": {"lon": 64.631111, "lat": 52.450279}}, {"id": 1519928, "name": "Kostanay", "state": "", "country": "KZ", "coord": {"lon": 63.583328, "lat": 53.166672}}, {"id": 1519931, "name": "Kaskelen", "state": "", "country": "KZ", "coord": {"lon": 76.622223, "lat": 43.200279}}, {"id": 1519932, "name": "Qashar", "state": "", "country": "KZ", "coord": {"lon": 62.929722, "lat": 53.39056}}, {"id": 1519934, "name": "Qarqaraly", "state": "", "country": "KZ", "coord": {"lon": 75.474167, "lat": 49.40583}}, {"id": 1519935, "name": "Qarazhal", "state": "", "country": "KZ", "coord": {"lon": 70.790283, "lat": 48.007778}}, {"id": 1519936, "name": "Qara\u016byl", "state": "", "country": "KZ", "coord": {"lon": 79.25502, "lat": 48.945091}}, {"id": 1519938, "name": "Karatau", "state": "", "country": "KZ", "coord": {"lon": 70.466667, "lat": 43.166672}}, {"id": 1519942, "name": "Qaraghandy", "state": "", "country": "KZ", "coord": {"lon": 73.099442, "lat": 49.798889}}, {"id": 1519948, "name": "Kapshagay", "state": "", "country": "KZ", "coord": {"lon": 77.083328, "lat": 43.883331}}, {"id": 1520025, "name": "T\u016bghyl", "state": "", "country": "KZ", "coord": {"lon": 84.206291, "lat": 47.725208}}, {"id": 1520051, "name": "Presnovka", "state": "", "country": "KZ", "coord": {"lon": 67.150002, "lat": 54.666672}}, {"id": 1520061, "name": "Predgornoye", "state": "", "country": "KZ", "coord": {"lon": 82.225563, "lat": 50.244438}}, {"id": 1520066, "name": "Praporshchikovo", "state": "", "country": "KZ", "coord": {"lon": 82.433327, "lat": 50.049999}}, {"id": 1520133, "name": "Pobeda", "state": "", "country": "KZ", "coord": {"lon": 65.933334, "lat": 44.700001}}, {"id": 1520172, "name": "Petropavl", "state": "", "country": "KZ", "coord": {"lon": 69.162781, "lat": 54.875278}}, {"id": 1520178, "name": "Peshkovka", "state": "", "country": "KZ", "coord": {"lon": 62.40361, "lat": 53.728329}}, {"id": 1520196, "name": "Pervorosiyskiy", "state": "", "country": "KZ", "coord": {"lon": 83.849197, "lat": 49.716499}}, {"id": 1520208, "name": "Pervomayka", "state": "", "country": "KZ", "coord": {"lon": 76.940002, "lat": 43.373611}}, {"id": 1520239, "name": "Pavlodar Region", "state": "", "country": "KZ", "coord": {"lon": 76, "lat": 52}}, {"id": 1520240, "name": "Pavlodar", "state": "", "country": "KZ", "coord": {"lon": 76.949997, "lat": 52.299999}}, {"id": 1520253, "name": "Zharkent", "state": "", "country": "KZ", "coord": {"lon": 80, "lat": 44.162781}}, {"id": 1520281, "name": "Oytal", "state": "", "country": "KZ", "coord": {"lon": 73.269722, "lat": 42.905731}}, {"id": 1520296, "name": "Otrar", "state": "", "country": "KZ", "coord": {"lon": 68.26667, "lat": 42.76667}}, {"id": 1520316, "name": "Ust-Kamenogorsk", "state": "", "country": "KZ", "coord": {"lon": 82.610283, "lat": 49.978889}}, {"id": 1520327, "name": "Osakarovka", "state": "", "country": "KZ", "coord": {"lon": 72.569168, "lat": 50.564999}}, {"id": 1520381, "name": "Ordzhonikidze", "state": "", "country": "KZ", "coord": {"lon": 61.740829, "lat": 52.441109}}, {"id": 1520386, "name": "Orakbalga", "state": "", "country": "KZ", "coord": {"lon": 74.566673, "lat": 45.400002}}, {"id": 1520474, "name": "Ognevka", "state": "", "country": "KZ", "coord": {"lon": 83.016739, "lat": 49.683521}}, {"id": 1520536, "name": "Novotroitskoye", "state": "", "country": "KZ", "coord": {"lon": 73.758331, "lat": 43.683331}}, {"id": 1520561, "name": "Kasymbek", "state": "", "country": "KZ", "coord": {"lon": 76.431938, "lat": 43.25111}}, {"id": 1520599, "name": "Novomarkovka", "state": "", "country": "KZ", "coord": {"lon": 72.301666, "lat": 51.71722}}, {"id": 1520601, "name": "Novokubanka", "state": "", "country": "KZ", "coord": {"lon": 70.730827, "lat": 51.672218}}, {"id": 1520627, "name": "Novodolinskiy", "state": "", "country": "KZ", "coord": {"lon": 72.70472, "lat": 49.705002}}, {"id": 1520660, "name": "Zhanga Buqtyrma", "state": "", "country": "KZ", "coord": {"lon": 83.52475, "lat": 49.629501}}, {"id": 1520692, "name": "S\u00e4tbaev", "state": "", "country": "KZ", "coord": {"lon": 67.543327, "lat": 47.904171}}, {"id": 1520747, "name": "Narynkol", "state": "", "country": "KZ", "coord": {"lon": 80.178329, "lat": 42.72583}}, {"id": 1520789, "name": "Mynaral", "state": "", "country": "KZ", "coord": {"lon": 73.684441, "lat": 45.416111}}, {"id": 1520844, "name": "Moyynty", "state": "", "country": "KZ", "coord": {"lon": 73.366943, "lat": 47.221111}}, {"id": 1520859, "name": "Moskovka", "state": "", "country": "KZ", "coord": {"lon": 69.711388, "lat": 53.73806}}, {"id": 1520879, "name": "Molodyozhnoe", "state": "", "country": "KZ", "coord": {"lon": 69.885002, "lat": 53.228329}}, {"id": 1520885, "name": "Kurchatov", "state": "", "country": "KZ", "coord": {"lon": 78.540001, "lat": 50.756672}}, {"id": 1520897, "name": "Moinkum", "state": "", "country": "KZ", "coord": {"lon": 74.333893, "lat": 43.598331}}, {"id": 1520927, "name": "Min\u2019kovskoye", "state": "", "country": "KZ", "coord": {"lon": 73.26667, "lat": 50.016666}}, {"id": 1520947, "name": "Sarykemer", "state": "", "country": "KZ", "coord": {"lon": 71.5, "lat": 43}}, {"id": 1520969, "name": "Merke", "state": "", "country": "KZ", "coord": {"lon": 73.178612, "lat": 42.87278}}, {"id": 1521038, "name": "Maykol\u2019", "state": "", "country": "KZ", "coord": {"lon": 63.33667, "lat": 53.278061}}, {"id": 1521048, "name": "Mayqayyng", "state": "", "country": "KZ", "coord": {"lon": 75.798607, "lat": 51.462502}}, {"id": 1521079, "name": "Matay", "state": "", "country": "KZ", "coord": {"lon": 78.718063, "lat": 45.895}}, {"id": 1521133, "name": "Mankent", "state": "", "country": "KZ", "coord": {"lon": 69.833336, "lat": 42.416668}}, {"id": 1521153, "name": "Mamlyutka", "state": "", "country": "KZ", "coord": {"lon": 68.539444, "lat": 54.9375}}, {"id": 1521180, "name": "Malovodnoye", "state": "", "country": "KZ", "coord": {"lon": 77.696938, "lat": 43.51083}}, {"id": 1521192, "name": "Malinovka", "state": "", "country": "KZ", "coord": {"lon": 78.23333, "lat": 52.416672}}, {"id": 1521216, "name": "Maksut", "state": "", "country": "KZ", "coord": {"lon": 62.997501, "lat": 52.158329}}, {"id": 1521230, "name": "Makinsk", "state": "", "country": "KZ", "coord": {"lon": 70.416939, "lat": 52.629169}}, {"id": 1521292, "name": "Lugovoye", "state": "", "country": "KZ", "coord": {"lon": 72.717789, "lat": 42.909431}}, {"id": 1521293, "name": "Lugovoy", "state": "", "country": "KZ", "coord": {"lon": 72.764442, "lat": 42.94722}}, {"id": 1521315, "name": "Lisakovsk", "state": "", "country": "KZ", "coord": {"lon": 62.49361, "lat": 52.536942}}, {"id": 1521330, "name": "Lepsi", "state": "", "country": "KZ", "coord": {"lon": 80.608612, "lat": 45.52417}}, {"id": 1521333, "name": "Lepsy", "state": "", "country": "KZ", "coord": {"lon": 78.945557, "lat": 46.235001}}, {"id": 1521351, "name": "Leninskoye", "state": "", "country": "KZ", "coord": {"lon": 69.386391, "lat": 41.758888}}, {"id": 1521365, "name": "Leninskiy", "state": "", "country": "KZ", "coord": {"lon": 76.780563, "lat": 52.250278}}, {"id": 1521368, "name": "Baikonur", "state": "", "country": "KZ", "coord": {"lon": 63.316669, "lat": 45.616669}}, {"id": 1521370, "name": "Ridder", "state": "", "country": "KZ", "coord": {"lon": 83.513329, "lat": 50.355}}, {"id": 1521374, "name": "Leningradskoye", "state": "", "country": "KZ", "coord": {"lon": 71.550003, "lat": 53.534721}}, {"id": 1521379, "name": "Lenger", "state": "", "country": "KZ", "coord": {"lon": 69.883926, "lat": 42.18301}}, {"id": 1521401, "name": "Kzyltu", "state": "", "country": "KZ", "coord": {"lon": 72.341393, "lat": 53.636391}}, {"id": 1521406, "name": "Qyzylorda Oblysy", "state": "", "country": "KZ", "coord": {"lon": 65, "lat": 45}}, {"id": 1521422, "name": "Kyzylzhar", "state": "", "country": "KZ", "coord": {"lon": 76.683327, "lat": 52.450001}}, {"id": 1521425, "name": "Kyzylzhar", "state": "", "country": "KZ", "coord": {"lon": 72.583328, "lat": 49.98333}}, {"id": 1521497, "name": "Kyzylorak", "state": "", "country": "KZ", "coord": {"lon": 65, "lat": 45.049999}}, {"id": 1521671, "name": "Qostanay Oblysy", "state": "", "country": "KZ", "coord": {"lon": 64, "lat": 51.5}}, {"id": 1521677, "name": "Kushoky", "state": "", "country": "KZ", "coord": {"lon": 73.402496, "lat": 50.233891}}, {"id": 1521757, "name": "Kurday", "state": "", "country": "KZ", "coord": {"lon": 75.01194, "lat": 43.613609}}, {"id": 1521762, "name": "Kurchum", "state": "", "country": "KZ", "coord": {"lon": 83.654167, "lat": 48.57222}}, {"id": 1521835, "name": "Kumkent", "state": "", "country": "KZ", "coord": {"lon": 69.616386, "lat": 43.775002}}, {"id": 1521902, "name": "Kulaygyr", "state": "", "country": "KZ", "coord": {"lon": 72.919724, "lat": 49.421665}}, {"id": 1521975, "name": "Krasnyy Rybak", "state": "", "country": "KZ", "coord": {"lon": 61.599998, "lat": 45.183334}}, {"id": 1521977, "name": "Or\u00ebl", "state": "", "country": "KZ", "coord": {"lon": 68.330002, "lat": 54.964722}}, {"id": 1521998, "name": "Egindik\u00f6l", "state": "", "country": "KZ", "coord": {"lon": 69.474167, "lat": 51.053059}}, {"id": 1522026, "name": "Krasnogorskiy", "state": "", "country": "KZ", "coord": {"lon": 66.57444, "lat": 52.240559}}, {"id": 1522035, "name": "Taiynsha", "state": "", "country": "KZ", "coord": {"lon": 69.763893, "lat": 53.847778}}, {"id": 1522061, "name": "Kenes", "state": "", "country": "KZ", "coord": {"lon": 75.559441, "lat": 53.23333}}, {"id": 1522192, "name": "Pryamoy Put\u2019", "state": "", "country": "KZ", "coord": {"lon": 76.760834, "lat": 43.236111}}, {"id": 1522203, "name": "Kokshetau", "state": "", "country": "KZ", "coord": {"lon": 69.388336, "lat": 53.2775}}, {"id": 1522281, "name": "Kopa", "state": "", "country": "KZ", "coord": {"lon": 75.833336, "lat": 43.516666}}, {"id": 1522348, "name": "Komsomolets", "state": "", "country": "KZ", "coord": {"lon": 62.070831, "lat": 53.745281}}, {"id": 1522447, "name": "Kokterek", "state": "", "country": "KZ", "coord": {"lon": 70.26667, "lat": 42.533329}}, {"id": 1522466, "name": "Koktal", "state": "", "country": "KZ", "coord": {"lon": 73.51667, "lat": 49.650002}}, {"id": 1522503, "name": "Kokpekty", "state": "", "country": "KZ", "coord": {"lon": 82.400002, "lat": 48.75}}, {"id": 1522545, "name": "Kokaral", "state": "", "country": "KZ", "coord": {"lon": 60.73333, "lat": 46.25}}, {"id": 1522549, "name": "Kokozek", "state": "", "country": "KZ", "coord": {"lon": 76.768059, "lat": 43.3475}}, {"id": 1522565, "name": "Kobensay", "state": "", "country": "KZ", "coord": {"lon": 72.777779, "lat": 53.74667}}, {"id": 1522605, "name": "K\u012bevka", "state": "", "country": "KZ", "coord": {"lon": 71.551392, "lat": 50.26194}}, {"id": 1522642, "name": "Balpyk B\u012b", "state": "", "country": "KZ", "coord": {"lon": 78.208328, "lat": 44.894718}}, {"id": 1522643, "name": "Asyqata", "state": "", "country": "KZ", "coord": {"lon": 68.361107, "lat": 40.899441}}, {"id": 1522684, "name": "Khorgos", "state": "", "country": "KZ", "coord": {"lon": 80.38028, "lat": 44.224998}}, {"id": 1522714, "name": "Khanta\u016b", "state": "", "country": "KZ", "coord": {"lon": 73.800003, "lat": 44.230831}}, {"id": 1522751, "name": "Kentau", "state": "", "country": "KZ", "coord": {"lon": 68.509399, "lat": 43.520611}}, {"id": 1522809, "name": "Kellerovka", "state": "", "country": "KZ", "coord": {"lon": 69.292221, "lat": 53.83889}}, {"id": 1522818, "name": "Kegen", "state": "", "country": "KZ", "coord": {"lon": 79.220284, "lat": 43.019718}}, {"id": 1522862, "name": "Qazaly", "state": "", "country": "KZ", "coord": {"lon": 62.107498, "lat": 45.762779}}, {"id": 1522867, "name": "Republic of Kazakhstan", "state": "", "country": "KZ", "coord": {"lon": 68, "lat": 48}}, {"id": 1522949, "name": "Kaskakulan", "state": "", "country": "KZ", "coord": {"lon": 60.983334, "lat": 45.666668}}, {"id": 1522955, "name": "Kaskabulak", "state": "", "country": "KZ", "coord": {"lon": 70.349998, "lat": 43.116669}}, {"id": 1523014, "name": "Kargaly", "state": "", "country": "KZ", "coord": {"lon": 80.48333, "lat": 45.616669}}, {"id": 1523149, "name": "Karasu", "state": "", "country": "KZ", "coord": {"lon": 65.491112, "lat": 52.672501}}, {"id": 1523157, "name": "Karasu", "state": "", "country": "KZ", "coord": {"lon": 65.033333, "lat": 50.033333}}, {"id": 1523232, "name": "Karaozek", "state": "", "country": "KZ", "coord": {"lon": 70.349998, "lat": 52.633331}}, {"id": 1523246, "name": "Karamuryn", "state": "", "country": "KZ", "coord": {"lon": 72.98333, "lat": 49.233334}}, {"id": 1523400, "name": "Karagandinskoye", "state": "", "country": "KZ", "coord": {"lon": 71.051392, "lat": 54.666672}}, {"id": 1523401, "name": "Qaraghandy Oblysy", "state": "", "country": "KZ", "coord": {"lon": 72, "lat": 48}}, {"id": 1523469, "name": "Karabas", "state": "", "country": "KZ", "coord": {"lon": 72.89389, "lat": 49.573334}}, {"id": 1523470, "name": "Karabas", "state": "", "country": "KZ", "coord": {"lon": 76.199997, "lat": 46.533329}}, {"id": 1523512, "name": "Kantagi", "state": "", "country": "KZ", "coord": {"lon": 68.577499, "lat": 43.52639}}, {"id": 1523563, "name": "Kamkaly", "state": "", "country": "KZ", "coord": {"lon": 70.160828, "lat": 44.84639}}, {"id": 1523605, "name": "Kalkaman", "state": "", "country": "KZ", "coord": {"lon": 76.021111, "lat": 51.952499}}, {"id": 1523662, "name": "GT", "state": "", "country": "KZ", "coord": {"lon": 76.103607, "lat": 53.067501}}, {"id": 1523741, "name": "Esik", "state": "", "country": "KZ", "coord": {"lon": 77.452454, "lat": 43.355202}}, {"id": 1523768, "name": "Irtyshsk", "state": "", "country": "KZ", "coord": {"lon": 75.457222, "lat": 53.333328}}, {"id": 1523843, "name": "Timiryazevo", "state": "", "country": "KZ", "coord": {"lon": 76.97583, "lat": 53.07111}}, {"id": 1523987, "name": "Imeni Kirova", "state": "", "country": "KZ", "coord": {"lon": 69.466667, "lat": 42.349998}}, {"id": 1523998, "name": "Karla Marksa", "state": "", "country": "KZ", "coord": {"lon": 65.616669, "lat": 54.333328}}, {"id": 1524138, "name": "Atakent", "state": "", "country": "KZ", "coord": {"lon": 68.506668, "lat": 40.84639}}, {"id": 1524182, "name": "Granitogorsk", "state": "", "country": "KZ", "coord": {"lon": 73.469063, "lat": 42.74337}}, {"id": 1524192, "name": "Gul\u2019dala", "state": "", "country": "KZ", "coord": {"lon": 77.052498, "lat": 43.347778}}, {"id": 1524193, "name": "Gornyy Gigant", "state": "", "country": "KZ", "coord": {"lon": 76.883331, "lat": 43.233334}}, {"id": 1524227, "name": "Glubokoye", "state": "", "country": "KZ", "coord": {"lon": 82.311394, "lat": 50.145561}}, {"id": 1524230, "name": "Glinkovo", "state": "", "country": "KZ", "coord": {"lon": 69.669441, "lat": 42.90361}}, {"id": 1524243, "name": "Georgiyevka", "state": "", "country": "KZ", "coord": {"lon": 74.711388, "lat": 43.036942}}, {"id": 1524245, "name": "Georg\u012bevka", "state": "", "country": "KZ", "coord": {"lon": 81.576111, "lat": 49.33139}}, {"id": 1524265, "name": "Moyynkum", "state": "", "country": "KZ", "coord": {"lon": 72.946938, "lat": 44.291389}}, {"id": 1524282, "name": "Fyodorovka", "state": "", "country": "KZ", "coord": {"lon": 62.707779, "lat": 53.63139}}, {"id": 1524294, "name": "Espe", "state": "", "country": "KZ", "coord": {"lon": 74.166664, "lat": 43.866669}}, {"id": 1524296, "name": "Esil", "state": "", "country": "KZ", "coord": {"lon": 66.404167, "lat": 51.955559}}, {"id": 1524298, "name": "Aksu", "state": "", "country": "KZ", "coord": {"lon": 76.916672, "lat": 52.033329}}, {"id": 1524302, "name": "Yermentau", "state": "", "country": "KZ", "coord": {"lon": 73.106941, "lat": 51.621391}}, {"id": 1524308, "name": "Otegen Batyra", "state": "", "country": "KZ", "coord": {"lon": 77.022217, "lat": 43.42778}}, {"id": 1524325, "name": "Ekibastuz", "state": "", "country": "KZ", "coord": {"lon": 75.366669, "lat": 51.666672}}, {"id": 1524444, "name": "Zhambyl Oblysy", "state": "", "country": "KZ", "coord": {"lon": 72, "lat": 44}}, {"id": 1524451, "name": "Zhambyl", "state": "", "country": "KZ", "coord": {"lon": 71.396942, "lat": 47.20694}}, {"id": 1524478, "name": "Dzhalagash", "state": "", "country": "KZ", "coord": {"lon": 64.666672, "lat": 45.083328}}, {"id": 1524537, "name": "Druzhba", "state": "", "country": "KZ", "coord": {"lon": 82.487831, "lat": 45.255001}}, {"id": 1524571, "name": "Dolinka", "state": "", "country": "KZ", "coord": {"lon": 72.676109, "lat": 49.674171}}, {"id": 1524606, "name": "Derzhav\u012bnsk", "state": "", "country": "KZ", "coord": {"lon": 66.316673, "lat": 51.099998}}, {"id": 1524696, "name": "Chundzha", "state": "", "country": "KZ", "coord": {"lon": 79.470284, "lat": 43.541672}}, {"id": 1524703, "name": "Chulakkurgan", "state": "", "country": "KZ", "coord": {"lon": 69.181389, "lat": 43.764999}}, {"id": 1524787, "name": "Turkistan", "state": "", "country": "KZ", "coord": {"lon": 68, "lat": 43}}, {"id": 1524801, "name": "Sh\u012beli", "state": "", "country": "KZ", "coord": {"lon": 66.75, "lat": 44.166672}}, {"id": 1524809, "name": "Chervonnoye", "state": "", "country": "KZ", "coord": {"lon": 66.723061, "lat": 53.2775}}, {"id": 1524815, "name": "Chernyayevka", "state": "", "country": "KZ", "coord": {"lon": 69.361671, "lat": 41.474171}}, {"id": 1524849, "name": "Cheremshanka", "state": "", "country": "KZ", "coord": {"lon": 83.933327, "lat": 49.383331}}, {"id": 1524871, "name": "Chayan", "state": "", "country": "KZ", "coord": {"lon": 69.37722, "lat": 43.02972}}, {"id": 1524889, "name": "Chardara", "state": "", "country": "KZ", "coord": {"lon": 67.96917, "lat": 41.254719}}, {"id": 1524958, "name": "Burunday", "state": "", "country": "KZ", "coord": {"lon": 76.85778, "lat": 43.360279}}, {"id": 1525014, "name": "Bulayevo", "state": "", "country": "KZ", "coord": {"lon": 70.443893, "lat": 54.90556}}, {"id": 1525121, "name": "Borovskoy", "state": "", "country": "KZ", "coord": {"lon": 64.150002, "lat": 53.799999}}, {"id": 1525126, "name": "B\u016brabay", "state": "", "country": "KZ", "coord": {"lon": 70.313789, "lat": 53.08382}}, {"id": 1525134, "name": "Borodulikha", "state": "", "country": "KZ", "coord": {"lon": 80.929497, "lat": 50.71841}}, {"id": 1525223, "name": "Priisk Boko", "state": "", "country": "KZ", "coord": {"lon": 81.645279, "lat": 49.06028}}, {"id": 1525295, "name": "Bishkul", "state": "", "country": "KZ", "coord": {"lon": 69.103333, "lat": 54.780281}}, {"id": 1525376, "name": "Bestobe", "state": "", "country": "KZ", "coord": {"lon": 73.097504, "lat": 52.499439}}, {"id": 1525462, "name": "Belyye Vody", "state": "", "country": "KZ", "coord": {"lon": 69.833328, "lat": 42.416672}}, {"id": 1525465, "name": "Belterek", "state": "", "country": "KZ", "coord": {"lon": 80.73056, "lat": 49.22583}}, {"id": 1525490, "name": "Belousovka", "state": "", "country": "KZ", "coord": {"lon": 82.523888, "lat": 50.133888}}, {"id": 1525504, "name": "Belogor\u2019ye", "state": "", "country": "KZ", "coord": {"lon": 77.47139, "lat": 51.52972}}, {"id": 1525506, "name": "Belogorsk\u012by", "state": "", "country": "KZ", "coord": {"lon": 83.148033, "lat": 49.476978}}, {"id": 1525576, "name": "Bayzhansay", "state": "", "country": "KZ", "coord": {"lon": 69.937218, "lat": 43.18}}, {"id": 1525617, "name": "Bayqoshqar", "state": "", "country": "KZ", "coord": {"lon": 78.754723, "lat": 48.396671}}, {"id": 1525624, "name": "Baykadam", "state": "", "country": "KZ", "coord": {"lon": 69.918892, "lat": 43.737782}}, {"id": 1525650, "name": "Bayanaul", "state": "", "country": "KZ", "coord": {"lon": 75.695557, "lat": 50.788891}}, {"id": 1525658, "name": "Qogham", "state": "", "country": "KZ", "coord": {"lon": 68.316673, "lat": 42.833328}}, {"id": 1525736, "name": "Barshatas", "state": "", "country": "KZ", "coord": {"lon": 78.661392, "lat": 48.16972}}, {"id": 1525771, "name": "Bannovka", "state": "", "country": "KZ", "coord": {"lon": 62.953892, "lat": 53.726109}}, {"id": 1525798, "name": "Balqash", "state": "", "country": "KZ", "coord": {"lon": 74.995003, "lat": 46.848061}}, {"id": 1525801, "name": "Ballastnyy", "state": "", "country": "KZ", "coord": {"lon": 73.23333, "lat": 50.066666}}, {"id": 1525809, "name": "Balkashino", "state": "", "country": "KZ", "coord": {"lon": 68.76667, "lat": 52.51667}}, {"id": 1525846, "name": "Baqbaqty", "state": "", "country": "KZ", "coord": {"lon": 76.659172, "lat": 44.570831}}, {"id": 1525850, "name": "Bakanas", "state": "", "country": "KZ", "coord": {"lon": 76.277222, "lat": 44.80806}}, {"id": 1525876, "name": "Babatay", "state": "", "country": "KZ", "coord": {"lon": 71.933327, "lat": 50.966671}}, {"id": 1525925, "name": "Aynabulak", "state": "", "country": "KZ", "coord": {"lon": 77.933327, "lat": 44.599998}}, {"id": 1525988, "name": "Ayagoz", "state": "", "country": "KZ", "coord": {"lon": 80.439171, "lat": 47.97139}}, {"id": 1525999, "name": "Avan", "state": "", "country": "KZ", "coord": {"lon": 60.166668, "lat": 46.266666}}, {"id": 1526021, "name": "Auezov", "state": "", "country": "KZ", "coord": {"lon": 81.583611, "lat": 49.71611}}, {"id": 1526038, "name": "Atbasar", "state": "", "country": "KZ", "coord": {"lon": 68.333328, "lat": 51.799999}}, {"id": 1526041, "name": "Atas\u016b", "state": "", "country": "KZ", "coord": {"lon": 71.643333, "lat": 48.681389}}, {"id": 1526055, "name": "As\u016bbulaq", "state": "", "country": "KZ", "coord": {"lon": 83.055832, "lat": 49.558331}}, {"id": 1526059, "name": "Astrakhan", "state": "", "country": "KZ", "coord": {"lon": 69.797218, "lat": 51.528332}}, {"id": 1526081, "name": "Ashchysay", "state": "", "country": "KZ", "coord": {"lon": 68.888893, "lat": 43.554169}}, {"id": 1526168, "name": "Arys", "state": "", "country": "KZ", "coord": {"lon": 68.794991, "lat": 42.425228}}, {"id": 1526169, "name": "Arys", "state": "", "country": "KZ", "coord": {"lon": 68.400002, "lat": 42.76667}}, {"id": 1526193, "name": "Arkalyk", "state": "", "country": "KZ", "coord": {"lon": 66.911392, "lat": 50.248611}}, {"id": 1526229, "name": "Arasan", "state": "", "country": "KZ", "coord": {"lon": 79.355003, "lat": 45.278061}}, {"id": 1526265, "name": "Aral", "state": "", "country": "KZ", "coord": {"lon": 61.666672, "lat": 46.799999}}, {"id": 1526268, "name": "Aqtoghay", "state": "", "country": "KZ", "coord": {"lon": 79.666672, "lat": 46.950001}}, {"id": 1526269, "name": "Aktau", "state": "", "country": "KZ", "coord": {"lon": 73.062782, "lat": 50.236671}}, {"id": 1526271, "name": "Aksu", "state": "", "country": "KZ", "coord": {"lon": 71.985832, "lat": 52.458611}}, {"id": 1526272, "name": "Aqshata\u016b", "state": "", "country": "KZ", "coord": {"lon": 74.057503, "lat": 47.98917}}, {"id": 1526273, "name": "Nur-Sultan", "state": "", "country": "KZ", "coord": {"lon": 71.445976, "lat": 51.180099}}, {"id": 1526274, "name": "Aqadyr", "state": "", "country": "KZ", "coord": {"lon": 72.848328, "lat": 48.25528}}, {"id": 1526325, "name": "Amanqaraghay", "state": "", "country": "KZ", "coord": {"lon": 64.091942, "lat": 52.402779}}, {"id": 1526333, "name": "Amangel\u2019dy", "state": "", "country": "KZ", "coord": {"lon": 63.599998, "lat": 53.183331}}, {"id": 1526384, "name": "Almaty", "state": "", "country": "KZ", "coord": {"lon": 76.949997, "lat": 43.25}}, {"id": 1526395, "name": "Almaty", "state": "", "country": "KZ", "coord": {"lon": 76.916664, "lat": 43.066666}}, {"id": 1526443, "name": "Akkol", "state": "", "country": "KZ", "coord": {"lon": 70.934174, "lat": 51.99778}}, {"id": 1526460, "name": "Aleksandrovka", "state": "", "country": "KZ", "coord": {"lon": 69.853333, "lat": 53.103062}}, {"id": 1526482, "name": "Alatay", "state": "", "country": "KZ", "coord": {"lon": 77.14444, "lat": 43.357498}}, {"id": 1526522, "name": "Prigorodnoye", "state": "", "country": "KZ", "coord": {"lon": 75.584381, "lat": 49.69244}}, {"id": 1526547, "name": "Aqzhal", "state": "", "country": "KZ", "coord": {"lon": 74.034721, "lat": 47.764439}}, {"id": 1526573, "name": "Aktogay", "state": "", "country": "KZ", "coord": {"lon": 75.300003, "lat": 48.166672}}, {"id": 1526586, "name": "Aktobe", "state": "", "country": "KZ", "coord": {"lon": 70.400002, "lat": 43.466671}}, {"id": 1526601, "name": "Aktau", "state": "", "country": "KZ", "coord": {"lon": 72.833328, "lat": 48.033329}}, {"id": 1526610, "name": "Aktasty", "state": "", "country": "KZ", "coord": {"lon": 72.205833, "lat": 50.74778}}, {"id": 1526619, "name": "Aktas", "state": "", "country": "KZ", "coord": {"lon": 72.960831, "lat": 49.778889}}, {"id": 1526636, "name": "Aksu-Ayuly", "state": "", "country": "KZ", "coord": {"lon": 73.672218, "lat": 48.766392}}, {"id": 1526648, "name": "Aksuat", "state": "", "country": "KZ", "coord": {"lon": 83.699997, "lat": 48.716671}}, {"id": 1526797, "name": "Akkol\u2019", "state": "", "country": "KZ", "coord": {"lon": 69.601112, "lat": 53.2925}}, {"id": 1526887, "name": "Aqbasty", "state": "", "country": "KZ", "coord": {"lon": 60.087776, "lat": 46.265278}}, {"id": 1526900, "name": "Aqbaqay", "state": "", "country": "KZ", "coord": {"lon": 72.783333, "lat": 45}}, {"id": 1526970, "name": "Abay", "state": "", "country": "KZ", "coord": {"lon": 72.853889, "lat": 49.631111}}, {"id": 1526979, "name": "Quva", "state": "", "country": "UZ", "coord": {"lon": 72.072922, "lat": 40.522041}}, {"id": 1527004, "name": "Balykchy", "state": "", "country": "KG", "coord": {"lon": 76.186127, "lat": 42.455681}}, {"id": 1527121, "name": "Tyup", "state": "", "country": "KG", "coord": {"lon": 78.364761, "lat": 42.7276}}, {"id": 1527199, "name": "Tokmok", "state": "", "country": "KG", "coord": {"lon": 75.301582, "lat": 42.841721}}, {"id": 1527232, "name": "Ak-Suu", "state": "", "country": "KG", "coord": {"lon": 78.527023, "lat": 42.499481}}, {"id": 1527260, "name": "Tash-Kumyr", "state": "", "country": "KG", "coord": {"lon": 72.217079, "lat": 41.346119}}, {"id": 1527297, "name": "Talas", "state": "", "country": "KG", "coord": {"lon": 72, "lat": 42.333328}}, {"id": 1527299, "name": "Talas", "state": "", "country": "KG", "coord": {"lon": 72.241943, "lat": 42.522221}}, {"id": 1527317, "name": "Suzak", "state": "", "country": "KG", "coord": {"lon": 72.904823, "lat": 40.898201}}, {"id": 1527338, "name": "Chuy", "state": "", "country": "KG", "coord": {"lon": 75.282333, "lat": 42.819729}}, {"id": 1527351, "name": "Sosnovka", "state": "", "country": "KG", "coord": {"lon": 73.905724, "lat": 42.63699}}, {"id": 1527360, "name": "Sokuluk", "state": "", "country": "KG", "coord": {"lon": 74.302567, "lat": 42.854012}}, {"id": 1527475, "name": "Kara-Chungkur", "state": "", "country": "KG", "coord": {"lon": 78.69455, "lat": 42.75491}}, {"id": 1527496, "name": "Pokrovka", "state": "", "country": "KG", "coord": {"lon": 71.609818, "lat": 42.736198}}, {"id": 1527497, "name": "Kyzyl-Suu", "state": "", "country": "KG", "coord": {"lon": 78.005577, "lat": 42.3414}}, {"id": 1527513, "name": "Uzgen", "state": "", "country": "KG", "coord": {"lon": 73.300682, "lat": 40.769939}}, {"id": 1527534, "name": "Osh", "state": "", "country": "KG", "coord": {"lon": 72.808258, "lat": 40.51506}}, {"id": 1527551, "name": "Orlovka", "state": "", "country": "KG", "coord": {"lon": 75.592247, "lat": 42.74707}}, {"id": 1527590, "name": "Naryn oblast", "state": "", "country": "KG", "coord": {"lon": 75.966667, "lat": 41.433331}}, {"id": 1527592, "name": "Naryn", "state": "", "country": "KG", "coord": {"lon": 75.991112, "lat": 41.428661}}, {"id": 1527688, "name": "Bakai-Ata", "state": "", "country": "KG", "coord": {"lon": 71.923599, "lat": 42.492981}}, {"id": 1527689, "name": "Massy", "state": "", "country": "KG", "coord": {"lon": 72.637482, "lat": 41.063999}}, {"id": 1527690, "name": "Lebedinovka", "state": "", "country": "KG", "coord": {"lon": 74.678192, "lat": 42.884541}}, {"id": 1527719, "name": "Kyzyl-Kyya", "state": "", "country": "KG", "coord": {"lon": 72.12793, "lat": 40.25684}}, {"id": 1527725, "name": "Kyzyl-Kyshtak", "state": "", "country": "KG", "coord": {"lon": 72.77684, "lat": 40.538151}}, {"id": 1527747, "name": "Kyrgyz Republic", "state": "", "country": "KG", "coord": {"lon": 75, "lat": 41}}, {"id": 1527902, "name": "Kochkor", "state": "", "country": "KG", "coord": {"lon": 75.756592, "lat": 42.215519}}, {"id": 1527919, "name": "Kyzyl-Adyr", "state": "", "country": "KG", "coord": {"lon": 71.589104, "lat": 42.619808}}, {"id": 1528005, "name": "Kazarman", "state": "", "country": "KG", "coord": {"lon": 74.028282, "lat": 41.404518}}, {"id": 1528052, "name": "Kerben", "state": "", "country": "KG", "coord": {"lon": 71.758263, "lat": 41.493992}}, {"id": 1528053, "name": "Karavan", "state": "", "country": "KG", "coord": {"lon": 72.186272, "lat": 40.295132}}, {"id": 1528091, "name": "Kara Suu", "state": "", "country": "KG", "coord": {"lon": 72.866661, "lat": 40.704601}}, {"id": 1528121, "name": "Karakol", "state": "", "country": "KG", "coord": {"lon": 78.393623, "lat": 42.490681}}, {"id": 1528182, "name": "Kara-Balta", "state": "", "country": "KG", "coord": {"lon": 73.848129, "lat": 42.814232}}, {"id": 1528190, "name": "Kanysh-Kyya", "state": "", "country": "KG", "coord": {"lon": 71.091812, "lat": 41.765362}}, {"id": 1528193, "name": "Kant", "state": "", "country": "KG", "coord": {"lon": 74.850769, "lat": 42.89106}}, {"id": 1528211, "name": "Kalininskoye", "state": "", "country": "KG", "coord": {"lon": 73.855659, "lat": 42.829021}}, {"id": 1528234, "name": "Kaindy", "state": "", "country": "KG", "coord": {"lon": 73.67585, "lat": 42.824692}}, {"id": 1528241, "name": "Kadzhi-Say", "state": "", "country": "KG", "coord": {"lon": 77.178482, "lat": 42.141071}}, {"id": 1528249, "name": "Jalal-Abad", "state": "", "country": "KG", "coord": {"lon": 73, "lat": 40.933331}}, {"id": 1528252, "name": "Ivanovka", "state": "", "country": "KG", "coord": {"lon": 75.084999, "lat": 42.887779}}, {"id": 1528253, "name": "Ivanovo-Alekseyevka", "state": "", "country": "KG", "coord": {"lon": 72.209038, "lat": 42.547619}}, {"id": 1528260, "name": "Issyk-Kul Region", "state": "", "country": "KG", "coord": {"lon": 78, "lat": 42}}, {"id": 1528320, "name": "Gul\u2019cha", "state": "", "country": "KG", "coord": {"lon": 73.444183, "lat": 40.313801}}, {"id": 1528334, "name": "Gorod Bishkek", "state": "", "country": "KG", "coord": {"lon": 74.600258, "lat": 42.895859}}, {"id": 1528336, "name": "Kadamjay", "state": "", "country": "KG", "coord": {"lon": 71.73333, "lat": 40.116669}}, {"id": 1528512, "name": "Cholpon-Ata", "state": "", "country": "KG", "coord": {"lon": 77.082253, "lat": 42.649441}}, {"id": 1528566, "name": "Chayek", "state": "", "country": "KG", "coord": {"lon": 74.516991, "lat": 41.927681}}, {"id": 1528606, "name": "Kemin", "state": "", "country": "KG", "coord": {"lon": 75.689171, "lat": 42.78458}}, {"id": 1528646, "name": "Bosteri", "state": "", "country": "KG", "coord": {"lon": 77.185883, "lat": 42.660061}}, {"id": 1528666, "name": "Bokombayevskoye", "state": "", "country": "KG", "coord": {"lon": 76.993317, "lat": 42.11768}}, {"id": 1528675, "name": "Bishkek", "state": "", "country": "KG", "coord": {"lon": 74.589996, "lat": 42.869999}}, {"id": 1528702, "name": "Belovodskoye", "state": "", "country": "KG", "coord": {"lon": 74.108299, "lat": 42.829441}}, {"id": 1528717, "name": "Bazar-Korgon", "state": "", "country": "KG", "coord": {"lon": 72.745857, "lat": 41.037601}}, {"id": 1528735, "name": "Batken", "state": "", "country": "KG", "coord": {"lon": 70.819389, "lat": 40.062592}}, {"id": 1528766, "name": "Baetovo", "state": "", "country": "KG", "coord": {"lon": 74.956978, "lat": 41.266682}}, {"id": 1528796, "name": "At-Bashi", "state": "", "country": "KG", "coord": {"lon": 75.810577, "lat": 41.17017}}, {"id": 1528831, "name": "Aravan", "state": "", "country": "KG", "coord": {"lon": 72.499603, "lat": 40.516079}}, {"id": 1528856, "name": "Alga", "state": "", "country": "KG", "coord": {"lon": 71.466667, "lat": 40.23333}}, {"id": 1528875, "name": "Ala-Buka", "state": "", "country": "KG", "coord": {"lon": 71.486282, "lat": 41.4105}}, {"id": 1528913, "name": "Ak-S\u00ebok", "state": "", "country": "KG", "coord": {"lon": 74.166672, "lat": 43.01667}}, {"id": 1528919, "name": "Ak-Shor", "state": "", "country": "KG", "coord": {"lon": 72.209633, "lat": 40.44574}}, {"id": 1528947, "name": "Ak-Chiy", "state": "", "country": "KG", "coord": {"lon": 74.844009, "lat": 41.22546}}, {"id": 1528998, "name": "Yumen", "state": "", "country": "CN", "coord": {"lon": 97.199997, "lat": 40.283329}}, {"id": 1529001, "name": "Yuli", "state": "", "country": "CN", "coord": {"lon": 86.257782, "lat": 41.330559}}, {"id": 1529004, "name": "Yuanquan", "state": "", "country": "CN", "coord": {"lon": 95.800003, "lat": 40.5}}, {"id": 1529031, "name": "Yanqi", "state": "", "country": "CN", "coord": {"lon": 86.568329, "lat": 42.058609}}, {"id": 1529047, "name": "Xinjiang Uygur Zizhiqu", "state": "", "country": "CN", "coord": {"lon": 85.456108, "lat": 42.569172}}, {"id": 1529061, "name": "Xiaxihao", "state": "", "country": "CN", "coord": {"lon": 97.166672, "lat": 40.299999}}, {"id": 1529077, "name": "Xahbulak", "state": "", "country": "CN", "coord": {"lon": 83.25, "lat": 42.200001}}, {"id": 1529085, "name": "Wujiaqu", "state": "", "country": "CN", "coord": {"lon": 87.550003, "lat": 44.200001}}, {"id": 1529102, "name": "\u00dcr\u00fcmqi", "state": "", "country": "CN", "coord": {"lon": 87.600456, "lat": 43.800961}}, {"id": 1529103, "name": "Urho", "state": "", "country": "CN", "coord": {"lon": 85.666672, "lat": 46.099998}}, {"id": 1529109, "name": "Tuyao", "state": "", "country": "CN", "coord": {"lon": 92.23333, "lat": 42.033329}}, {"id": 1529114, "name": "Turpan", "state": "", "country": "CN", "coord": {"lon": 89.166672, "lat": 42.933331}}, {"id": 1529144, "name": "Temeke", "state": "", "country": "CN", "coord": {"lon": 89.699997, "lat": 47.23333}}, {"id": 1529171, "name": "Subexi", "state": "", "country": "CN", "coord": {"lon": 78.699997, "lat": 40.5}}, {"id": 1529195, "name": "Shihezi", "state": "", "country": "CN", "coord": {"lon": 86.033333, "lat": 44.299999}}, {"id": 1529363, "name": "Kuqa", "state": "", "country": "CN", "coord": {"lon": 82.936394, "lat": 41.727779}}, {"id": 1529376, "name": "Korla", "state": "", "country": "CN", "coord": {"lon": 86.146942, "lat": 41.75972}}, {"id": 1529484, "name": "Hami", "state": "", "country": "CN", "coord": {"lon": 93.449997, "lat": 42.799999}}, {"id": 1529492, "name": "Guazhou", "state": "", "country": "CN", "coord": {"lon": 95.76667, "lat": 40.400002}}, {"id": 1529511, "name": "Fangcaohu", "state": "", "country": "CN", "coord": {"lon": 86.716667, "lat": 44.533329}}, {"id": 1529512, "name": "Ewirgol", "state": "", "country": "CN", "coord": {"lon": 87.66111, "lat": 42.964439}}, {"id": 1529528, "name": "Dushanzi", "state": "", "country": "CN", "coord": {"lon": 84.849998, "lat": 44.333328}}, {"id": 1529531, "name": "Dunhuang", "state": "", "country": "CN", "coord": {"lon": 94.683327, "lat": 40.166672}}, {"id": 1529569, "name": "Changji", "state": "", "country": "CN", "coord": {"lon": 87.316673, "lat": 44.01667}}, {"id": 1529595, "name": "Beishanyanchi", "state": "", "country": "CN", "coord": {"lon": 91.23333, "lat": 44.76667}}, {"id": 1529617, "name": "Banfanggou", "state": "", "country": "CN", "coord": {"lon": 87.400002, "lat": 43.5}}, {"id": 1529625, "name": "Baikouquan", "state": "", "country": "CN", "coord": {"lon": 85.449997, "lat": 45.966671}}, {"id": 1529626, "name": "Baijiantan", "state": "", "country": "CN", "coord": {"lon": 85.183327, "lat": 45.633331}}, {"id": 1529634, "name": "Awat", "state": "", "country": "CN", "coord": {"lon": 80.404167, "lat": 40.584438}}, {"id": 1529641, "name": "Aral", "state": "", "country": "CN", "coord": {"lon": 81.263611, "lat": 40.51556}}, {"id": 1529651, "name": "Altay", "state": "", "country": "CN", "coord": {"lon": 88.116669, "lat": 47.866669}}, {"id": 1529660, "name": "Aksu", "state": "", "country": "CN", "coord": {"lon": 80.264442, "lat": 41.123058}}, {"id": 1529724, "name": "Shalq\u012bya", "state": "", "country": "KZ", "coord": {"lon": 67.332222, "lat": 43.979439}}, {"id": 1529778, "name": "Jalal-Abad oblast", "state": "", "country": "KG", "coord": {"lon": 72.5, "lat": 41.5}}, {"id": 1531211, "name": "Novaya Lebyazhka", "state": "", "country": "RU", "coord": {"lon": 68.620277, "lat": 55.255001}}, {"id": 1532249, "name": "Birlestik", "state": "", "country": "KZ", "coord": {"lon": 68.354172, "lat": 53.582779}}, {"id": 1532301, "name": "Anningqu", "state": "", "country": "CN", "coord": {"lon": 87.533333, "lat": 43.98333}}, {"id": 1532302, "name": "Diwopu", "state": "", "country": "CN", "coord": {"lon": 87.48333, "lat": 43.883331}}, {"id": 1532362, "name": "Ergong", "state": "", "country": "CN", "coord": {"lon": 87.566673, "lat": 43.849998}}, {"id": 1532368, "name": "Tiechanggou", "state": "", "country": "CN", "coord": {"lon": 87.783333, "lat": 43.916672}}, {"id": 1532378, "name": "Lucaogou", "state": "", "country": "CN", "coord": {"lon": 87.783333, "lat": 43.866669}}, {"id": 1532612, "name": "Naydorf", "state": "", "country": "KZ", "coord": {"lon": 72.26667, "lat": 54.299999}}, {"id": 1532954, "name": "Pobeda", "state": "", "country": "KZ", "coord": {"lon": 75.260559, "lat": 53.48333}}, {"id": 1533289, "name": "Zhangaqurylys", "state": "", "country": "KZ", "coord": {"lon": 77.130562, "lat": 53.551392}}, {"id": 1534162, "name": "Altay", "state": "", "country": "KZ", "coord": {"lon": 84.609169, "lat": 48.83083}}, {"id": 1534565, "name": "Maleyevsk", "state": "", "country": "KZ", "coord": {"lon": 84.286987, "lat": 49.811779}}, {"id": 1535059, "name": "Belk\u00f6l", "state": "", "country": "KZ", "coord": {"lon": 65.587502, "lat": 44.81028}}, {"id": 1535379, "name": "Novoishimskiy", "state": "", "country": "KZ", "coord": {"lon": 66.76944, "lat": 53.198059}}, {"id": 1535595, "name": "Enbekbirlik", "state": "", "country": "KZ", "coord": {"lon": 69.35556, "lat": 53.054169}}, {"id": 1535785, "name": "Dostyk", "state": "", "country": "KZ", "coord": {"lon": 76.650833, "lat": 52.781109}}, {"id": 1536134, "name": "Elita", "state": "", "country": "RU", "coord": {"lon": 92.576111, "lat": 56.084171}}, {"id": 1536289, "name": "Snezhinsk", "state": "", "country": "RU", "coord": {"lon": 60.731392, "lat": 56.084999}}, {"id": 1536648, "name": "Istok", "state": "", "country": "RU", "coord": {"lon": 60.778889, "lat": 56.790859}}, {"id": 1536757, "name": "Priob\u2019ye", "state": "", "country": "RU", "coord": {"lon": 65.59639, "lat": 62.520561}}, {"id": 1536836, "name": "Koshkurgan", "state": "", "country": "UZ", "coord": {"lon": 69.278328, "lat": 41.245831}}, {"id": 1536935, "name": "Chinar", "state": "", "country": "KZ", "coord": {"lon": 69.798889, "lat": 41.835831}}, {"id": 1537162, "name": "Almaty Oblysy", "state": "", "country": "KZ", "coord": {"lon": 78, "lat": 44.5}}, {"id": 1537253, "name": "Shash\u016bbay", "state": "", "country": "KZ", "coord": {"lon": 75.040283, "lat": 46.81694}}, {"id": 1537749, "name": "Il\u2019ichevo", "state": "", "country": "RU", "coord": {"lon": 91.840279, "lat": 53.278889}}, {"id": 1537856, "name": "Shyghanaq", "state": "", "country": "KZ", "coord": {"lon": 70.001938, "lat": 44.830559}}, {"id": 1537909, "name": "Shubark\u00f6l", "state": "", "country": "KZ", "coord": {"lon": 68.80722, "lat": 48.882221}}, {"id": 1537911, "name": "Almas", "state": "", "country": "KZ", "coord": {"lon": 69.799171, "lat": 50.363892}}, {"id": 1537939, "name": "Stepnogorsk", "state": "", "country": "KZ", "coord": {"lon": 71.88694, "lat": 52.354439}}, {"id": 1537947, "name": "Zavodskoy", "state": "", "country": "KZ", "coord": {"lon": 72.01889, "lat": 52.477501}}, {"id": 1537980, "name": "\u00dclken", "state": "", "country": "KZ", "coord": {"lon": 73.978607, "lat": 45.211941}}, {"id": 1538000, "name": "K\u00f6kzh\u012bde", "state": "", "country": "KZ", "coord": {"lon": 78.818062, "lat": 46.228329}}, {"id": 1538012, "name": "Altayskiy", "state": "", "country": "KZ", "coord": {"lon": 82.360977, "lat": 50.244888}}, {"id": 1538221, "name": "Beruniy Shahri", "state": "", "country": "UZ", "coord": {"lon": 60.755009, "lat": 41.699039}}, {"id": 1538222, "name": "Tortkol Shahri", "state": "", "country": "UZ", "coord": {"lon": 61.001801, "lat": 41.560551}}, {"id": 1538223, "name": "Boston Shahri", "state": "", "country": "UZ", "coord": {"lon": 60.947441, "lat": 41.846069}}, {"id": 1538224, "name": "Mangit Shahri", "state": "", "country": "UZ", "coord": {"lon": 60.062759, "lat": 42.12215}}, {"id": 1538229, "name": "Navoiy Shahri", "state": "", "country": "UZ", "coord": {"lon": 65.371201, "lat": 40.092941}}, {"id": 1538230, "name": "Zarafshon Shahri", "state": "", "country": "UZ", "coord": {"lon": 64.207497, "lat": 41.57917}}, {"id": 1538231, "name": "Uchquduq Shahri", "state": "", "country": "UZ", "coord": {"lon": 63.552212, "lat": 42.150009}}, {"id": 1538232, "name": "Karmana Shahri", "state": "", "country": "UZ", "coord": {"lon": 65.37545, "lat": 40.137821}}, {"id": 1538233, "name": "Qiziltepa Shahri", "state": "", "country": "UZ", "coord": {"lon": 64.82885, "lat": 40.025398}}, {"id": 1538234, "name": "Nurota Shahri", "state": "", "country": "UZ", "coord": {"lon": 65.679466, "lat": 40.567619}}, {"id": 1538262, "name": "Yangiy\u016dl Shahri", "state": "", "country": "UZ", "coord": {"lon": 69.055, "lat": 41.113331}}, {"id": 1538273, "name": "Namangan Shahri", "state": "", "country": "UZ", "coord": {"lon": 71.660919, "lat": 40.994259}}, {"id": 1538274, "name": "Kosonsoy Shahri", "state": "", "country": "UZ", "coord": {"lon": 71.542389, "lat": 41.263271}}, {"id": 1538276, "name": "Chortoq Shahri", "state": "", "country": "UZ", "coord": {"lon": 71.817719, "lat": 41.07703}}, {"id": 1538278, "name": "Haqqulobod Shahri", "state": "", "country": "UZ", "coord": {"lon": 72.120583, "lat": 40.91634}}, {"id": 1538279, "name": "Pop Shahri", "state": "", "country": "UZ", "coord": {"lon": 71.102203, "lat": 40.876419}}, {"id": 1538280, "name": "Turagurghon Shahri", "state": "", "country": "UZ", "coord": {"lon": 71.510559, "lat": 41.003342}}, {"id": 1538308, "name": "Horgo", "state": "", "country": "MN", "coord": {"lon": 99.875557, "lat": 48.16}}, {"id": 1538311, "name": "Buston", "state": "", "country": "TJ", "coord": {"lon": 69.694809, "lat": 40.234169}}, {"id": 1538316, "name": "Baikonur", "state": "", "country": "KZ", "coord": {"lon": 63.333328, "lat": 45.666672}}, {"id": 1538317, "name": "Nur-Sultan", "state": "", "country": "KZ", "coord": {"lon": 71.5, "lat": 51.166672}}, {"id": 1538375, "name": "Dadamtu", "state": "", "country": "CN", "coord": {"lon": 81.314171, "lat": 43.980282}}, {"id": 1538459, "name": "Changshanzi", "state": "", "country": "CN", "coord": {"lon": 87.585281, "lat": 44.060558}}, {"id": 1538460, "name": "Sandaoba", "state": "", "country": "CN", "coord": {"lon": 87.616943, "lat": 44.110001}}, {"id": 1538461, "name": "Yangmaogong", "state": "", "country": "CN", "coord": {"lon": 87.577217, "lat": 44.136669}}, {"id": 1538472, "name": "Laotai", "state": "", "country": "CN", "coord": {"lon": 88.823059, "lat": 44.083611}}, {"id": 1538518, "name": "Huangtian Nongchang", "state": "", "country": "CN", "coord": {"lon": 93.749443, "lat": 42.784721}}, {"id": 1538634, "name": "Ozersk", "state": "", "country": "RU", "coord": {"lon": 60.702782, "lat": 55.755562}}, {"id": 1538635, "name": "Zheleznogorsk", "state": "", "country": "RU", "coord": {"lon": 93.531937, "lat": 56.25111}}, {"id": 1538636, "name": "Novoural\u2019sk", "state": "", "country": "RU", "coord": {"lon": 60.083889, "lat": 57.243889}}, {"id": 1538637, "name": "Seversk", "state": "", "country": "RU", "coord": {"lon": 84.886391, "lat": 56.600559}}, {"id": 1538638, "name": "Lokomotivnyy", "state": "", "country": "RU", "coord": {"lon": 60.568401, "lat": 53.011799}}, {"id": 1538639, "name": "Solnechnyy", "state": "", "country": "RU", "coord": {"lon": 92.925278, "lat": 56.115829}}, {"id": 1538640, "name": "Svobodnyy", "state": "", "country": "RU", "coord": {"lon": 60.396111, "lat": 58.039719}}, {"id": 1538641, "name": "Kedrovyy", "state": "", "country": "RU", "coord": {"lon": 91.816673, "lat": 56.166672}}, {"id": 1538642, "name": "Sibirskiy", "state": "", "country": "RU", "coord": {"lon": 83.757698, "lat": 53.577702}}, {"id": 1538648, "name": "Toktogul", "state": "", "country": "KG", "coord": {"lon": 72.940201, "lat": 41.870789}}, {"id": 1538652, "name": "Chuyskaya Oblast\u2019", "state": "", "country": "KG", "coord": {"lon": 74.5, "lat": 42.416672}}, {"id": 1538730, "name": "Omskiy", "state": "", "country": "RU", "coord": {"lon": 91.907219, "lat": 57.635559}}, {"id": 1538802, "name": "Pos\u00eblok Tavatuy", "state": "", "country": "RU", "coord": {"lon": 60.13361, "lat": 57.070278}}, {"id": 1539045, "name": "Malinovskiy", "state": "", "country": "RU", "coord": {"lon": 62.839722, "lat": 61.195278}}, {"id": 1539186, "name": "Novoroshchino", "state": "", "country": "RU", "coord": {"lon": 65.359543, "lat": 57.179729}}, {"id": 1539208, "name": "Purovsk", "state": "", "country": "RU", "coord": {"lon": 77.672783, "lat": 64.981392}}, {"id": 1539209, "name": "Gubkinskiy", "state": "", "country": "RU", "coord": {"lon": 76.502609, "lat": 64.433998}}, {"id": 1539210, "name": "Purpe", "state": "", "country": "RU", "coord": {"lon": 76.68972, "lat": 64.480278}}, {"id": 1539219, "name": "Prigorodnyy", "state": "", "country": "KZ", "coord": {"lon": 71.443329, "lat": 51.04583}}, {"id": 1539232, "name": "Pos\u00eblok Aeroporta", "state": "", "country": "RU", "coord": {"lon": 87.33667, "lat": 69.327217}}, {"id": 1539912, "name": "Koktobe", "state": "", "country": "KZ", "coord": {"lon": 76.976387, "lat": 43.25}}, {"id": 1539930, "name": "Bayserke", "state": "", "country": "KZ", "coord": {"lon": 77.046669, "lat": 43.48056}}, {"id": 1539940, "name": "Daulet", "state": "", "country": "KZ", "coord": {"lon": 77.102501, "lat": 43.619171}}, {"id": 1539946, "name": "Zhetygen", "state": "", "country": "KZ", "coord": {"lon": 77.128059, "lat": 43.691391}}, {"id": 1539952, "name": "Zhanaarka", "state": "", "country": "KZ", "coord": {"lon": 77.022217, "lat": 43.613331}}, {"id": 1539962, "name": "Karasu", "state": "", "country": "KZ", "coord": {"lon": 76.916389, "lat": 43.341946}}, {"id": 1539963, "name": "Spetsgorodok", "state": "", "country": "KZ", "coord": {"lon": 76.885277, "lat": 43.34}}, {"id": 1539964, "name": "Aksengir", "state": "", "country": "KZ", "coord": {"lon": 76.826111, "lat": 43.353333}}, {"id": 1539965, "name": "Rakhat", "state": "", "country": "KZ", "coord": {"lon": 76.815834, "lat": 43.340557}}, {"id": 1539966, "name": "Aksengir", "state": "", "country": "KZ", "coord": {"lon": 76.760002, "lat": 43.359165}}, {"id": 1540356, "name": "Raduzhny", "state": "", "country": "RU", "coord": {"lon": 77.474998, "lat": 62.096111}}, {"id": 1540475, "name": "Turtas", "state": "", "country": "RU", "coord": {"lon": 69.1325, "lat": 58.941669}}, {"id": 1540484, "name": "Kedrovyy", "state": "", "country": "RU", "coord": {"lon": 79.515556, "lat": 57.519718}}, {"id": 1540711, "name": "Muravlenko", "state": "", "country": "RU", "coord": {"lon": 74.52301, "lat": 63.789768}}, {"id": 1540852, "name": "Starokamyshinsk", "state": "", "country": "RU", "coord": {"lon": 61.6031, "lat": 55.055401}}, {"id": 1540853, "name": "Timiryazevskiy", "state": "", "country": "RU", "coord": {"lon": 60.762501, "lat": 54.929169}}, {"id": 1540859, "name": "Otegen Batyr", "state": "", "country": "KZ", "coord": {"lon": 77.050003, "lat": 43.333328}}, {"id": 1540882, "name": "Bazhovo", "state": "", "country": "RU", "coord": {"lon": 61.6054, "lat": 55.060398}}, {"id": 1540905, "name": "Roshchino", "state": "", "country": "RU", "coord": {"lon": 61.2635, "lat": 55.309299}}, {"id": 1541359, "name": "Lyantor", "state": "", "country": "RU", "coord": {"lon": 72.155457, "lat": 61.61945}}, {"id": 1541618, "name": "Zaton", "state": "", "country": "RU", "coord": {"lon": 82.859718, "lat": 55.032219}}, {"id": 1542143, "name": "Kargapol\u2019ye", "state": "", "country": "RU", "coord": {"lon": 64.216942, "lat": 55.86417}}, {"id": 1543539, "name": "Sadovod", "state": "", "country": "RU", "coord": {"lon": 67.255562, "lat": 55.178612}}, {"id": 1543743, "name": "Chelyuskintsev", "state": "", "country": "RU", "coord": {"lon": 69.625572, "lat": 55.762959}}, {"id": 1544583, "name": "Uyskoye", "state": "", "country": "RU", "coord": {"lon": 60.004719, "lat": 54.377499}}, {"id": 1544584, "name": "Uyskoye", "state": "", "country": "RU", "coord": {"lon": 60.018059, "lat": 54.34528}}, {"id": 1544605, "name": "Kirpichnoye", "state": "", "country": "RU", "coord": {"lon": 60.899761, "lat": 54.335659}}, {"id": 1544606, "name": "Plast", "state": "", "country": "RU", "coord": {"lon": 60.867321, "lat": 54.327229}}, {"id": 1544819, "name": "Rudnik", "state": "", "country": "RU", "coord": {"lon": 61.654701, "lat": 69.7481}}, {"id": 1545297, "name": "Baygazina", "state": "", "country": "RU", "coord": {"lon": 60.7906, "lat": 55.157398}}, {"id": 1545752, "name": "Port Mathurin", "state": "", "country": "MU", "coord": {"lon": 63.416672, "lat": -19.683331}}, {"id": 1546102, "name": "Port-aux-Fran\u00e7ais", "state": "", "country": "TF", "coord": {"lon": 70.216667, "lat": -49.349998}}, {"id": 1546558, "name": "Archipel des Kerguelen", "state": "", "country": "TF", "coord": {"lon": 69.166672, "lat": -49.25}}, {"id": 1546748, "name": "Territory of the French Southern and Antarctic Lands", "state": "", "country": "TF", "coord": {"lon": 67, "lat": -43}}, {"id": 1547376, "name": "Territory of Cocos (Keeling) Islands", "state": "", "country": "CC", "coord": {"lon": 96.873322, "lat": -12.1642}}, {"id": 1547449, "name": "Rodrigues", "state": "", "country": "MU", "coord": {"lon": 63.416672, "lat": -19.700001}}, {"id": 1547511, "name": "Plaine Corail", "state": "", "country": "MU", "coord": {"lon": 63.35833, "lat": -19.758329}}, {"id": 1547549, "name": "Hechen", "state": "", "country": "CN", "coord": {"lon": 120.236778, "lat": 33.00576}}, {"id": 1547557, "name": "Xiaohai", "state": "", "country": "CN", "coord": {"lon": 120.47596, "lat": 33.02956}}, {"id": 1547574, "name": "Guanyinsi", "state": "", "country": "CN", "coord": {"lon": 120.179893, "lat": 33.087742}}, {"id": 1547621, "name": "Xindu", "state": "", "country": "CN", "coord": {"lon": 120.133331, "lat": 33.341671}}, {"id": 1547724, "name": "Gaojiazhuang", "state": "", "country": "CN", "coord": {"lon": 119.983002, "lat": 33.04459}}, {"id": 1548357, "name": "Baizhang", "state": "", "country": "CN", "coord": {"lon": 119.970551, "lat": 31.922541}}, {"id": 1548396, "name": "Changdai", "state": "", "country": "CN", "coord": {"lon": 120.216667, "lat": 32.03611}}, {"id": 1548397, "name": "Shengci", "state": "", "country": "CN", "coord": {"lon": 120.163887, "lat": 32.03611}}, {"id": 1548399, "name": "Hongguang", "state": "", "country": "CN", "coord": {"lon": 120.099998, "lat": 32.063889}}, {"id": 1548404, "name": "Tuanjie", "state": "", "country": "CN", "coord": {"lon": 120.277359, "lat": 32.085999}}, {"id": 1548422, "name": "Jiang\u2019an", "state": "", "country": "CN", "coord": {"lon": 120.405563, "lat": 32.169441}}, {"id": 1548423, "name": "Shanhu", "state": "", "country": "CN", "coord": {"lon": 120.321808, "lat": 32.178028}}, {"id": 1548424, "name": "Nansha", "state": "", "country": "CN", "coord": {"lon": 120.219971, "lat": 32.17284}}, {"id": 1548433, "name": "Changqing", "state": "", "country": "CN", "coord": {"lon": 120.455559, "lat": 32.261108}}, {"id": 1548435, "name": "Gaoming", "state": "", "country": "CN", "coord": {"lon": 120.377777, "lat": 32.255562}}, {"id": 1548444, "name": "Taoyuan", "state": "", "country": "CN", "coord": {"lon": 120.616669, "lat": 32.297218}}, {"id": 1548449, "name": "Liuchen", "state": "", "country": "CN", "coord": {"lon": 120.150002, "lat": 32.26667}}, {"id": 1548459, "name": "Hengduo", "state": "", "country": "CN", "coord": {"lon": 120.280296, "lat": 32.319439}}, {"id": 1548471, "name": "Yuanzhu", "state": "", "country": "CN", "coord": {"lon": 120.174843, "lat": 32.32415}}, {"id": 1548480, "name": "Guba", "state": "", "country": "CN", "coord": {"lon": 120.951576, "lat": 32.404961}}, {"id": 1548494, "name": "Yuanzhuang", "state": "", "country": "CN", "coord": {"lon": 120.772881, "lat": 32.44561}}, {"id": 1548495, "name": "Xue\u2019an", "state": "", "country": "CN", "coord": {"lon": 120.683327, "lat": 32.46389}}, {"id": 1548509, "name": "Liangxu", "state": "", "country": "CN", "coord": {"lon": 120.116669, "lat": 32.46944}}, {"id": 1548514, "name": "Xichang", "state": "", "country": "CN", "coord": {"lon": 120.591667, "lat": 32.525002}}, {"id": 1548531, "name": "Shengao", "state": "", "country": "CN", "coord": {"lon": 120.133331, "lat": 32.586109}}, {"id": 1548535, "name": "Dagong", "state": "", "country": "CN", "coord": {"lon": 120.522217, "lat": 32.625}}, {"id": 1548548, "name": "Yuduo", "state": "", "country": "CN", "coord": {"lon": 120.012833, "lat": 32.64077}}, {"id": 1548554, "name": "Baidian", "state": "", "country": "CN", "coord": {"lon": 120.263893, "lat": 32.67778}}, {"id": 1548555, "name": "Xingtai", "state": "", "country": "CN", "coord": {"lon": 120.074997, "lat": 32.686111}}, {"id": 1548558, "name": "Fudong", "state": "", "country": "CN", "coord": {"lon": 120.558327, "lat": 32.71944}}, {"id": 1548565, "name": "Tainan", "state": "", "country": "CN", "coord": {"lon": 120.26944, "lat": 32.762051}}, {"id": 1548566, "name": "Zhaowanzhuang", "state": "", "country": "CN", "coord": {"lon": 120.166672, "lat": 32.744862}}, {"id": 1548593, "name": "Taozhuang", "state": "", "country": "CN", "coord": {"lon": 120.138893, "lat": 32.866669}}, {"id": 1548609, "name": "Daiyao", "state": "", "country": "CN", "coord": {"lon": 120.214256, "lat": 32.929131}}, {"id": 1548681, "name": "Minggou", "state": "", "country": "CN", "coord": {"lon": 119.907501, "lat": 32.249168}}, {"id": 1548728, "name": "Yexu", "state": "", "country": "CN", "coord": {"lon": 119.927979, "lat": 32.397331}}, {"id": 1548757, "name": "Jingtailu", "state": "", "country": "CN", "coord": {"lon": 119.972221, "lat": 32.505562}}, {"id": 1548797, "name": "Tianshan", "state": "", "country": "CN", "coord": {"lon": 119.243607, "lat": 32.632778}}, {"id": 1548817, "name": "Guoji", "state": "", "country": "CN", "coord": {"lon": 119.330559, "lat": 32.702782}}, {"id": 1548831, "name": "Hanliu", "state": "", "country": "CN", "coord": {"lon": 119.672218, "lat": 32.76944}}, {"id": 1548832, "name": "Xiejia", "state": "", "country": "CN", "coord": {"lon": 119.596939, "lat": 32.75972}}, {"id": 1548878, "name": "Dongbaozhuang", "state": "", "country": "CN", "coord": {"lon": 119.920471, "lat": 32.983761}}, {"id": 1548884, "name": "Zhoushan", "state": "", "country": "CN", "coord": {"lon": 119.513893, "lat": 32.966671}}, {"id": 1548909, "name": "Donghu", "state": "", "country": "CN", "coord": {"lon": 118.862503, "lat": 31.725}}, {"id": 1548916, "name": "Zhougang", "state": "", "country": "CN", "coord": {"lon": 118.960732, "lat": 31.79702}}, {"id": 1548958, "name": "Xiaoshi", "state": "", "country": "CN", "coord": {"lon": 118.781479, "lat": 32.096531}}, {"id": 1549035, "name": "Wangdian", "state": "", "country": "CN", "coord": {"lon": 118.587784, "lat": 32.790279}}, {"id": 1549042, "name": "Guiwu", "state": "", "country": "CN", "coord": {"lon": 118.508331, "lat": 32.866669}}, {"id": 1549060, "name": "Gusang", "state": "", "country": "CN", "coord": {"lon": 118.508331, "lat": 32.95417}}, {"id": 1549542, "name": "Zhudun", "state": "", "country": "CN", "coord": {"lon": 118.58889, "lat": 34.561111}}, {"id": 1549904, "name": "Huayuan", "state": "", "country": "CN", "coord": {"lon": 119.449997, "lat": 34.075001}}, {"id": 1549913, "name": "Tangjian", "state": "", "country": "CN", "coord": {"lon": 119.004173, "lat": 34.133331}}, {"id": 1549929, "name": "Changmao", "state": "", "country": "CN", "coord": {"lon": 119.574997, "lat": 34.216671}}, {"id": 1549939, "name": "Mengxingzhuang", "state": "", "country": "CN", "coord": {"lon": 119.216667, "lat": 34.174999}}, {"id": 1549961, "name": "Tuhe", "state": "", "country": "CN", "coord": {"lon": 119.550003, "lat": 34.333328}}, {"id": 1549987, "name": "Baixian", "state": "", "country": "CN", "coord": {"lon": 119.333328, "lat": 34.325001}}, {"id": 1549995, "name": "Muxu", "state": "", "country": "CN", "coord": {"lon": 119.112503, "lat": 34.39167}}, {"id": 1549997, "name": "Gaoxu", "state": "", "country": "CN", "coord": {"lon": 119.008331, "lat": 34.333328}}, {"id": 1549999, "name": "Duigougang", "state": "", "country": "CN", "coord": {"lon": 119.775002, "lat": 34.416672}}, {"id": 1550003, "name": "Xufeng", "state": "", "country": "CN", "coord": {"lon": 119.550003, "lat": 34.450001}}, {"id": 1550032, "name": "Gaogongdao", "state": "", "country": "CN", "coord": {"lon": 119.474998, "lat": 34.695831}}, {"id": 1550035, "name": "Zhongyun", "state": "", "country": "CN", "coord": {"lon": 119.408333, "lat": 34.650002}}, {"id": 1550037, "name": "Yunshan", "state": "", "country": "CN", "coord": {"lon": 119.366669, "lat": 34.700001}}, {"id": 1550038, "name": "Huaguoshan", "state": "", "country": "CN", "coord": {"lon": 119.23333, "lat": 34.64167}}, {"id": 1550044, "name": "Luoyang", "state": "", "country": "CN", "coord": {"lon": 119.107018, "lat": 34.710812}}, {"id": 1550048, "name": "Songzhuang", "state": "", "country": "CN", "coord": {"lon": 119.140244, "lat": 34.783321}}, {"id": 1550084, "name": "Youyupu", "state": "", "country": "CN", "coord": {"lon": 109.137779, "lat": 27.559719}}, {"id": 1550143, "name": "Zhujiachang", "state": "", "country": "CN", "coord": {"lon": 108.938332, "lat": 27.3575}}, {"id": 1550222, "name": "Xujiaba", "state": "", "country": "CN", "coord": {"lon": 108.113609, "lat": 27.88472}}, {"id": 1550289, "name": "Liangfeng", "state": "", "country": "CN", "coord": {"lon": 107.720284, "lat": 27.360279}}, {"id": 1552093, "name": "Sanchahe", "state": "", "country": "CN", "coord": {"lon": 106.428329, "lat": 28.495279}}, {"id": 1552140, "name": "Sihe", "state": "", "country": "CN", "coord": {"lon": 119.258331, "lat": 30.700001}}, {"id": 1552144, "name": "Yuewan", "state": "", "country": "CN", "coord": {"lon": 119.141434, "lat": 30.7547}}, {"id": 1552180, "name": "Sanlidian", "state": "", "country": "CN", "coord": {"lon": 119.400002, "lat": 30.883329}}, {"id": 1552183, "name": "Fengqiao", "state": "", "country": "CN", "coord": {"lon": 119.305901, "lat": 30.84094}}, {"id": 1552224, "name": "Wangxi", "state": "", "country": "CN", "coord": {"lon": 118.972816, "lat": 30.686729}}, {"id": 1552251, "name": "Yishan", "state": "", "country": "CN", "coord": {"lon": 118.816978, "lat": 30.827591}}, {"id": 1552260, "name": "Gaoqiao", "state": "", "country": "CN", "coord": {"lon": 118.573441, "lat": 30.79957}}, {"id": 1552266, "name": "Xiangyang", "state": "", "country": "CN", "coord": {"lon": 118.866783, "lat": 30.895639}}, {"id": 1552269, "name": "Xiadu", "state": "", "country": "CN", "coord": {"lon": 118.777588, "lat": 30.923639}}, {"id": 1552274, "name": "Jinba", "state": "", "country": "CN", "coord": {"lon": 118.669861, "lat": 30.87929}}, {"id": 1552285, "name": "Shuangxi", "state": "", "country": "CN", "coord": {"lon": 118.804543, "lat": 30.958151}}, {"id": 1552286, "name": "Dingdian", "state": "", "country": "CN", "coord": {"lon": 118.861519, "lat": 30.983761}}, {"id": 1552304, "name": "Qinxi", "state": "", "country": "CN", "coord": {"lon": 118.491058, "lat": 30.729429}}, {"id": 1552307, "name": "Taiyuan", "state": "", "country": "CN", "coord": {"lon": 118.400482, "lat": 30.71093}}, {"id": 1552318, "name": "Beigong", "state": "", "country": "CN", "coord": {"lon": 118.199249, "lat": 30.68092}}, {"id": 1552321, "name": "Yandun", "state": "", "country": "CN", "coord": {"lon": 118.15757, "lat": 30.721741}}, {"id": 1552324, "name": "Youhua", "state": "", "country": "CN", "coord": {"lon": 118.006737, "lat": 30.677959}},